2019-04-14 13:32:01.40: SIM {TimeUS : 40216407, Roll : 0.0, Pitch : 0.0, Yaw : 0.0, Alt : 30.1000003815, Lat : 49.28357, Lng : -123.11502, Q1 : 1.0, Q2 : 0.0, Q3 : 0.0, Q4 : 0.0}
2019-04-14 13:32:01.51: SIM {TimeUS : 40335526, Roll : 0.0, Pitch : 0.0, Yaw : 0.0, Alt : 30.1000003815, Lat : 49.28357, Lng : -123.11502, Q1 : 1.0, Q2 : 0.0, Q3 : 0.0, Q4 : 0.0}
2019-04-14 13:32:01.61: SIM {TimeUS : 40435486, Roll : 0.0, Pitch : 0.0, Yaw : 0.0, Alt : 30.1000003815, Lat : 49.28357, Lng : -123.11502, Q1 : 1.0, Q2 : 0.0, Q3 : 0.0, Q4 : 0.0}
2019-04-14 13:32:01.71: SIM {TimeUS : 40535446, Roll : 0.0, Pitch : 0.0, Yaw : 0.0, Alt : 30.1000003815, Lat : 49.28357, Lng : -123.11502, Q1 : 1.0, Q2 : 0.0, Q3 : 0.0, Q4 : 0.0}
2019-04-14 13:32:01.81: SIM {TimeUS : 40635406, Roll : 0.0, Pitch : 0.0, Yaw : 0.0, Alt : 30.1000003815, Lat : 49.28357, Lng : -123.11502, Q1 : 1.0, Q2 : 0.0, Q3 : 0.0, Q4 : 0.0}
2019-04-14 13:32:01.91: SIM {TimeUS : 40735366, Roll : 0.0, Pitch : 0.0, Yaw : 0.0, Alt : 30.1000003815, Lat : 49.28357, Lng : -123.11502, Q1 : 1.0, Q2 : 0.0, Q3 : 0.0, Q4 : 0.0}
2019-04-14 13:32:02.01: SIM {TimeUS : 40835326, Roll : 0.0, Pitch : 0.0, Yaw : 0.0, Alt : 30.1000003815, Lat : 49.28357, Lng : -123.11502, Q1 : 1.0, Q2 : 0.0, Q3 : 0.0, Q4 : 0.0}
2019-04-14 13:32:02.11: SIM {TimeUS : 40935286, Roll : 0.0, Pitch : 0.0, Yaw : 0.0, Alt : 30.1000003815, Lat : 49.28357, Lng : -123.11502, Q1 : 1.0, Q2 : 0.0, Q3 : 0.0, Q4 : 0.0}
2019-04-14 13:32:02.21: SIM {TimeUS : 41035246, Roll : 0.0, Pitch : 0.0, Yaw : 0.0, Alt : 30.1000003815, Lat : 49.28357, Lng : -123.11502, Q1 : 1.0, Q2 : 0.0, Q3 : 0.0, Q4 : 0.0}
2019-04-14 13:32:02.31: SIM {TimeUS : 41135206, Roll : 0.0, Pitch : 0.0, Yaw : 0.0, Alt : 30.1000003815, Lat : 49.28357, Lng : -123.11502, Q1 : 1.0, Q2 : 0.0, Q3 : 0.0, Q4 : 0.0}
2019-04-14 13:32:02.41: SIM {TimeUS : 41235166, Roll : 0.0, Pitch : 0.0, Yaw : 0.0, Alt : 30.1000003815, Lat : 49.28357, Lng : -123.11502, Q1 : 1.0, Q2 : 0.0, Q3 : 0.0, Q4 : 0.0}
2019-04-14 13:32:02.51: SIM {TimeUS : 41335126, Roll : 0.0, Pitch : 0.0, Yaw : 0.0, Alt : 30.1000003815, Lat : 49.28357, Lng : -123.11502, Q1 : 1.0, Q2 : 0.0, Q3 : 0.0, Q4 : 0.0}
2019-04-14 13:32:02.61: SIM {TimeUS : 41435086, Roll : 0.0, Pitch : 0.0, Yaw : 0.0, Alt : 30.1000003815, Lat : 49.28357, Lng : -123.11502, Q1 : 1.0, Q2 : 0.0, Q3 : 0.0, Q4 : 0.0}
2019-04-14 13:32:02.71: SIM {TimeUS : 41535046, Roll : 0.0, Pitch : 0.0, Yaw : 0.0, Alt : 30.1000003815, Lat : 49.28357, Lng : -123.11502, Q1 : 1.0, Q2 : 0.0, Q3 : 0.0, Q4 : 0.0}
2019-04-14 13:32:02.81: SIM {TimeUS : 41635006, Roll : 0.0, Pitch : 0.0, Yaw : 0.0, Alt : 30.1000003815, Lat : 49.28357, Lng : -123.11502, Q1 : 1.0, Q2 : 0.0, Q3 : 0.0, Q4 : 0.0}
2019-04-14 13:32:02.91: SIM {TimeUS : 41734966, Roll : 0.0, Pitch : 0.0, Yaw : 0.0, Alt : 30.1000003815, Lat : 49.28357, Lng : -123.11502, Q1 : 1.0, Q2 : 0.0, Q3 : 0.0, Q4 : 0.0}
2019-04-14 13:32:03.01: SIM {TimeUS : 41834926, Roll : 0.0, Pitch : 0.0, Yaw : 0.0, Alt : 30.1000003815, Lat : 49.28357, Lng : -123.11502, Q1 : 1.0, Q2 : 0.0, Q3 : 0.0, Q4 : 0.0}
2019-04-14 13:32:03.11: SIM {TimeUS : 41934886, Roll : 0.0, Pitch : 0.0, Yaw : 0.0, Alt : 30.1000003815, Lat : 49.28357, Lng : -123.11502, Q1 : 1.0, Q2 : 0.0, Q3 : 0.0, Q4 : 0.0}
2019-04-14 13:32:03.21: SIM {TimeUS : 42034846, Roll : 0.0, Pitch : 0.0, Yaw : 0.0, Alt : 30.1000003815, Lat : 49.28357, Lng : -123.11502, Q1 : 1.0, Q2 : 0.0, Q3 : 0.0, Q4 : 0.0}
2019-04-14 13:32:03.31: SIM {TimeUS : 42134806, Roll : 0.0, Pitch : 0.0, Yaw : 0.0, Alt : 30.1000003815, Lat : 49.28357, Lng : -123.11502, Q1 : 1.0, Q2 : 0.0, Q3 : 0.0, Q4 : 0.0}
2019-04-14 13:32:03.41: SIM {TimeUS : 42234766, Roll : 0.0, Pitch : 0.0, Yaw : 0.0, Alt : 30.1000003815, Lat : 49.28357, Lng : -123.11502, Q1 : 1.0, Q2 : 0.0, Q3 : 0.0, Q4 : 0.0}
2019-04-14 13:32:03.51: SIM {TimeUS : 42335559, Roll : 0.0, Pitch : 0.0, Yaw : 0.0, Alt : 30.1000003815, Lat : 49.28357, Lng : -123.11502, Q1 : 1.0, Q2 : 0.0, Q3 : 0.0, Q4 : 0.0}
2019-04-14 13:32:03.61: SIM {TimeUS : 42435519, Roll : 0.0, Pitch : 0.0, Yaw : 0.0, Alt : 30.1000003815, Lat : 49.28357, Lng : -123.11502, Q1 : 1.0, Q2 : 0.0, Q3 : 0.0, Q4 : 0.0}
2019-04-14 13:32:03.71: SIM {TimeUS : 42535479, Roll : 0.0, Pitch : 0.0, Yaw : 360.0, Alt : 30.1000003815, Lat : 49.28357, Lng : -123.11502, Q1 : 1.0, Q2 : 0.0, Q3 : 0.0, Q4 : -1.4079991513e-12}
2019-04-14 13:32:03.81: SIM {TimeUS : 42635439, Roll : 0.0, Pitch : 0.0, Yaw : 0.0, Alt : 30.1000003815, Lat : 49.28357, Lng : -123.11502, Q1 : 1.0, Q2 : 0.0, Q3 : 0.0, Q4 : 2.27504577677e-11}
2019-04-14 13:32:03.91: SIM {TimeUS : 42735399, Roll : 0.0, Pitch : 0.0, Yaw : 359.99, Alt : 30.1000003815, Lat : 49.28357, Lng : -123.11502, Q1 : 1.0, Q2 : 0.0, Q3 : 0.0, Q4 : -1.75995936047e-07}
2019-04-14 13:32:04.01: SIM {TimeUS : 42835359, Roll : 0.0, Pitch : 0.0, Yaw : 359.99, Alt : 30.1000003815, Lat : 49.28357, Lng : -123.11502, Q1 : 1.0, Q2 : 0.0, Q3 : 0.0, Q4 : -3.51782688313e-07}
2019-04-14 13:32:04.11: SIM {TimeUS : 42935319, Roll : 0.0, Pitch : 0.0, Yaw : 359.99, Alt : 30.1000003815, Lat : 49.28357, Lng : -123.11502, Q1 : 1.0, Q2 : 0.0, Q3 : 0.0, Q4 : -5.38404719919e-07}
2019-04-14 13:32:04.21: SIM {TimeUS : 43035279, Roll : 0.0, Pitch : 0.0, Yaw : 359.99, Alt : 30.1000003815, Lat : 49.28357, Lng : -123.11502, Q1 : 1.0, Q2 : 0.0, Q3 : 0.0, Q4 : -7.51249217501e-07}
2019-04-14 13:32:04.31: SIM {TimeUS : 43135239, Roll : 0.0, Pitch : 0.0, Yaw : 359.99, Alt : 30.1000003815, Lat : 49.28357, Lng : -123.11502, Q1 : 1.0, Q2 : 0.0, Q3 : 0.0, Q4 : -9.36231970172e-07}
2019-04-14 13:32:04.41: SIM {TimeUS : 43235199, Roll : 0.0, Pitch : 0.0, Yaw : 359.99, Alt : 30.1000003815, Lat : 49.28357, Lng : -123.11502, Q1 : 1.0, Q2 : 0.0, Q3 : 0.0, Q4 : -1.12913130579e-06}
2019-04-14 13:32:04.51: SIM {TimeUS : 43335159, Roll : 0.0, Pitch : 0.0, Yaw : 359.99, Alt : 30.1000003815, Lat : 49.28357, Lng : -123.11502, Q1 : 1.0, Q2 : 0.0, Q3 : 0.0, Q4 : -1.32929483243e-06}
2019-04-14 13:32:04.61: SIM {TimeUS : 43435119, Roll : 0.0, Pitch : 0.0, Yaw : 359.99, Alt : 30.1200008392, Lat : 49.28357, Lng : -123.11502, Q1 : 1.0, Q2 : 0.0, Q3 : 0.0, Q4 : -1.53318626417e-06}
2019-04-14 13:32:04.71: SIM {TimeUS : 43535079, Roll : 0.0, Pitch : 0.0, Yaw : 359.99, Alt : 30.1399993896, Lat : 49.28357, Lng : -123.11502, Q1 : 1.0, Q2 : 0.0, Q3 : 0.0, Q4 : -1.79629853392e-06}
2019-04-14 13:32:04.81: SIM {TimeUS : 43635039, Roll : 0.0, Pitch : 0.0, Yaw : 359.99, Alt : 30.1700000763, Lat : 49.28357, Lng : -123.11502, Q1 : 1.0, Q2 : 0.0, Q3 : 0.0, Q4 : -2.07927655538e-06}
2019-04-14 13:32:04.91: SIM {TimeUS : 43734999, Roll : 0.0, Pitch : 0.0, Yaw : 359.99, Alt : 30.2000007629, Lat : 49.28357, Lng : -123.11502, Q1 : 1.0, Q2 : 0.0, Q3 : 0.0, Q4 : -2.2979422738e-06}
2019-04-14 13:32:05.01: SIM {TimeUS : 43834959, Roll : -0.1, Pitch : -0.08, Yaw : 359.99, Alt : 30.25, Lat : 49.28357, Lng : -123.11502, Q1 : 0.999999284744, Q2 : -0.000945437466726, Q3 : -0.000766454788391, Q4 : -1.19026017273e-05}
2019-04-14 13:32:05.11: SIM {TimeUS : 43934919, Roll : -0.41, Pitch : -0.33, Yaw : 359.99, Alt : 30.3500003815, Lat : 49.28357, Lng : -123.11502, Q1 : 0.999989151955, Q2 : -0.00359678012319, Q3 : -0.00295338407159, Q4 : -4.5986900659e-05}
2019-04-14 13:32:05.21: SIM {TimeUS : 44034879, Roll : -0.69, Pitch : -0.59, Yaw : 359.99, Alt : 30.4899997711, Lat : 49.28357, Lng : -123.11502, Q1 : 0.999968290329, Q2 : -0.00606519496068, Q3 : -0.00515658548102, Q4 : -0.000101391458884}
2019-04-14 13:32:05.31: SIM {TimeUS : 44134839, Roll : -0.83, Pitch : -0.73, Yaw : 359.98, Alt : 30.6499996185, Lat : 49.28357, Lng : -123.11502, Q1 : 0.999952733517, Q2 : -0.00732833798975, Q3 : -0.0063923005946, Q4 : -0.000173976135557}
2019-04-14 13:32:05.41: SIM {TimeUS : 44234799, Roll : -0.83, Pitch : -0.73, Yaw : 359.97, Alt : 30.8099994659, Lat : 49.28357, Lng : -123.11502, Q1 : 0.999953091145, Q2 : -0.00725056044757, Q3 : -0.0064161317423, Q4 : -0.000260154221905}
2019-04-14 13:32:05.51: SIM {TimeUS : 44334759, Roll : -0.69, Pitch : -0.62, Yaw : 359.96, Alt : 30.9599990845, Lat : 49.28357, Lng : -123.1150201, Q1 : 0.999966621399, Q2 : -0.00608728360385, Q3 : -0.00543983234093, Q4 : -0.000345594860846}
2019-04-14 13:32:05.61: SIM {TimeUS : 44435552, Roll : -0.46, Pitch : -0.45, Yaw : 359.95, Alt : 31.1200008392, Lat : 49.2835701, Lng : -123.1150202, Q1 : 0.999983549118, Q2 : -0.00408378895372, Q3 : -0.00400520861149, Q4 : -0.000420978176408}
2019-04-14 13:32:05.71: SIM {TimeUS : 44535512, Roll : -0.23, Pitch : -0.26, Yaw : 359.94, Alt : 31.2800006866, Lat : 49.2835701, Lng : -123.1150203, Q1 : 0.99999499321, Q2 : -0.00206919829361, Q3 : -0.0023465976119, Q4 : -0.000485908996779}
2019-04-14 13:32:05.81: SIM {TimeUS : 44635472, Roll : -0.06, Pitch : -0.09, Yaw : 359.93, Alt : 31.4400005341, Lat : 49.2835702, Lng : -123.1150204, Q1 : 0.999999284744, Q2 : -0.000585225352552, Q3 : -0.000856097612996, Q4 : -0.000537100364454}
2019-04-14 13:32:05.91: SIM {TimeUS : 44735432, Roll : 0.03, Pitch : 0.01, Yaw : 359.93, Alt : 31.6200008392, Lat : 49.2835702, Lng : -123.1150204, Q1 : 0.999999761581, Q2 : 0.000262360990746, Q3 : 0.000133860929054, Q4 : -0.000571162323467}
2019-04-14 13:32:06.01: SIM {TimeUS : 44835392, Roll : 0.06, Pitch : 0.06, Yaw : 359.93, Alt : 31.7999992371, Lat : 49.2835703, Lng : -123.1150205, Q1 : 0.999999523163, Q2 : 0.000556427112315, Q3 : 0.000572845514398, Q4 : -0.000594943878241}
2019-04-14 13:32:06.11: SIM {TimeUS : 44935352, Roll : 0.06, Pitch : 0.06, Yaw : 359.93, Alt : 31.9799995422, Lat : 49.2835703, Lng : -123.1150206, Q1 : 0.999999463558, Q2 : 0.000557138526347, Q3 : 0.000587125949096, Q4 : -0.000606805959251}
2019-04-14 13:32:06.21: SIM {TimeUS : 45035312, Roll : 0.06, Pitch : 0.05, Yaw : 359.93, Alt : 32.1699981689, Lat : 49.2835703, Lng : -123.1150206, Q1 : 0.999999582767, Q2 : 0.000566457980312, Q3 : 0.000440965464804, Q4 : -0.000604196917266}
2019-04-14 13:32:06.31: SIM {TimeUS : 45135272, Roll : 0.07, Pitch : 0.04, Yaw : 359.93, Alt : 32.3600006104, Lat : 49.2835703, Lng : -123.1150207, Q1 : 0.999999523163, Q2 : 0.000698016723618, Q3 : 0.0003706398129, Q4 : -0.00058891903609}
2019-04-14 13:32:06.41: SIM {TimeUS : 45235232, Roll : 0.09, Pitch : 0.05, Yaw : 359.93, Alt : 32.5499992371, Lat : 49.2835703, Lng : -123.1150207, Q1 : 0.999999344349, Q2 : 0.000848833529744, Q3 : 0.000507920922246, Q4 : -0.000557421357371}
2019-04-14 13:32:06.51: SIM {TimeUS : 45335192, Roll : 0.1, Pitch : 0.09, Yaw : 359.94, Alt : 32.75, Lat : 49.2835703, Lng : -123.1150208, Q1 : 0.999999046326, Q2 : 0.000942290236708, Q3 : 0.000820579356514, Q4 : -0.000515502528287}
2019-04-14 13:32:06.61: SIM {TimeUS : 45435152, Roll : 0.11, Pitch : 0.13, Yaw : 359.94, Alt : 32.9500007629, Lat : 49.2835704, Lng : -123.1150208, Q1 : 0.999998748302, Q2 : 0.000970682303887, Q3 : 0.00115348072723, Q4 : -0.000478784175357}
2019-04-14 13:32:06.71: SIM {TimeUS : 45535112, Roll : 0.13, Pitch : 0.17, Yaw : 359.94, Alt : 33.1500015259, Lat : 49.2835704, Lng : -123.1150208, Q1 : 0.999998092651, Q2 : 0.00114569079597, Q3 : 0.00150192098226, Q4 : -0.000458236492705}
2019-04-14 13:32:06.81: SIM {TimeUS : 45635072, Roll : 0.16, Pitch : 0.19, Yaw : 359.94, Alt : 33.3499984741, Lat : 49.2835704, Lng : -123.1150209, Q1 : 0.999997437, Q2 : 0.00141489075031, Q3 : 0.00171633181162, Q4 : -0.000452048174338}
2019-04-14 13:32:06.91: SIM {TimeUS : 45735032, Roll : 0.18, Pitch : 0.2, Yaw : 359.94, Alt : 33.5600013733, Lat : 49.2835704, Lng : -123.1150209, Q1 : 0.999996900558, Q2 : 0.00162002991419, Q3 : 0.00182916305494, Q4 : -0.000452889071312}
2019-04-14 13:32:07.01: SIM {TimeUS : 45834992, Roll : 0.18, Pitch : 0.21, Yaw : 359.94, Alt : 33.7599983215, Lat : 49.2835704, Lng : -123.1150209, Q1 : 0.999996781349, Q2 : 0.00164598599076, Q3 : 0.00185716035776, Q4 : -0.000462231022539}
2019-04-14 13:32:07.11: SIM {TimeUS : 45934952, Roll : 0.17, Pitch : 0.18, Yaw : 359.94, Alt : 33.9700012207, Lat : 49.2835704, Lng : -123.1150209, Q1 : 0.999997377396, Q2 : 0.0015666418476, Q3 : 0.00159898761194, Q4 : -0.000480833085021}
2019-04-14 13:32:07.21: SIM {TimeUS : 46034912, Roll : 0.15, Pitch : 0.13, Yaw : 359.94, Alt : 34.1800003052, Lat : 49.2835704, Lng : -123.1150209, Q1 : 0.999998211861, Q2 : 0.00138096930459, Q3 : 0.00117922096979, Q4 : -0.000492995197419}
2019-04-14 13:32:07.31: SIM {TimeUS : 46134872, Roll : 0.13, Pitch : 0.09, Yaw : 359.94, Alt : 34.3899993896, Lat : 49.2835704, Lng : -123.1150209, Q1 : 0.999998867512, Q2 : 0.0011666972423, Q3 : 0.000810392084531, Q4 : -0.000507205200847}
2019-04-14 13:32:07.41: SIM {TimeUS : 46234832, Roll : 0.11, Pitch : 0.06, Yaw : 359.93, Alt : 34.6100006104, Lat : 49.2835704, Lng : -123.1150209, Q1 : 0.99999922514, Q2 : 0.000966479245108, Q3 : 0.000571283977479, Q4 : -0.000530395598616}
2019-04-14 13:32:07.51: SIM {TimeUS : 46334792, Roll : 0.1, Pitch : 0.06, Yaw : 359.93, Alt : 34.8199996948, Lat : 49.2835704, Lng : -123.1150209, Q1 : 0.999999344349, Q2 : 0.000875829020515, Q3 : 0.000549538177438, Q4 : -0.000563673791476}
2019-04-14 13:32:07.61: SIM {TimeUS : 46434752, Roll : 0.09, Pitch : 0.05, Yaw : 359.93, Alt : 35.0400009155, Lat : 49.2835704, Lng : -123.1150208, Q1 : 0.999999403954, Q2 : 0.000806487747468, Q3 : 0.000449207116617, Q4 : -0.000597312464379}
2019-04-14 13:32:07.71: SIM {TimeUS : 46535545, Roll : 0.07, Pitch : 0.04, Yaw : 359.92, Alt : 35.25, Lat : 49.2835704, Lng : -123.1150208, Q1 : 0.999999523163, Q2 : 0.000658131495584, Q3 : 0.000350959424395, Q4 : -0.000630954396911}
2019-04-14 13:32:07.81: SIM {TimeUS : 46635505, Roll : 0.05, Pitch : 0.03, Yaw : 359.92, Alt : 35.4700012207, Lat : 49.2835704, Lng : -123.1150208, Q1 : 0.999999642372, Q2 : 0.000478270405438, Q3 : 0.000280856824247, Q4 : -0.000672948546708}
2019-04-14 13:32:07.91: SIM {TimeUS : 46735465, Roll : 0.03, Pitch : 0.02, Yaw : 359.91, Alt : 35.6899986267, Lat : 49.2835704, Lng : -123.1150208, Q1 : 0.999999701977, Q2 : 0.000287917326204, Q3 : 0.000230756835663, Q4 : -0.00071543327067}
2019-04-14 13:32:08.01: SIM {TimeUS : 46835425, Roll : 0.02, Pitch : 0.0, Yaw : 359.91, Alt : 35.9099998474, Lat : 49.2835704, Lng : -123.1150208, Q1 : 0.999999701977, Q2 : 0.00019267659809, Q3 : 4.63979858978e-06, Q4 : -0.000750920211431}
2019-04-14 13:32:08.11: SIM {TimeUS : 46935385, Roll : 0.01, Pitch : -0.01, Yaw : 359.91, Alt : 36.1300010681, Lat : 49.2835704, Lng : -123.1150207, Q1 : 0.999999701977, Q2 : 0.000107628613478, Q3 : -0.00015910709044, Q4 : -0.000783765979577}
2019-04-14 13:32:08.21: SIM {TimeUS : 47035345, Roll : 0.0, Pitch : -0.02, Yaw : 359.9, Alt : 36.3499984741, Lat : 49.2835704, Lng : -123.1150207, Q1 : 0.999999642372, Q2 : -1.44149053085e-05, Q3 : -0.000233085535001, Q4 : -0.000819987792056}
2019-04-14 13:32:08.31: SIM {TimeUS : 47135305, Roll : 0.0, Pitch : -0.02, Yaw : 359.9, Alt : 36.5699996948, Lat : 49.2835704, Lng : -123.1150207, Q1 : 0.999999642372, Q2 : -5.61588167329e-05, Q3 : -0.000175707507879, Q4 : -0.000856635859236}
2019-04-14 13:32:08.41: SIM {TimeUS : 47235265, Roll : 0.0, Pitch : -0.01, Yaw : 359.89, Alt : 36.7999992371, Lat : 49.2835704, Lng : -123.1150207, Q1 : 0.999999582767, Q2 : 4.4913009333e-05, Q3 : -0.000136983784614, Q4 : -0.000887614907697}
2019-04-14 13:32:08.51: SIM {TimeUS : 47335225, Roll : 0.0, Pitch : -0.02, Yaw : 359.89, Alt : 37.0200004578, Lat : 49.2835704, Lng : -123.1150207, Q1 : 0.999999582767, Q2 : -1.79284579644e-05, Q3 : -0.000210377416806, Q4 : -0.000915118318517}
2019-04-14 13:32:08.61: SIM {TimeUS : 47435185, Roll : -0.03, Pitch : -0.05, Yaw : 359.89, Alt : 37.25, Lat : 49.2835704, Lng : -123.1150207, Q1 : 0.999999403954, Q2 : -0.000284273497527, Q3 : -0.000444991426775, Q4 : -0.000940239522606}
2019-04-14 13:32:08.71: SIM {TimeUS : 47535145, Roll : -0.07, Pitch : -0.07, Yaw : 359.89, Alt : 37.4700012207, Lat : 49.2835704, Lng : -123.1150207, Q1 : 0.99999910593, Q2 : -0.000642444007099, Q3 : -0.000684648286551, Q4 : -0.000959287688602}
2019-04-14 13:32:08.81: SIM {TimeUS : 47635105, Roll : -0.1, Pitch : -0.09, Yaw : 359.88, Alt : 37.7000007629, Lat : 49.2835704, Lng : -123.1150206, Q1 : 0.999998688698, Q2 : -0.000951231224462, Q3 : -0.000838043692056, Q4 : -0.000977446790785}
2019-04-14 13:32:08.91: SIM {TimeUS : 47735065, Roll : -0.13, Pitch : -0.1, Yaw : 359.88, Alt : 37.9199981689, Lat : 49.2835704, Lng : -123.1150206, Q1 : 0.999998450279, Q2 : -0.00114514236338, Q3 : -0.000896275916602, Q4 : -0.000997033552267}
2019-04-14 13:32:09.01: SIM {TimeUS : 47835025, Roll : -0.13, Pitch : -0.09, Yaw : 359.88, Alt : 38.1500015259, Lat : 49.2835704, Lng : -123.1150206, Q1 : 0.999998450279, Q2 : -0.001211780007, Q3 : -0.000813407241367, Q4 : -0.00101319688838}
2019-04-14 13:32:09.11: SIM {TimeUS : 47934985, Roll : -0.12, Pitch : -0.05, Yaw : 359.88, Alt : 38.3800010681, Lat : 49.2835704, Lng : -123.1150206, Q1 : 0.999998748302, Q2 : -0.00108177936636, Q3 : -0.000516685307957, Q4 : -0.00102410337422}
2019-04-14 13:32:09.21: SIM {TimeUS : 48034945, Roll : -0.09, Pitch : -0.03, Yaw : 359.88, Alt : 38.6100006104, Lat : 49.2835704, Lng : -123.1150206, Q1 : 0.999999046326, Q2 : -0.000862439861521, Q3 : -0.000320319639286, Q4 : -0.00103445141576}
2019-04-14 13:32:09.31: SIM {TimeUS : 48134905, Roll : -0.08, Pitch : -0.03, Yaw : 359.87, Alt : 38.8300018311, Lat : 49.2835704, Lng : -123.1150206, Q1 : 0.999999165535, Q2 : -0.000727485166863, Q3 : -0.000274854712188, Q4 : -0.00104888924398}
2019-04-14 13:32:09.41: SIM {TimeUS : 48234865, Roll : -0.07, Pitch : -0.01, Yaw : 359.87, Alt : 39.0600013733, Lat : 49.2835704, Lng : -123.1150206, Q1 : 0.99999922514, Q2 : -0.000668282329571, Q3 : -0.000114898379252, Q4 : -0.00105863518547}
2019-04-14 13:32:09.51: SIM {TimeUS : 48334825, Roll : -0.08, Pitch : 0.0, Yaw : 359.87, Alt : 39.2900009155, Lat : 49.2835706, Lng : -123.1150206, Q1 : 0.99999910593, Q2 : -0.00077108037658, Q3 : 7.44234785088e-05, Q4 : -0.00107402331196}
2019-04-14 13:32:09.61: SIM {TimeUS : 48434785, Roll : -0.08, Pitch : 0.02, Yaw : 359.87, Alt : 39.5200004578, Lat : 49.2835706, Lng : -123.1150206, Q1 : 0.99999910593, Q2 : -0.000732401793357, Q3 : 0.000220845584408, Q4 : -0.0010919359047}
2019-04-14 13:32:09.71: SIM {TimeUS : 48534745, Roll : -0.06, Pitch : 0.04, Yaw : 359.87, Alt : 39.75, Lat : 49.2835706, Lng : -123.1150206, Q1 : 0.999999165535, Q2 : -0.000575754093006, Q3 : 0.000431164400652, Q4 : -0.00110682332888}
2019-04-14 13:32:09.81: SIM {TimeUS : 48635538, Roll : -0.04, Pitch : 0.04, Yaw : 359.87, Alt : 39.9900016785, Lat : 49.2835706, Lng : -123.1150206, Q1 : 0.99999922514, Q2 : -0.000371158879716, Q3 : 0.000406383915106, Q4 : -0.00111009494867}
2019-04-14 13:32:09.91: SIM {TimeUS : 48735498, Roll : -0.01, Pitch : 0.03, Yaw : 359.87, Alt : 40.2200012207, Lat : 49.2835706, Lng : -123.1150207, Q1 : 0.999999344349, Q2 : -0.000110427077743, Q3 : 0.000320273538819, Q4 : -0.00111436797306}
2019-04-14 13:32:10.01: SIM {TimeUS : 48835458, Roll : 0.02, Pitch : 0.05, Yaw : 359.87, Alt : 40.4500007629, Lat : 49.2835706, Lng : -123.1150207, Q1 : 0.99999922514, Q2 : 0.000198842841201, Q3 : 0.000493497529533, Q4 : -0.0011191603262}
2019-04-14 13:32:10.11: SIM {TimeUS : 48935418, Roll : 0.06, Pitch : 0.1, Yaw : 359.87, Alt : 40.6800003052, Lat : 49.2835706, Lng : -123.1150207, Q1 : 0.999998748302, Q2 : 0.000601513078436, Q3 : 0.000896145473234, Q4 : -0.00113254599273}
2019-04-14 13:32:10.21: SIM {TimeUS : 49035378, Roll : 0.09, Pitch : 0.15, Yaw : 359.86, Alt : 40.9099998474, Lat : 49.2835706, Lng : -123.1150207, Q1 : 0.999998033047, Q2 : 0.000868630420882, Q3 : 0.0013514024904, Q4 : -0.00115502323024}
2019-04-14 13:32:10.31: SIM {TimeUS : 49135338, Roll : 0.08, Pitch : 0.19, Yaw : 359.86, Alt : 41.1500015259, Lat : 49.2835706, Lng : -123.1150207, Q1 : 0.99999755621, Q2 : 0.000779846508522, Q3 : 0.00169394304976, Q4 : -0.0011743780924}
2019-04-14 13:32:10.41: SIM {TimeUS : 49235298, Roll : 0.04, Pitch : 0.21, Yaw : 359.86, Alt : 41.3800010681, Lat : 49.2835706, Lng : -123.1150207, Q1 : 0.999997437, Q2 : 0.000366530846804, Q3 : 0.00188924942631, Q4 : -0.00120436493307}
2019-04-14 13:32:10.51: SIM {TimeUS : 49335258, Roll : 0.0, Pitch : 0.22, Yaw : 359.85, Alt : 41.6100006104, Lat : 49.2835706, Lng : -123.1150207, Q1 : 0.999997377396, Q2 : -1.21720868265e-05, Q3 : 0.00192122766748, Q4 : -0.00123549276032}
2019-04-14 13:32:10.61: SIM {TimeUS : 49435218, Roll : -0.02, Pitch : 0.18, Yaw : 359.85, Alt : 41.8499984741, Lat : 49.2835706, Lng : -123.1150207, Q1 : 0.999997854233, Q2 : -0.000173452906893, Q3 : 0.00163270661142, Q4 : -0.00125813356135}
2019-04-14 13:32:10.71: SIM {TimeUS : 49535178, Roll : -0.01, Pitch : 0.14, Yaw : 359.85, Alt : 42.0800018311, Lat : 49.2835706, Lng : -123.1150207, Q1 : 0.999998390675, Q2 : -0.000170759187313, Q3 : 0.00126062158961, Q4 : -0.00127947761212}
2019-04-14 13:32:10.81: SIM {TimeUS : 49635138, Roll : 0.0, Pitch : 0.13, Yaw : 359.85, Alt : 42.3100013733, Lat : 49.2835706, Lng : -123.1150207, Q1 : 0.999998509884, Q2 : -5.50351651327e-05, Q3 : 0.00114485726226, Q4 : -0.00130736280698}
2019-04-14 13:32:10.91: SIM {TimeUS : 49735098, Roll : 0.03, Pitch : 0.13, Yaw : 359.84, Alt : 42.5499992371, Lat : 49.2835706, Lng : -123.1150207, Q1 : 0.99999833107, Q2 : 0.000264847825747, Q3 : 0.00118665222544, Q4 : -0.00134174188133}
2019-04-14 13:32:11.01: SIM {TimeUS : 49835058, Roll : 0.07, Pitch : 0.13, Yaw : 359.84, Alt : 42.7799987793, Lat : 49.2835706, Lng : -123.1150207, Q1 : 0.999998092651, Q2 : 0.000676997122355, Q3 : 0.00121426070109, Q4 : -0.00137715053279}
2019-04-14 13:32:11.11: SIM {TimeUS : 49935018, Roll : 0.11, Pitch : 0.12, Yaw : 359.83, Alt : 43.0200004578, Lat : 49.2835706, Lng : -123.1150207, Q1 : 0.999997973442, Q2 : 0.000981472083367, Q3 : 0.00105324981268, Q4 : -0.0014184411848}
2019-04-14 13:32:11.21: SIM {TimeUS : 50034978, Roll : 0.11, Pitch : 0.09, Yaw : 359.83, Alt : 43.25, Lat : 49.2835706, Lng : -123.1150207, Q1 : 0.999998092651, Q2 : 0.00101295148488, Q3 : 0.000801366288215, Q4 : -0.00145499838982}
2019-04-14 13:32:11.31: SIM {TimeUS : 50134938, Roll : 0.07, Pitch : 0.07, Yaw : 359.83, Alt : 43.4900016785, Lat : 49.2835704, Lng : -123.1150207, Q1 : 0.999998509884, Q2 : 0.000668432854582, Q3 : 0.000636087614112, Q4 : -0.00147652241867}
2019-04-14 13:32:11.41: SIM {TimeUS : 50234898, Roll : 0.02, Pitch : 0.06, Yaw : 359.82, Alt : 43.7200012207, Lat : 49.2835704, Lng : -123.1150207, Q1 : 0.999998688698, Q2 : 0.000178805028554, Q3 : 0.000577801489271, Q4 : -0.00149181985762}
2019-04-14 13:32:11.51: SIM {TimeUS : 50334858, Roll : -0.02, Pitch : 0.08, Yaw : 359.82, Alt : 43.9599990845, Lat : 49.2835704, Lng : -123.1150207, Q1 : 0.999998629093, Q2 : -0.000196246226551, Q3 : 0.000706955557689, Q4 : -0.00150462030433}
2019-04-14 13:32:11.61: SIM {TimeUS : 50434818, Roll : -0.04, Pitch : 0.08, Yaw : 359.82, Alt : 44.1899986267, Lat : 49.2835704, Lng : -123.1150207, Q1 : 0.999998450279, Q2 : -0.000381365942303, Q3 : 0.00076685170643, Q4 : -0.0015194748994}
2019-04-14 13:32:11.71: SIM {TimeUS : 50534778, Roll : -0.04, Pitch : 0.07, Yaw : 359.82, Alt : 44.4300003052, Lat : 49.2835704, Lng : -123.1150206, Q1 : 0.999998569489, Q2 : -0.000354574207449, Q3 : 0.000656604301184, Q4 : -0.00154295517132}
2019-04-14 13:32:11.81: SIM {TimeUS : 50634738, Roll : -0.04, Pitch : 0.05, Yaw : 359.81, Alt : 44.6699981689, Lat : 49.2835704, Lng : -123.1150206, Q1 : 0.999998569489, Q2 : -0.000395542825572, Q3 : 0.000514676386956, Q4 : -0.00157553108875}
2019-04-14 13:32:11.91: SIM {TimeUS : 50735531, Roll : -0.04, Pitch : 0.03, Yaw : 359.81, Alt : 44.9000015259, Lat : 49.2835704, Lng : -123.1150206, Q1 : 0.999998629093, Q2 : -0.00035277826828, Q3 : 0.000320331630064, Q4 : -0.00160732085351}
2019-04-14 13:32:12.01: SIM {TimeUS : 50835491, Roll : -0.02, Pitch : 0.01, Yaw : 359.81, Alt : 45.1399993896, Lat : 49.2835703, Lng : -123.1150206, Q1 : 0.999998629093, Q2 : -0.000181792813237, Q3 : 0.000131309978315, Q4 : -0.00164059374947}
2019-04-14 13:32:12.11: SIM {TimeUS : 50935451, Roll : -0.01, Pitch : 0.0, Yaw : 359.8, Alt : 45.3800010681, Lat : 49.2835703, Lng : -123.1150206, Q1 : 0.999998569489, Q2 : -0.00012399838306, Q3 : 2.59820008068e-05, Q4 : -0.00166997523047}
2019-04-14 13:32:12.21: SIM {TimeUS : 51035411, Roll : -0.01, Pitch : -0.01, Yaw : 359.8, Alt : 45.6100006104, Lat : 49.2835703, Lng : -123.1150206, Q1 : 0.999998569489, Q2 : -0.000147784114233, Q3 : -0.000104803832073, Q4 : -0.00169872923288}
2019-04-14 13:32:12.31: SIM {TimeUS : 51135371, Roll : -0.02, Pitch : -0.03, Yaw : 359.8, Alt : 45.8400001526, Lat : 49.2835703, Lng : -123.1150206, Q1 : 0.999998450279, Q2 : -0.000211758160731, Q3 : -0.000332917668857, Q4 : -0.00173027999699}
2019-04-14 13:32:12.41: SIM {TimeUS : 51235331, Roll : -0.02, Pitch : -0.05, Yaw : 359.79, Alt : 46.0800018311, Lat : 49.2835703, Lng : -123.1150206, Q1 : 0.99999833107, Q2 : -0.000256339844782, Q3 : -0.000443190714577, Q4 : -0.00175593257882}
2019-04-14 13:32:12.51: SIM {TimeUS : 51335291, Roll : -0.02, Pitch : -0.05, Yaw : 359.79, Alt : 46.2999992371, Lat : 49.2835703, Lng : -123.1150206, Q1 : 0.999998271465, Q2 : -0.000260800443357, Q3 : -0.000490153499413, Q4 : -0.00177989993244}
2019-04-14 13:32:12.61: SIM {TimeUS : 51435251, Roll : -0.03, Pitch : -0.05, Yaw : 359.79, Alt : 46.5299987793, Lat : 49.2835703, Lng : -123.1150206, Q1 : 0.999998211861, Q2 : -0.000329198752297, Q3 : -0.000480356597109, Q4 : -0.00180433341302}
2019-04-14 13:32:12.71: SIM {TimeUS : 51535211, Roll : -0.06, Pitch : -0.04, Yaw : 359.79, Alt : 46.7400016785, Lat : 49.2835703, Lng : -123.1150206, Q1 : 0.999998092651, Q2 : -0.000526254356373, Q3 : -0.000397213618271, Q4 : -0.0018305380363}
2019-04-14 13:32:12.81: SIM {TimeUS : 51635171, Roll : -0.09, Pitch : -0.04, Yaw : 359.78, Alt : 46.9599990845, Lat : 49.2835703, Lng : -123.1150205, Q1 : 0.999997913837, Q2 : -0.000809117860626, Q3 : -0.000355367781594, Q4 : -0.00186004431453}
2019-04-14 13:32:12.91: SIM {TimeUS : 51735131, Roll : -0.11, Pitch : -0.03, Yaw : 359.78, Alt : 47.1599998474, Lat : 49.2835703, Lng : -123.1150205, Q1 : 0.999997675419, Q2 : -0.000997811788693, Q3 : -0.000294310739264, Q4 : -0.00188970402814}
2019-04-14 13:32:13.01: SIM {TimeUS : 51835091, Roll : -0.11, Pitch : -0.01, Yaw : 359.78, Alt : 47.3600006104, Lat : 49.2835703, Lng : -123.1150205, Q1 : 0.999997615814, Q2 : -0.00101602158975, Q3 : -0.000166731406352, Q4 : -0.0019197157817}
2019-04-14 13:32:13.11: SIM {TimeUS : 51935051, Roll : -0.09, Pitch : 0.0, Yaw : 359.77, Alt : 47.5499992371, Lat : 49.2835703, Lng : -123.1150205, Q1 : 0.999997735023, Q2 : -0.000870293413755, Q3 : 2.73167133855e-05, Q4 : -0.00194620573893}
2019-04-14 13:32:13.21: SIM {TimeUS : 52035011, Roll : -0.1, Pitch : 0.0, Yaw : 359.77, Alt : 47.7299995422, Lat : 49.2835703, Lng : -123.1150205, Q1 : 0.999997675419, Q2 : -0.000880550884176, Q3 : 5.96389782004e-06, Q4 : -0.00197106366977}
2019-04-14 13:32:13.31: SIM {TimeUS : 52134971, Roll : -0.11, Pitch : -0.01, Yaw : 359.77, Alt : 47.8899993896, Lat : 49.2835703, Lng : -123.1150205, Q1 : 0.999997496605, Q2 : -0.000995948445052, Q3 : -0.00016002607299, Q4 : -0.00199787062593}
2019-04-14 13:32:13.41: SIM {TimeUS : 52234931, Roll : -0.11, Pitch : -0.03, Yaw : 359.76, Alt : 48.0499992371, Lat : 49.2835703, Lng : -123.1150205, Q1 : 0.999997377396, Q2 : -0.00104648037814, Q3 : -0.000329036702169, Q4 : -0.00202499516308}
2019-04-14 13:32:13.51: SIM {TimeUS : 52334891, Roll : -0.1, Pitch : -0.05, Yaw : 359.76, Alt : 48.1899986267, Lat : 49.2835703, Lng : -123.1150206, Q1 : 0.999997317791, Q2 : -0.000944852537941, Q3 : -0.000482901552459, Q4 : -0.00204884423874}
2019-04-14 13:32:13.61: SIM {TimeUS : 52434851, Roll : -0.08, Pitch : -0.06, Yaw : 359.76, Alt : 48.3300018311, Lat : 49.2835703, Lng : -123.1150206, Q1 : 0.999997437, Q2 : -0.000704439822584, Q3 : -0.000606591172982, Q4 : -0.00207100505941}
2019-04-14 13:32:13.71: SIM {TimeUS : 52534811, Roll : -0.05, Pitch : -0.08, Yaw : 359.76, Alt : 48.4500007629, Lat : 49.2835703, Lng : -123.1150206, Q1 : 0.999997437, Q2 : -0.00051710329717, Q3 : -0.000708955980372, Q4 : -0.0020920985844}
2019-04-14 13:32:13.81: SIM {TimeUS : 52634771, Roll : -0.05, Pitch : -0.08, Yaw : 359.75, Alt : 48.5499992371, Lat : 49.2835703, Lng : -123.1150206, Q1 : 0.999997377396, Q2 : -0.000461216666736, Q3 : -0.000765351112932, Q4 : -0.00211198581383}
2019-04-14 13:32:13.91: SIM {TimeUS : 52735564, Roll : -0.02, Pitch : -0.08, Yaw : 359.75, Alt : 48.6500015259, Lat : 49.2835703, Lng : -123.1150206, Q1 : 0.999997437, Q2 : -0.00022266760061, Q3 : -0.000711912754923, Q4 : -0.00213380577043}
2019-04-14 13:32:14.01: SIM {TimeUS : 52835524, Roll : 0.01, Pitch : -0.06, Yaw : 359.75, Alt : 48.7299995422, Lat : 49.2835703, Lng : -123.1150206, Q1 : 0.999997496605, Q2 : 9.57904921961e-05, Q3 : -0.000527224678081, Q4 : -0.0021603202913}
2019-04-14 13:32:14.11: SIM {TimeUS : 52935484, Roll : 0.04, Pitch : -0.03, Yaw : 359.74, Alt : 48.8100013733, Lat : 49.2835703, Lng : -123.1150206, Q1 : 0.999997496605, Q2 : 0.000395504757762, Q3 : -0.000307667301968, Q4 : -0.0021893538069}
2019-04-14 13:32:14.21: SIM {TimeUS : 53035444, Roll : 0.05, Pitch : -0.01, Yaw : 359.74, Alt : 48.8699989319, Lat : 49.2835703, Lng : -123.1150206, Q1 : 0.999997437, Q2 : 0.00049444969045, Q3 : -0.000141028664075, Q4 : -0.00221609789878}
2019-04-14 13:32:14.31: SIM {TimeUS : 53135404, Roll : 0.06, Pitch : 0.0, Yaw : 359.74, Alt : 48.9300003052, Lat : 49.2835703, Lng : -123.1150207, Q1 : 0.999997317791, Q2 : 0.000570934265852, Q3 : -6.30593640381e-05, Q4 : -0.00224136188626}
2019-04-14 13:32:14.41: SIM {TimeUS : 53235364, Roll : 0.06, Pitch : -0.02, Yaw : 359.74, Alt : 48.9700012207, Lat : 49.2835703, Lng : -123.1150207, Q1 : 0.999997258186, Q2 : 0.000555290898774, Q3 : -0.000179907103302, Q4 : -0.00226790318266}
2019-04-14 13:32:14.51: SIM {TimeUS : 53335324, Roll : 0.11, Pitch : -0.05, Yaw : 359.73, Alt : 49.0099983215, Lat : 49.2835703, Lng : -123.1150207, Q1 : 0.999996721745, Q2 : 0.000996941002086, Q3 : -0.000462236872409, Q4 : -0.00229304749519}
2019-04-14 13:32:14.61: SIM {TimeUS : 53435284, Roll : 0.36, Pitch : -0.12, Yaw : 359.73, Alt : 49.0499992371, Lat : 49.2835703, Lng : -123.1150207, Q1 : 0.999991774559, Q2 : 0.00314440694638, Q3 : -0.00113907351624, Q4 : -0.00231209630147}
2019-04-14 13:32:14.71: SIM {TimeUS : 53535244, Roll : 0.87, Pitch : -0.27, Yaw : 359.73, Alt : 49.0800018311, Lat : 49.2835703, Lng : -123.1150207, Q1 : 0.999965369701, Q2 : 0.00760518107563, Q3 : -0.0024532796815, Q4 : -0.00233116419986}
2019-04-14 13:32:14.81: SIM {TimeUS : 53635204, Roll : 1.63, Pitch : -0.48, Yaw : 359.72, Alt : 49.0999984741, Lat : 49.2835703, Lng : -123.1150206, Q1 : 0.999886274338, Q2 : 0.0142689952627, Q3 : -0.00428648944944, Q4 : -0.00234622228891}
2019-04-14 13:32:14.91: SIM {TimeUS : 53735164, Roll : 2.59, Pitch : -0.74, Yaw : 359.71, Alt : 49.1199989319, Lat : 49.2835703, Lng : -123.1150206, Q1 : 0.999719619751, Q2 : 0.0226439218968, Q3 : -0.00651822937652, Q4 : -0.00234322575852}
2019-04-14 13:32:15.01: SIM {TimeUS : 53835124, Roll : 3.63, Pitch : -1.02, Yaw : 359.7, Alt : 49.1399993896, Lat : 49.2835704, Lng : -123.1150205, Q1 : 0.999455869198, Q2 : 0.0316486917436, Q3 : -0.0089992955327, Q4 : -0.00232153665274}
2019-04-14 13:32:15.11: SIM {TimeUS : 53935084, Roll : 4.55, Pitch : -1.31, Yaw : 359.68, Alt : 49.1599998474, Lat : 49.2835704, Lng : -123.1150203, Q1 : 0.999142944813, Q2 : 0.0396883897483, Q3 : -0.0115347933024, Q4 : -0.00227400357835}
2019-04-14 13:32:15.21: SIM {TimeUS : 54035044, Roll : 5.25, Pitch : -1.54, Yaw : 359.67, Alt : 49.1699981689, Lat : 49.2835706, Lng : -123.11502, Q1 : 0.998853981495, Q2 : 0.0458292551339, Q3 : -0.013626598753, Q4 : -0.00218651886098}
2019-04-14 13:32:15.31: SIM {TimeUS : 54135004, Roll : 5.75, Pitch : -1.74, Yaw : 359.67, Alt : 49.1800003052, Lat : 49.2835706, Lng : -123.1150197, Q1 : 0.998619139194, Q2 : 0.0501934252679, Q3 : -0.0153675368056, Q4 : -0.00208166847005}
2019-04-14 13:32:15.41: SIM {TimeUS : 54234964, Roll : 6.12, Pitch : -1.89, Yaw : 359.67, Alt : 49.2000007629, Lat : 49.2835707, Lng : -123.1150193, Q1 : 0.998432695866, Q2 : 0.0533805713058, Q3 : -0.0166997462511, Q4 : -0.00194574834313}
2019-04-14 13:32:15.51: SIM {TimeUS : 54334924, Roll : 6.45, Pitch : -2.0, Yaw : 359.68, Alt : 49.2099990845, Lat : 49.2835709, Lng : -123.1150187, Q1 : 0.998260557652, Q2 : 0.0562290847301, Q3 : -0.0176373068243, Q4 : -0.00177495309617}
2019-04-14 13:32:15.61: SIM {TimeUS : 54434884, Roll : 6.8, Pitch : -2.11, Yaw : 359.69, Alt : 49.2099990845, Lat : 49.2835709, Lng : -123.115018, Q1 : 0.998067677021, Q2 : 0.0592641271651, Q3 : -0.0186068955809, Q4 : -0.00159500155132}
2019-04-14 13:32:15.71: SIM {TimeUS : 54534844, Roll : 7.17, Pitch : -2.23, Yaw : 359.69, Alt : 49.2200012207, Lat : 49.2835712, Lng : -123.1150172, Q1 : 0.997852861881, Q2 : 0.0624780729413, Q3 : -0.0195970870554, Q4 : -0.00142741925083}
2019-04-14 13:32:15.81: SIM {TimeUS : 54634804, Roll : 7.5, Pitch : -2.32, Yaw : 359.7, Alt : 49.2299995422, Lat : 49.2835714, Lng : -123.1150162, Q1 : 0.997653305531, Q2 : 0.0653546601534, Q3 : -0.0203731618822, Q4 : -0.00126020959578}
2019-04-14 13:32:15.91: SIM {TimeUS : 54734764, Roll : 7.74, Pitch : -2.4, Yaw : 359.7, Alt : 49.2299995422, Lat : 49.2835715, Lng : -123.1150151, Q1 : 0.997495234013, Q2 : 0.0675053969026, Q3 : -0.0210960544646, Q4 : -0.00111899001058}
2019-04-14 13:32:16.01: SIM {TimeUS : 54835557, Roll : 7.93, Pitch : -2.47, Yaw : 359.71, Alt : 49.2400016785, Lat : 49.2835718, Lng : -123.1150139, Q1 : 0.997368752956, Q2 : 0.069157525897, Q3 : -0.0217195786536, Q4 : -0.00100775330793}
2019-04-14 13:32:16.11: SIM {TimeUS : 54935517, Roll : 8.08, Pitch : -2.52, Yaw : 359.71, Alt : 49.2400016785, Lat : 49.2835721, Lng : -123.1150128, Q1 : 0.997269809246, Q2 : 0.0704400017858, Q3 : -0.02214336209, Q4 : -0.000919348036405}
2019-04-14 13:32:16.21: SIM {TimeUS : 55035477, Roll : 8.2, Pitch : -2.54, Yaw : 359.71, Alt : 49.25, Lat : 49.2835722, Lng : -123.1150114, Q1 : 0.997195124626, Q2 : 0.0714378133416, Q3 : -0.0223123263568, Q4 : -0.000865384703502}
2019-04-14 13:32:16.31: SIM {TimeUS : 55135437, Roll : 8.36, Pitch : -2.52, Yaw : 359.73, Alt : 49.25, Lat : 49.2835726, Lng : -123.1150099, Q1 : 0.997095167637, Q2 : 0.0728689581156, Q3 : -0.022155765444, Q4 : -0.000724475539755}
2019-04-14 13:32:16.41: SIM {TimeUS : 55235397, Roll : 8.67, Pitch : -2.3, Yaw : 0.02, Alt : 49.2599983215, Lat : 49.2835728, Lng : -123.1150083, Q1 : 0.996930241585, Q2 : 0.0756562799215, Q3 : -0.0200804956257, Q4 : 0.00171727256384}
2019-04-14 13:32:16.51: SIM {TimeUS : 55335357, Roll : 9.17, Pitch : -1.91, Yaw : 1.21, Alt : 49.2599983215, Lat : 49.2835733, Lng : -123.1150067, Q1 : 0.996584117413, Q2 : 0.0801740884781, Q3 : -0.0158067010343, Q4 : 0.0119347143918}
2019-04-14 13:32:16.61: SIM {TimeUS : 55435317, Roll : 9.73, Pitch : -1.73, Yaw : 3.87, Alt : 49.2599983215, Lat : 49.2835735, Lng : -123.1150049, Q1 : 0.995663046837, Q2 : 0.0853214487433, Q3 : -0.0122414492071, Q4 : 0.0350075550377}
2019-04-14 13:32:16.71: SIM {TimeUS : 55535277, Roll : 10.17, Pitch : -2.11, Yaw : 8.1, Alt : 49.2599983215, Lat : 49.2835739, Lng : -123.115003, Q1 : 0.993285298347, Q2 : 0.0897680968046, Q3 : -0.0120845343918, Q4 : 0.0719722360373}
2019-04-14 13:32:16.81: SIM {TimeUS : 55635237, Roll : 10.33, Pitch : -3.13, Yaw : 13.71, Alt : 49.2599983215, Lat : 49.2835741, Lng : -123.115001, Q1 : 0.9881477952, Q2 : 0.0926795899868, Q3 : -0.0163136217743, Q4 : 0.121277689934}
2019-04-14 13:32:16.91: SIM {TimeUS : 55735197, Roll : 10.09, Pitch : -4.71, Yaw : 20.46, Alt : 49.2700004578, Lat : 49.2835745, Lng : -123.1149989, Q1 : 0.978812277317, Q2 : 0.0937788262963, Q3 : -0.0247145090252, Q4 : 0.180336505175}
2019-04-14 13:32:17.01: SIM {TimeUS : 55835157, Roll : 9.35, Pitch : -6.64, Yaw : 28.1, Alt : 49.2700004578, Lat : 49.2835749, Lng : -123.1149966, Q1 : 0.964066684246, Q2 : 0.0929759219289, Q3 : -0.0362636223435, Q4 : 0.246203005314}
2019-04-14 13:32:17.11: SIM {TimeUS : 55935117, Roll : 8.07, Pitch : -8.67, Yaw : 36.41, Alt : 49.2700004578, Lat : 49.2835751, Lng : -123.1149942, Q1 : 0.943195700645, Q2 : 0.09029468894, Q3 : -0.0497056990862, Q4 : 0.315845072269}
2019-04-14 13:32:17.21: SIM {TimeUS : 56035077, Roll : 6.31, Pitch : -10.56, Yaw : 45.14, Alt : 49.2700004578, Lat : 49.2835755, Lng : -123.1149917, Q1 : 0.916140675545, Q2 : 0.0859243944287, Q3 : -0.0637961179018, Q4 : 0.386307418346}
2019-04-14 13:32:17.31: SIM {TimeUS : 56135037, Roll : 4.17, Pitch : -12.12, Yaw : 54.02, Alt : 49.2700004578, Lat : 49.2835758, Lng : -123.1149891, Q1 : 0.883581221104, Q2 : 0.0801710486412, Q3 : -0.0775694102049, Q4 : 0.454796552658}
2019-04-14 13:32:17.41: SIM {TimeUS : 56234997, Roll : 1.81, Pitch : -13.22, Yaw : 62.77, Alt : 49.2700004578, Lat : 49.2835762, Lng : -123.1149864, Q1 : 0.84693479538, Q2 : 0.0734301656485, Q3 : -0.0901260972023, Q4 : 0.518832147121}
2019-04-14 13:32:17.51: SIM {TimeUS : 56334957, Roll : -0.75, Pitch : -13.84, Yaw : 71.03, Alt : 49.2799987793, Lat : 49.2835765, Lng : -123.1149835, Q1 : 0.80847042799, Q2 : 0.0646912530065, Q3 : -0.101892992854, Q4 : 0.576028168201}
2019-04-14 13:32:17.61: SIM {TimeUS : 56434917, Roll : -3.49, Pitch : -13.97, Yaw : 78.19, Alt : 49.2799987793, Lat : 49.283577, Lng : -123.1149805, Q1 : 0.772298514843, Q2 : 0.0532378926873, Q3 : -0.113449819386, Q4 : 0.622775971889}
2019-04-14 13:32:17.71: SIM {TimeUS : 56534877, Roll : -5.91, Pitch : -13.77, Yaw : 83.62, Alt : 49.2799987793, Lat : 49.2835776, Lng : -123.1149775, Q1 : 0.743101000786, Q2 : 0.0416829809546, Q3 : -0.123381331563, Q4 : 0.656384348869}
2019-04-14 13:32:17.81: SIM {TimeUS : 56634837, Roll : -7.58, Pitch : -13.44, Yaw : 87.05, Alt : 49.2799987793, Lat : 49.2835782, Lng : -123.1149743, Q1 : 0.723812818527, Q2 : 0.0327983163297, Q3 : -0.129892796278, Q4 : 0.676865637302}
2019-04-14 13:32:17.91: SIM {TimeUS : 56734797, Roll : -8.29, Pitch : -13.17, Yaw : 88.58, Alt : 49.2799987793, Lat : 49.2835789, Lng : -123.114971, Q1 : 0.714996516705, Q2 : 0.0284834634513, Q3 : -0.132063508034, Q4 : 0.68595033884}
2019-04-14 13:32:18.01: SIM {TimeUS : 56834757, Roll : -8.05, Pitch : -13.12, Yaw : 88.49, Alt : 49.2799987793, Lat : 49.2835797, Lng : -123.1149676, Q1 : 0.715460658073, Q2 : 0.0295200273395, Q3 : -0.130352661014, Q4 : 0.68574988842}
2019-04-14 13:32:18.11: SIM {TimeUS : 56935550, Roll : -7.04, Pitch : -13.33, Yaw : 87.13, Alt : 49.2799987793, Lat : 49.2835806, Lng : -123.1149641, Q1 : 0.723217606544, Q2 : 0.0356418266892, Q3 : -0.126042544842, Q4 : 0.678084969521}
2019-04-14 13:32:18.21: SIM {TimeUS : 57035510, Roll : -5.48, Pitch : -13.79, Yaw : 84.86, Alt : 49.2799987793, Lat : 49.2835816, Lng : -123.1149606, Q1 : 0.73579287529, Q2 : 0.0458634085953, Q3 : -0.120591640472, Q4 : 0.664803028107}
2019-04-14 13:32:18.31: SIM {TimeUS : 57135470, Roll : -3.61, Pitch : -14.41, Yaw : 81.98, Alt : 49.2799987793, Lat : 49.2835824, Lng : -123.1149569, Q1 : 0.751041710377, Q2 : 0.058682076633, Q3 : -0.115192532539, Q4 : 0.647474706173}
2019-04-14 13:32:18.41: SIM {TimeUS : 57235430, Roll : -1.66, Pitch : -15.06, Yaw : 78.81, Alt : 49.2799987793, Lat : 49.2835835, Lng : -123.1149531, Q1 : 0.767117917538, Q2 : 0.072126314044, Q3 : -0.110425613821, Q4 : 0.627801001072}
2019-04-14 13:32:18.51: SIM {TimeUS : 57335390, Roll : 0.18, Pitch : -15.59, Yaw : 75.65, Alt : 49.2799987793, Lat : 49.2835844, Lng : -123.1149494, Q1 : 0.782436907291, Q2 : 0.0844477564096, Q3 : -0.10618545115, Q4 : 0.607771158218}
2019-04-14 13:32:18.61: SIM {TimeUS : 57435350, Roll : 1.73, Pitch : -15.92, Yaw : 72.83, Alt : 49.2799987793, Lat : 49.2835855, Lng : -123.1149454, Q1 : 0.795636117458, Q2 : 0.0943097770214, Q3 : -0.102544590831, Q4 : 0.589536607265}
2019-04-14 13:32:18.71: SIM {TimeUS : 57535310, Roll : 2.88, Pitch : -16.05, Yaw : 70.61, Alt : 49.2799987793, Lat : 49.2835865, Lng : -123.1149413, Q1 : 0.805799663067, Q2 : 0.10098349303, Q3 : -0.0995150208473, Q4 : 0.574966132641}
2019-04-14 13:32:18.81: SIM {TimeUS : 57635270, Roll : 3.54, Pitch : -16.03, Yaw : 69.14, Alt : 49.2799987793, Lat : 49.2835874, Lng : -123.1149372, Q1 : 0.812515795231, Q2 : 0.104283817112, Q3 : -0.0974099785089, Q4 : 0.565202891827}
2019-04-14 13:32:18.91: SIM {TimeUS : 57735230, Roll : 3.71, Pitch : -15.95, Yaw : 68.47, Alt : 49.2900009155, Lat : 49.2835884, Lng : -123.1149328, Q1 : 0.815753877163, Q2 : 0.104602858424, Q3 : -0.0966274961829, Q4 : 0.560595273972}
2019-04-14 13:32:19.01: SIM {TimeUS : 57835190, Roll : 3.48, Pitch : -15.9, Yaw : 68.52, Alt : 49.2900009155, Lat : 49.2835892, Lng : -123.1149284, Q1 : 0.815773010254, Q2 : 0.102737620473, Q3 : -0.0973573103547, Q4 : 0.560786068439}
2019-04-14 13:32:19.11: SIM {TimeUS : 57935150, Roll : 2.92, Pitch : -15.93, Yaw : 69.16, Alt : 49.2900009155, Lat : 49.2835902, Lng : -123.1149239, Q1 : 0.813060104847, Q2 : 0.0995042696595, Q3 : -0.099725946784, Q4 : 0.564877808094}
2019-04-14 13:32:19.21: SIM {TimeUS : 58035110, Roll : 2.15, Pitch : -16.04, Yaw : 70.23, Alt : 49.2900009155, Lat : 49.283591, Lng : -123.1149193, Q1 : 0.808308005333, Q2 : 0.0955069512129, Q3 : -0.103369832039, Q4 : 0.571691632271}
2019-04-14 13:32:19.31: SIM {TimeUS : 58135070, Roll : 1.27, Pitch : -16.19, Yaw : 71.54, Alt : 49.2900009155, Lat : 49.2835919, Lng : -123.1149147, Q1 : 0.802312850952, Q2 : 0.0912640765309, Q3 : -0.107836507261, Q4 : 0.579945087433}
2019-04-14 13:32:19.41: SIM {TimeUS : 58235030, Roll : 0.4, Pitch : -16.33, Yaw : 72.9, Alt : 49.2900009155, Lat : 49.2835928, Lng : -123.1149099, Q1 : 0.795912146568, Q2 : 0.0871991440654, Q3 : -0.112209320068, Q4 : 0.588497459888}
2019-04-14 13:32:19.51: SIM {TimeUS : 58334990, Roll : -0.34, Pitch : -16.43, Yaw : 74.15, Alt : 49.2900009155, Lat : 49.2835937, Lng : -123.1149051, Q1 : 0.789862632751, Q2 : 0.0837977826595, Q3 : -0.115852400661, Q4 : 0.596383392811}
2019-04-14 13:32:19.61: SIM {TimeUS : 58434950, Roll : -0.93, Pitch : -16.5, Yaw : 75.19, Alt : 49.2900009155, Lat : 49.2835946, Lng : -123.1149002, Q1 : 0.784802317619, Q2 : 0.0811358243227, Q3 : -0.118627429008, Q4 : 0.602851450443}
2019-04-14 13:32:19.71: SIM {TimeUS : 58534910, Roll : -1.31, Pitch : -16.53, Yaw : 75.93, Alt : 49.2900009155, Lat : 49.2835956, Lng : -123.1148952, Q1 : 0.781127691269, Q2 : 0.0795301869512, Q3 : -0.120345890522, Q4 : 0.607479512691}
2019-04-14 13:32:19.81: SIM {TimeUS : 58634870, Roll : -1.44, Pitch : -16.53, Yaw : 76.34, Alt : 49.2900009155, Lat : 49.2835964, Lng : -123.1148902, Q1 : 0.779035508633, Q2 : 0.0790192037821, Q3 : -0.120759032667, Q4 : 0.610145032406}
2019-04-14 13:32:19.91: SIM {TimeUS : 58734830, Roll : -1.39, Pitch : -16.52, Yaw : 76.44, Alt : 49.2900009155, Lat : 49.2835975, Lng : -123.1148852, Q1 : 0.778483808041, Q2 : 0.0794339030981, Q3 : -0.120376765728, Q4 : 0.610870420933}
2019-04-14 13:32:20.01: SIM {TimeUS : 58834790, Roll : -1.21, Pitch : -16.55, Yaw : 76.27, Alt : 49.2900009155, Lat : 49.2835984, Lng : -123.1148801, Q1 : 0.779253065586, Q2 : 0.0806108340621, Q3 : -0.119704969227, Q4 : 0.60986661911}
2019-04-14 13:32:20.11: SIM {TimeUS : 58934750, Roll : -0.94, Pitch : -16.6, Yaw : 75.89, Alt : 49.2900009155, Lat : 49.2835995, Lng : -123.1148749, Q1 : 0.781013309956, Q2 : 0.0823993682861, Q3 : -0.118903324008, Q4 : 0.607528269291}
2019-04-14 13:32:20.21: SIM {TimeUS : 59035543, Roll : -0.61, Pitch : -16.69, Yaw : 75.38, Alt : 49.2900009155, Lat : 49.2836005, Lng : -123.1148697, Q1 : 0.783412158489, Q2 : 0.0845550373197, Q3 : -0.1180896312, Q4 : 0.604293525219}
2019-04-14 13:32:20.31: SIM {TimeUS : 59135503, Roll : -0.27, Pitch : -16.75, Yaw : 74.81, Alt : 49.2900009155, Lat : 49.2836014, Lng : -123.1148643, Q1 : 0.786059141159, Q2 : 0.0866310298443, Q3 : -0.117171689868, Q4 : 0.600730359554}
2019-04-14 13:32:20.41: SIM {TimeUS : 59235463, Roll : 0.04, Pitch : -16.8, Yaw : 74.26, Alt : 49.2900009155, Lat : 49.2836025, Lng : -123.1148591, Q1 : 0.788623929024, Q2 : 0.0885474383831, Q3 : -0.116286620498, Q4 : 0.597251296043}
2019-04-14 13:32:20.51: SIM {TimeUS : 59335423, Roll : 0.31, Pitch : -16.85, Yaw : 73.79, Alt : 49.2900009155, Lat : 49.2836036, Lng : -123.1148538, Q1 : 0.790848195553, Q2 : 0.0901452228427, Q3 : -0.115570247173, Q4 : 0.594202399254}
2019-04-14 13:32:20.61: SIM {TimeUS : 59435383, Roll : 0.51, Pitch : -16.88, Yaw : 73.42, Alt : 49.2900009155, Lat : 49.2836047, Lng : -123.1148484, Q1 : 0.792562425137, Q2 : 0.0913156941533, Q3 : -0.115014076233, Q4 : 0.59184294939}
2019-04-14 13:32:20.71: SIM {TimeUS : 59535343, Roll : 0.63, Pitch : -16.9, Yaw : 73.18, Alt : 49.2900009155, Lat : 49.2836056, Lng : -123.114843, Q1 : 0.793672919273, Q2 : 0.0920254513621, Q3 : -0.114706091583, Q4 : 0.590302586555}
2019-04-14 13:32:20.81: SIM {TimeUS : 59635303, Roll : 0.68, Pitch : -16.92, Yaw : 73.07, Alt : 49.2900009155, Lat : 49.2836067, Lng : -123.1148375, Q1 : 0.794169843197, Q2 : 0.0923409163952, Q3 : -0.114737376571, Q4 : 0.589578509331}
2019-04-14 13:32:20.91: SIM {TimeUS : 59735263, Roll : 0.64, Pitch : -16.94, Yaw : 73.08, Alt : 49.2999992371, Lat : 49.2836078, Lng : -123.114832, Q1 : 0.794136822224, Q2 : 0.0921759754419, Q3 : -0.115066260099, Q4 : 0.589584648609}
2019-04-14 13:32:21.01: SIM {TimeUS : 59835223, Roll : 0.53, Pitch : -16.97, Yaw : 73.18, Alt : 49.2999992371, Lat : 49.2836087, Lng : -123.1148265, Q1 : 0.793663322926, Q2 : 0.0917277634144, Q3 : -0.115723922849, Q4 : 0.590163171291}
2019-04-14 13:32:21.11: SIM {TimeUS : 59935183, Roll : 0.38, Pitch : -17.01, Yaw : 73.35, Alt : 49.2999992371, Lat : 49.2836098, Lng : -123.1148209, Q1 : 0.792890965939, Q2 : 0.0910373628139, Q3 : -0.116642713547, Q4 : 0.591126561165}
2019-04-14 13:32:21.21: SIM {TimeUS : 60035143, Roll : 0.21, Pitch : -17.05, Yaw : 73.55, Alt : 49.2999992371, Lat : 49.2836109, Lng : -123.1148153, Q1 : 0.791956067085, Q2 : 0.0903010591865, Q3 : -0.117648042738, Q4 : 0.592292368412}
2019-04-14 13:32:21.31: SIM {TimeUS : 60135103, Roll : 0.04, Pitch : -17.09, Yaw : 73.75, Alt : 49.2999992371, Lat : 49.283612, Lng : -123.1148096, Q1 : 0.791006505489, Q2 : 0.0895177349448, Q3 : -0.118653774261, Q4 : 0.593478322029}
2019-04-14 13:32:21.41: SIM {TimeUS : 60235063, Roll : -0.1, Pitch : -17.11, Yaw : 73.93, Alt : 49.2999992371, Lat : 49.2836129, Lng : -123.1148039, Q1 : 0.790162622929, Q2 : 0.0887637138367, Q3 : -0.119459971786, Q4 : 0.594553112984}
2019-04-14 13:32:21.51: SIM {TimeUS : 60335023, Roll : -0.22, Pitch : -17.14, Yaw : 74.07, Alt : 49.2999992371, Lat : 49.2836141, Lng : -123.1147982, Q1 : 0.789500892162, Q2 : 0.0882335528731, Q3 : -0.120105698705, Q4 : 0.595380425453}
2019-04-14 13:32:21.61: SIM {TimeUS : 60434983, Roll : -0.27, Pitch : -17.18, Yaw : 74.16, Alt : 49.2999992371, Lat : 49.2836151, Lng : -123.1147925, Q1 : 0.789035320282, Q2 : 0.0881661176682, Q3 : -0.120605401695, Q4 : 0.595906376839}
2019-04-14 13:32:21.71: SIM {TimeUS : 60534943, Roll : -0.28, Pitch : -17.22, Yaw : 74.19, Alt : 49.2999992371, Lat : 49.2836162, Lng : -123.1147867, Q1 : 0.788822829723, Q2 : 0.0883340016007, Q3 : -0.120933607221, Q4 : 0.596096217632}
2019-04-14 13:32:21.81: SIM {TimeUS : 60634903, Roll : -0.26, Pitch : -17.26, Yaw : 74.18, Alt : 49.2999992371, Lat : 49.2836172, Lng : -123.114781, Q1 : 0.788841307163, Q2 : 0.0887388959527, Q3 : -0.121106490493, Q4 : 0.595976531506}
2019-04-14 13:32:21.91: SIM {TimeUS : 60734863, Roll : -0.2, Pitch : -17.31, Yaw : 74.12, Alt : 49.3100013733, Lat : 49.2836183, Lng : -123.1147752, Q1 : 0.789063155651, Q2 : 0.0892977789044, Q3 : -0.121142208576, Q4 : 0.595592021942}
2019-04-14 13:32:22.01: SIM {TimeUS : 60834823, Roll : -0.13, Pitch : -17.34, Yaw : 74.03, Alt : 49.3100013733, Lat : 49.2836195, Lng : -123.1147693, Q1 : 0.789452016354, Q2 : 0.0898572206497, Q3 : -0.121075116098, Q4 : 0.595005869865}
2019-04-14 13:32:22.11: SIM {TimeUS : 60934783, Roll : -0.06, Pitch : -17.36, Yaw : 73.92, Alt : 49.3100013733, Lat : 49.2836206, Lng : -123.1147635, Q1 : 0.789950609207, Q2 : 0.0902837887406, Q3 : -0.120952732861, Q4 : 0.594304025173}
2019-04-14 13:32:22.21: SIM {TimeUS : 61034743, Roll : -0.01, Pitch : -17.36, Yaw : 73.8, Alt : 49.3100013733, Lat : 49.2836217, Lng : -123.1147576, Q1 : 0.790493667126, Q2 : 0.090584628284, Q3 : -0.120781205595, Q4 : 0.593570590019}
2019-04-14 13:32:22.31: SIM {TimeUS : 61135536, Roll : 0.05, Pitch : -17.36, Yaw : 73.69, Alt : 49.3100013733, Lat : 49.2836227, Lng : -123.1147517, Q1 : 0.791008710861, Q2 : 0.0909435451031, Q3 : -0.120493471622, Q4 : 0.592887699604}
2019-04-14 13:32:22.41: SIM {TimeUS : 61235496, Roll : 0.11, Pitch : -17.36, Yaw : 73.6, Alt : 49.3100013733, Lat : 49.2836238, Lng : -123.1147458, Q1 : 0.791457116604, Q2 : 0.0912505462766, Q3 : -0.12031391263, Q4 : 0.592278301716}
2019-04-14 13:32:22.51: SIM {TimeUS : 61335456, Roll : 0.16, Pitch : -17.4, Yaw : 73.52, Alt : 49.3100013733, Lat : 49.283625, Lng : -123.1147398, Q1 : 0.791776895523, Q2 : 0.0917022451758, Q3 : -0.120325416327, Q4 : 0.591778635979}
2019-04-14 13:32:22.61: SIM {TimeUS : 61435416, Roll : 0.19, Pitch : -17.45, Yaw : 73.47, Alt : 49.3100013733, Lat : 49.2836262, Lng : -123.1147339, Q1 : 0.791966676712, Q2 : 0.0921543687582, Q3 : -0.120608910918, Q4 : 0.591396570206}
2019-04-14 13:32:22.71: SIM {TimeUS : 61535376, Roll : 0.21, Pitch : -17.49, Yaw : 73.43, Alt : 49.3100013733, Lat : 49.2836273, Lng : -123.1147279, Q1 : 0.792079329491, Q2 : 0.0923856198788, Q3 : -0.120819538832, Q4 : 0.591166555882}
2019-04-14 13:32:22.81: SIM {TimeUS : 61635336, Roll : 0.2, Pitch : -17.5, Yaw : 73.42, Alt : 49.3100013733, Lat : 49.2836284, Lng : -123.1147219, Q1 : 0.79212808609, Q2 : 0.0924082919955, Q3 : -0.120895169675, Q4 : 0.591082215309}
2019-04-14 13:32:22.91: SIM {TimeUS : 61735296, Roll : 0.17, Pitch : -17.51, Yaw : 73.43, Alt : 49.3100013733, Lat : 49.2836296, Lng : -123.1147159, Q1 : 0.7921230793, Q2 : 0.0922469571233, Q3 : -0.121103107929, Q4 : 0.591071546078}
2019-04-14 13:32:23.01: SIM {TimeUS : 61835256, Roll : 0.13, Pitch : -17.53, Yaw : 73.44, Alt : 49.3199996948, Lat : 49.2836306, Lng : -123.1147099, Q1 : 0.792067050934, Q2 : 0.0920379236341, Q3 : -0.121479429305, Q4 : 0.591102004051}
2019-04-14 13:32:23.11: SIM {TimeUS : 61935216, Roll : 0.09, Pitch : -17.55, Yaw : 73.46, Alt : 49.3199996948, Lat : 49.2836317, Lng : -123.1147039, Q1 : 0.79198551178, Q2 : 0.0919072255492, Q3 : -0.121771603823, Q4 : 0.591171443462}
2019-04-14 13:32:23.21: SIM {TimeUS : 62035176, Roll : 0.06, Pitch : -17.57, Yaw : 73.48, Alt : 49.3199996948, Lat : 49.2836329, Lng : -123.1146977, Q1 : 0.791883647442, Q2 : 0.0918752923608, Q3 : -0.122068680823, Q4 : 0.59125161171}
2019-04-14 13:32:23.31: SIM {TimeUS : 62135136, Roll : 0.05, Pitch : -17.59, Yaw : 73.49, Alt : 49.3199996948, Lat : 49.2836341, Lng : -123.1146918, Q1 : 0.791794598103, Q2 : 0.0918862223625, Q3 : -0.122278034687, Q4 : 0.591325938702}
2019-04-14 13:32:23.41: SIM {TimeUS : 62235096, Roll : 0.04, Pitch : -17.61, Yaw : 73.5, Alt : 49.3199996948, Lat : 49.2836353, Lng : -123.1146857, Q1 : 0.791733205318, Q2 : 0.091980971396, Q3 : -0.122460432351, Q4 : 0.591355681419}
2019-04-14 13:32:23.51: SIM {TimeUS : 62335056, Roll : 0.05, Pitch : -17.63, Yaw : 73.5, Alt : 49.3199996948, Lat : 49.2836364, Lng : -123.1146796, Q1 : 0.791710615158, Q2 : 0.0921155512333, Q3 : -0.122491173446, Q4 : 0.591358542442}
2019-04-14 13:32:23.61: SIM {TimeUS : 62435016, Roll : 0.08, Pitch : -17.64, Yaw : 73.49, Alt : 49.3199996948, Lat : 49.2836376, Lng : -123.1146735, Q1 : 0.791702926159, Q2 : 0.0923809409142, Q3 : -0.122450269759, Q4 : 0.591335952282}
2019-04-14 13:32:23.71: SIM {TimeUS : 62534976, Roll : 0.11, Pitch : -17.66, Yaw : 73.48, Alt : 49.3199996948, Lat : 49.2836387, Lng : -123.1146673, Q1 : 0.791725218296, Q2 : 0.0926659405231, Q3 : -0.12242013216, Q4 : 0.591267764568}
2019-04-14 13:32:23.81: SIM {TimeUS : 62634936, Roll : 0.12, Pitch : -17.69, Yaw : 73.46, Alt : 49.3199996948, Lat : 49.2836399, Lng : -123.1146612, Q1 : 0.791786909103, Q2 : 0.0928516238928, Q3 : -0.122605219483, Q4 : 0.591117620468}
2019-04-14 13:32:23.91: SIM {TimeUS : 62734896, Roll : 0.11, Pitch : -17.74, Yaw : 73.44, Alt : 49.3199996948, Lat : 49.283641, Lng : -123.1146551, Q1 : 0.791869103909, Q2 : 0.0930150896311, Q3 : -0.123011410236, Q4 : 0.590897381306}
2019-04-14 13:32:24.01: SIM {TimeUS : 62834856, Roll : 0.1, Pitch : -17.79, Yaw : 73.41, Alt : 49.3199996948, Lat : 49.2836421, Lng : -123.1146489, Q1 : 0.791959762573, Q2 : 0.0931710526347, Q3 : -0.123467102647, Q4 : 0.590656220913}
2019-04-14 13:32:24.11: SIM {TimeUS : 62934816, Roll : 0.11, Pitch : -17.82, Yaw : 73.38, Alt : 49.3199996948, Lat : 49.2836433, Lng : -123.1146428, Q1 : 0.792058825493, Q2 : 0.0933614745736, Q3 : -0.123687647283, Q4 : 0.590447187424}
2019-04-14 13:32:24.21: SIM {TimeUS : 63034776, Roll : 0.12, Pitch : -17.82, Yaw : 73.36, Alt : 49.3199996948, Lat : 49.2836445, Lng : -123.1146366, Q1 : 0.792192876339, Q2 : 0.0934409499168, Q3 : -0.123626291752, Q4 : 0.590267539024}
2019-04-14 13:32:24.31: SIM {TimeUS : 63134736, Roll : 0.14, Pitch : -17.79, Yaw : 73.33, Alt : 49.3199996948, Lat : 49.2836457, Lng : -123.1146304, Q1 : 0.792350113392, Q2 : 0.0934007316828, Q3 : -0.123303674161, Q4 : 0.590130329132}
2019-04-14 13:32:24.41: SIM {TimeUS : 63235529, Roll : 0.15, Pitch : -17.76, Yaw : 73.31, Alt : 49.3199996948, Lat : 49.2836469, Lng : -123.1146241, Q1 : 0.792491614819, Q2 : 0.0932702422142, Q3 : -0.123070687056, Q4 : 0.590009629726}
2019-04-14 13:32:24.51: SIM {TimeUS : 63335489, Roll : 0.15, Pitch : -17.74, Yaw : 73.29, Alt : 49.3300018311, Lat : 49.2836481, Lng : -123.1146179, Q1 : 0.79261380434, Q2 : 0.0930949226022, Q3 : -0.122938320041, Q4 : 0.58990073204}
2019-04-14 13:32:24.61: SIM {TimeUS : 63435449, Roll : 0.14, Pitch : -17.73, Yaw : 73.27, Alt : 49.3300018311, Lat : 49.2836493, Lng : -123.1146117, Q1 : 0.79269182682, Q2 : 0.0930255800486, Q3 : -0.122932218015, Q4 : 0.589808166027}
2019-04-14 13:32:24.71: SIM {TimeUS : 63535409, Roll : 0.14, Pitch : -17.75, Yaw : 73.26, Alt : 49.3300018311, Lat : 49.2836505, Lng : -123.1146053, Q1 : 0.792722523212, Q2 : 0.0931011885405, Q3 : -0.123104870319, Q4 : 0.589718937874}
2019-04-14 13:32:24.81: SIM {TimeUS : 63635369, Roll : 0.15, Pitch : -17.78, Yaw : 73.26, Alt : 49.3300018311, Lat : 49.2836516, Lng : -123.1145992, Q1 : 0.792729020119, Q2 : 0.0932948961854, Q3 : -0.123285345733, Q4 : 0.589641869068}
2019-04-14 13:32:24.91: SIM {TimeUS : 63735329, Roll : 0.14, Pitch : -17.83, Yaw : 73.25, Alt : 49.3300018311, Lat : 49.2836528, Lng : -123.1145929, Q1 : 0.792721986771, Q2 : 0.093480207026, Q3 : -0.123655959964, Q4 : 0.589544355869}
2019-04-14 13:32:25.01: SIM {TimeUS : 63835289, Roll : 0.13, Pitch : -17.88, Yaw : 73.24, Alt : 49.3300018311, Lat : 49.283654, Lng : -123.1145867, Q1 : 0.792710721493, Q2 : 0.0936624258757, Q3 : -0.12407309562, Q4 : 0.589442908764}
2019-04-14 13:32:25.11: SIM {TimeUS : 63935249, Roll : 0.13, Pitch : -17.92, Yaw : 73.23, Alt : 49.3300018311, Lat : 49.2836552, Lng : -123.1145804, Q1 : 0.792711913586, Q2 : 0.0938079506159, Q3 : -0.124341212213, Q4 : 0.589361608028}
2019-04-14 13:32:25.21: SIM {TimeUS : 64035209, Roll : 0.11, Pitch : -17.95, Yaw : 73.23, Alt : 49.3300018311, Lat : 49.2836564, Lng : -123.1145741, Q1 : 0.792729556561, Q2 : 0.0938602238894, Q3 : -0.124612994492, Q4 : 0.589272141457}
2019-04-14 13:32:25.31: SIM {TimeUS : 64135169, Roll : 0.1, Pitch : -17.96, Yaw : 73.22, Alt : 49.3300018311, Lat : 49.2836576, Lng : -123.1145678, Q1 : 0.792764127254, Q2 : 0.0938718542457, Q3 : -0.124815613031, Q4 : 0.58918094635}
2019-04-14 13:32:25.41: SIM {TimeUS : 64235129, Roll : 0.11, Pitch : -17.96, Yaw : 73.21, Alt : 49.3300018311, Lat : 49.2836588, Lng : -123.1145615, Q1 : 0.792817413807, Q2 : 0.0939147993922, Q3 : -0.124733418226, Q4 : 0.589119791985}
2019-04-14 13:32:25.51: SIM {TimeUS : 64335089, Roll : 0.14, Pitch : -17.97, Yaw : 73.19, Alt : 49.3300018311, Lat : 49.28366, Lng : -123.1145552, Q1 : 0.792866170406, Q2 : 0.0941079035401, Q3 : -0.124649353325, Q4 : 0.589041173458}
2019-04-14 13:32:25.61: SIM {TimeUS : 64435049, Roll : 0.15, Pitch : -17.98, Yaw : 73.18, Alt : 49.3300018311, Lat : 49.2836612, Lng : -123.1145489, Q1 : 0.792923510075, Q2 : 0.0942403152585, Q3 : -0.124713778496, Q4 : 0.588929116726}
2019-04-14 13:32:25.71: SIM {TimeUS : 64535009, Roll : 0.16, Pitch : -17.99, Yaw : 73.16, Alt : 49.3300018311, Lat : 49.2836624, Lng : -123.1145426, Q1 : 0.792992830276, Q2 : 0.094326980412, Q3 : -0.124727532268, Q4 : 0.588819026947}
2019-04-14 13:32:25.81: SIM {TimeUS : 64634969, Roll : 0.17, Pitch : -17.98, Yaw : 73.14, Alt : 49.3300018311, Lat : 49.2836635, Lng : -123.1145362, Q1 : 0.793069779873, Q2 : 0.0943517908454, Q3 : -0.124647028744, Q4 : 0.588728427887}
2019-04-14 13:32:25.91: SIM {TimeUS : 64734929, Roll : 0.17, Pitch : -17.98, Yaw : 73.13, Alt : 49.3400001526, Lat : 49.2836647, Lng : -123.1145299, Q1 : 0.793137609959, Q2 : 0.0943510085344, Q3 : -0.124616801739, Q4 : 0.588643610477}
2019-04-14 13:32:26.01: SIM {TimeUS : 64834889, Roll : 0.16, Pitch : -18.0, Yaw : 73.12, Alt : 49.3400001526, Lat : 49.2836659, Lng : -123.1145235, Q1 : 0.793190956116, Q2 : 0.0943537950516, Q3 : -0.124791547656, Q4 : 0.588534295559}
2019-04-14 13:32:26.11: SIM {TimeUS : 64934849, Roll : 0.14, Pitch : -18.03, Yaw : 73.11, Alt : 49.3400001526, Lat : 49.2836671, Lng : -123.1145172, Q1 : 0.793223321438, Q2 : 0.0943801477551, Q3 : -0.125116825104, Q4 : 0.588417291641}
2019-04-14 13:32:26.21: SIM {TimeUS : 65034809, Roll : 0.13, Pitch : -18.03, Yaw : 73.1, Alt : 49.3400001526, Lat : 49.2836683, Lng : -123.1145108, Q1 : 0.793269455433, Q2 : 0.0943180769682, Q3 : -0.125208497047, Q4 : 0.588345587254}
2019-04-14 13:32:26.31: SIM {TimeUS : 65134769, Roll : 0.14, Pitch : -18.02, Yaw : 73.09, Alt : 49.3400001526, Lat : 49.2836697, Lng : -123.1145045, Q1 : 0.79331433773, Q2 : 0.094312004745, Q3 : -0.125073000789, Q4 : 0.588314831257}
2019-04-14 13:32:26.41: SIM {TimeUS : 65235562, Roll : 0.16, Pitch : -18.01, Yaw : 73.08, Alt : 49.3400001526, Lat : 49.2836709, Lng : -123.114498, Q1 : 0.793345987797, Q2 : 0.0943850800395, Q3 : -0.12492980063, Q4 : 0.588290929794}
2019-04-14 13:32:26.51: SIM {TimeUS : 65335522, Roll : 0.17, Pitch : -18.02, Yaw : 73.08, Alt : 49.3400001526, Lat : 49.283672, Lng : -123.1144916, Q1 : 0.793375432491, Q2 : 0.0944345518947, Q3 : -0.124959625304, Q4 : 0.588236927986}
2019-04-14 13:32:26.61: SIM {TimeUS : 65435482, Roll : 0.15, Pitch : -18.03, Yaw : 73.07, Alt : 49.3400001526, Lat : 49.2836732, Lng : -123.1144853, Q1 : 0.793412983418, Q2 : 0.0943909808993, Q3 : -0.125149771571, Q4 : 0.588152825832}
2019-04-14 13:32:26.71: SIM {TimeUS : 65535442, Roll : 0.12, Pitch : -18.05, Yaw : 73.06, Alt : 49.3400001526, Lat : 49.2836744, Lng : -123.1144789, Q1 : 0.793453752995, Q2 : 0.0942815467715, Q3 : -0.125461816788, Q4 : 0.588048934937}
2019-04-14 13:32:26.81: SIM {TimeUS : 65635402, Roll : 0.11, Pitch : -18.07, Yaw : 73.05, Alt : 49.3400001526, Lat : 49.2836758, Lng : -123.1144725, Q1 : 0.793491601944, Q2 : 0.0942807272077, Q3 : -0.125647976995, Q4 : 0.587958157063}
2019-04-14 13:32:26.91: SIM {TimeUS : 65735362, Roll : 0.11, Pitch : -18.09, Yaw : 73.04, Alt : 49.3400001526, Lat : 49.283677, Lng : -123.1144661, Q1 : 0.793520867825, Q2 : 0.0944033786654, Q3 : -0.125741630793, Q4 : 0.587879002094}
2019-04-14 13:32:27.01: SIM {TimeUS : 65835322, Roll : 0.13, Pitch : -18.1, Yaw : 73.03, Alt : 49.3400001526, Lat : 49.2836782, Lng : -123.1144597, Q1 : 0.793546557426, Q2 : 0.0945513620973, Q3 : -0.125789090991, Q4 : 0.587810337543}
2019-04-14 13:32:27.11: SIM {TimeUS : 65935282, Roll : 0.15, Pitch : -18.12, Yaw : 73.02, Alt : 49.3400001526, Lat : 49.2836793, Lng : -123.1144533, Q1 : 0.793569147587, Q2 : 0.0947793424129, Q3 : -0.12577919662, Q4 : 0.587745249271}
2019-04-14 13:32:27.21: SIM {TimeUS : 66035242, Roll : 0.17, Pitch : -18.14, Yaw : 73.01, Alt : 49.3400001526, Lat : 49.2836807, Lng : -123.1144469, Q1 : 0.793591022491, Q2 : 0.0949988812208, Q3 : -0.125828117132, Q4 : 0.587669789791}
2019-04-14 13:32:27.31: SIM {TimeUS : 66135202, Roll : 0.18, Pitch : -18.16, Yaw : 73.0, Alt : 49.3499984741, Lat : 49.2836819, Lng : -123.1144405, Q1 : 0.793613314629, Q2 : 0.0951895564795, Q3 : -0.125906273723, Q4 : 0.587592124939}
