2019-04-14 13:53:56.90: SIM {TimeUS : 40116447, Roll : 0.0, Pitch : 0.0, Yaw : 0.0, Alt : 30.1000003815, Lat : 49.28357, Lng : -123.11502, Q1 : 1.0, Q2 : 0.0, Q3 : 0.0, Q4 : 0.0}
2019-04-14 13:53:57.01: SIM {TimeUS : 40235566, Roll : 0.0, Pitch : 0.0, Yaw : 0.0, Alt : 30.1000003815, Lat : 49.28357, Lng : -123.11502, Q1 : 1.0, Q2 : 0.0, Q3 : 0.0, Q4 : 0.0}
2019-04-14 13:53:57.11: SIM {TimeUS : 40335526, Roll : 0.0, Pitch : 0.0, Yaw : 0.0, Alt : 30.1000003815, Lat : 49.28357, Lng : -123.11502, Q1 : 1.0, Q2 : 0.0, Q3 : 0.0, Q4 : 0.0}
2019-04-14 13:53:57.21: SIM {TimeUS : 40435486, Roll : 0.0, Pitch : 0.0, Yaw : 0.0, Alt : 30.1000003815, Lat : 49.28357, Lng : -123.11502, Q1 : 1.0, Q2 : 0.0, Q3 : 0.0, Q4 : 0.0}
2019-04-14 13:53:57.31: SIM {TimeUS : 40535446, Roll : 0.0, Pitch : 0.0, Yaw : 0.0, Alt : 30.1000003815, Lat : 49.28357, Lng : -123.11502, Q1 : 1.0, Q2 : 0.0, Q3 : 0.0, Q4 : 0.0}
2019-04-14 13:53:57.41: SIM {TimeUS : 40635406, Roll : 0.0, Pitch : 0.0, Yaw : 0.0, Alt : 30.1000003815, Lat : 49.28357, Lng : -123.11502, Q1 : 1.0, Q2 : 0.0, Q3 : 0.0, Q4 : 0.0}
2019-04-14 13:53:57.51: SIM {TimeUS : 40735366, Roll : 0.0, Pitch : 0.0, Yaw : 0.0, Alt : 30.1000003815, Lat : 49.28357, Lng : -123.11502, Q1 : 1.0, Q2 : 0.0, Q3 : 0.0, Q4 : 0.0}
2019-04-14 13:53:57.61: SIM {TimeUS : 40835326, Roll : 0.0, Pitch : 0.0, Yaw : 0.0, Alt : 30.1000003815, Lat : 49.28357, Lng : -123.11502, Q1 : 1.0, Q2 : 0.0, Q3 : 0.0, Q4 : 0.0}
2019-04-14 13:53:57.71: SIM {TimeUS : 40935286, Roll : 0.0, Pitch : 0.0, Yaw : 0.0, Alt : 30.1000003815, Lat : 49.28357, Lng : -123.11502, Q1 : 1.0, Q2 : 0.0, Q3 : 0.0, Q4 : 0.0}
2019-04-14 13:53:57.81: SIM {TimeUS : 41035246, Roll : 0.0, Pitch : 0.0, Yaw : 0.0, Alt : 30.1000003815, Lat : 49.28357, Lng : -123.11502, Q1 : 1.0, Q2 : 0.0, Q3 : 0.0, Q4 : 0.0}
2019-04-14 13:53:57.91: SIM {TimeUS : 41135206, Roll : 0.0, Pitch : 0.0, Yaw : 0.0, Alt : 30.1000003815, Lat : 49.28357, Lng : -123.11502, Q1 : 1.0, Q2 : 0.0, Q3 : 0.0, Q4 : 0.0}
2019-04-14 13:53:58.01: SIM {TimeUS : 41235166, Roll : 0.0, Pitch : 0.0, Yaw : 0.0, Alt : 30.1000003815, Lat : 49.28357, Lng : -123.11502, Q1 : 1.0, Q2 : 0.0, Q3 : 0.0, Q4 : 0.0}
2019-04-14 13:53:58.11: SIM {TimeUS : 41335126, Roll : 0.0, Pitch : 0.0, Yaw : 0.0, Alt : 30.1000003815, Lat : 49.28357, Lng : -123.11502, Q1 : 1.0, Q2 : 0.0, Q3 : 0.0, Q4 : 0.0}
2019-04-14 13:53:58.21: SIM {TimeUS : 41435086, Roll : 0.0, Pitch : 0.0, Yaw : 0.0, Alt : 30.1000003815, Lat : 49.28357, Lng : -123.11502, Q1 : 1.0, Q2 : 0.0, Q3 : 0.0, Q4 : 0.0}
2019-04-14 13:53:58.31: SIM {TimeUS : 41535046, Roll : 0.0, Pitch : 0.0, Yaw : 0.0, Alt : 30.1000003815, Lat : 49.28357, Lng : -123.11502, Q1 : 1.0, Q2 : 0.0, Q3 : 0.0, Q4 : 0.0}
2019-04-14 13:53:58.41: SIM {TimeUS : 41635006, Roll : 0.0, Pitch : 0.0, Yaw : 0.0, Alt : 30.1000003815, Lat : 49.28357, Lng : -123.11502, Q1 : 1.0, Q2 : 0.0, Q3 : 0.0, Q4 : 0.0}
2019-04-14 13:53:58.51: SIM {TimeUS : 41734966, Roll : 0.0, Pitch : 0.0, Yaw : 0.0, Alt : 30.1000003815, Lat : 49.28357, Lng : -123.11502, Q1 : 1.0, Q2 : 0.0, Q3 : 0.0, Q4 : 0.0}
2019-04-14 13:53:58.61: SIM {TimeUS : 41834926, Roll : 0.0, Pitch : 0.0, Yaw : 0.0, Alt : 30.1000003815, Lat : 49.28357, Lng : -123.11502, Q1 : 1.0, Q2 : 0.0, Q3 : 0.0, Q4 : 0.0}
2019-04-14 13:53:58.71: SIM {TimeUS : 41934886, Roll : 0.0, Pitch : 0.0, Yaw : 0.0, Alt : 30.1000003815, Lat : 49.28357, Lng : -123.11502, Q1 : 1.0, Q2 : 0.0, Q3 : 0.0, Q4 : 0.0}
2019-04-14 13:53:58.81: SIM {TimeUS : 42034846, Roll : 0.0, Pitch : 0.0, Yaw : 0.0, Alt : 30.1000003815, Lat : 49.28357, Lng : -123.11502, Q1 : 1.0, Q2 : 0.0, Q3 : 0.0, Q4 : 0.0}
2019-04-14 13:53:58.91: SIM {TimeUS : 42134806, Roll : 0.0, Pitch : 0.0, Yaw : 0.0, Alt : 30.1000003815, Lat : 49.28357, Lng : -123.11502, Q1 : 1.0, Q2 : 0.0, Q3 : 0.0, Q4 : 0.0}
2019-04-14 13:53:59.02: SIM {TimeUS : 42235599, Roll : 0.0, Pitch : 0.0, Yaw : 0.0, Alt : 30.1000003815, Lat : 49.28357, Lng : -123.11502, Q1 : 1.0, Q2 : 0.0, Q3 : 0.0, Q4 : 0.0}
2019-04-14 13:53:59.11: SIM {TimeUS : 42335559, Roll : 0.0, Pitch : 0.0, Yaw : 0.0, Alt : 30.1000003815, Lat : 49.28357, Lng : -123.11502, Q1 : 1.0, Q2 : 0.0, Q3 : 0.0, Q4 : 0.0}
2019-04-14 13:53:59.21: SIM {TimeUS : 42435519, Roll : 0.0, Pitch : 0.0, Yaw : 0.0, Alt : 30.1000003815, Lat : 49.28357, Lng : -123.11502, Q1 : 1.0, Q2 : 0.0, Q3 : 0.0, Q4 : 3.91291166135e-11}
2019-04-14 13:53:59.31: SIM {TimeUS : 42535479, Roll : 0.0, Pitch : 0.0, Yaw : 0.0, Alt : 30.1000003815, Lat : 49.28357, Lng : -123.11502, Q1 : 1.0, Q2 : 0.0, Q3 : 0.0, Q4 : 1.90754856355e-10}
2019-04-14 13:53:59.41: SIM {TimeUS : 42635439, Roll : 0.0, Pitch : 0.0, Yaw : 360.0, Alt : 30.1000003815, Lat : 49.28357, Lng : -123.11502, Q1 : 1.0, Q2 : 0.0, Q3 : 0.0, Q4 : -1.36898975711e-07}
2019-04-14 13:53:59.51: SIM {TimeUS : 42735399, Roll : 0.0, Pitch : 0.0, Yaw : 359.99, Alt : 30.1000003815, Lat : 49.28357, Lng : -123.11502, Q1 : 1.0, Q2 : 0.0, Q3 : 0.0, Q4 : -3.21001067505e-07}
2019-04-14 13:53:59.61: SIM {TimeUS : 42835359, Roll : 0.0, Pitch : 0.0, Yaw : 359.99, Alt : 30.1000003815, Lat : 49.28357, Lng : -123.11502, Q1 : 1.0, Q2 : 0.0, Q3 : 0.0, Q4 : -5.04470449414e-07}
2019-04-14 13:53:59.71: SIM {TimeUS : 42935319, Roll : 0.0, Pitch : 0.0, Yaw : 359.99, Alt : 30.1000003815, Lat : 49.28357, Lng : -123.11502, Q1 : 1.0, Q2 : 0.0, Q3 : 0.0, Q4 : -7.39710742437e-07}
2019-04-14 13:53:59.81: SIM {TimeUS : 43035279, Roll : 0.0, Pitch : 0.0, Yaw : 359.99, Alt : 30.1000003815, Lat : 49.28357, Lng : -123.11502, Q1 : 1.0, Q2 : 0.0, Q3 : 0.0, Q4 : -9.28782014853e-07}
2019-04-14 13:53:59.91: SIM {TimeUS : 43135239, Roll : 0.0, Pitch : 0.0, Yaw : 359.99, Alt : 30.1000003815, Lat : 49.28357, Lng : -123.11502, Q1 : 1.0, Q2 : 0.0, Q3 : 0.0, Q4 : -1.13788007639e-06}
2019-04-14 13:54:00.01: SIM {TimeUS : 43235199, Roll : 0.0, Pitch : 0.0, Yaw : 359.99, Alt : 30.1000003815, Lat : 49.28357, Lng : -123.11502, Q1 : 1.0, Q2 : 0.0, Q3 : 0.0, Q4 : -1.37913480103e-06}
2019-04-14 13:54:00.11: SIM {TimeUS : 43335159, Roll : 0.0, Pitch : 0.0, Yaw : 359.99, Alt : 30.1200008392, Lat : 49.28357, Lng : -123.11502, Q1 : 1.0, Q2 : 0.0, Q3 : 0.0, Q4 : -1.57111617227e-06}
2019-04-14 13:54:00.21: SIM {TimeUS : 43435119, Roll : 0.0, Pitch : 0.0, Yaw : 359.99, Alt : 30.1399993896, Lat : 49.28357, Lng : -123.11502, Q1 : 1.0, Q2 : 0.0, Q3 : 0.0, Q4 : -1.81498398888e-06}
2019-04-14 13:54:00.31: SIM {TimeUS : 43535079, Roll : 0.0, Pitch : 0.0, Yaw : 359.99, Alt : 30.1700000763, Lat : 49.28357, Lng : -123.11502, Q1 : 1.0, Q2 : 0.0, Q3 : 0.0, Q4 : -2.07839957511e-06}
2019-04-14 13:54:00.41: SIM {TimeUS : 43635039, Roll : 0.0, Pitch : 0.0, Yaw : 359.99, Alt : 30.2000007629, Lat : 49.28357, Lng : -123.11502, Q1 : 1.0, Q2 : 0.0, Q3 : 0.0, Q4 : -2.32104230236e-06}
2019-04-14 13:54:00.51: SIM {TimeUS : 43734999, Roll : -0.1, Pitch : -0.09, Yaw : 359.99, Alt : 30.25, Lat : 49.28357, Lng : -123.11502, Q1 : 0.99999922514, Q2 : -0.000879569444805, Q3 : -0.00085546344053, Q4 : -1.08462027129e-05}
2019-04-14 13:54:00.61: SIM {TimeUS : 43834959, Roll : -0.4, Pitch : -0.35, Yaw : 359.99, Alt : 30.3500003815, Lat : 49.28357, Lng : -123.11502, Q1 : 0.999988913536, Q2 : -0.00356657290831, Q3 : -0.00307166925631, Q4 : -5.13345003128e-05}
2019-04-14 13:54:00.71: SIM {TimeUS : 43934919, Roll : -0.71, Pitch : -0.56, Yaw : 359.99, Alt : 30.4899997711, Lat : 49.28357, Lng : -123.11502, Q1 : 0.999968349934, Q2 : -0.00623952550814, Q3 : -0.00493164313957, Q4 : -0.000114425769425}
2019-04-14 13:54:00.81: SIM {TimeUS : 44034879, Roll : -0.87, Pitch : -0.66, Yaw : 359.98, Alt : 30.6499996185, Lat : 49.28357, Lng : -123.11502, Q1 : 0.99995392561, Q2 : -0.00761593971401, Q3 : -0.00584477931261, Q4 : -0.000194574953639}
2019-04-14 13:54:00.91: SIM {TimeUS : 44134839, Roll : -0.86, Pitch : -0.66, Yaw : 359.97, Alt : 30.8099994659, Lat : 49.28357, Lng : -123.11502, Q1 : 0.999954998493, Q2 : -0.00751309888437, Q3 : -0.00579160824418, Q4 : -0.000282795226667}
2019-04-14 13:54:01.01: SIM {TimeUS : 44234799, Roll : -0.71, Pitch : -0.56, Yaw : 359.96, Alt : 30.9599990845, Lat : 49.2835701, Lng : -123.1150201, Q1 : 0.99996805191, Q2 : -0.00626292126253, Q3 : -0.00495808757842, Q4 : -0.000367984524928}
2019-04-14 13:54:01.12: SIM {TimeUS : 44335592, Roll : -0.49, Pitch : -0.41, Yaw : 359.95, Alt : 31.1200008392, Lat : 49.2835701, Lng : -123.1150202, Q1 : 0.999983966351, Q2 : -0.00435153115541, Q3 : -0.00360318925232, Q4 : -0.000443111901404}
2019-04-14 13:54:01.21: SIM {TimeUS : 44435552, Roll : -0.25, Pitch : -0.25, Yaw : 359.94, Alt : 31.2800006866, Lat : 49.2835701, Lng : -123.1150203, Q1 : 0.999994874001, Q2 : -0.00220844591968, Q3 : -0.00225427979603, Q4 : -0.000505786330905}
2019-04-14 13:54:01.31: SIM {TimeUS : 44535512, Roll : -0.05, Pitch : -0.11, Yaw : 359.93, Alt : 31.4400005341, Lat : 49.2835702, Lng : -123.1150204, Q1 : 0.999999165535, Q2 : -0.000502988579683, Q3 : -0.00104165810626, Q4 : -0.000554000842385}
2019-04-14 13:54:01.41: SIM {TimeUS : 44635472, Roll : 0.04, Pitch : -0.01, Yaw : 359.93, Alt : 31.6100006104, Lat : 49.2835702, Lng : -123.1150204, Q1 : 0.999999761581, Q2 : 0.000374548690161, Q3 : -0.00012177946337, Q4 : -0.000586523208767}
2019-04-14 13:54:01.51: SIM {TimeUS : 44735432, Roll : 0.07, Pitch : 0.04, Yaw : 359.93, Alt : 31.7900009155, Lat : 49.2835703, Lng : -123.1150205, Q1 : 0.999999582767, Q2 : 0.000648351327982, Q3 : 0.000356514938176, Q4 : -0.000609489972703}
2019-04-14 13:54:01.61: SIM {TimeUS : 44835392, Roll : 0.06, Pitch : 0.05, Yaw : 359.92, Alt : 31.9699993134, Lat : 49.2835703, Lng : -123.1150206, Q1 : 0.999999523163, Q2 : 0.000556126295123, Q3 : 0.000519109133165, Q4 : -0.000624843756668}
2019-04-14 13:54:01.71: SIM {TimeUS : 44935352, Roll : 0.05, Pitch : 0.05, Yaw : 359.92, Alt : 32.1599998474, Lat : 49.2835703, Lng : -123.1150206, Q1 : 0.999999642372, Q2 : 0.000449931743788, Q3 : 0.000442547345301, Q4 : -0.000621870509349}
2019-04-14 13:54:01.81: SIM {TimeUS : 45035312, Roll : 0.05, Pitch : 0.03, Yaw : 359.93, Alt : 32.3499984741, Lat : 49.2835703, Lng : -123.1150207, Q1 : 0.999999642372, Q2 : 0.000518723332789, Q3 : 0.000265132664936, Q4 : -0.000604577711783}
2019-04-14 13:54:01.91: SIM {TimeUS : 45135272, Roll : 0.08, Pitch : 0.02, Yaw : 359.93, Alt : 32.5400009155, Lat : 49.2835703, Lng : -123.1150207, Q1 : 0.999999582767, Q2 : 0.000723296601791, Q3 : 0.000184431104572, Q4 : -0.000582875800319}
2019-04-14 13:54:02.01: SIM {TimeUS : 45235232, Roll : 0.1, Pitch : 0.04, Yaw : 359.93, Alt : 32.7400016785, Lat : 49.2835703, Lng : -123.1150208, Q1 : 0.999999344349, Q2 : 0.00094569218345, Q3 : 0.000384354236303, Q4 : -0.000556613435037}
2019-04-14 13:54:02.11: SIM {TimeUS : 45335192, Roll : 0.13, Pitch : 0.09, Yaw : 359.93, Alt : 32.9399986267, Lat : 49.2835704, Lng : -123.1150208, Q1 : 0.999998807907, Q2 : 0.00116663449444, Q3 : 0.000820116256364, Q4 : -0.000546378607396}
2019-04-14 13:54:02.21: SIM {TimeUS : 45435152, Roll : 0.14, Pitch : 0.14, Yaw : 359.93, Alt : 33.1399993896, Lat : 49.2835704, Lng : -123.1150209, Q1 : 0.999998211861, Q2 : 0.00126134452876, Q3 : 0.00127333740238, Q4 : -0.000545520044398}
2019-04-14 13:54:02.31: SIM {TimeUS : 45535112, Roll : 0.16, Pitch : 0.18, Yaw : 359.93, Alt : 33.3400001526, Lat : 49.2835704, Lng : -123.1150209, Q1 : 0.999997496605, Q2 : 0.0014245203929, Q3 : 0.0016441923799, Q4 : -0.00055172451539}
2019-04-14 13:54:02.41: SIM {TimeUS : 45635072, Roll : 0.18, Pitch : 0.2, Yaw : 359.93, Alt : 33.5499992371, Lat : 49.2835704, Lng : -123.1150209, Q1 : 0.999996840954, Q2 : 0.00162324309349, Q3 : 0.00182319933083, Q4 : -0.000562555680517}
2019-04-14 13:54:02.51: SIM {TimeUS : 45735032, Roll : 0.19, Pitch : 0.21, Yaw : 359.93, Alt : 33.7599983215, Lat : 49.2835706, Lng : -123.1150209, Q1 : 0.999996602535, Q2 : 0.00172804435715, Q3 : 0.00186453270726, Q4 : -0.000570520700421}
2019-04-14 13:54:02.61: SIM {TimeUS : 45834992, Roll : 0.18, Pitch : 0.2, Yaw : 359.93, Alt : 33.9599990845, Lat : 49.2835706, Lng : -123.1150209, Q1 : 0.999996900558, Q2 : 0.00164150516503, Q3 : 0.00178390846122, Q4 : -0.000581261410844}
2019-04-14 13:54:02.71: SIM {TimeUS : 45934952, Roll : 0.17, Pitch : 0.16, Yaw : 359.93, Alt : 34.1699981689, Lat : 49.2835706, Lng : -123.1150209, Q1 : 0.999997735023, Q2 : 0.00148737709969, Q3 : 0.00140837265644, Q4 : -0.000596931786276}
2019-04-14 13:54:02.81: SIM {TimeUS : 46034912, Roll : 0.14, Pitch : 0.1, Yaw : 359.93, Alt : 34.3899993896, Lat : 49.2835706, Lng : -123.1150209, Q1 : 0.999998688698, Q2 : 0.00122574239504, Q3 : 0.000884362612851, Q4 : -0.000597956182901}
2019-04-14 13:54:02.91: SIM {TimeUS : 46134872, Roll : 0.1, Pitch : 0.06, Yaw : 359.93, Alt : 34.5999984741, Lat : 49.2835706, Lng : -123.1150209, Q1 : 0.999999284744, Q2 : 0.000876923964825, Q3 : 0.000541033397894, Q4 : -0.000604038184974}
2019-04-14 13:54:03.01: SIM {TimeUS : 46234832, Roll : 0.07, Pitch : 0.04, Yaw : 359.92, Alt : 34.8100013733, Lat : 49.2835706, Lng : -123.1150209, Q1 : 0.999999523163, Q2 : 0.000644603860565, Q3 : 0.000425815145718, Q4 : -0.000618020829279}
2019-04-14 13:54:03.11: SIM {TimeUS : 46334792, Roll : 0.06, Pitch : 0.05, Yaw : 359.92, Alt : 35.0299987793, Lat : 49.2835706, Lng : -123.1150209, Q1 : 0.999999523163, Q2 : 0.000552503217477, Q3 : 0.00045844950364, Q4 : -0.000638856959995}
2019-04-14 13:54:03.22: SIM {TimeUS : 46435585, Roll : 0.05, Pitch : 0.05, Yaw : 359.92, Alt : 35.25, Lat : 49.2835706, Lng : -123.1150208, Q1 : 0.999999582767, Q2 : 0.000468087266199, Q3 : 0.000439253228251, Q4 : -0.000660689314827}
2019-04-14 13:54:03.31: SIM {TimeUS : 46535545, Roll : 0.04, Pitch : 0.05, Yaw : 359.92, Alt : 35.4599990845, Lat : 49.2835706, Lng : -123.1150208, Q1 : 0.999999582767, Q2 : 0.000361110694939, Q3 : 0.000443968223408, Q4 : -0.00068563624518}
2019-04-14 13:54:03.41: SIM {TimeUS : 46635505, Roll : 0.02, Pitch : 0.05, Yaw : 359.91, Alt : 35.6800003052, Lat : 49.2835706, Lng : -123.1150208, Q1 : 0.999999582767, Q2 : 0.000245785340667, Q3 : 0.000512731203344, Q4 : -0.000711654254701}
2019-04-14 13:54:03.51: SIM {TimeUS : 46735465, Roll : 0.01, Pitch : 0.07, Yaw : 359.91, Alt : 35.9000015259, Lat : 49.2835706, Lng : -123.1150208, Q1 : 0.999999523163, Q2 : 0.00011875382188, Q3 : 0.000630326394457, Q4 : -0.00073960213922}
2019-04-14 13:54:03.61: SIM {TimeUS : 46835425, Roll : 0.0, Pitch : 0.06, Yaw : 359.91, Alt : 36.1199989319, Lat : 49.2835706, Lng : -123.1150208, Q1 : 0.999999523163, Q2 : 5.47621129954e-06, Q3 : 0.000594197830651, Q4 : -0.000755239452701}
2019-04-14 13:54:03.71: SIM {TimeUS : 46935385, Roll : 0.0, Pitch : 0.05, Yaw : 359.91, Alt : 36.3400001526, Lat : 49.2835704, Lng : -123.1150208, Q1 : 0.999999582767, Q2 : -3.78668046324e-05, Q3 : 0.00046974507859, Q4 : -0.000771267747041}
2019-04-14 13:54:03.81: SIM {TimeUS : 47035345, Roll : -0.01, Pitch : 0.03, Yaw : 359.9, Alt : 36.5699996948, Lat : 49.2835704, Lng : -123.1150207, Q1 : 0.999999642372, Q2 : -0.000116807939776, Q3 : 0.000334824668244, Q4 : -0.0007942491211}
2019-04-14 13:54:03.91: SIM {TimeUS : 47135305, Roll : -0.01, Pitch : 0.02, Yaw : 359.9, Alt : 36.7900009155, Lat : 49.2835704, Lng : -123.1150207, Q1 : 0.999999642372, Q2 : -0.000172372616362, Q3 : 0.000207879158552, Q4 : -0.000826090981718}
2019-04-14 13:54:04.01: SIM {TimeUS : 47235265, Roll : 0.0, Pitch : 0.0, Yaw : 359.9, Alt : 37.0099983215, Lat : 49.2835704, Lng : -123.1150207, Q1 : 0.999999642372, Q2 : -7.81106355134e-05, Q3 : 8.28480406199e-05, Q4 : -0.000858010549564}
2019-04-14 13:54:04.11: SIM {TimeUS : 47335225, Roll : 0.0, Pitch : 0.0, Yaw : 359.89, Alt : 37.2400016785, Lat : 49.2835704, Lng : -123.1150207, Q1 : 0.999999582767, Q2 : -8.00680645625e-05, Q3 : -7.40253526601e-05, Q4 : -0.000885376124643}
2019-04-14 13:54:04.21: SIM {TimeUS : 47435185, Roll : -0.02, Pitch : -0.03, Yaw : 359.89, Alt : 37.4599990845, Lat : 49.2835704, Lng : -123.1150207, Q1 : 0.999999523163, Q2 : -0.000255765538896, Q3 : -0.000299179489957, Q4 : -0.000910303322598}
2019-04-14 13:54:04.31: SIM {TimeUS : 47535145, Roll : -0.06, Pitch : -0.05, Yaw : 359.89, Alt : 37.6899986267, Lat : 49.2835704, Lng : -123.1150207, Q1 : 0.999999284744, Q2 : -0.000559198961128, Q3 : -0.000493946718052, Q4 : -0.000938381301239}
2019-04-14 13:54:04.41: SIM {TimeUS : 47635105, Roll : -0.09, Pitch : -0.06, Yaw : 359.88, Alt : 37.9199981689, Lat : 49.2835704, Lng : -123.1150207, Q1 : 0.999998986721, Q2 : -0.000871912401635, Q3 : -0.00059894961305, Q4 : -0.000960780133028}
2019-04-14 13:54:04.51: SIM {TimeUS : 47735065, Roll : -0.12, Pitch : -0.08, Yaw : 359.88, Alt : 38.1399993896, Lat : 49.2835704, Lng : -123.1150207, Q1 : 0.999998688698, Q2 : -0.00108906545211, Q3 : -0.000712440232746, Q4 : -0.000983353238553}
2019-04-14 13:54:04.61: SIM {TimeUS : 47835025, Roll : -0.13, Pitch : -0.08, Yaw : 359.88, Alt : 38.3699989319, Lat : 49.2835704, Lng : -123.1150207, Q1 : 0.999998509884, Q2 : -0.00117008516099, Q3 : -0.000736792047974, Q4 : -0.00100604875479}
2019-04-14 13:54:04.71: SIM {TimeUS : 47934985, Roll : -0.12, Pitch : -0.06, Yaw : 359.88, Alt : 38.5999984741, Lat : 49.2835704, Lng : -123.1150207, Q1 : 0.999998748302, Q2 : -0.0010486865649, Q3 : -0.000590092909988, Q4 : -0.00102649454493}
2019-04-14 13:54:04.81: SIM {TimeUS : 48034945, Roll : -0.08, Pitch : -0.06, Yaw : 359.88, Alt : 38.8300018311, Lat : 49.2835704, Lng : -123.1150207, Q1 : 0.999998986721, Q2 : -0.000777150504291, Q3 : -0.000542082299944, Q4 : -0.00104435358662}
2019-04-14 13:54:04.91: SIM {TimeUS : 48134905, Roll : -0.06, Pitch : -0.06, Yaw : 359.87, Alt : 39.0600013733, Lat : 49.2835704, Lng : -123.1150207, Q1 : 0.99999910593, Q2 : -0.000599952938501, Q3 : -0.000531491707079, Q4 : -0.00106863048859}
2019-04-14 13:54:05.01: SIM {TimeUS : 48234865, Roll : -0.05, Pitch : -0.04, Yaw : 359.87, Alt : 39.2900009155, Lat : 49.2835704, Lng : -123.1150207, Q1 : 0.99999922514, Q2 : -0.000475625449326, Q3 : -0.000371424830519, Q4 : -0.00108455948066}
2019-04-14 13:54:05.11: SIM {TimeUS : 48334825, Roll : -0.06, Pitch : -0.01, Yaw : 359.87, Alt : 39.5200004578, Lat : 49.2835704, Lng : -123.1150207, Q1 : 0.99999922514, Q2 : -0.000555197708309, Q3 : -0.000126708458993, Q4 : -0.00109377515037}
2019-04-14 13:54:05.21: SIM {TimeUS : 48434785, Roll : -0.06, Pitch : 0.01, Yaw : 359.87, Alt : 39.75, Lat : 49.2835704, Lng : -123.1150207, Q1 : 0.99999922514, Q2 : -0.000544691749383, Q3 : 9.41866601352e-05, Q4 : -0.00110171397682}
2019-04-14 13:54:05.32: SIM {TimeUS : 48535578, Roll : -0.04, Pitch : 0.04, Yaw : 359.87, Alt : 39.9799995422, Lat : 49.2835704, Lng : -123.1150207, Q1 : 0.99999922514, Q2 : -0.000400035001803, Q3 : 0.000413467030739, Q4 : -0.00111467391253}
2019-04-14 13:54:05.41: SIM {TimeUS : 48635538, Roll : -0.02, Pitch : 0.05, Yaw : 359.87, Alt : 40.2099990845, Lat : 49.2835704, Lng : -123.1150207, Q1 : 0.99999922514, Q2 : -0.000197962479433, Q3 : 0.00048091771896, Q4 : -0.00112987996545}
2019-04-14 13:54:05.51: SIM {TimeUS : 48735498, Roll : 0.0, Pitch : 0.05, Yaw : 359.86, Alt : 40.4399986267, Lat : 49.2835704, Lng : -123.1150207, Q1 : 0.99999922514, Q2 : 5.94408738834e-05, Q3 : 0.000483339041239, Q4 : -0.00114527461119}
2019-04-14 13:54:05.61: SIM {TimeUS : 48835458, Roll : 0.04, Pitch : 0.06, Yaw : 359.86, Alt : 40.6800003052, Lat : 49.2835704, Lng : -123.1150207, Q1 : 0.99999910593, Q2 : 0.00035572834895, Q3 : 0.000579279090744, Q4 : -0.00116147811059}
2019-04-14 13:54:05.71: SIM {TimeUS : 48935418, Roll : 0.08, Pitch : 0.09, Yaw : 359.86, Alt : 40.9099998474, Lat : 49.2835704, Lng : -123.1150207, Q1 : 0.999998688698, Q2 : 0.000754969834816, Q3 : 0.000800439680461, Q4 : -0.00118564802688}
2019-04-14 13:54:05.81: SIM {TimeUS : 49035378, Roll : 0.11, Pitch : 0.11, Yaw : 359.86, Alt : 41.1399993896, Lat : 49.2835704, Lng : -123.1150207, Q1 : 0.999998211861, Q2 : 0.00100755831227, Q3 : 0.00104092364199, Q4 : -0.00121817749459}
2019-04-14 13:54:05.91: SIM {TimeUS : 49135338, Roll : 0.1, Pitch : 0.13, Yaw : 359.85, Alt : 41.3699989319, Lat : 49.2835706, Lng : -123.1150207, Q1 : 0.999998092651, Q2 : 0.000910157687031, Q3 : 0.00120696774684, Q4 : -0.00124038965441}
2019-04-14 13:54:06.01: SIM {TimeUS : 49235298, Roll : 0.05, Pitch : 0.14, Yaw : 359.85, Alt : 41.6100006104, Lat : 49.2835706, Lng : -123.1150207, Q1 : 0.999998211861, Q2 : 0.000483583222376, Q3 : 0.00129963480867, Q4 : -0.00126044393983}
2019-04-14 13:54:06.11: SIM {TimeUS : 49335258, Roll : 0.0, Pitch : 0.15, Yaw : 359.85, Alt : 41.8400001526, Lat : 49.2835706, Lng : -123.1150207, Q1 : 0.99999833107, Q2 : 4.63178839709e-05, Q3 : 0.00130943383556, Q4 : -0.00128459907137}
2019-04-14 13:54:06.21: SIM {TimeUS : 49435218, Roll : -0.01, Pitch : 0.11, Yaw : 359.84, Alt : 42.0699996948, Lat : 49.2835706, Lng : -123.1150207, Q1 : 0.999998629093, Q2 : -0.000136822185596, Q3 : 0.00102430360857, Q4 : -0.00131270429119}
2019-04-14 13:54:06.31: SIM {TimeUS : 49535178, Roll : -0.02, Pitch : 0.07, Yaw : 359.84, Alt : 42.3100013733, Lat : 49.2835706, Lng : -123.1150207, Q1 : 0.999998867512, Q2 : -0.000204549171031, Q3 : 0.000651410489809, Q4 : -0.00134310463909}
2019-04-14 13:54:06.41: SIM {TimeUS : 49635138, Roll : -0.01, Pitch : 0.06, Yaw : 359.84, Alt : 42.5400009155, Lat : 49.2835706, Lng : -123.1150207, Q1 : 0.999998867512, Q2 : -0.000150002539158, Q3 : 0.000608758244198, Q4 : -0.00137547485065}
2019-04-14 13:54:06.51: SIM {TimeUS : 49735098, Roll : 0.01, Pitch : 0.08, Yaw : 359.83, Alt : 42.7799987793, Lat : 49.2835706, Lng : -123.1150207, Q1 : 0.999998688698, Q2 : 0.000128881496494, Q3 : 0.000780585687608, Q4 : -0.00141535780858}
2019-04-14 13:54:06.61: SIM {TimeUS : 49835058, Roll : 0.07, Pitch : 0.11, Yaw : 359.83, Alt : 43.0099983215, Lat : 49.2835706, Lng : -123.1150207, Q1 : 0.999998271465, Q2 : 0.000613574869931, Q3 : 0.000975841365289, Q4 : -0.00144731753971}
2019-04-14 13:54:06.71: SIM {TimeUS : 49935018, Roll : 0.11, Pitch : 0.11, Yaw : 359.83, Alt : 43.25, Lat : 49.2835704, Lng : -123.1150207, Q1 : 0.999997973442, Q2 : 0.000972035806626, Q3 : 0.000974858412519, Q4 : -0.00147874059621}
2019-04-14 13:54:06.81: SIM {TimeUS : 50034978, Roll : 0.11, Pitch : 0.09, Yaw : 359.82, Alt : 43.4799995422, Lat : 49.2835704, Lng : -123.1150207, Q1 : 0.999997973442, Q2 : 0.00102903041989, Q3 : 0.000871069030836, Q4 : -0.00150043424219}
2019-04-14 13:54:06.91: SIM {TimeUS : 50134938, Roll : 0.07, Pitch : 0.09, Yaw : 359.82, Alt : 43.7200012207, Lat : 49.2835704, Lng : -123.1150207, Q1 : 0.99999833107, Q2 : 0.000667644606438, Q3 : 0.000787482538726, Q4 : -0.00150086684152}
2019-04-14 13:54:07.01: SIM {TimeUS : 50234898, Roll : 0.01, Pitch : 0.08, Yaw : 359.82, Alt : 43.9500007629, Lat : 49.2835704, Lng : -123.1150207, Q1 : 0.999998569489, Q2 : 0.000150763240526, Q3 : 0.000752917781938, Q4 : -0.00149595341645}
2019-04-14 13:54:07.11: SIM {TimeUS : 50334858, Roll : -0.02, Pitch : 0.09, Yaw : 359.82, Alt : 44.1899986267, Lat : 49.2835704, Lng : -123.1150207, Q1 : 0.999998569489, Q2 : -0.000212870814721, Q3 : 0.000799802481197, Q4 : -0.00149965053424}
2019-04-14 13:54:07.21: SIM {TimeUS : 50434818, Roll : -0.04, Pitch : 0.08, Yaw : 359.82, Alt : 44.4300003052, Lat : 49.2835704, Lng : -123.1150206, Q1 : 0.999998509884, Q2 : -0.000397476629587, Q3 : 0.000760030408856, Q4 : -0.00150744128041}
2019-04-14 13:54:07.31: SIM {TimeUS : 50534778, Roll : -0.04, Pitch : 0.06, Yaw : 359.82, Alt : 44.6599998474, Lat : 49.2835704, Lng : -123.1150206, Q1 : 0.999998569489, Q2 : -0.000398047268391, Q3 : 0.000567597220652, Q4 : -0.00152606132906}
2019-04-14 13:54:07.41: SIM {TimeUS : 50635571, Roll : -0.05, Pitch : 0.03, Yaw : 359.82, Alt : 44.9000015259, Lat : 49.2835704, Lng : -123.1150206, Q1 : 0.999998569489, Q2 : -0.000465068529593, Q3 : 0.000335186137818, Q4 : -0.00156447512563}
2019-04-14 13:54:07.51: SIM {TimeUS : 50735531, Roll : -0.04, Pitch : 0.01, Yaw : 359.81, Alt : 45.1399993896, Lat : 49.2835704, Lng : -123.1150206, Q1 : 0.999998629093, Q2 : -0.000426851416705, Q3 : 0.000144014484249, Q4 : -0.00161604909226}
2019-04-14 13:54:07.61: SIM {TimeUS : 50835491, Roll : -0.03, Pitch : 0.0, Yaw : 359.8, Alt : 45.3699989319, Lat : 49.2835704, Lng : -123.1150206, Q1 : 0.999998569489, Q2 : -0.000276366452454, Q3 : 5.54621983611e-05, Q4 : -0.00166764785536}
2019-04-14 13:54:07.71: SIM {TimeUS : 50935451, Roll : -0.02, Pitch : 0.0, Yaw : 359.8, Alt : 45.6100006104, Lat : 49.2835704, Lng : -123.1150206, Q1 : 0.999998509884, Q2 : -0.000230297562666, Q3 : 4.43664976046e-05, Q4 : -0.00171869760379}
2019-04-14 13:54:07.81: SIM {TimeUS : 51035411, Roll : -0.02, Pitch : 0.0, Yaw : 359.79, Alt : 45.8400001526, Lat : 49.2835703, Lng : -123.1150206, Q1 : 0.999998390675, Q2 : -0.000248548516538, Q3 : -3.78121803806e-05, Q4 : -0.0017675209092}
2019-04-14 13:54:07.91: SIM {TimeUS : 51135371, Roll : -0.03, Pitch : -0.02, Yaw : 359.79, Alt : 46.0699996948, Lat : 49.2835703, Lng : -123.1150206, Q1 : 0.999998271465, Q2 : -0.000291081523756, Q3 : -0.000228541524848, Q4 : -0.00181254942436}
2019-04-14 13:54:08.01: SIM {TimeUS : 51235331, Roll : -0.03, Pitch : -0.03, Yaw : 359.78, Alt : 46.2999992371, Lat : 49.2835703, Lng : -123.1150206, Q1 : 0.999998211861, Q2 : -0.000299888197333, Q3 : -0.0003201085201, Q4 : -0.00185024249367}
2019-04-14 13:54:08.11: SIM {TimeUS : 51335291, Roll : -0.02, Pitch : -0.04, Yaw : 359.78, Alt : 46.5200004578, Lat : 49.2835703, Lng : -123.1150206, Q1 : 0.999998152256, Q2 : -0.000246997864451, Q3 : -0.000356282194844, Q4 : -0.00187905342318}
2019-04-14 13:54:08.21: SIM {TimeUS : 51435251, Roll : -0.03, Pitch : -0.04, Yaw : 359.78, Alt : 46.7400016785, Lat : 49.2835703, Lng : -123.1150206, Q1 : 0.999998092651, Q2 : -0.000293578748824, Q3 : -0.000354080955731, Q4 : -0.00190169084817}
2019-04-14 13:54:08.31: SIM {TimeUS : 51535211, Roll : -0.05, Pitch : -0.03, Yaw : 359.77, Alt : 46.9500007629, Lat : 49.2835703, Lng : -123.1150205, Q1 : 0.999998033047, Q2 : -0.000474581727758, Q3 : -0.00028056796873, Q4 : -0.00192034360953}
2019-04-14 13:54:08.41: SIM {TimeUS : 51635171, Roll : -0.08, Pitch : -0.02, Yaw : 359.77, Alt : 47.1599998474, Lat : 49.2835703, Lng : -123.1150205, Q1 : 0.999997794628, Q2 : -0.000745082157664, Q3 : -0.000250018929364, Q4 : -0.0019346306799}
2019-04-14 13:54:08.51: SIM {TimeUS : 51735131, Roll : -0.1, Pitch : -0.02, Yaw : 359.77, Alt : 47.3600006104, Lat : 49.2835703, Lng : -123.1150205, Q1 : 0.999997675419, Q2 : -0.000914843694773, Q3 : -0.000235784042161, Q4 : -0.00194916629698}
2019-04-14 13:54:08.61: SIM {TimeUS : 51835091, Roll : -0.1, Pitch : -0.01, Yaw : 359.77, Alt : 47.5400009155, Lat : 49.2835703, Lng : -123.1150205, Q1 : 0.999997615814, Q2 : -0.000942899903748, Q3 : -0.000155360117787, Q4 : -0.00196522474289}
2019-04-14 13:54:08.71: SIM {TimeUS : 51935051, Roll : -0.12, Pitch : -0.01, Yaw : 359.77, Alt : 47.7200012207, Lat : 49.2835703, Lng : -123.1150205, Q1 : 0.999997437, Q2 : -0.00108345877379, Q3 : -0.000165671473951, Q4 : -0.00198262603953}
2019-04-14 13:54:08.81: SIM {TimeUS : 52035011, Roll : -0.13, Pitch : -0.03, Yaw : 359.77, Alt : 47.8899993896, Lat : 49.2835703, Lng : -123.1150205, Q1 : 0.999997258186, Q2 : -0.00119899830315, Q3 : -0.000303785054712, Q4 : -0.00200088694692}
2019-04-14 13:54:08.91: SIM {TimeUS : 52134971, Roll : -0.13, Pitch : -0.04, Yaw : 359.76, Alt : 48.0499992371, Lat : 49.2835703, Lng : -123.1150205, Q1 : 0.999997138977, Q2 : -0.00118649203796, Q3 : -0.000378004013328, Q4 : -0.00202639191411}
2019-04-14 13:54:09.01: SIM {TimeUS : 52234931, Roll : -0.12, Pitch : -0.04, Yaw : 359.76, Alt : 48.1899986267, Lat : 49.2835703, Lng : -123.1150205, Q1 : 0.999997198582, Q2 : -0.00107942172326, Q3 : -0.000418955198256, Q4 : -0.00205910601653}
2019-04-14 13:54:09.11: SIM {TimeUS : 52334891, Roll : -0.09, Pitch : -0.05, Yaw : 359.76, Alt : 48.3199996948, Lat : 49.2835703, Lng : -123.1150206, Q1 : 0.999997317791, Q2 : -0.000840163615067, Q3 : -0.000494036881719, Q4 : -0.00208963360637}
2019-04-14 13:54:09.21: SIM {TimeUS : 52434851, Roll : -0.05, Pitch : -0.06, Yaw : 359.75, Alt : 48.4399986267, Lat : 49.2835703, Lng : -123.1150206, Q1 : 0.999997437, Q2 : -0.000522676913533, Q3 : -0.000576575403102, Q4 : -0.00211798283271}
2019-04-14 13:54:09.31: SIM {TimeUS : 52534811, Roll : -0.03, Pitch : -0.07, Yaw : 359.75, Alt : 48.5499992371, Lat : 49.2835703, Lng : -123.1150206, Q1 : 0.999997437, Q2 : -0.000326588924509, Q3 : -0.00065030931728, Q4 : -0.00213988404721}
2019-04-14 13:54:09.42: SIM {TimeUS : 52635604, Roll : -0.03, Pitch : -0.08, Yaw : 359.75, Alt : 48.6500015259, Lat : 49.2835703, Lng : -123.1150206, Q1 : 0.999997377396, Q2 : -0.000311411014991, Q3 : -0.000700923614204, Q4 : -0.0021591517143}
2019-04-14 13:54:09.51: SIM {TimeUS : 52735564, Roll : -0.01, Pitch : -0.07, Yaw : 359.75, Alt : 48.7299995422, Lat : 49.2835703, Lng : -123.1150206, Q1 : 0.999997377396, Q2 : -0.000164388708072, Q3 : -0.00065921084024, Q4 : -0.00217707152478}
2019-04-14 13:54:09.61: SIM {TimeUS : 52835524, Roll : 0.01, Pitch : -0.06, Yaw : 359.74, Alt : 48.7999992371, Lat : 49.2835703, Lng : -123.1150206, Q1 : 0.999997437, Q2 : 8.84675027919e-05, Q3 : -0.000535441911779, Q4 : -0.00219833152369}
2019-04-14 13:54:09.71: SIM {TimeUS : 52935484, Roll : 0.03, Pitch : -0.04, Yaw : 359.74, Alt : 48.8699989319, Lat : 49.2835703, Lng : -123.1150206, Q1 : 0.999997377396, Q2 : 0.000312572316034, Q3 : -0.00036077349796, Q4 : -0.0022228108719}
2019-04-14 13:54:09.81: SIM {TimeUS : 53035444, Roll : 0.04, Pitch : -0.02, Yaw : 359.74, Alt : 48.9199981689, Lat : 49.2835703, Lng : -123.1150206, Q1 : 0.999997377396, Q2 : 0.000401318713557, Q3 : -0.000218365617911, Q4 : -0.00225284742191}
2019-04-14 13:54:09.91: SIM {TimeUS : 53135404, Roll : 0.05, Pitch : -0.01, Yaw : 359.73, Alt : 48.9700012207, Lat : 49.2835703, Lng : -123.1150206, Q1 : 0.999997258186, Q2 : 0.000496944412589, Q3 : -0.000141721306136, Q4 : -0.00228649028577}
2019-04-14 13:54:10.01: SIM {TimeUS : 53235364, Roll : 0.09, Pitch : -0.03, Yaw : 359.73, Alt : 49.0099983215, Lat : 49.2835703, Lng : -123.1150207, Q1 : 0.999996960163, Q2 : 0.000796016305685, Q3 : -0.000320985156577, Q4 : -0.00232192408293}
2019-04-14 13:54:10.11: SIM {TimeUS : 53335324, Roll : 0.25, Pitch : -0.09, Yaw : 359.73, Alt : 49.0499992371, Lat : 49.2835703, Lng : -123.1150207, Q1 : 0.999994337559, Q2 : 0.00224210391752, Q3 : -0.000844378722832, Q4 : -0.00235100346617}
2019-04-14 13:54:10.21: SIM {TimeUS : 53435284, Roll : 0.67, Pitch : -0.21, Yaw : 359.72, Alt : 49.0699996948, Lat : 49.2835704, Lng : -123.1150207, Q1 : 0.999978125095, Q2 : 0.00586772151291, Q3 : -0.00191230257042, Q4 : -0.00237256218679}
2019-04-14 13:54:10.31: SIM {TimeUS : 53535244, Roll : 1.34, Pitch : -0.41, Yaw : 359.72, Alt : 49.0999984741, Lat : 49.2835704, Lng : -123.1150206, Q1 : 0.999921679497, Q2 : 0.0117390388623, Q3 : -0.00362579943612, Q4 : -0.00239058630541}
2019-04-14 13:54:10.41: SIM {TimeUS : 53635204, Roll : 2.23, Pitch : -0.65, Yaw : 359.71, Alt : 49.1199989319, Lat : 49.2835704, Lng : -123.1150206, Q1 : 0.999791204929, Q2 : 0.0194448381662, Q3 : -0.00580592779443, Q4 : -0.00239479425363}
2019-04-14 13:54:10.51: SIM {TimeUS : 53735164, Roll : 3.24, Pitch : -0.93, Yaw : 359.7, Alt : 49.1399993896, Lat : 49.2835704, Lng : -123.1150205, Q1 : 0.999563157558, Q2 : 0.0282877832651, Q3 : -0.00822135619819, Q4 : -0.00237557035871}
2019-04-14 13:54:10.61: SIM {TimeUS : 53835124, Roll : 4.22, Pitch : -1.2, Yaw : 359.68, Alt : 49.1599998474, Lat : 49.2835704, Lng : -123.1150204, Q1 : 0.999262094498, Q2 : 0.0368538275361, Q3 : -0.0105672599748, Q4 : -0.00232377531938}
2019-04-14 13:54:10.71: SIM {TimeUS : 53935084, Roll : 5.02, Pitch : -1.44, Yaw : 359.67, Alt : 49.1699981689, Lat : 49.2835706, Lng : -123.1150201, Q1 : 0.998955667019, Q2 : 0.0438199825585, Q3 : -0.0127423321828, Q4 : -0.00224990653805}
2019-04-14 13:54:10.81: SIM {TimeUS : 54035044, Roll : 5.59, Pitch : -1.64, Yaw : 359.67, Alt : 49.1800003052, Lat : 49.2835707, Lng : -123.1150199, Q1 : 0.998703956604, Q2 : 0.0487556234002, Q3 : -0.0144471237436, Q4 : -0.00214441516437}
2019-04-14 13:54:10.91: SIM {TimeUS : 54135004, Roll : 5.98, Pitch : -1.8, Yaw : 359.67, Alt : 49.1899986267, Lat : 49.2835708, Lng : -123.1150194, Q1 : 0.998509287834, Q2 : 0.0521886870265, Q3 : -0.0158587172627, Q4 : -0.00201880303212}
2019-04-14 13:54:11.01: SIM {TimeUS : 54234964, Roll : 6.31, Pitch : -1.93, Yaw : 359.67, Alt : 49.2000007629, Lat : 49.2835709, Lng : -123.1150189, Q1 : 0.998338162899, Q2 : 0.0550263039768, Q3 : -0.0170174948871, Q4 : -0.0018657410983}
2019-04-14 13:54:11.11: SIM {TimeUS : 54334924, Roll : 6.64, Pitch : -2.05, Yaw : 359.68, Alt : 49.2099990845, Lat : 49.2835709, Lng : -123.1150182, Q1 : 0.998155236244, Q2 : 0.0579350627959, Q3 : -0.0180776081979, Q4 : -0.00169113173615}
2019-04-14 13:54:11.21: SIM {TimeUS : 54434884, Roll : 7.01, Pitch : -2.17, Yaw : 359.69, Alt : 49.2200012207, Lat : 49.2835712, Lng : -123.1150175, Q1 : 0.997945070267, Q2 : 0.0611457936466, Q3 : -0.0190963894129, Q4 : -0.00150039943401}
2019-04-14 13:54:11.31: SIM {TimeUS : 54534844, Roll : 7.38, Pitch : -2.26, Yaw : 359.7, Alt : 49.2299995422, Lat : 49.2835713, Lng : -123.1150166, Q1 : 0.997727513313, Q2 : 0.0643523707986, Q3 : -0.0199231728911, Q4 : -0.00131893251091}
2019-04-14 13:54:11.41: SIM {TimeUS : 54634804, Roll : 7.67, Pitch : -2.34, Yaw : 359.7, Alt : 49.2299995422, Lat : 49.2835715, Lng : -123.1150156, Q1 : 0.997546076775, Q2 : 0.0669026747346, Q3 : -0.0206029973924, Q4 : -0.00116799189709}
2019-04-14 13:54:11.52: SIM {TimeUS : 54735597, Roll : 7.89, Pitch : -2.41, Yaw : 359.71, Alt : 49.2400016785, Lat : 49.2835718, Lng : -123.1150144, Q1 : 0.997408211231, Q2 : 0.0687443688512, Q3 : -0.0212134607136, Q4 : -0.0010625628056}
2019-04-14 13:54:11.61: SIM {TimeUS : 54835557, Roll : 8.04, Pitch : -2.48, Yaw : 359.71, Alt : 49.2400016785, Lat : 49.283572, Lng : -123.1150132, Q1 : 0.997304022312, Q2 : 0.0700705423951, Q3 : -0.0217674784362, Q4 : -0.00100408087019}
2019-04-14 13:54:11.71: SIM {TimeUS : 54935517, Roll : 8.17, Pitch : -2.52, Yaw : 359.7, Alt : 49.25, Lat : 49.2835722, Lng : -123.1150119, Q1 : 0.997217237949, Q2 : 0.071173466742, Q3 : -0.0221652965993, Q4 : -0.000969229557086}
2019-04-14 13:54:11.81: SIM {TimeUS : 55035477, Roll : 8.3, Pitch : -2.54, Yaw : 359.7, Alt : 49.25, Lat : 49.2835726, Lng : -123.1150105, Q1 : 0.997132122517, Q2 : 0.0723127946258, Q3 : -0.0223074126989, Q4 : -0.000930976879317}
2019-04-14 13:54:11.91: SIM {TimeUS : 55135437, Roll : 8.54, Pitch : -2.41, Yaw : 359.83, Alt : 49.25, Lat : 49.2835728, Lng : -123.1150089, Q1 : 0.997000277042, Q2 : 0.0744724646211, Q3 : -0.0210775192827, Q4 : 0.000150374282384}
2019-04-14 13:54:12.01: SIM {TimeUS : 55235397, Roll : 8.96, Pitch : -2.05, Yaw : 0.61, Alt : 49.2599983215, Lat : 49.2835732, Lng : -123.1150072, Q1 : 0.99675911665, Q2 : 0.0782354846597, Q3 : -0.0174695067108, Q4 : 0.0067330468446}
2019-04-14 13:54:12.11: SIM {TimeUS : 55335357, Roll : 9.51, Pitch : -1.74, Yaw : 2.69, Alt : 49.2599983215, Lat : 49.2835734, Lng : -123.1150056, Q1 : 0.996135413647, Q2 : 0.0832552611828, Q3 : -0.0132066849619, Q4 : 0.024665825069}
2019-04-14 13:54:12.21: SIM {TimeUS : 55435317, Roll : 10.02, Pitch : -1.88, Yaw : 6.34, Alt : 49.2599983215, Lat : 49.2835738, Lng : -123.1150037, Q1 : 0.994436919689, Q2 : 0.0881275013089, Q3 : -0.0114881331101, Q4 : 0.0565398000181}
2019-04-14 13:54:12.31: SIM {TimeUS : 55535277, Roll : 10.31, Pitch : -2.65, Yaw : 11.46, Alt : 49.2599983215, Lat : 49.2835741, Lng : -123.1150017, Q1 : 0.990502476692, Q2 : 0.0916977375746, Q3 : -0.0139452582225, Q4 : 0.101497985423}
2019-04-14 13:54:12.41: SIM {TimeUS : 55635237, Roll : 10.22, Pitch : -4.02, Yaw : 17.81, Alt : 49.2599983215, Lat : 49.2835745, Lng : -123.1149997, Q1 : 0.982911527157, Q2 : 0.0934323221445, Q3 : -0.020770162344, Q4 : 0.157238557935}
2019-04-14 13:54:12.51: SIM {TimeUS : 55735197, Roll : 9.68, Pitch : -5.84, Yaw : 25.15, Alt : 49.2700004578, Lat : 49.2835747, Lng : -123.1149974, Q1 : 0.970314323902, Q2 : 0.0933421626687, Q3 : -0.031269133091, Q4 : 0.220906361938}
2019-04-14 13:54:12.61: SIM {TimeUS : 55835157, Roll : 8.62, Pitch : -7.88, Yaw : 33.23, Alt : 49.2700004578, Lat : 49.2835751, Lng : -123.114995, Q1 : 0.951779484749, Q2 : 0.0914460197091, Q3 : -0.0442208237946, Q4 : 0.289478778839}
2019-04-14 13:54:12.71: SIM {TimeUS : 55935117, Roll : 7.04, Pitch : -9.86, Yaw : 41.83, Alt : 49.2700004578, Lat : 49.2835753, Lng : -123.1149926, Q1 : 0.926997303963, Q2 : 0.0877765417099, Q3 : -0.0582832358778, Q4 : 0.359964430332}
2019-04-14 13:54:12.81: SIM {TimeUS : 56035077, Roll : 5.02, Pitch : -11.56, Yaw : 50.69, Alt : 49.2700004578, Lat : 49.2835757, Lng : -123.1149901, Q1 : 0.896374285221, Q2 : 0.0824968367815, Q3 : -0.0722524151206, Q4 : 0.429519563913}
2019-04-14 13:54:12.91: SIM {TimeUS : 56135037, Roll : 2.73, Pitch : -12.83, Yaw : 59.52, Alt : 49.2700004578, Lat : 49.2835761, Lng : -123.1149874, Q1 : 0.861060619354, Q2 : 0.0760396569967, Q3 : -0.0852478519082, Q4 : 0.495505183935}
2019-04-14 13:54:13.01: SIM {TimeUS : 56234997, Roll : 0.28, Pitch : -13.63, Yaw : 68.02, Alt : 49.2799987793, Lat : 49.2835764, Lng : -123.1149846, Q1 : 0.822895109653, Q2 : 0.0684002488852, Q3 : -0.0970024615526, Q4 : 0.555657804012}
2019-04-14 13:54:13.11: SIM {TimeUS : 56334957, Roll : -2.42, Pitch : -13.95, Yaw : 75.68, Alt : 49.2799987793, Lat : 49.2835769, Lng : -123.1149817, Q1 : 0.785234808922, Q2 : 0.0578868985176, Q3 : -0.108786709607, Q4 : 0.606812000275}
2019-04-14 13:54:13.21: SIM {TimeUS : 56434917, Roll : -5.04, Pitch : -13.85, Yaw : 81.83, Alt : 49.2799987793, Lat : 49.2835774, Lng : -123.1149786, Q1 : 0.752878844738, Q2 : 0.0459225662053, Q3 : -0.119643166661, Q4 : 0.645561873913}
2019-04-14 13:54:13.31: SIM {TimeUS : 56534877, Roll : -7.05, Pitch : -13.54, Yaw : 86.03, Alt : 49.2799987793, Lat : 49.283578, Lng : -123.1149755, Q1 : 0.729603409767, Q2 : 0.0356861315668, Q3 : -0.127742573619, Q4 : 0.670885443687}
2019-04-14 13:54:13.41: SIM {TimeUS : 56634837, Roll : -8.14, Pitch : -13.24, Yaw : 88.26, Alt : 49.2799987793, Lat : 49.2835787, Lng : -123.1149722, Q1 : 0.716837406158, Q2 : 0.0294485874474, Q3 : -0.131680816412, Q4 : 0.68405932188}
2019-04-14 13:54:13.51: SIM {TimeUS : 56734797, Roll : -8.26, Pitch : -13.1, Yaw : 88.75, Alt : 49.2799987793, Lat : 49.2835794, Lng : -123.1149689, Q1 : 0.713967978954, Q2 : 0.028423205018, Q3 : -0.131375715137, Q4 : 0.687155246735}
2019-04-14 13:54:13.62: SIM {TimeUS : 56835590, Roll : -7.51, Pitch : -13.22, Yaw : 87.83, Alt : 49.2799987793, Lat : 49.2835802, Lng : -123.1149654, Q1 : 0.719237327576, Q2 : 0.0327836126089, Q3 : -0.127919465303, Q4 : 0.682099342346}
2019-04-14 13:54:13.71: SIM {TimeUS : 56935550, Roll : -6.14, Pitch : -13.59, Yaw : 85.86, Alt : 49.2799987793, Lat : 49.2835812, Lng : -123.1149619, Q1 : 0.730267822742, Q2 : 0.04159225896, Q3 : -0.122782304883, Q4 : 0.670748472214}
2019-04-14 13:54:13.81: SIM {TimeUS : 57035510, Roll : -4.36, Pitch : -14.17, Yaw : 83.17, Alt : 49.2799987793, Lat : 49.283582, Lng : -123.1149583, Q1 : 0.744785785675, Q2 : 0.0535904690623, Q3 : -0.117266736925, Q4 : 0.654729485512}
2019-04-14 13:54:13.91: SIM {TimeUS : 57135470, Roll : -2.41, Pitch : -14.83, Yaw : 80.07, Alt : 49.2799987793, Lat : 49.2835831, Lng : -123.1149546, Q1 : 0.760800302029, Q2 : 0.0669878050685, Q3 : -0.112257741392, Q4 : 0.635683715343}
2019-04-14 13:54:14.01: SIM {TimeUS : 57235430, Roll : -0.51, Pitch : -15.42, Yaw : 76.86, Alt : 49.2799987793, Lat : 49.2835841, Lng : -123.1149508, Q1 : 0.776640892029, Q2 : 0.0799131840467, Q3 : -0.107890740037, Q4 : 0.615469276905}
2019-04-14 13:54:14.11: SIM {TimeUS : 57335390, Roll : 1.16, Pitch : -15.82, Yaw : 73.86, Alt : 49.2799987793, Lat : 49.283585, Lng : -123.1149469, Q1 : 0.790847182274, Q2 : 0.0908168107271, Q3 : -0.103986926377, Q4 : 0.596238017082}
2019-04-14 13:54:14.21: SIM {TimeUS : 57435350, Roll : 2.48, Pitch : -16.02, Yaw : 71.37, Alt : 49.2799987793, Lat : 49.2835861, Lng : -123.1149429, Q1 : 0.802305936813, Q2 : 0.0987360775471, Q3 : -0.100663341582, Q4 : 0.580020070076}
2019-04-14 13:54:14.31: SIM {TimeUS : 57535310, Roll : 3.33, Pitch : -16.05, Yaw : 69.6, Alt : 49.2799987793, Lat : 49.2835871, Lng : -123.1149388, Q1 : 0.810409069061, Q2 : 0.103337027133, Q3 : -0.0981215834618, Q4 : 0.568270027637}
2019-04-14 13:54:14.41: SIM {TimeUS : 57635270, Roll : 3.7, Pitch : -15.98, Yaw : 68.62, Alt : 49.2900009155, Lat : 49.2835879, Lng : -123.1149345, Q1 : 0.815002024174, Q2 : 0.104751504958, Q3 : -0.0967464447021, Q4 : 0.561639547348}
2019-04-14 13:54:14.51: SIM {TimeUS : 57735230, Roll : 3.61, Pitch : -15.91, Yaw : 68.4, Alt : 49.2900009155, Lat : 49.2835889, Lng : -123.1149301, Q1 : 0.816240549088, Q2 : 0.103612564504, Q3 : -0.0968858525157, Q4 : 0.5600258708}
2019-04-14 13:54:14.61: SIM {TimeUS : 57835190, Roll : 3.16, Pitch : -15.9, Yaw : 68.83, Alt : 49.2900009155, Lat : 49.2835897, Lng : -123.1149257, Q1 : 0.814534842968, Q2 : 0.100749738514, Q3 : -0.0986115634441, Q4 : 0.562723994255}
2019-04-14 13:54:14.71: SIM {TimeUS : 57935150, Roll : 2.46, Pitch : -15.98, Yaw : 69.75, Alt : 49.2900009155, Lat : 49.2835907, Lng : -123.1149211, Q1 : 0.810484588146, Q2 : 0.0969816446304, Q3 : -0.10184340924, Q4 : 0.568627476692}
2019-04-14 13:54:14.81: SIM {TimeUS : 58035110, Roll : 1.62, Pitch : -16.12, Yaw : 70.99, Alt : 49.2900009155, Lat : 49.2835916, Lng : -123.1149164, Q1 : 0.80485701561, Q2 : 0.0928687974811, Q3 : -0.106060780585, Q4 : 0.576482176781}
2019-04-14 13:54:14.91: SIM {TimeUS : 58135070, Roll : 0.73, Pitch : -16.29, Yaw : 72.35, Alt : 49.2900009155, Lat : 49.2835923, Lng : -123.1149117, Q1 : 0.798491716385, Q2 : 0.0888048186898, Q3 : -0.110668368638, Q4 : 0.585044682026}
2019-04-14 13:54:15.01: SIM {TimeUS : 58235030, Roll : -0.08, Pitch : -16.42, Yaw : 73.67, Alt : 49.2900009155, Lat : 49.2835933, Lng : -123.1149069, Q1 : 0.792215228081, Q2 : 0.0850765928626, Q3 : -0.11478716135, Q4 : 0.593279778957}
2019-04-14 13:54:15.11: SIM {TimeUS : 58334990, Roll : -0.73, Pitch : -16.5, Yaw : 74.8, Alt : 49.2900009155, Lat : 49.2835941, Lng : -123.1149021, Q1 : 0.786704838276, Q2 : 0.0821014195681, Q3 : -0.117878310382, Q4 : 0.60038292408}
2019-04-14 13:54:15.21: SIM {TimeUS : 58434950, Roll : -1.2, Pitch : -16.53, Yaw : 75.66, Alt : 49.2900009155, Lat : 49.2835951, Lng : -123.1148971, Q1 : 0.782466232777, Q2 : 0.0799871981144, Q3 : -0.119969323277, Q4 : 0.605768918991}
2019-04-14 13:54:15.31: SIM {TimeUS : 58534910, Roll : -1.44, Pitch : -16.55, Yaw : 76.2, Alt : 49.2900009155, Lat : 49.283596, Lng : -123.1148922, Q1 : 0.779748380184, Q2 : 0.0789901763201, Q3 : -0.120973393321, Q4 : 0.609194993973}
2019-04-14 13:54:15.41: SIM {TimeUS : 58634870, Roll : -1.46, Pitch : -16.55, Yaw : 76.42, Alt : 49.2900009155, Lat : 49.283597, Lng : -123.1148871, Q1 : 0.778603434563, Q2 : 0.079105950892, Q3 : -0.120886564255, Q4 : 0.610659837723}
2019-04-14 13:54:15.51: SIM {TimeUS : 58734830, Roll : -1.31, Pitch : -16.54, Yaw : 76.35, Alt : 49.2900009155, Lat : 49.2835981, Lng : -123.114882, Q1 : 0.778900682926, Q2 : 0.0800131559372, Q3 : -0.120133876801, Q4 : 0.610311031342}
2019-04-14 13:54:15.61: SIM {TimeUS : 58834790, Roll : -1.06, Pitch : -16.57, Yaw : 76.04, Alt : 49.2900009155, Lat : 49.283599, Lng : -123.1148769, Q1 : 0.780332922935, Q2 : 0.0815762206912, Q3 : -0.119214706123, Q4 : 0.608451902866}
2019-04-14 13:54:15.72: SIM {TimeUS : 58935583, Roll : -0.74, Pitch : -16.63, Yaw : 75.56, Alt : 49.2900009155, Lat : 49.2836001, Lng : -123.1148717, Q1 : 0.782560229301, Q2 : 0.0835600197315, Q3 : -0.118283472955, Q4 : 0.605496704578}
2019-04-14 13:54:15.81: SIM {TimeUS : 59035543, Roll : -0.4, Pitch : -16.71, Yaw : 75.01, Alt : 49.2900009155, Lat : 49.2836011, Lng : -123.1148664, Q1 : 0.78516048193, Q2 : 0.0856871157885, Q3 : -0.117415674031, Q4 : 0.601991951466}
2019-04-14 13:54:15.91: SIM {TimeUS : 59135503, Roll : -0.08, Pitch : -16.77, Yaw : 74.45, Alt : 49.2900009155, Lat : 49.283602, Lng : -123.1148611, Q1 : 0.787815630436, Q2 : 0.087639644742, Q3 : -0.11659437418, Q4 : 0.598390817642}
2019-04-14 13:54:16.01: SIM {TimeUS : 59235463, Roll : 0.19, Pitch : -16.82, Yaw : 73.93, Alt : 49.2900009155, Lat : 49.2836031, Lng : -123.1148558, Q1 : 0.79021948576, Q2 : 0.0893486216664, Q3 : -0.115879394114, Q4 : 0.595098257065}
2019-04-14 13:54:16.11: SIM {TimeUS : 59335423, Roll : 0.42, Pitch : -16.87, Yaw : 73.51, Alt : 49.2900009155, Lat : 49.2836042, Lng : -123.1148505, Q1 : 0.792152643204, Q2 : 0.0907595083117, Q3 : -0.115344405174, Q4 : 0.592412531376}
2019-04-14 13:54:16.21: SIM {TimeUS : 59435383, Roll : 0.58, Pitch : -16.9, Yaw : 73.22, Alt : 49.2900009155, Lat : 49.2836053, Lng : -123.114845, Q1 : 0.793518424034, Q2 : 0.0916989222169, Q3 : -0.114987626672, Q4 : 0.590506315231}
2019-04-14 13:54:16.31: SIM {TimeUS : 59535343, Roll : 0.66, Pitch : -16.92, Yaw : 73.06, Alt : 49.2900009155, Lat : 49.2836062, Lng : -123.1148396, Q1 : 0.794263422489, Q2 : 0.0922441706061, Q3 : -0.114840865135, Q4 : 0.589447438717}
2019-04-14 13:54:16.41: SIM {TimeUS : 59635303, Roll : 0.67, Pitch : -16.94, Yaw : 73.02, Alt : 49.2999992371, Lat : 49.2836073, Lng : -123.1148341, Q1 : 0.794432759285, Q2 : 0.0923355147243, Q3 : -0.115002192557, Q4 : 0.58917337656}
2019-04-14 13:54:16.51: SIM {TimeUS : 59735263, Roll : 0.59, Pitch : -16.96, Yaw : 73.09, Alt : 49.2999992371, Lat : 49.2836084, Lng : -123.1148286, Q1 : 0.79412317276, Q2 : 0.0919650346041, Q3 : -0.115483574569, Q4 : 0.58955436945}
2019-04-14 13:54:16.61: SIM {TimeUS : 59835223, Roll : 0.45, Pitch : -16.99, Yaw : 73.23, Alt : 49.2999992371, Lat : 49.2836093, Lng : -123.114823, Q1 : 0.793445289135, Q2 : 0.0913154557347, Q3 : -0.116227321327, Q4 : 0.590421319008}
2019-04-14 13:54:16.71: SIM {TimeUS : 59935183, Roll : 0.29, Pitch : -17.02, Yaw : 73.43, Alt : 49.2999992371, Lat : 49.2836104, Lng : -123.1148174, Q1 : 0.792541861534, Q2 : 0.0905369594693, Q3 : -0.11715836823, Q4 : 0.59156948328}
2019-04-14 13:54:16.81: SIM {TimeUS : 60035143, Roll : 0.12, Pitch : -17.06, Yaw : 73.64, Alt : 49.2999992371, Lat : 49.2836115, Lng : -123.1148118, Q1 : 0.791559696198, Q2 : 0.089785374701, Q3 : -0.118127517402, Q4 : 0.592805027962}
2019-04-14 13:54:16.91: SIM {TimeUS : 60135103, Roll : -0.03, Pitch : -17.1, Yaw : 73.83, Alt : 49.2999992371, Lat : 49.2836126, Lng : -123.1148061, Q1 : 0.790634155273, Q2 : 0.0890514180064, Q3 : -0.119063474238, Q4 : 0.593962430954}
2019-04-14 13:54:17.01: SIM {TimeUS : 60235063, Roll : -0.17, Pitch : -17.13, Yaw : 73.99, Alt : 49.2999992371, Lat : 49.2836135, Lng : -123.1148004, Q1 : 0.789863169193, Q2 : 0.0884234681726, Q3 : -0.119886912405, Q4 : 0.594915568829}
2019-04-14 13:54:17.11: SIM {TimeUS : 60335023, Roll : -0.27, Pitch : -17.16, Yaw : 74.11, Alt : 49.2999992371, Lat : 49.2836147, Lng : -123.1147947, Q1 : 0.789296865463, Q2 : 0.0880426689982, Q3 : -0.120534904301, Q4 : 0.59559237957}
2019-04-14 13:54:17.21: SIM {TimeUS : 60434983, Roll : -0.3, Pitch : -17.2, Yaw : 74.17, Alt : 49.2999992371, Lat : 49.2836158, Lng : -123.1147889, Q1 : 0.788960635662, Q2 : 0.0880834013224, Q3 : -0.120917059481, Q4 : 0.595954298973}
2019-04-14 13:54:17.31: SIM {TimeUS : 60534943, Roll : -0.29, Pitch : -17.24, Yaw : 74.18, Alt : 49.2999992371, Lat : 49.2836169, Lng : -123.1147832, Q1 : 0.788876593113, Q2 : 0.0883831083775, Q3 : -0.121108442545, Q4 : 0.595982372761}
2019-04-14 13:54:17.41: SIM {TimeUS : 60634903, Roll : -0.23, Pitch : -17.28, Yaw : 74.14, Alt : 49.3100013733, Lat : 49.283618, Lng : -123.1147774, Q1 : 0.789010107517, Q2 : 0.0889260917902, Q3 : -0.121132008731, Q4 : 0.59571993351}
2019-04-14 13:54:17.51: SIM {TimeUS : 60734863, Roll : -0.14, Pitch : -17.32, Yaw : 74.06, Alt : 49.3100013733, Lat : 49.283619, Lng : -123.1147716, Q1 : 0.789311528206, Q2 : 0.0896874889731, Q3 : -0.12099429965, Q4 : 0.595234334469}
2019-04-14 13:54:17.61: SIM {TimeUS : 60834823, Roll : -0.05, Pitch : -17.35, Yaw : 73.95, Alt : 49.3100013733, Lat : 49.2836201, Lng : -123.1147657, Q1 : 0.789753913879, Q2 : 0.0903403609991, Q3 : -0.120808057487, Q4 : 0.594586253166}
2019-04-14 13:54:17.71: SIM {TimeUS : 60934783, Roll : 0.0, Pitch : -17.37, Yaw : 73.84, Alt : 49.3100013733, Lat : 49.2836213, Lng : -123.1147599, Q1 : 0.790276885033, Q2 : 0.0907807126641, Q3 : -0.120682552457, Q4 : 0.593849301338}
2019-04-14 13:54:17.82: SIM {TimeUS : 61035576, Roll : 0.05, Pitch : -17.38, Yaw : 73.73, Alt : 49.3100013733, Lat : 49.2836224, Lng : -123.1147539, Q1 : 0.790822088718, Q2 : 0.0910194516182, Q3 : -0.120623461902, Q4 : 0.593098521233}
2019-04-14 13:54:17.91: SIM {TimeUS : 61135536, Roll : 0.09, Pitch : -17.37, Yaw : 73.62, Alt : 49.3100013733, Lat : 49.2836235, Lng : -123.114748, Q1 : 0.791323006153, Q2 : 0.0911680981517, Q3 : -0.120446108282, Q4 : 0.592443227768}
2019-04-14 13:54:18.01: SIM {TimeUS : 61235496, Roll : 0.13, Pitch : -17.37, Yaw : 73.54, Alt : 49.3100013733, Lat : 49.2836245, Lng : -123.1147421, Q1 : 0.791732430458, Q2 : 0.0913284346461, Q3 : -0.120309732854, Q4 : 0.591899037361}
2019-04-14 13:54:18.11: SIM {TimeUS : 61335456, Roll : 0.17, Pitch : -17.4, Yaw : 73.48, Alt : 49.3100013733, Lat : 49.2836256, Lng : -123.1147362, Q1 : 0.791989147663, Q2 : 0.0917102470994, Q3 : -0.120381303132, Q4 : 0.591481864452}
2019-04-14 13:54:18.21: SIM {TimeUS : 61435416, Roll : 0.19, Pitch : -17.46, Yaw : 73.44, Alt : 49.3100013733, Lat : 49.2836268, Lng : -123.1147302, Q1 : 0.792107343674, Q2 : 0.0921578407288, Q3 : -0.120669901371, Q4 : 0.591195106506}
2019-04-14 13:54:18.31: SIM {TimeUS : 61535376, Roll : 0.21, Pitch : -17.5, Yaw : 73.42, Alt : 49.3100013733, Lat : 49.283628, Lng : -123.1147242, Q1 : 0.792152643204, Q2 : 0.0923980623484, Q3 : -0.12087803334, Q4 : 0.591054439545}
2019-04-14 13:54:18.41: SIM {TimeUS : 61635336, Roll : 0.2, Pitch : -17.51, Yaw : 73.42, Alt : 49.3100013733, Lat : 49.2836291, Lng : -123.1147183, Q1 : 0.792140424252, Q2 : 0.092445448041, Q3 : -0.12099095434, Q4 : 0.591040313244}
2019-04-14 13:54:18.51: SIM {TimeUS : 61735296, Roll : 0.17, Pitch : -17.53, Yaw : 73.43, Alt : 49.3199996948, Lat : 49.2836303, Lng : -123.1147122, Q1 : 0.792088747025, Q2 : 0.0923271626234, Q3 : -0.121242411435, Q4 : 0.591076433659}
2019-04-14 13:54:18.61: SIM {TimeUS : 61835256, Roll : 0.12, Pitch : -17.55, Yaw : 73.45, Alt : 49.3199996948, Lat : 49.2836314, Lng : -123.1147062, Q1 : 0.792001545429, Q2 : 0.0921558737755, Q3 : -0.12164735049, Q4 : 0.591136872768}
2019-04-14 13:54:18.71: SIM {TimeUS : 61935216, Roll : 0.09, Pitch : -17.57, Yaw : 73.47, Alt : 49.3199996948, Lat : 49.2836324, Lng : -123.1147002, Q1 : 0.791903674603, Q2 : 0.0920300930738, Q3 : -0.121980667114, Q4 : 0.59121888876}
2019-04-14 13:54:18.81: SIM {TimeUS : 62035176, Roll : 0.06, Pitch : -17.6, Yaw : 73.49, Alt : 49.3199996948, Lat : 49.2836336, Lng : -123.1146941, Q1 : 0.791802763939, Q2 : 0.0919928699732, Q3 : -0.122256316245, Q4 : 0.591302871704}
2019-04-14 13:54:18.91: SIM {TimeUS : 62135136, Roll : 0.05, Pitch : -17.61, Yaw : 73.5, Alt : 49.3199996948, Lat : 49.2836347, Lng : -123.114688, Q1 : 0.791726350784, Q2 : 0.0919975936413, Q3 : -0.12239344418, Q4 : 0.591376066208}
2019-04-14 13:54:19.01: SIM {TimeUS : 62235096, Roll : 0.05, Pitch : -17.62, Yaw : 73.51, Alt : 49.3199996948, Lat : 49.2836359, Lng : -123.1146819, Q1 : 0.791689753532, Q2 : 0.092050999403, Q3 : -0.122468799353, Q4 : 0.591401219368}
2019-04-14 13:54:19.11: SIM {TimeUS : 62335056, Roll : 0.06, Pitch : -17.63, Yaw : 73.5, Alt : 49.3199996948, Lat : 49.2836371, Lng : -123.1146758, Q1 : 0.791688382626, Q2 : 0.0921950936317, Q3 : -0.122479274869, Q4 : 0.591378450394}
2019-04-14 13:54:19.21: SIM {TimeUS : 62435016, Roll : 0.09, Pitch : -17.65, Yaw : 73.49, Alt : 49.3199996948, Lat : 49.2836383, Lng : -123.1146697, Q1 : 0.791707217693, Q2 : 0.0924568474293, Q3 : -0.122476868331, Q4 : 0.59131282568}
2019-04-14 13:54:19.31: SIM {TimeUS : 62534976, Roll : 0.12, Pitch : -17.67, Yaw : 73.47, Alt : 49.3199996948, Lat : 49.2836394, Lng : -123.1146636, Q1 : 0.791752755642, Q2 : 0.0927511975169, Q3 : -0.122508659959, Q4 : 0.591199159622}
2019-04-14 13:54:19.41: SIM {TimeUS : 62634936, Roll : 0.12, Pitch : -17.71, Yaw : 73.45, Alt : 49.3199996948, Lat : 49.2836406, Lng : -123.1146575, Q1 : 0.791831433773, Q2 : 0.0929577052593, Q3 : -0.122721932828, Q4 : 0.591017127037}
2019-04-14 13:54:19.51: SIM {TimeUS : 62734896, Roll : 0.12, Pitch : -17.75, Yaw : 73.42, Alt : 49.3199996948, Lat : 49.2836418, Lng : -123.1146513, Q1 : 0.791921198368, Q2 : 0.0931354686618, Q3 : -0.123094730079, Q4 : 0.590791285038}
2019-04-14 13:54:19.61: SIM {TimeUS : 62834856, Roll : 0.1, Pitch : -17.8, Yaw : 73.4, Alt : 49.3199996948, Lat : 49.2836428, Lng : -123.1146452, Q1 : 0.79201823473, Q2 : 0.0932665169239, Q3 : -0.12354375422, Q4 : 0.59054672718}
2019-04-14 13:54:19.71: SIM {TimeUS : 62934816, Roll : 0.11, Pitch : -17.84, Yaw : 73.37, Alt : 49.3199996948, Lat : 49.283644, Lng : -123.114639, Q1 : 0.792123377323, Q2 : 0.0934230387211, Q3 : -0.123782537878, Q4 : 0.590330898762}
2019-04-14 13:54:19.81: SIM {TimeUS : 63034776, Roll : 0.12, Pitch : -17.84, Yaw : 73.34, Alt : 49.3199996948, Lat : 49.2836452, Lng : -123.1146328, Q1 : 0.792256951332, Q2 : 0.0935017988086, Q3 : -0.123701676726, Q4 : 0.590156137943}
2019-04-14 13:54:19.91: SIM {TimeUS : 63135569, Roll : 0.15, Pitch : -17.8, Yaw : 73.31, Alt : 49.3199996948, Lat : 49.2836464, Lng : -123.1146265, Q1 : 0.792417943478, Q2 : 0.0934224501252, Q3 : -0.12334869802, Q4 : 0.590026438236}
2019-04-14 13:54:20.01: SIM {TimeUS : 63235529, Roll : 0.15, Pitch : -17.77, Yaw : 73.29, Alt : 49.3300018311, Lat : 49.2836475, Lng : -123.1146203, Q1 : 0.79255604744, Q2 : 0.0932754129171, Q3 : -0.123126685619, Q4 : 0.589910566807}
2019-04-14 13:54:20.11: SIM {TimeUS : 63335489, Roll : 0.14, Pitch : -17.75, Yaw : 73.27, Alt : 49.3300018311, Lat : 49.2836487, Lng : -123.1146141, Q1 : 0.792671620846, Q2 : 0.0931243896484, Q3 : -0.123049274087, Q4 : 0.589795291424}
2019-04-14 13:54:20.21: SIM {TimeUS : 63435449, Roll : 0.14, Pitch : -17.75, Yaw : 73.26, Alt : 49.3300018311, Lat : 49.2836499, Lng : -123.1146077, Q1 : 0.792744636536, Q2 : 0.0930647775531, Q3 : -0.123096629977, Q4 : 0.589696645737}
2019-04-14 13:54:20.31: SIM {TimeUS : 63535409, Roll : 0.13, Pitch : -17.77, Yaw : 73.25, Alt : 49.3300018311, Lat : 49.2836511, Lng : -123.1146016, Q1 : 0.792773425579, Q2 : 0.0931269749999, Q3 : -0.123279616237, Q4 : 0.589609861374}
2019-04-14 13:54:20.41: SIM {TimeUS : 63635369, Roll : 0.14, Pitch : -17.8, Yaw : 73.24, Alt : 49.3300018311, Lat : 49.2836524, Lng : -123.1145953, Q1 : 0.792774319649, Q2 : 0.0933243259788, Q3 : -0.123432189226, Q4 : 0.589545547962}
2019-04-14 13:54:20.51: SIM {TimeUS : 63735329, Roll : 0.14, Pitch : -17.84, Yaw : 73.24, Alt : 49.3300018311, Lat : 49.2836536, Lng : -123.1145891, Q1 : 0.792761802673, Q2 : 0.0935234799981, Q3 : -0.123761281371, Q4 : 0.589461803436}
2019-04-14 13:54:20.61: SIM {TimeUS : 63835289, Roll : 0.13, Pitch : -17.89, Yaw : 73.23, Alt : 49.3300018311, Lat : 49.2836548, Lng : -123.1145828, Q1 : 0.792744517326, Q2 : 0.0937185958028, Q3 : -0.124162435532, Q4 : 0.589369773865}
2019-04-14 13:54:20.71: SIM {TimeUS : 63935249, Roll : 0.13, Pitch : -17.93, Yaw : 73.23, Alt : 49.3300018311, Lat : 49.2836559, Lng : -123.1145765, Q1 : 0.792740643024, Q2 : 0.0938696935773, Q3 : -0.124441683292, Q4 : 0.589291989803}
2019-04-14 13:54:20.81: SIM {TimeUS : 64035209, Roll : 0.11, Pitch : -17.96, Yaw : 73.22, Alt : 49.3300018311, Lat : 49.2836571, Lng : -123.1145702, Q1 : 0.792763531208, Q2 : 0.0939256176353, Q3 : -0.124700807035, Q4 : 0.589197516441}
2019-04-14 13:54:20.91: SIM {TimeUS : 64135169, Roll : 0.1, Pitch : -17.97, Yaw : 73.21, Alt : 49.3300018311, Lat : 49.2836583, Lng : -123.1145639, Q1 : 0.792807340622, Q2 : 0.0939209759235, Q3 : -0.12485703826, Q4 : 0.58910626173}
2019-04-14 13:54:21.01: SIM {TimeUS : 64235129, Roll : 0.12, Pitch : -17.96, Yaw : 73.19, Alt : 49.3300018311, Lat : 49.2836595, Lng : -123.1145576, Q1 : 0.792868494987, Q2 : 0.0939554572105, Q3 : -0.124746061862, Q4 : 0.589041948318}
2019-04-14 13:54:21.11: SIM {TimeUS : 64335089, Roll : 0.14, Pitch : -17.96, Yaw : 73.18, Alt : 49.3300018311, Lat : 49.2836607, Lng : -123.1145512, Q1 : 0.792928218842, Q2 : 0.0941095948219, Q3 : -0.124636352062, Q4 : 0.588960111141}
2019-04-14 13:54:21.21: SIM {TimeUS : 64435049, Roll : 0.15, Pitch : -17.98, Yaw : 73.16, Alt : 49.3300018311, Lat : 49.2836619, Lng : -123.114545, Q1 : 0.792994439602, Q2 : 0.0942034870386, Q3 : -0.124696753919, Q4 : 0.588843166828}
2019-04-14 13:54:21.31: SIM {TimeUS : 64535009, Roll : 0.15, Pitch : -17.98, Yaw : 73.15, Alt : 49.3300018311, Lat : 49.2836631, Lng : -123.1145387, Q1 : 0.793068826199, Q2 : 0.0942642241716, Q3 : -0.124726891518, Q4 : 0.588726878166}
2019-04-14 13:54:21.41: SIM {TimeUS : 64634969, Roll : 0.16, Pitch : -17.98, Yaw : 73.13, Alt : 49.3300018311, Lat : 49.2836644, Lng : -123.1145323, Q1 : 0.793151855469, Q2 : 0.0942734256387, Q3 : -0.124702483416, Q4 : 0.588618755341}
2019-04-14 13:54:21.51: SIM {TimeUS : 64734929, Roll : 0.17, Pitch : -17.98, Yaw : 73.11, Alt : 49.3400001526, Lat : 49.2836656, Lng : -123.114526, Q1 : 0.793229997158, Q2 : 0.0942948237062, Q3 : -0.124676398933, Q4 : 0.588515460491}
2019-04-14 13:54:21.61: SIM {TimeUS : 64834889, Roll : 0.16, Pitch : -18.0, Yaw : 73.1, Alt : 49.3400001526, Lat : 49.2836668, Lng : -123.1145196, Q1 : 0.793291449547, Q2 : 0.0942994058132, Q3 : -0.124869845808, Q4 : 0.588390886784}
2019-04-14 13:54:21.71: SIM {TimeUS : 64934849, Roll : 0.14, Pitch : -18.03, Yaw : 73.09, Alt : 49.3400001526, Lat : 49.283668, Lng : -123.1145133, Q1 : 0.793332695961, Q2 : 0.0943197235465, Q3 : -0.125224754214, Q4 : 0.588256597519}
2019-04-14 13:54:21.81: SIM {TimeUS : 65034809, Roll : 0.12, Pitch : -18.04, Yaw : 73.08, Alt : 49.3400001526, Lat : 49.2836692, Lng : -123.1145069, Q1 : 0.793385565281, Q2 : 0.0942552685738, Q3 : -0.125342473388, Q4 : 0.588170528412}
2019-04-14 13:54:21.92: SIM {TimeUS : 65135602, Roll : 0.14, Pitch : -18.02, Yaw : 73.07, Alt : 49.3400001526, Lat : 49.2836704, Lng : -123.1145005, Q1 : 0.793433308601, Q2 : 0.094282142818, Q3 : -0.125149726868, Q4 : 0.588142871857}
2019-04-14 13:54:22.01: SIM {TimeUS : 65235562, Roll : 0.16, Pitch : -18.01, Yaw : 73.06, Alt : 49.3400001526, Lat : 49.2836717, Lng : -123.114494, Q1 : 0.793470680714, Q2 : 0.0943559482694, Q3 : -0.124940946698, Q4 : 0.588125050068}
2019-04-14 13:54:22.11: SIM {TimeUS : 65335522, Roll : 0.17, Pitch : -18.01, Yaw : 73.05, Alt : 49.3400001526, Lat : 49.2836729, Lng : -123.1144877, Q1 : 0.793498814106, Q2 : 0.0944128781557, Q3 : -0.124929644167, Q4 : 0.58808028698}
2019-04-14 13:54:22.21: SIM {TimeUS : 65435482, Roll : 0.16, Pitch : -18.03, Yaw : 73.05, Alt : 49.3400001526, Lat : 49.2836741, Lng : -123.1144814, Q1 : 0.793519973755, Q2 : 0.0944205150008, Q3 : -0.125134572387, Q4 : 0.588006973267}
2019-04-14 13:54:22.31: SIM {TimeUS : 65535442, Roll : 0.13, Pitch : -18.06, Yaw : 73.04, Alt : 49.3400001526, Lat : 49.2836753, Lng : -123.114475, Q1 : 0.793545246124, Q2 : 0.0943556055427, Q3 : -0.125481188297, Q4 : 0.587909400463}
2019-04-14 13:54:22.41: SIM {TimeUS : 65635402, Roll : 0.11, Pitch : -18.08, Yaw : 73.03, Alt : 49.3400001526, Lat : 49.2836765, Lng : -123.1144686, Q1 : 0.793574869633, Q2 : 0.0943447425961, Q3 : -0.125730976462, Q4 : 0.587817847729}
2019-04-14 13:54:22.51: SIM {TimeUS : 65735362, Roll : 0.11, Pitch : -18.1, Yaw : 73.02, Alt : 49.3400001526, Lat : 49.2836778, Lng : -123.1144622, Q1 : 0.793595910072, Q2 : 0.0944708809257, Q3 : -0.125870853662, Q4 : 0.587739169598}
2019-04-14 13:54:22.61: SIM {TimeUS : 65835322, Roll : 0.13, Pitch : -18.12, Yaw : 73.01, Alt : 49.3400001526, Lat : 49.283679, Lng : -123.1144557, Q1 : 0.793613016605, Q2 : 0.0946470424533, Q3 : -0.125896647573, Q4 : 0.587682187557}
2019-04-14 13:54:22.71: SIM {TimeUS : 65935282, Roll : 0.16, Pitch : -18.12, Yaw : 73.0, Alt : 49.3400001526, Lat : 49.2836802, Lng : -123.1144494, Q1 : 0.793632805347, Q2 : 0.0948504582047, Q3 : -0.125809669495, Q4 : 0.587641358376}
2019-04-14 13:54:22.81: SIM {TimeUS : 66035242, Roll : 0.18, Pitch : -18.14, Yaw : 73.0, Alt : 49.3499984741, Lat : 49.2836814, Lng : -123.1144429, Q1 : 0.79364824295, Q2 : 0.0950433164835, Q3 : -0.125803589821, Q4 : 0.587590515614}
