2019-04-14 14:57:15.40: SIM {TimeUS : 40416327, Roll : 0.0, Pitch : 0.0, Yaw : 0.0, Alt : 30.1000003815, Lat : 49.28357, Lng : -123.11502, Q1 : 1.0, Q2 : 0.0, Q3 : 0.0, Q4 : 0.0}
2019-04-14 14:57:15.51: SIM {TimeUS : 40535446, Roll : 0.0, Pitch : 0.0, Yaw : 0.0, Alt : 30.1000003815, Lat : 49.28357, Lng : -123.11502, Q1 : 1.0, Q2 : 0.0, Q3 : 0.0, Q4 : 0.0}
2019-04-14 14:57:15.61: SIM {TimeUS : 40635406, Roll : 0.0, Pitch : 0.0, Yaw : 0.0, Alt : 30.1000003815, Lat : 49.28357, Lng : -123.11502, Q1 : 1.0, Q2 : 0.0, Q3 : 0.0, Q4 : 0.0}
2019-04-14 14:57:15.71: SIM {TimeUS : 40735366, Roll : 0.0, Pitch : 0.0, Yaw : 0.0, Alt : 30.1000003815, Lat : 49.28357, Lng : -123.11502, Q1 : 1.0, Q2 : 0.0, Q3 : 0.0, Q4 : 0.0}
2019-04-14 14:57:15.81: SIM {TimeUS : 40835326, Roll : 0.0, Pitch : 0.0, Yaw : 0.0, Alt : 30.1000003815, Lat : 49.28357, Lng : -123.11502, Q1 : 1.0, Q2 : 0.0, Q3 : 0.0, Q4 : 0.0}
2019-04-14 14:57:15.91: SIM {TimeUS : 40935286, Roll : 0.0, Pitch : 0.0, Yaw : 0.0, Alt : 30.1000003815, Lat : 49.28357, Lng : -123.11502, Q1 : 1.0, Q2 : 0.0, Q3 : 0.0, Q4 : 0.0}
2019-04-14 14:57:16.01: SIM {TimeUS : 41035246, Roll : 0.0, Pitch : 0.0, Yaw : 0.0, Alt : 30.1000003815, Lat : 49.28357, Lng : -123.11502, Q1 : 1.0, Q2 : 0.0, Q3 : 0.0, Q4 : 0.0}
2019-04-14 14:57:16.11: SIM {TimeUS : 41135206, Roll : 0.0, Pitch : 0.0, Yaw : 0.0, Alt : 30.1000003815, Lat : 49.28357, Lng : -123.11502, Q1 : 1.0, Q2 : 0.0, Q3 : 0.0, Q4 : 0.0}
2019-04-14 14:57:16.21: SIM {TimeUS : 41235166, Roll : 0.0, Pitch : 0.0, Yaw : 0.0, Alt : 30.1000003815, Lat : 49.28357, Lng : -123.11502, Q1 : 1.0, Q2 : 0.0, Q3 : 0.0, Q4 : 0.0}
2019-04-14 14:57:16.31: SIM {TimeUS : 41335126, Roll : 0.0, Pitch : 0.0, Yaw : 0.0, Alt : 30.1000003815, Lat : 49.28357, Lng : -123.11502, Q1 : 1.0, Q2 : 0.0, Q3 : 0.0, Q4 : 0.0}
2019-04-14 14:57:16.41: SIM {TimeUS : 41435086, Roll : 0.0, Pitch : 0.0, Yaw : 0.0, Alt : 30.1000003815, Lat : 49.28357, Lng : -123.11502, Q1 : 1.0, Q2 : 0.0, Q3 : 0.0, Q4 : 0.0}
2019-04-14 14:57:16.51: SIM {TimeUS : 41535046, Roll : 0.0, Pitch : 0.0, Yaw : 0.0, Alt : 30.1000003815, Lat : 49.28357, Lng : -123.11502, Q1 : 1.0, Q2 : 0.0, Q3 : 0.0, Q4 : 0.0}
2019-04-14 14:57:16.61: SIM {TimeUS : 41635006, Roll : 0.0, Pitch : 0.0, Yaw : 0.0, Alt : 30.1000003815, Lat : 49.28357, Lng : -123.11502, Q1 : 1.0, Q2 : 0.0, Q3 : 0.0, Q4 : 0.0}
2019-04-14 14:57:16.71: SIM {TimeUS : 41734966, Roll : 0.0, Pitch : 0.0, Yaw : 0.0, Alt : 30.1000003815, Lat : 49.28357, Lng : -123.11502, Q1 : 1.0, Q2 : 0.0, Q3 : 0.0, Q4 : 0.0}
2019-04-14 14:57:16.81: SIM {TimeUS : 41834926, Roll : 0.0, Pitch : 0.0, Yaw : 0.0, Alt : 30.1000003815, Lat : 49.28357, Lng : -123.11502, Q1 : 1.0, Q2 : 0.0, Q3 : 0.0, Q4 : 0.0}
2019-04-14 14:57:16.91: SIM {TimeUS : 41934886, Roll : 0.0, Pitch : 0.0, Yaw : 0.0, Alt : 30.1000003815, Lat : 49.28357, Lng : -123.11502, Q1 : 1.0, Q2 : 0.0, Q3 : 0.0, Q4 : 0.0}
2019-04-14 14:57:17.01: SIM {TimeUS : 42034846, Roll : 0.0, Pitch : 0.0, Yaw : 0.0, Alt : 30.1000003815, Lat : 49.28357, Lng : -123.11502, Q1 : 1.0, Q2 : 0.0, Q3 : 0.0, Q4 : 0.0}
2019-04-14 14:57:17.11: SIM {TimeUS : 42134806, Roll : 0.0, Pitch : 0.0, Yaw : 0.0, Alt : 30.1000003815, Lat : 49.28357, Lng : -123.11502, Q1 : 1.0, Q2 : 0.0, Q3 : 0.0, Q4 : 0.0}
2019-04-14 14:57:17.21: SIM {TimeUS : 42234766, Roll : 0.0, Pitch : 0.0, Yaw : 0.0, Alt : 30.1000003815, Lat : 49.28357, Lng : -123.11502, Q1 : 1.0, Q2 : 0.0, Q3 : 0.0, Q4 : 0.0}
2019-04-14 14:57:17.31: SIM {TimeUS : 42334726, Roll : 0.0, Pitch : 0.0, Yaw : 0.0, Alt : 30.1000003815, Lat : 49.28357, Lng : -123.11502, Q1 : 1.0, Q2 : 0.0, Q3 : 0.0, Q4 : 0.0}
2019-04-14 14:57:17.41: SIM {TimeUS : 42434686, Roll : 0.0, Pitch : 0.0, Yaw : 0.0, Alt : 30.1000003815, Lat : 49.28357, Lng : -123.11502, Q1 : 1.0, Q2 : 0.0, Q3 : 0.0, Q4 : 0.0}
2019-04-14 14:57:17.51: SIM {TimeUS : 42535479, Roll : 0.0, Pitch : 0.0, Yaw : 0.0, Alt : 30.1000003815, Lat : 49.28357, Lng : -123.11502, Q1 : 1.0, Q2 : 0.0, Q3 : 0.0, Q4 : 0.0}
2019-04-14 14:57:17.61: SIM {TimeUS : 42635439, Roll : 0.0, Pitch : 0.0, Yaw : 0.0, Alt : 30.1000003815, Lat : 49.28357, Lng : -123.11502, Q1 : 1.0, Q2 : 0.0, Q3 : 0.0, Q4 : 0.0}
2019-04-14 14:57:17.71: SIM {TimeUS : 42735399, Roll : 0.0, Pitch : 0.0, Yaw : 0.0, Alt : 30.1000003815, Lat : 49.28357, Lng : -123.11502, Q1 : 1.0, Q2 : 0.0, Q3 : 0.0, Q4 : 1.50531601073e-10}
2019-04-14 14:57:17.81: SIM {TimeUS : 42835359, Roll : 0.0, Pitch : 0.0, Yaw : 360.0, Alt : 30.1000003815, Lat : 49.28357, Lng : -123.11502, Q1 : 1.0, Q2 : 0.0, Q3 : 0.0, Q4 : -3.19015214245e-08}
2019-04-14 14:57:17.91: SIM {TimeUS : 42935319, Roll : 0.0, Pitch : 0.0, Yaw : 359.99, Alt : 30.1000003815, Lat : 49.28357, Lng : -123.11502, Q1 : 1.0, Q2 : 0.0, Q3 : 0.0, Q4 : -2.33977019093e-07}
2019-04-14 14:57:18.01: SIM {TimeUS : 43035279, Roll : 0.0, Pitch : 0.0, Yaw : 359.99, Alt : 30.1000003815, Lat : 49.28357, Lng : -123.11502, Q1 : 1.0, Q2 : 0.0, Q3 : 0.0, Q4 : -4.1379919935e-07}
2019-04-14 14:57:18.11: SIM {TimeUS : 43135239, Roll : 0.0, Pitch : 0.0, Yaw : 359.99, Alt : 30.1000003815, Lat : 49.28357, Lng : -123.11502, Q1 : 1.0, Q2 : 0.0, Q3 : 0.0, Q4 : -6.07024389865e-07}
2019-04-14 14:57:18.21: SIM {TimeUS : 43235199, Roll : 0.0, Pitch : 0.0, Yaw : 359.99, Alt : 30.1000003815, Lat : 49.28357, Lng : -123.11502, Q1 : 1.0, Q2 : 0.0, Q3 : 0.0, Q4 : -7.678017937e-07}
2019-04-14 14:57:18.31: SIM {TimeUS : 43335159, Roll : 0.0, Pitch : 0.0, Yaw : 359.99, Alt : 30.1000003815, Lat : 49.28357, Lng : -123.11502, Q1 : 1.0, Q2 : 0.0, Q3 : 0.0, Q4 : -9.52094126205e-07}
2019-04-14 14:57:18.41: SIM {TimeUS : 43435119, Roll : 0.0, Pitch : 0.0, Yaw : 359.99, Alt : 30.1000003815, Lat : 49.28357, Lng : -123.11502, Q1 : 1.0, Q2 : 0.0, Q3 : 0.0, Q4 : -1.14050476441e-06}
2019-04-14 14:57:18.51: SIM {TimeUS : 43535079, Roll : 0.0, Pitch : 0.0, Yaw : 359.99, Alt : 30.1000003815, Lat : 49.28357, Lng : -123.11502, Q1 : 1.0, Q2 : 0.0, Q3 : 0.0, Q4 : -1.37085635288e-06}
2019-04-14 14:57:18.61: SIM {TimeUS : 43635039, Roll : 0.0, Pitch : 0.0, Yaw : 359.99, Alt : 30.1200008392, Lat : 49.28357, Lng : -123.11502, Q1 : 1.0, Q2 : 0.0, Q3 : 0.0, Q4 : -1.58920624926e-06}
2019-04-14 14:57:18.71: SIM {TimeUS : 43734999, Roll : 0.0, Pitch : 0.0, Yaw : 359.99, Alt : 30.1499996185, Lat : 49.28357, Lng : -123.11502, Q1 : 1.0, Q2 : 0.0, Q3 : 0.0, Q4 : -1.76011599251e-06}
2019-04-14 14:57:18.81: SIM {TimeUS : 43834959, Roll : 0.0, Pitch : 0.0, Yaw : 359.99, Alt : 30.1800003052, Lat : 49.28357, Lng : -123.11502, Q1 : 1.0, Q2 : 0.0, Q3 : 0.0, Q4 : -1.9762503598e-06}
2019-04-14 14:57:18.91: SIM {TimeUS : 43934919, Roll : 0.0, Pitch : 0.0, Yaw : 359.99, Alt : 30.2099990845, Lat : 49.28357, Lng : -123.11502, Q1 : 1.0, Q2 : -1.36274884426e-05, Q3 : -1.21096154544e-05, Q4 : -2.27860186897e-06}
2019-04-14 14:57:19.01: SIM {TimeUS : 44034879, Roll : -0.18, Pitch : -0.17, Yaw : 359.99, Alt : 30.2700004578, Lat : 49.28357, Lng : -123.11502, Q1 : 0.999997496605, Q2 : -0.00164108618628, Q3 : -0.00150957051665, Q4 : -1.70553921635e-05}
2019-04-14 14:57:19.11: SIM {TimeUS : 44134839, Roll : -0.5, Pitch : -0.46, Yaw : 359.99, Alt : 30.3899993896, Lat : 49.28357, Lng : -123.11502, Q1 : 0.999982118607, Q2 : -0.00441357679665, Q3 : -0.00403455784544, Q4 : -5.90585004829e-05}
2019-04-14 14:57:19.21: SIM {TimeUS : 44234799, Roll : -0.77, Pitch : -0.69, Yaw : 359.99, Alt : 30.5400009155, Lat : 49.28357, Lng : -123.11502, Q1 : 0.999958753586, Q2 : -0.00675482302904, Q3 : -0.00606724945828, Q4 : -0.000124377198517}
2019-04-14 14:57:19.31: SIM {TimeUS : 44334759, Roll : -0.88, Pitch : -0.78, Yaw : 359.98, Alt : 30.7000007629, Lat : 49.28357, Lng : -123.11502, Q1 : 0.999946832657, Q2 : -0.00772360246629, Q3 : -0.00682805618271, Q4 : -0.000205098840524}
2019-04-14 14:57:19.41: SIM {TimeUS : 44434719, Roll : -0.81, Pitch : -0.73, Yaw : 359.97, Alt : 30.8600006104, Lat : 49.28357, Lng : -123.1150201, Q1 : 0.999954283237, Q2 : -0.00707551604137, Q3 : -0.00642501236871, Q4 : -0.000281390937744}
2019-04-14 14:57:19.51: SIM {TimeUS : 44534679, Roll : -0.62, Pitch : -0.58, Yaw : 359.96, Alt : 31.0100002289, Lat : 49.28357, Lng : -123.1150201, Q1 : 0.999972343445, Q2 : -0.00542939454317, Q3 : -0.00507679954171, Q4 : -0.000353540992364}
2019-04-14 14:57:19.61: SIM {TimeUS : 44635472, Roll : -0.39, Pitch : -0.36, Yaw : 359.95, Alt : 31.1700000763, Lat : 49.2835701, Lng : -123.1150202, Q1 : 0.999988853931, Q2 : -0.00344731193036, Q3 : -0.00320790684782, Q4 : -0.000418189214543}
2019-04-14 14:57:19.71: SIM {TimeUS : 44735432, Roll : -0.18, Pitch : -0.16, Yaw : 359.94, Alt : 31.3299999237, Lat : 49.2835701, Lng : -123.1150203, Q1 : 0.999997496605, Q2 : -0.0016222713748, Q3 : -0.0014540507691, Q4 : -0.000470891100122}
2019-04-14 14:57:19.81: SIM {TimeUS : 44835392, Roll : -0.03, Pitch : -0.02, Yaw : 359.94, Alt : 31.5, Lat : 49.2835702, Lng : -123.1150204, Q1 : 0.999999821186, Q2 : -0.000274553487543, Q3 : -0.000206153505133, Q4 : -0.00051120785065}
2019-04-14 14:57:19.91: SIM {TimeUS : 44935352, Roll : 0.05, Pitch : 0.05, Yaw : 359.93, Alt : 31.6800003052, Lat : 49.2835702, Lng : -123.1150205, Q1 : 0.999999642372, Q2 : 0.000482802919578, Q3 : 0.00044784398051, Q4 : -0.000539702130482}
2019-04-14 14:57:20.01: SIM {TimeUS : 45035312, Roll : 0.09, Pitch : 0.07, Yaw : 359.93, Alt : 31.8600006104, Lat : 49.2835703, Lng : -123.1150205, Q1 : 0.999999344349, Q2 : 0.000807470933069, Q3 : 0.000621493032668, Q4 : -0.000553565798327}
2019-04-14 14:57:20.11: SIM {TimeUS : 45135272, Roll : 0.1, Pitch : 0.05, Yaw : 359.93, Alt : 32.0400009155, Lat : 49.2835703, Lng : -123.1150206, Q1 : 0.999999344349, Q2 : 0.000886099063791, Q3 : 0.000438367831521, Q4 : -0.000546564231627}
2019-04-14 14:57:20.21: SIM {TimeUS : 45235232, Roll : 0.09, Pitch : 0.03, Yaw : 359.93, Alt : 32.2299995422, Lat : 49.2835703, Lng : -123.1150206, Q1 : 0.999999463558, Q2 : 0.000857063801959, Q3 : 0.000272333389148, Q4 : -0.000527608150151}
2019-04-14 14:57:20.31: SIM {TimeUS : 45335192, Roll : 0.08, Pitch : 0.04, Yaw : 359.94, Alt : 32.4199981689, Lat : 49.2835703, Lng : -123.1150207, Q1 : 0.999999523163, Q2 : 0.000745549623389, Q3 : 0.000359208002919, Q4 : -0.000493448227644}
2019-04-14 14:57:20.41: SIM {TimeUS : 45435152, Roll : 0.06, Pitch : 0.07, Yaw : 359.94, Alt : 32.6100006104, Lat : 49.2835703, Lng : -123.1150207, Q1 : 0.999999523163, Q2 : 0.00055021425942, Q3 : 0.000643840816338, Q4 : -0.000472632877063}
2019-04-14 14:57:20.51: SIM {TimeUS : 45535112, Roll : 0.06, Pitch : 0.12, Yaw : 359.94, Alt : 32.8100013733, Lat : 49.2835703, Lng : -123.1150208, Q1 : 0.99999910593, Q2 : 0.000606548564974, Q3 : 0.00108050601557, Q4 : -0.000466262805276}
2019-04-14 14:57:20.61: SIM {TimeUS : 45635072, Roll : 0.1, Pitch : 0.16, Yaw : 359.94, Alt : 33.0099983215, Lat : 49.2835704, Lng : -123.1150208, Q1 : 0.999998390675, Q2 : 0.000915741547942, Q3 : 0.00146397342905, Q4 : -0.000466538069304}
2019-04-14 14:57:20.71: SIM {TimeUS : 45735032, Roll : 0.14, Pitch : 0.19, Yaw : 359.94, Alt : 33.2099990845, Lat : 49.2835704, Lng : -123.1150208, Q1 : 0.999997675419, Q2 : 0.00125054607634, Q3 : 0.00167733093258, Q4 : -0.000477904104628}
2019-04-14 14:57:20.81: SIM {TimeUS : 45834992, Roll : 0.16, Pitch : 0.21, Yaw : 359.94, Alt : 33.4199981689, Lat : 49.2835704, Lng : -123.1150208, Q1 : 0.999997138977, Q2 : 0.00142064446118, Q3 : 0.00186432944611, Q4 : -0.00048961781431}
2019-04-14 14:57:20.91: SIM {TimeUS : 45934952, Roll : 0.17, Pitch : 0.19, Yaw : 359.94, Alt : 33.6199989319, Lat : 49.2835704, Lng : -123.1150209, Q1 : 0.999997317791, Q2 : 0.00149928184692, Q3 : 0.00168982415926, Q4 : -0.000517277163453}
2019-04-14 14:57:21.01: SIM {TimeUS : 46034912, Roll : 0.16, Pitch : 0.15, Yaw : 359.93, Alt : 33.8300018311, Lat : 49.2835704, Lng : -123.1150209, Q1 : 0.999997854233, Q2 : 0.00146979617421, Q3 : 0.00135141809005, Q4 : -0.000542611116543}
2019-04-14 14:57:21.11: SIM {TimeUS : 46134872, Roll : 0.15, Pitch : 0.12, Yaw : 359.93, Alt : 34.0400009155, Lat : 49.2835704, Lng : -123.1150209, Q1 : 0.999998390675, Q2 : 0.00134488439653, Q3 : 0.00107858504634, Q4 : -0.000567798910197}
2019-04-14 14:57:21.21: SIM {TimeUS : 46234832, Roll : 0.14, Pitch : 0.1, Yaw : 359.93, Alt : 34.25, Lat : 49.2835704, Lng : -123.1150209, Q1 : 0.999998629093, Q2 : 0.00125450885389, Q3 : 0.000913142343052, Q4 : -0.000590577255934}
2019-04-14 14:57:21.31: SIM {TimeUS : 46334792, Roll : 0.14, Pitch : 0.1, Yaw : 359.93, Alt : 34.4599990845, Lat : 49.2835704, Lng : -123.1150209, Q1 : 0.999998629093, Q2 : 0.00124146591406, Q3 : 0.00089187111007, Q4 : -0.000611022580415}
2019-04-14 14:57:21.41: SIM {TimeUS : 46434752, Roll : 0.12, Pitch : 0.08, Yaw : 359.92, Alt : 34.6800003052, Lat : 49.2835704, Lng : -123.1150209, Q1 : 0.999998927116, Q2 : 0.00111619918607, Q3 : 0.000756610243116, Q4 : -0.000625723158009}
2019-04-14 14:57:21.51: SIM {TimeUS : 46534712, Roll : 0.1, Pitch : 0.07, Yaw : 359.92, Alt : 34.8899993896, Lat : 49.2835704, Lng : -123.1150208, Q1 : 0.999999165535, Q2 : 0.000921143626329, Q3 : 0.000629488553386, Q4 : -0.00063870230224}
2019-04-14 14:57:21.61: SIM {TimeUS : 46634672, Roll : 0.08, Pitch : 0.06, Yaw : 359.92, Alt : 35.1100006104, Lat : 49.2835704, Lng : -123.1150208, Q1 : 0.999999403954, Q2 : 0.000709275656845, Q3 : 0.00054120994173, Q4 : -0.000652683607768}
2019-04-14 14:57:21.71: SIM {TimeUS : 46735465, Roll : 0.05, Pitch : 0.05, Yaw : 359.92, Alt : 35.3300018311, Lat : 49.2835704, Lng : -123.1150208, Q1 : 0.999999582767, Q2 : 0.000490208796691, Q3 : 0.000463929522084, Q4 : -0.000663992075715}
2019-04-14 14:57:21.81: SIM {TimeUS : 46835425, Roll : 0.04, Pitch : 0.01, Yaw : 359.92, Alt : 35.5499992371, Lat : 49.2835704, Lng : -123.1150208, Q1 : 0.999999701977, Q2 : 0.00038317363942, Q3 : 0.00017376471078, Q4 : -0.000672331778333}
2019-04-14 14:57:21.91: SIM {TimeUS : 46935385, Roll : 0.03, Pitch : 0.0, Yaw : 359.92, Alt : 35.7599983215, Lat : 49.2835704, Lng : -123.1150208, Q1 : 0.999999701977, Q2 : 0.000327976158587, Q3 : -6.84887854732e-05, Q4 : -0.000686799467076}
2019-04-14 14:57:22.01: SIM {TimeUS : 47035345, Roll : 0.01, Pitch : -0.01, Yaw : 359.91, Alt : 35.9799995422, Lat : 49.2835704, Lng : -123.1150208, Q1 : 0.999999701977, Q2 : 0.000142843142385, Q3 : -0.000124108119053, Q4 : -0.000711650354788}
2019-04-14 14:57:22.11: SIM {TimeUS : 47135305, Roll : 0.0, Pitch : 0.0, Yaw : 359.91, Alt : 36.2000007629, Lat : 49.2835704, Lng : -123.1150207, Q1 : 0.999999701977, Q2 : 8.48375420901e-05, Q3 : -7.94533625594e-05, Q4 : -0.000733071821742}
2019-04-14 14:57:22.21: SIM {TimeUS : 47235265, Roll : 0.01, Pitch : 0.0, Yaw : 359.91, Alt : 36.4300003052, Lat : 49.2835704, Lng : -123.1150207, Q1 : 0.999999701977, Q2 : 0.000126127983094, Q3 : -1.46331431097e-05, Q4 : -0.000754352484364}
2019-04-14 14:57:22.31: SIM {TimeUS : 47335225, Roll : 0.0, Pitch : -0.01, Yaw : 359.91, Alt : 36.6500015259, Lat : 49.2835704, Lng : -123.1150207, Q1 : 0.999999701977, Q2 : 1.91033432202e-05, Q3 : -0.000153220884386, Q4 : -0.000774277024902}
2019-04-14 14:57:22.41: SIM {TimeUS : 47435185, Roll : -0.03, Pitch : -0.05, Yaw : 359.9, Alt : 36.8699989319, Lat : 49.2835704, Lng : -123.1150207, Q1 : 0.999999523163, Q2 : -0.000280415668385, Q3 : -0.000470017141197, Q4 : -0.000796408974566}
2019-04-14 14:57:22.51: SIM {TimeUS : 47535145, Roll : -0.07, Pitch : -0.08, Yaw : 359.9, Alt : 37.0999984741, Lat : 49.2835704, Lng : -123.1150207, Q1 : 0.999999165535, Q2 : -0.000639869074803, Q3 : -0.000735468114726, Q4 : -0.000824221642688}
2019-04-14 14:57:22.61: SIM {TimeUS : 47635105, Roll : -0.11, Pitch : -0.1, Yaw : 359.9, Alt : 37.3199996948, Lat : 49.2835704, Lng : -123.1150207, Q1 : 0.999998688698, Q2 : -0.000975123024546, Q3 : -0.00093617424136, Q4 : -0.000853983859997}
2019-04-14 14:57:22.71: SIM {TimeUS : 47735065, Roll : -0.12, Pitch : -0.11, Yaw : 359.89, Alt : 37.5499992371, Lat : 49.2835704, Lng : -123.1150207, Q1 : 0.999998569489, Q2 : -0.00107343459968, Q3 : -0.000971496105194, Q4 : -0.00088543840684}
2019-04-14 14:57:22.81: SIM {TimeUS : 47835025, Roll : -0.11, Pitch : -0.09, Yaw : 359.89, Alt : 37.7700004578, Lat : 49.2835704, Lng : -123.1150206, Q1 : 0.999998688698, Q2 : -0.00102579081431, Q3 : -0.00083471549442, Q4 : -0.000916747318115}
2019-04-14 14:57:22.91: SIM {TimeUS : 47934985, Roll : -0.1, Pitch : -0.06, Yaw : 359.89, Alt : 38.0, Lat : 49.2835704, Lng : -123.1150206, Q1 : 0.999999046326, Q2 : -0.000886972004082, Q3 : -0.000531680125277, Q4 : -0.000940943311434}
2019-04-14 14:57:23.01: SIM {TimeUS : 48034945, Roll : -0.08, Pitch : -0.03, Yaw : 359.88, Alt : 38.2299995422, Lat : 49.2835704, Lng : -123.1150206, Q1 : 0.99999922514, Q2 : -0.000709860993084, Q3 : -0.00031022267649, Q4 : -0.000968411506619}
2019-04-14 14:57:23.11: SIM {TimeUS : 48134905, Roll : -0.07, Pitch : -0.03, Yaw : 359.88, Alt : 38.4500007629, Lat : 49.2835704, Lng : -123.1150206, Q1 : 0.99999922514, Q2 : -0.000647664943244, Q3 : -0.000307751673972, Q4 : -0.000998842879198}
2019-04-14 14:57:23.21: SIM {TimeUS : 48234865, Roll : -0.07, Pitch : -0.02, Yaw : 359.88, Alt : 38.6800003052, Lat : 49.2835704, Lng : -123.1150206, Q1 : 0.99999922514, Q2 : -0.000674844428431, Q3 : -0.000196614593733, Q4 : -0.00102333992254}
2019-04-14 14:57:23.31: SIM {TimeUS : 48334825, Roll : -0.09, Pitch : 0.0, Yaw : 359.88, Alt : 38.9099998474, Lat : 49.2835704, Lng : -123.1150206, Q1 : 0.99999910593, Q2 : -0.000819124223199, Q3 : -3.09084643959e-05, Q4 : -0.00104517501313}
2019-04-14 14:57:23.41: SIM {TimeUS : 48434785, Roll : -0.09, Pitch : 0.01, Yaw : 359.87, Alt : 39.1399993896, Lat : 49.2835706, Lng : -123.1150206, Q1 : 0.99999910593, Q2 : -0.000798501889221, Q3 : 0.000113427711767, Q4 : -0.00105862319469}
2019-04-14 14:57:23.51: SIM {TimeUS : 48534745, Roll : -0.07, Pitch : 0.04, Yaw : 359.87, Alt : 39.3699989319, Lat : 49.2835706, Lng : -123.1150206, Q1 : 0.999999165535, Q2 : -0.000633136543911, Q3 : 0.000361052749213, Q4 : -0.00106589705683}
2019-04-14 14:57:23.61: SIM {TimeUS : 48634705, Roll : -0.05, Pitch : 0.04, Yaw : 359.87, Alt : 39.5999984741, Lat : 49.2835706, Lng : -123.1150206, Q1 : 0.999999284744, Q2 : -0.00044046487892, Q3 : 0.000370983878383, Q4 : -0.00105907628313}
2019-04-14 14:57:23.71: SIM {TimeUS : 48734665, Roll : -0.02, Pitch : 0.03, Yaw : 359.88, Alt : 39.8300018311, Lat : 49.2835706, Lng : -123.1150207, Q1 : 0.999999403954, Q2 : -0.000216949614696, Q3 : 0.000332870549755, Q4 : -0.00104697979987}
2019-04-14 14:57:23.81: SIM {TimeUS : 48835458, Roll : 0.01, Pitch : 0.05, Yaw : 359.88, Alt : 40.0600013733, Lat : 49.2835706, Lng : -123.1150207, Q1 : 0.999999344349, Q2 : 9.74272770691e-05, Q3 : 0.000478491507238, Q4 : -0.0010398325976}
2019-04-14 14:57:23.91: SIM {TimeUS : 48935418, Roll : 0.05, Pitch : 0.08, Yaw : 359.88, Alt : 40.2900009155, Lat : 49.2835706, Lng : -123.1150207, Q1 : 0.99999910593, Q2 : 0.000460758223198, Q3 : 0.000719426607247, Q4 : -0.00103799719363}
2019-04-14 14:57:24.01: SIM {TimeUS : 49035378, Roll : 0.08, Pitch : 0.11, Yaw : 359.88, Alt : 40.5299987793, Lat : 49.2835706, Lng : -123.1150207, Q1 : 0.999998629093, Q2 : 0.000769662321545, Q3 : 0.0010148253059, Q4 : -0.00104805652518}
2019-04-14 14:57:24.11: SIM {TimeUS : 49135338, Roll : 0.08, Pitch : 0.15, Yaw : 359.87, Alt : 40.7599983215, Lat : 49.2835706, Lng : -123.1150207, Q1 : 0.99999833107, Q2 : 0.000717394577805, Q3 : 0.0013140871888, Q4 : -0.00105403165799}
2019-04-14 14:57:24.21: SIM {TimeUS : 49235298, Roll : 0.03, Pitch : 0.17, Yaw : 359.87, Alt : 40.9900016785, Lat : 49.2835706, Lng : -123.1150207, Q1 : 0.999998211861, Q2 : 0.00030803665868, Q3 : 0.00152631860692, Q4 : -0.00107961986214}
2019-04-14 14:57:24.31: SIM {TimeUS : 49335258, Roll : 0.0, Pitch : 0.18, Yaw : 359.87, Alt : 41.2200012207, Lat : 49.2835706, Lng : -123.1150207, Q1 : 0.999998092651, Q2 : -5.6382654293e-05, Q3 : 0.00162891077343, Q4 : -0.00110749388114}
2019-04-14 14:57:24.41: SIM {TimeUS : 49435218, Roll : -0.02, Pitch : 0.16, Yaw : 359.86, Alt : 41.4599990845, Lat : 49.2835706, Lng : -123.1150207, Q1 : 0.999998211861, Q2 : -0.000248502095928, Q3 : 0.00148100533988, Q4 : -0.00113973766565}
2019-04-14 14:57:24.51: SIM {TimeUS : 49535178, Roll : -0.03, Pitch : 0.13, Yaw : 359.86, Alt : 41.6899986267, Lat : 49.2835706, Lng : -123.1150207, Q1 : 0.999998509884, Q2 : -0.000329156609951, Q3 : 0.0012140981853, Q4 : -0.00118185475003}
2019-04-14 14:57:24.61: SIM {TimeUS : 49635138, Roll : -0.02, Pitch : 0.13, Yaw : 359.85, Alt : 41.9199981689, Lat : 49.2835706, Lng : -123.1150207, Q1 : 0.999998569489, Q2 : -0.000232636390137, Q3 : 0.00114586390555, Q4 : -0.00123411777895}
2019-04-14 14:57:24.71: SIM {TimeUS : 49735098, Roll : 0.01, Pitch : 0.14, Yaw : 359.85, Alt : 42.1599998474, Lat : 49.2835706, Lng : -123.1150207, Q1 : 0.999998390675, Q2 : 0.000121527467854, Q3 : 0.00124287267681, Q4 : -0.00129273207858}
2019-04-14 14:57:24.81: SIM {TimeUS : 49835058, Roll : 0.06, Pitch : 0.14, Yaw : 359.84, Alt : 42.3899993896, Lat : 49.2835706, Lng : -123.1150207, Q1 : 0.999998092651, Q2 : 0.000593858072534, Q3 : 0.00128898990806, Q4 : -0.00135118025355}
2019-04-14 14:57:24.91: SIM {TimeUS : 49935018, Roll : 0.1, Pitch : 0.12, Yaw : 359.83, Alt : 42.6300010681, Lat : 49.2835706, Lng : -123.1150207, Q1 : 0.999997973442, Q2 : 0.000949438894168, Q3 : 0.00105978606734, Q4 : -0.00140908814501}
2019-04-14 14:57:25.01: SIM {TimeUS : 50034978, Roll : 0.11, Pitch : 0.08, Yaw : 359.83, Alt : 42.8600006104, Lat : 49.2835706, Lng : -123.1150207, Q1 : 0.999998152256, Q2 : 0.000975692993961, Q3 : 0.000736803107429, Q4 : -0.00146054697689}
2019-04-14 14:57:25.11: SIM {TimeUS : 50134938, Roll : 0.07, Pitch : 0.05, Yaw : 359.82, Alt : 43.0999984741, Lat : 49.2835706, Lng : -123.1150207, Q1 : 0.999998569489, Q2 : 0.000620284117758, Q3 : 0.000491058162879, Q4 : -0.00149141938891}
2019-04-14 14:57:25.21: SIM {TimeUS : 50234898, Roll : 0.01, Pitch : 0.05, Yaw : 359.82, Alt : 43.3300018311, Lat : 49.2835706, Lng : -123.1150207, Q1 : 0.999998748302, Q2 : 0.000130857588374, Q3 : 0.000446791382274, Q4 : -0.00151168426964}
2019-04-14 14:57:25.31: SIM {TimeUS : 50334858, Roll : -0.02, Pitch : 0.07, Yaw : 359.82, Alt : 43.5699996948, Lat : 49.2835704, Lng : -123.1150207, Q1 : 0.999998569489, Q2 : -0.000236197767663, Q3 : 0.000657512806356, Q4 : -0.00152152276132}
2019-04-14 14:57:25.41: SIM {TimeUS : 50434818, Roll : -0.04, Pitch : 0.09, Yaw : 359.82, Alt : 43.7999992371, Lat : 49.2835704, Lng : -123.1150207, Q1 : 0.999998390675, Q2 : -0.000417256640503, Q3 : 0.000812291691545, Q4 : -0.00152699823957}
2019-04-14 14:57:25.51: SIM {TimeUS : 50534778, Roll : -0.04, Pitch : 0.08, Yaw : 359.82, Alt : 44.0400009155, Lat : 49.2835704, Lng : -123.1150207, Q1 : 0.999998509884, Q2 : -0.000389847089536, Q3 : 0.000735288660508, Q4 : -0.00152650114615}
2019-04-14 14:57:25.61: SIM {TimeUS : 50634738, Roll : -0.04, Pitch : 0.06, Yaw : 359.82, Alt : 44.2700004578, Lat : 49.2835704, Lng : -123.1150207, Q1 : 0.999998569489, Q2 : -0.000414030917455, Q3 : 0.000574794772547, Q4 : -0.00152613292448}
2019-04-14 14:57:25.71: SIM {TimeUS : 50734698, Roll : -0.04, Pitch : 0.04, Yaw : 359.82, Alt : 44.5099983215, Lat : 49.2835704, Lng : -123.1150207, Q1 : 0.999998688698, Q2 : -0.000357022450771, Q3 : 0.000425386038842, Q4 : -0.00153238419443}
2019-04-14 14:57:25.81: SIM {TimeUS : 50834658, Roll : -0.02, Pitch : 0.04, Yaw : 359.82, Alt : 44.7400016785, Lat : 49.2835704, Lng : -123.1150206, Q1 : 0.999998688698, Q2 : -0.000205159551115, Q3 : 0.000358893477824, Q4 : -0.0015480570728}
2019-04-14 14:57:25.91: SIM {TimeUS : 50935451, Roll : -0.01, Pitch : 0.03, Yaw : 359.81, Alt : 44.9799995422, Lat : 49.2835704, Lng : -123.1150206, Q1 : 0.999998688698, Q2 : -0.000126645260025, Q3 : 0.00033909486956, Q4 : -0.00157181627583}
2019-04-14 14:57:26.01: SIM {TimeUS : 51035411, Roll : -0.01, Pitch : 0.02, Yaw : 359.81, Alt : 45.2200012207, Lat : 49.2835704, Lng : -123.1150206, Q1 : 0.999998688698, Q2 : -0.000166836704011, Q3 : 0.000215077583562, Q4 : -0.00159911229275}
2019-04-14 14:57:26.11: SIM {TimeUS : 51135371, Roll : -0.02, Pitch : 0.0, Yaw : 359.81, Alt : 45.4500007629, Lat : 49.2835703, Lng : -123.1150206, Q1 : 0.999998688698, Q2 : -0.000207228004001, Q3 : -8.30916469567e-05, Q4 : -0.00162716209888}
2019-04-14 14:57:26.21: SIM {TimeUS : 51235331, Roll : -0.02, Pitch : -0.03, Yaw : 359.81, Alt : 45.6899986267, Lat : 49.2835703, Lng : -123.1150206, Q1 : 0.999998569489, Q2 : -0.000232615115237, Q3 : -0.000313880649628, Q4 : -0.00165440212004}
2019-04-14 14:57:26.31: SIM {TimeUS : 51335291, Roll : -0.02, Pitch : -0.04, Yaw : 359.8, Alt : 45.9199981689, Lat : 49.2835703, Lng : -123.1150206, Q1 : 0.999998509884, Q2 : -0.000187738623936, Q3 : -0.000426515878644, Q4 : -0.0016793460818}
2019-04-14 14:57:26.41: SIM {TimeUS : 51435251, Roll : -0.02, Pitch : -0.05, Yaw : 359.8, Alt : 46.1500015259, Lat : 49.2835703, Lng : -123.1150206, Q1 : 0.999998390675, Q2 : -0.000243930306169, Q3 : -0.000451152707683, Q4 : -0.00170467037242}
2019-04-14 14:57:26.51: SIM {TimeUS : 51535211, Roll : -0.05, Pitch : -0.04, Yaw : 359.8, Alt : 46.3800010681, Lat : 49.2835703, Lng : -123.1150206, Q1 : 0.99999833107, Q2 : -0.000437738432083, Q3 : -0.00037609692663, Q4 : -0.00173377350438}
2019-04-14 14:57:26.61: SIM {TimeUS : 51635171, Roll : -0.08, Pitch : -0.03, Yaw : 359.79, Alt : 46.5999984741, Lat : 49.2835703, Lng : -123.1150206, Q1 : 0.999998092651, Q2 : -0.000721764808986, Q3 : -0.000317470898153, Q4 : -0.00176580168772}
2019-04-14 14:57:26.71: SIM {TimeUS : 51735131, Roll : -0.1, Pitch : -0.03, Yaw : 359.79, Alt : 46.8100013733, Lat : 49.2835703, Lng : -123.1150206, Q1 : 0.999997913837, Q2 : -0.000917491328437, Q3 : -0.000311247305945, Q4 : -0.00179806235246}
2019-04-14 14:57:26.81: SIM {TimeUS : 51835091, Roll : -0.11, Pitch : -0.02, Yaw : 359.79, Alt : 47.0200004578, Lat : 49.2835703, Lng : -123.1150206, Q1 : 0.999997854233, Q2 : -0.000965289422311, Q3 : -0.000251437159022, Q4 : -0.00182734103873}
2019-04-14 14:57:26.91: SIM {TimeUS : 51935051, Roll : -0.1, Pitch : -0.01, Yaw : 359.78, Alt : 47.2299995422, Lat : 49.2835703, Lng : -123.1150206, Q1 : 0.999997913837, Q2 : -0.000895964738447, Q3 : -9.03869222384e-05, Q4 : -0.00185293448158}
2019-04-14 14:57:27.01: SIM {TimeUS : 52035011, Roll : -0.08, Pitch : 0.0, Yaw : 359.78, Alt : 47.4199981689, Lat : 49.2835703, Lng : -123.1150206, Q1 : 0.999997973442, Q2 : -0.000738320639357, Q3 : 2.04168882192e-05, Q4 : -0.00187622185331}
2019-04-14 14:57:27.11: SIM {TimeUS : 52134971, Roll : -0.06, Pitch : 0.0, Yaw : 359.78, Alt : 47.6100006104, Lat : 49.2835703, Lng : -123.1150206, Q1 : 0.999998033047, Q2 : -0.000591622316279, Q3 : 9.65978415479e-06, Q4 : -0.00189891178161}
2019-04-14 14:57:27.21: SIM {TimeUS : 52234931, Roll : -0.07, Pitch : -0.01, Yaw : 359.77, Alt : 47.7799987793, Lat : 49.2835703, Lng : -123.1150206, Q1 : 0.999997913837, Q2 : -0.000653806200717, Q3 : -0.000170013401657, Q4 : -0.00192075339146}
2019-04-14 14:57:27.31: SIM {TimeUS : 52334891, Roll : -0.07, Pitch : -0.04, Yaw : 359.77, Alt : 47.9500007629, Lat : 49.2835703, Lng : -123.1150206, Q1 : 0.999997794628, Q2 : -0.000645186752081, Q3 : -0.000407373037888, Q4 : -0.00194338697474}
2019-04-14 14:57:27.41: SIM {TimeUS : 52434851, Roll : -0.05, Pitch : -0.06, Yaw : 359.77, Alt : 48.0999984741, Lat : 49.2835703, Lng : -123.1150206, Q1 : 0.999997794628, Q2 : -0.000478784495499, Q3 : -0.000605621782597, Q4 : -0.00196686014533}
2019-04-14 14:57:27.51: SIM {TimeUS : 52534811, Roll : -0.03, Pitch : -0.09, Yaw : 359.77, Alt : 48.2400016785, Lat : 49.2835703, Lng : -123.1150206, Q1 : 0.999997615814, Q2 : -0.00034847293864, Q3 : -0.000785177457146, Q4 : -0.00199569924735}
2019-04-14 14:57:27.61: SIM {TimeUS : 52634771, Roll : -0.03, Pitch : -0.1, Yaw : 359.76, Alt : 48.3699989319, Lat : 49.2835703, Lng : -123.1150206, Q1 : 0.999997496605, Q2 : -0.000333296047756, Q3 : -0.000899393402506, Q4 : -0.00203030416742}
2019-04-14 14:57:27.71: SIM {TimeUS : 52734731, Roll : -0.01, Pitch : -0.09, Yaw : 359.76, Alt : 48.4799995422, Lat : 49.2835703, Lng : -123.1150206, Q1 : 0.999997496605, Q2 : -9.90234548226e-05, Q3 : -0.000860875414219, Q4 : -0.00206690467894}
2019-04-14 14:57:27.81: SIM {TimeUS : 52834691, Roll : 0.02, Pitch : -0.08, Yaw : 359.75, Alt : 48.5900001526, Lat : 49.2835703, Lng : -123.1150206, Q1 : 0.999997496605, Q2 : 0.000192538253032, Q3 : -0.000723682518583, Q4 : -0.0021030169446}
2019-04-14 14:57:27.91: SIM {TimeUS : 52935484, Roll : 0.05, Pitch : -0.05, Yaw : 359.75, Alt : 48.6800003052, Lat : 49.2835703, Lng : -123.1150206, Q1 : 0.999997496605, Q2 : 0.000436508271378, Q3 : -0.00050972844474, Q4 : -0.00213137618266}
2019-04-14 14:57:28.01: SIM {TimeUS : 53035444, Roll : 0.06, Pitch : -0.03, Yaw : 359.75, Alt : 48.7599983215, Lat : 49.2835703, Lng : -123.1150207, Q1 : 0.999997496605, Q2 : 0.000549582240637, Q3 : -0.000307607930154, Q4 : -0.0021579854656}
2019-04-14 14:57:28.11: SIM {TimeUS : 53135404, Roll : 0.06, Pitch : -0.02, Yaw : 359.74, Alt : 48.8300018311, Lat : 49.2835703, Lng : -123.1150207, Q1 : 0.999997437, Q2 : 0.000605699431617, Q3 : -0.000203336312552, Q4 : -0.00218185503036}
2019-04-14 14:57:28.21: SIM {TimeUS : 53235364, Roll : 0.06, Pitch : -0.03, Yaw : 359.74, Alt : 48.8899993896, Lat : 49.2835703, Lng : -123.1150207, Q1 : 0.999997377396, Q2 : 0.00054564740276, Q3 : -0.000283344794298, Q4 : -0.00220549828373}
2019-04-14 14:57:28.31: SIM {TimeUS : 53335324, Roll : 0.03, Pitch : -0.03, Yaw : 359.74, Alt : 48.9399986267, Lat : 49.2835703, Lng : -123.1150207, Q1 : 0.999997377396, Q2 : 0.000322427862557, Q3 : -0.000340274447808, Q4 : -0.00222900346853}
2019-04-14 14:57:28.41: SIM {TimeUS : 53435284, Roll : 0.03, Pitch : -0.03, Yaw : 359.74, Alt : 48.9900016785, Lat : 49.2835703, Lng : -123.1150207, Q1 : 0.999997377396, Q2 : 0.000266311486484, Q3 : -0.000325508095557, Q4 : -0.00225094659254}
2019-04-14 14:57:28.51: SIM {TimeUS : 53535244, Roll : 0.14, Pitch : -0.06, Yaw : 359.73, Alt : 49.0200004578, Lat : 49.2835703, Lng : -123.1150207, Q1 : 0.999996483326, Q2 : 0.00124801276252, Q3 : -0.000578887469601, Q4 : -0.00227210158482}
2019-04-14 14:57:28.61: SIM {TimeUS : 53635204, Roll : 0.49, Pitch : -0.15, Yaw : 359.73, Alt : 49.0600013733, Lat : 49.2835703, Lng : -123.1150207, Q1 : 0.999987125397, Q2 : 0.00432482454926, Q3 : -0.0013463627547, Q4 : -0.00229383679107}
2019-04-14 14:57:28.71: SIM {TimeUS : 53735164, Roll : 1.13, Pitch : -0.3, Yaw : 359.73, Alt : 49.0800018311, Lat : 49.2835703, Lng : -123.1150207, Q1 : 0.999944865704, Q2 : 0.00988334137946, Q3 : -0.00269343494438, Q4 : -0.00231352751143}
2019-04-14 14:57:28.81: SIM {TimeUS : 53835124, Roll : 1.99, Pitch : -0.53, Yaw : 359.72, Alt : 49.1100006104, Lat : 49.2835704, Lng : -123.1150206, Q1 : 0.999834060669, Q2 : 0.0174338091165, Q3 : -0.00474269269034, Q4 : -0.00232482887805}
2019-04-14 14:57:28.91: SIM {TimeUS : 53935084, Roll : 2.99, Pitch : -0.84, Yaw : 359.71, Alt : 49.1300010681, Lat : 49.2835704, Lng : -123.1150206, Q1 : 0.999628067017, Q2 : 0.0261393375695, Q3 : -0.0074251065962, Q4 : -0.00231725187041}
2019-04-14 14:57:29.01: SIM {TimeUS : 54035044, Roll : 3.97, Pitch : -1.16, Yaw : 359.69, Alt : 49.1500015259, Lat : 49.2835704, Lng : -123.1150204, Q1 : 0.999343752861, Q2 : 0.0346717461944, Q3 : -0.0102350143716, Q4 : -0.00227590231225}
2019-04-14 14:57:29.11: SIM {TimeUS : 54135004, Roll : 4.79, Pitch : -1.45, Yaw : 359.68, Alt : 49.1599998474, Lat : 49.2835706, Lng : -123.1150202, Q1 : 0.999042332172, Q2 : 0.0417920574546, Q3 : -0.012767020613, Q4 : -0.00219275639392}
2019-04-14 14:57:29.21: SIM {TimeUS : 54234964, Roll : 5.41, Pitch : -1.67, Yaw : 359.68, Alt : 49.1800003052, Lat : 49.2835706, Lng : -123.11502, Q1 : 0.99877589941, Q2 : 0.047164671123, Q3 : -0.0147621603683, Q4 : -0.00206137518398}
2019-04-14 14:57:29.31: SIM {TimeUS : 54334924, Roll : 5.87, Pitch : -1.83, Yaw : 359.68, Alt : 49.1899986267, Lat : 49.2835707, Lng : -123.1150196, Q1 : 0.998556435108, Q2 : 0.0512082912028, Q3 : -0.0161002539098, Q4 : -0.00189315248281}
2019-04-14 14:57:29.41: SIM {TimeUS : 54434884, Roll : 6.23, Pitch : -1.94, Yaw : 359.69, Alt : 49.2000007629, Lat : 49.2835708, Lng : -123.1150191, Q1 : 0.998373746872, Q2 : 0.0543499067426, Q3 : -0.0171167943627, Q4 : -0.00172999012284}
2019-04-14 14:57:29.51: SIM {TimeUS : 54534844, Roll : 6.57, Pitch : -2.04, Yaw : 359.7, Alt : 49.2099990845, Lat : 49.2835709, Lng : -123.1150184, Q1 : 0.998194158077, Q2 : 0.0573050193489, Q3 : -0.0179485138506, Q4 : -0.00156717631035}
2019-04-14 14:57:29.61: SIM {TimeUS : 54634804, Roll : 6.92, Pitch : -2.13, Yaw : 359.7, Alt : 49.2200012207, Lat : 49.283571, Lng : -123.1150177, Q1 : 0.998000562191, Q2 : 0.060334507376, Q3 : -0.01877986826, Q4 : -0.00140348705463}
2019-04-14 14:57:29.71: SIM {TimeUS : 54734764, Roll : 7.26, Pitch : -2.24, Yaw : 359.71, Alt : 49.2200012207, Lat : 49.2835713, Lng : -123.1150168, Q1 : 0.997796237469, Q2 : 0.0633321478963, Q3 : -0.0197506826371, Q4 : -0.00126448529772}
2019-04-14 14:57:29.81: SIM {TimeUS : 54834724, Roll : 7.57, Pitch : -2.35, Yaw : 359.71, Alt : 49.2299995422, Lat : 49.2835715, Lng : -123.1150159, Q1 : 0.997605979443, Q2 : 0.0659889429808, Q3 : -0.0206505898386, Q4 : -0.00115122343414}
2019-04-14 14:57:29.91: SIM {TimeUS : 54934684, Roll : 7.82, Pitch : -2.42, Yaw : 359.71, Alt : 49.2299995422, Lat : 49.2835716, Lng : -123.1150148, Q1 : 0.997446119785, Q2 : 0.0681641772389, Q3 : -0.0213009398431, Q4 : -0.00105417601299}
2019-04-14 14:57:30.01: SIM {TimeUS : 55035477, Roll : 7.99, Pitch : -2.46, Yaw : 359.71, Alt : 49.2400016785, Lat : 49.2835719, Lng : -123.1150136, Q1 : 0.99733710289, Q2 : 0.0696493089199, Q3 : -0.021604957059, Q4 : -0.000977986725047}
2019-04-14 14:57:30.11: SIM {TimeUS : 55135437, Roll : 8.11, Pitch : -2.48, Yaw : 359.71, Alt : 49.2400016785, Lat : 49.2835721, Lng : -123.1150123, Q1 : 0.997260332108, Q2 : 0.0706697776914, Q3 : -0.0218345951289, Q4 : -0.000942551996559}
2019-04-14 14:57:30.21: SIM {TimeUS : 55235397, Roll : 8.21, Pitch : -2.51, Yaw : 359.71, Alt : 49.25, Lat : 49.2835725, Lng : -123.1150109, Q1 : 0.997190117836, Q2 : 0.0715794041753, Q3 : -0.0220786929131, Q4 : -0.000933161587454}
2019-04-14 14:57:30.31: SIM {TimeUS : 55335357, Roll : 8.42, Pitch : -2.44, Yaw : 359.76, Alt : 49.25, Lat : 49.2835727, Lng : -123.1150094, Q1 : 0.997071385384, Q2 : 0.0734097883105, Q3 : -0.0214357767254, Q4 : -0.000447445345344}
2019-04-14 14:57:30.41: SIM {TimeUS : 55435317, Roll : 8.81, Pitch : -2.14, Yaw : 0.29, Alt : 49.2599983215, Lat : 49.2835731, Lng : -123.1150077, Q1 : 0.996864199638, Q2 : 0.0768453404307, Q3 : -0.0184535738081, Q4 : 0.0040077008307}
2019-04-14 14:57:30.51: SIM {TimeUS : 55535277, Roll : 9.34, Pitch : -1.78, Yaw : 1.96, Alt : 49.2599983215, Lat : 49.2835733, Lng : -123.115006, Q1 : 0.996384680271, Q2 : 0.081745095551, Q3 : -0.014092293568, Q4 : 0.0183491837233}
2019-04-14 14:57:30.61: SIM {TimeUS : 55635237, Roll : 9.9, Pitch : -1.79, Yaw : 5.18, Alt : 49.2599983215, Lat : 49.2835738, Lng : -123.1150042, Q1 : 0.995065927505, Q2 : 0.0869321748614, Q3 : -0.0116621442139, Q4 : 0.046375028789}
2019-04-14 14:57:30.71: SIM {TimeUS : 55735197, Roll : 10.3, Pitch : -2.4, Yaw : 9.91, Alt : 49.2599983215, Lat : 49.283574, Lng : -123.1150023, Q1 : 0.991849720478, Q2 : 0.0912597328424, Q3 : -0.0130447335541, Q4 : 0.08795260638}
2019-04-14 14:57:30.81: SIM {TimeUS : 55835157, Roll : 10.36, Pitch : -3.62, Yaw : 15.96, Alt : 49.2599983215, Lat : 49.2835744, Lng : -123.1150002, Q1 : 0.985374331474, Q2 : 0.0938065499067, Q3 : -0.0186582952738, Q4 : 0.141030654311}
2019-04-14 14:57:30.91: SIM {TimeUS : 55935117, Roll : 9.95, Pitch : -5.33, Yaw : 23.05, Alt : 49.2700004578, Lat : 49.2835746, Lng : -123.1149981, Q1 : 0.97426956892, Q2 : 0.0941621959209, Q3 : -0.0280828084797, Q4 : 0.202839016914}
2019-04-14 14:57:31.01: SIM {TimeUS : 56035077, Roll : 9.0, Pitch : -7.31, Yaw : 30.96, Alt : 49.2700004578, Lat : 49.283575, Lng : -123.1149958, Q1 : 0.957455158234, Q2 : 0.0924560651183, Q3 : -0.0403695032001, Q4 : 0.270373553038}
2019-04-14 14:57:31.11: SIM {TimeUS : 56135037, Roll : 7.53, Pitch : -9.34, Yaw : 39.43, Alt : 49.2700004578, Lat : 49.2835752, Lng : -123.1149933, Q1 : 0.934399247169, Q2 : 0.089036218822, Q3 : -0.0544172115624, Q4 : 0.340601593256}
2019-04-14 14:57:31.21: SIM {TimeUS : 56234997, Roll : 5.6, Pitch : -11.18, Yaw : 48.24, Alt : 49.2700004578, Lat : 49.2835756, Lng : -123.1149908, Q1 : 0.905280768871, Q2 : 0.0842023864388, Q3 : -0.0689277350903, Q4 : 0.410640537739}
2019-04-14 14:57:31.31: SIM {TimeUS : 56334957, Roll : 3.35, Pitch : -12.62, Yaw : 57.12, Alt : 49.2700004578, Lat : 49.2835759, Lng : -123.1149881, Q1 : 0.8710719347, Q2 : 0.0780913904309, Q3 : -0.0826282426715, Q4 : 0.477815896273}
2019-04-14 14:57:31.41: SIM {TimeUS : 56434917, Roll : 0.93, Pitch : -13.55, Yaw : 65.75, Alt : 49.2700004578, Lat : 49.2835764, Lng : -123.1149854, Q1 : 0.833432137966, Q2 : 0.0708610266447, Q3 : -0.0946935862303, Q4 : 0.539817333221}
2019-04-14 14:57:31.51: SIM {TimeUS : 56534877, Roll : -1.7, Pitch : -13.98, Yaw : 73.71, Alt : 49.2799987793, Lat : 49.2835768, Lng : -123.1149825, Q1 : 0.795160651207, Q2 : 0.0611756853759, Q3 : -0.106260888278, Q4 : 0.593873500824}
2019-04-14 14:57:31.61: SIM {TimeUS : 56634837, Roll : -4.37, Pitch : -13.96, Yaw : 80.34, Alt : 49.2799987793, Lat : 49.2835773, Lng : -123.1149795, Q1 : 0.760887801647, Q2 : 0.0494129769504, Q3 : -0.11723331362, Q4 : 0.636289596558}
2019-04-14 14:57:31.71: SIM {TimeUS : 56734797, Roll : -6.56, Pitch : -13.67, Yaw : 85.09, Alt : 49.2799987793, Lat : 49.2835779, Lng : -123.1149763, Q1 : 0.734897851944, Q2 : 0.0384903661907, Q3 : -0.125991716981, Q4 : 0.665259122849}
2019-04-14 14:57:31.81: SIM {TimeUS : 56834757, Roll : -7.92, Pitch : -13.33, Yaw : 87.84, Alt : 49.2799987793, Lat : 49.2835785, Lng : -123.1149731, Q1 : 0.719274997711, Q2 : 0.030951846391, Q3 : -0.131040975451, Q4 : 0.68155246973}
2019-04-14 14:57:31.91: SIM {TimeUS : 56934717, Roll : -8.32, Pitch : -13.11, Yaw : 88.77, Alt : 49.2799987793, Lat : 49.2835792, Lng : -123.1149698, Q1 : 0.713882982731, Q2 : 0.0281605310738, Q3 : -0.131864205003, Q4 : 0.687160849571}
2019-04-14 14:57:32.01: SIM {TimeUS : 57034677, Roll : -7.82, Pitch : -13.13, Yaw : 88.21, Alt : 49.2799987793, Lat : 49.28358, Lng : -123.1149664, Q1 : 0.717123925686, Q2 : 0.0306984428316, Q3 : -0.129122763872, Q4 : 0.684191644192}
2019-04-14 14:57:32.11: SIM {TimeUS : 57135470, Roll : -6.6, Pitch : -13.43, Yaw : 86.48, Alt : 49.2799987793, Lat : 49.283581, Lng : -123.1149628, Q1 : 0.726861298084, Q2 : 0.0383015535772, Q3 : -0.124271199107, Q4 : 0.674360752106}
2019-04-14 14:57:32.21: SIM {TimeUS : 57235430, Roll : -4.92, Pitch : -13.96, Yaw : 83.96, Alt : 49.2799987793, Lat : 49.2835818, Lng : -123.1149592, Q1 : 0.740631222725, Q2 : 0.049587469548, Q3 : -0.118807464838, Q4 : 0.659462928772}
2019-04-14 14:57:32.31: SIM {TimeUS : 57335390, Roll : -2.99, Pitch : -14.62, Yaw : 80.94, Alt : 49.2799987793, Lat : 49.2835829, Lng : -123.1149555, Q1 : 0.756417572498, Q2 : 0.0628582537174, Q3 : -0.113631561399, Q4 : 0.641068816185}
2019-04-14 14:57:32.41: SIM {TimeUS : 57435350, Roll : -1.05, Pitch : -15.26, Yaw : 77.73, Alt : 49.2799987793, Lat : 49.2835838, Lng : -123.1149518, Q1 : 0.772453665733, Q2 : 0.0762385204434, Q3 : -0.109168104827, Q4 : 0.620955169201}
2019-04-14 14:57:32.51: SIM {TimeUS : 57535310, Roll : 0.71, Pitch : -15.75, Yaw : 74.64, Alt : 49.2799987793, Lat : 49.2835849, Lng : -123.1149479, Q1 : 0.787221610546, Q2 : 0.0880050510168, Q3 : -0.105217464268, Q4 : 0.601220846176}
2019-04-14 14:57:32.61: SIM {TimeUS : 57635270, Roll : 2.15, Pitch : -16.0, Yaw : 71.98, Alt : 49.2799987793, Lat : 49.2835859, Lng : -123.1149439, Q1 : 0.799503266811, Q2 : 0.0969172120094, Q3 : -0.101675249636, Q4 : 0.584006667137}
2019-04-14 14:57:32.71: SIM {TimeUS : 57735230, Roll : 3.15, Pitch : -16.06, Yaw : 70.01, Alt : 49.2799987793, Lat : 49.2835868, Lng : -123.1149397, Q1 : 0.808548808098, Q2 : 0.102480091155, Q3 : -0.0987538471818, Q4 : 0.570959150791}
2019-04-14 14:57:32.81: SIM {TimeUS : 57835190, Roll : 3.68, Pitch : -16.0, Yaw : 68.81, Alt : 49.2799987793, Lat : 49.2835878, Lng : -123.1149356, Q1 : 0.814066886902, Q2 : 0.104878433049, Q3 : -0.0968205928802, Q4 : 0.562957823277}
2019-04-14 14:57:32.91: SIM {TimeUS : 57935150, Roll : 3.73, Pitch : -15.94, Yaw : 68.39, Alt : 49.2799987793, Lat : 49.2835886, Lng : -123.1149313, Q1 : 0.816142857075, Q2 : 0.104612179101, Q3 : -0.0964821502566, Q4 : 0.560052096844}
2019-04-14 14:57:33.01: SIM {TimeUS : 58035110, Roll : 3.38, Pitch : -15.93, Yaw : 68.66, Alt : 49.2900009155, Lat : 49.2835896, Lng : -123.1149268, Q1 : 0.815152287483, Q2 : 0.102285802364, Q3 : -0.0978911072016, Q4 : 0.561677575111}
2019-04-14 14:57:33.11: SIM {TimeUS : 58135070, Roll : 2.71, Pitch : -15.99, Yaw : 69.47, Alt : 49.2900009155, Lat : 49.2835904, Lng : -123.1149223, Q1 : 0.811674237251, Q2 : 0.0985642895103, Q3 : -0.100963428617, Q4 : 0.566812574863}
2019-04-14 14:57:33.21: SIM {TimeUS : 58235030, Roll : 1.86, Pitch : -16.1, Yaw : 70.64, Alt : 49.2900009155, Lat : 49.2835914, Lng : -123.1149176, Q1 : 0.806439161301, Q2 : 0.0941125676036, Q3 : -0.104975245893, Q4 : 0.574263870716}
2019-04-14 14:57:33.31: SIM {TimeUS : 58334990, Roll : 0.97, Pitch : -16.22, Yaw : 71.99, Alt : 49.2900009155, Lat : 49.2835922, Lng : -123.1149129, Q1 : 0.800230383873, Q2 : 0.0897203460336, Q3 : -0.109234288335, Q4 : 0.582794547081}
2019-04-14 14:57:33.41: SIM {TimeUS : 58434950, Roll : 0.11, Pitch : -16.34, Yaw : 73.33, Alt : 49.2900009155, Lat : 49.2835931, Lng : -123.1149081, Q1 : 0.793871223927, Q2 : 0.085698030889, Q3 : -0.11337275058, Q4 : 0.591245293617}
2019-04-14 14:57:33.51: SIM {TimeUS : 58534910, Roll : -0.58, Pitch : -16.43, Yaw : 74.53, Alt : 49.2900009155, Lat : 49.283594, Lng : -123.1149033, Q1 : 0.788070082664, Q2 : 0.0825523510575, Q3 : -0.116821050644, Q4 : 0.598734915257}
2019-04-14 14:57:33.61: SIM {TimeUS : 58634870, Roll : -1.07, Pitch : -16.49, Yaw : 75.48, Alt : 49.2900009155, Lat : 49.283595, Lng : -123.1148984, Q1 : 0.783409774303, Q2 : 0.0804248154163, Q3 : -0.119104720652, Q4 : 0.604661107063}
2019-04-14 14:57:33.71: SIM {TimeUS : 58734830, Roll : -1.35, Pitch : -16.51, Yaw : 76.11, Alt : 49.2900009155, Lat : 49.2835958, Lng : -123.1148934, Q1 : 0.780246496201, Q2 : 0.0792768374085, Q3 : -0.120295703411, Q4 : 0.608653903008}
2019-04-14 14:57:33.81: SIM {TimeUS : 58834790, Roll : -1.45, Pitch : -16.53, Yaw : 76.41, Alt : 49.2900009155, Lat : 49.2835969, Lng : -123.1148884, Q1 : 0.778679490089, Q2 : 0.0790794193745, Q3 : -0.120758734643, Q4 : 0.610591590405}
2019-04-14 14:57:33.91: SIM {TimeUS : 58934750, Roll : -1.38, Pitch : -16.57, Yaw : 76.41, Alt : 49.2900009155, Lat : 49.2835977, Lng : -123.1148833, Q1 : 0.778606534004, Q2 : 0.0797346457839, Q3 : -0.120659351349, Q4 : 0.610619008541}
2019-04-14 14:57:34.01: SIM {TimeUS : 59034710, Roll : -1.18, Pitch : -16.63, Yaw : 76.15, Alt : 49.2900009155, Lat : 49.2835988, Lng : -123.1148782, Q1 : 0.779763519764, Q2 : 0.0811387822032, Q3 : -0.120160318911, Q4 : 0.609054088593}
2019-04-14 14:57:34.11: SIM {TimeUS : 59134670, Roll : -0.89, Pitch : -16.68, Yaw : 75.72, Alt : 49.2900009155, Lat : 49.2835999, Lng : -123.114873, Q1 : 0.781818032265, Q2 : 0.0829641073942, Q3 : -0.119311913848, Q4 : 0.606335043907}
2019-04-14 14:57:34.21: SIM {TimeUS : 59235463, Roll : -0.54, Pitch : -16.73, Yaw : 75.17, Alt : 49.2900009155, Lat : 49.2836008, Lng : -123.1148678, Q1 : 0.784399807453, Q2 : 0.085045568645, Q3 : -0.118198126554, Q4 : 0.60292071104}
2019-04-14 14:57:34.31: SIM {TimeUS : 59335423, Roll : -0.18, Pitch : -16.77, Yaw : 74.6, Alt : 49.2900009155, Lat : 49.2836019, Lng : -123.1148625, Q1 : 0.787095665932, Q2 : 0.0870847329497, Q3 : -0.11701297015, Q4 : 0.599336802959}
2019-04-14 14:57:34.41: SIM {TimeUS : 59435383, Roll : 0.13, Pitch : -16.8, Yaw : 74.06, Alt : 49.2900009155, Lat : 49.283603, Lng : -123.1148572, Q1 : 0.789599299431, Q2 : 0.0889474228024, Q3 : -0.115957565606, Q4 : 0.595965743065}
2019-04-14 14:57:34.51: SIM {TimeUS : 59535343, Roll : 0.4, Pitch : -16.83, Yaw : 73.62, Alt : 49.2900009155, Lat : 49.2836039, Lng : -123.1148518, Q1 : 0.79167753458, Q2 : 0.0905070006847, Q3 : -0.115103848279, Q4 : 0.593132555485}
2019-04-14 14:57:34.61: SIM {TimeUS : 59635303, Roll : 0.59, Pitch : -16.86, Yaw : 73.29, Alt : 49.2900009155, Lat : 49.2836049, Lng : -123.1148464, Q1 : 0.793187260628, Q2 : 0.091657422483, Q3 : -0.114593319595, Q4 : 0.591034114361}
2019-04-14 14:57:34.71: SIM {TimeUS : 59735263, Roll : 0.68, Pitch : -16.89, Yaw : 73.09, Alt : 49.2900009155, Lat : 49.2836061, Lng : -123.114841, Q1 : 0.794087171555, Q2 : 0.0922318994999, Q3 : -0.114504635334, Q4 : 0.589752137661}
2019-04-14 14:57:34.81: SIM {TimeUS : 59835223, Roll : 0.67, Pitch : -16.93, Yaw : 73.03, Alt : 49.2999992371, Lat : 49.2836071, Lng : -123.1148355, Q1 : 0.794390022755, Q2 : 0.0923121646047, Q3 : -0.114818632603, Q4 : 0.589270472527}
2019-04-14 14:57:34.91: SIM {TimeUS : 59935183, Roll : 0.6, Pitch : -16.97, Yaw : 73.07, Alt : 49.2999992371, Lat : 49.2836081, Lng : -123.11483, Q1 : 0.794178843498, Q2 : 0.0920189395547, Q3 : -0.115465044975, Q4 : 0.58947455883}
2019-04-14 14:57:35.01: SIM {TimeUS : 60035143, Roll : 0.46, Pitch : -17.01, Yaw : 73.2, Alt : 49.2999992371, Lat : 49.2836092, Lng : -123.1148244, Q1 : 0.793570041656, Q2 : 0.0914574488997, Q3 : -0.116335876286, Q4 : 0.590210199356}
2019-04-14 14:57:35.11: SIM {TimeUS : 60135103, Roll : 0.3, Pitch : -17.04, Yaw : 73.39, Alt : 49.2999992371, Lat : 49.2836103, Lng : -123.1148188, Q1 : 0.792717933655, Q2 : 0.0906716808677, Q3 : -0.11728117615, Q4 : 0.59128844738}
2019-04-14 14:57:35.21: SIM {TimeUS : 60235063, Roll : 0.12, Pitch : -17.07, Yaw : 73.59, Alt : 49.2999992371, Lat : 49.2836112, Lng : -123.1148132, Q1 : 0.791764080524, Q2 : 0.0897852182388, Q3 : -0.118209429085, Q4 : 0.592515647411}
2019-04-14 14:57:35.31: SIM {TimeUS : 60335023, Roll : -0.04, Pitch : -17.09, Yaw : 73.8, Alt : 49.2999992371, Lat : 49.2836123, Lng : -123.1148075, Q1 : 0.790839970112, Q2 : 0.0889142751694, Q3 : -0.119079686701, Q4 : 0.593705654144}
2019-04-14 14:57:35.41: SIM {TimeUS : 60434983, Roll : -0.17, Pitch : -17.12, Yaw : 73.97, Alt : 49.2999992371, Lat : 49.2836134, Lng : -123.1148019, Q1 : 0.790009081364, Q2 : 0.0884044021368, Q3 : -0.119838237762, Q4 : 0.594734489918}
2019-04-14 14:57:35.51: SIM {TimeUS : 60534943, Roll : -0.23, Pitch : -17.16, Yaw : 74.1, Alt : 49.2999992371, Lat : 49.2836145, Lng : -123.1147961, Q1 : 0.789353072643, Q2 : 0.0882966518402, Q3 : -0.12034381181, Q4 : 0.595518946648}
2019-04-14 14:57:35.61: SIM {TimeUS : 60634903, Roll : -0.24, Pitch : -17.21, Yaw : 74.17, Alt : 49.2999992371, Lat : 49.2836156, Lng : -123.1147904, Q1 : 0.788922309875, Q2 : 0.0885276421905, Q3 : -0.120679967105, Q4 : 0.595987260342}
2019-04-14 14:57:35.71: SIM {TimeUS : 60734863, Roll : -0.21, Pitch : -17.26, Yaw : 74.19, Alt : 49.2999992371, Lat : 49.2836165, Lng : -123.1147846, Q1 : 0.788737714291, Q2 : 0.089021101594, Q3 : -0.120838731527, Q4 : 0.59612596035}
2019-04-14 14:57:35.81: SIM {TimeUS : 60834823, Roll : -0.18, Pitch : -17.3, Yaw : 74.16, Alt : 49.3100013733, Lat : 49.2836177, Lng : -123.1147789, Q1 : 0.788822114468, Q2 : 0.0894362926483, Q3 : -0.120954573154, Q4 : 0.595928549767}
2019-04-14 14:57:35.91: SIM {TimeUS : 60934783, Roll : -0.15, Pitch : -17.32, Yaw : 74.09, Alt : 49.3100013733, Lat : 49.2836188, Lng : -123.114773, Q1 : 0.789134860039, Q2 : 0.0896781310439, Q3 : -0.120999030769, Q4 : 0.595468938351}
2019-04-14 14:57:36.01: SIM {TimeUS : 61034743, Roll : -0.11, Pitch : -17.32, Yaw : 74.0, Alt : 49.3100013733, Lat : 49.2836199, Lng : -123.1147672, Q1 : 0.789596140385, Q2 : 0.0898404195905, Q3 : -0.120931684971, Q4 : 0.594846367836}
2019-04-14 14:57:36.11: SIM {TimeUS : 61134703, Roll : -0.06, Pitch : -17.32, Yaw : 73.89, Alt : 49.3100013733, Lat : 49.2836209, Lng : -123.1147613, Q1 : 0.790117323399, Q2 : 0.0901051312685, Q3 : -0.120683670044, Q4 : 0.594164252281}
2019-04-14 14:57:36.21: SIM {TimeUS : 61234663, Roll : 0.0, Pitch : -17.33, Yaw : 73.78, Alt : 49.3100013733, Lat : 49.283622, Lng : -123.1147555, Q1 : 0.790625870228, Q2 : 0.0905218869448, Q3 : -0.120463147759, Q4 : 0.593468785286}
2019-04-14 14:57:36.31: SIM {TimeUS : 61335456, Roll : 0.09, Pitch : -17.37, Yaw : 73.68, Alt : 49.3100013733, Lat : 49.2836232, Lng : -123.1147494, Q1 : 0.791061460972, Q2 : 0.0911637246609, Q3 : -0.120381727815, Q4 : 0.592806220055}
2019-04-14 14:57:36.41: SIM {TimeUS : 61435416, Roll : 0.16, Pitch : -17.42, Yaw : 73.59, Alt : 49.3100013733, Lat : 49.2836244, Lng : -123.1147436, Q1 : 0.791402101517, Q2 : 0.0918646976352, Q3 : -0.120454445481, Q4 : 0.592228293419}
2019-04-14 14:57:36.51: SIM {TimeUS : 61535376, Roll : 0.21, Pitch : -17.45, Yaw : 73.52, Alt : 49.3100013733, Lat : 49.2836255, Lng : -123.1147377, Q1 : 0.791678845882, Q2 : 0.0922775790095, Q3 : -0.120489999652, Q4 : 0.591786801815}
2019-04-14 14:57:36.61: SIM {TimeUS : 61635336, Roll : 0.22, Pitch : -17.46, Yaw : 73.48, Alt : 49.3100013733, Lat : 49.2836266, Lng : -123.1147317, Q1 : 0.791889548302, Q2 : 0.0923752784729, Q3 : -0.120457455516, Q4 : 0.591496229172}
2019-04-14 14:57:36.71: SIM {TimeUS : 61735296, Roll : 0.21, Pitch : -17.46, Yaw : 73.45, Alt : 49.3100013733, Lat : 49.2836278, Lng : -123.1147257, Q1 : 0.792008876801, Q2 : 0.0922956168652, Q3 : -0.120596729219, Q4 : 0.591320455074}
2019-04-14 14:57:36.81: SIM {TimeUS : 61835256, Roll : 0.17, Pitch : -17.49, Yaw : 73.45, Alt : 49.3100013733, Lat : 49.2836288, Lng : -123.1147197, Q1 : 0.792036116123, Q2 : 0.0921703651547, Q3 : -0.120942778885, Q4 : 0.591232836246}
2019-04-14 14:57:36.91: SIM {TimeUS : 61935216, Roll : 0.14, Pitch : -17.51, Yaw : 73.46, Alt : 49.3100013733, Lat : 49.2836299, Lng : -123.1147137, Q1 : 0.791979134083, Q2 : 0.0921023562551, Q3 : -0.121281147003, Q4 : 0.591250479221}
2019-04-14 14:57:37.01: SIM {TimeUS : 62035176, Roll : 0.11, Pitch : -17.54, Yaw : 73.48, Alt : 49.3199996948, Lat : 49.2836311, Lng : -123.1147077, Q1 : 0.791881501675, Q2 : 0.0920503437519, Q3 : -0.121616832912, Q4 : 0.591320335865}
2019-04-14 14:57:37.11: SIM {TimeUS : 62135136, Roll : 0.08, Pitch : -17.56, Yaw : 73.5, Alt : 49.3199996948, Lat : 49.2836323, Lng : -123.1147017, Q1 : 0.791783213615, Q2 : 0.0919812396169, Q3 : -0.121883161366, Q4 : 0.591407954693}
2019-04-14 14:57:37.21: SIM {TimeUS : 62235096, Roll : 0.07, Pitch : -17.59, Yaw : 73.51, Alt : 49.3199996948, Lat : 49.2836334, Lng : -123.1146956, Q1 : 0.79169023037, Q2 : 0.091999694705, Q3 : -0.122131966054, Q4 : 0.591478168964}
2019-04-14 14:57:37.31: SIM {TimeUS : 62335056, Roll : 0.06, Pitch : -17.6, Yaw : 73.52, Alt : 49.3199996948, Lat : 49.2836346, Lng : -123.1146895, Q1 : 0.791629910469, Q2 : 0.0920500829816, Q3 : -0.122219033539, Q4 : 0.591533124447}
2019-04-14 14:57:37.41: SIM {TimeUS : 62435016, Roll : 0.08, Pitch : -17.61, Yaw : 73.53, Alt : 49.3199996948, Lat : 49.2836357, Lng : -123.1146835, Q1 : 0.791576564312, Q2 : 0.0922211259604, Q3 : -0.122247204185, Q4 : 0.591571986675}
2019-04-14 14:57:37.51: SIM {TimeUS : 62534976, Roll : 0.1, Pitch : -17.63, Yaw : 73.52, Alt : 49.3199996948, Lat : 49.2836369, Lng : -123.1146774, Q1 : 0.791552424431, Q2 : 0.0924616530538, Q3 : -0.122244797647, Q4 : 0.591567277908}
2019-04-14 14:57:37.61: SIM {TimeUS : 62634936, Roll : 0.1, Pitch : -17.66, Yaw : 73.51, Alt : 49.3199996948, Lat : 49.2836379, Lng : -123.1146713, Q1 : 0.791573047638, Q2 : 0.0926359221339, Q3 : -0.122447445989, Q4 : 0.591470479965}
2019-04-14 14:57:37.71: SIM {TimeUS : 62734896, Roll : 0.08, Pitch : -17.71, Yaw : 73.49, Alt : 49.3199996948, Lat : 49.2836391, Lng : -123.1146651, Q1 : 0.791630029678, Q2 : 0.0927238166332, Q3 : -0.122938096523, Q4 : 0.591278612614}
2019-04-14 14:57:37.81: SIM {TimeUS : 62834856, Roll : 0.07, Pitch : -17.77, Yaw : 73.47, Alt : 49.3199996948, Lat : 49.2836402, Lng : -123.114659, Q1 : 0.791702866554, Q2 : 0.092871889472, Q3 : -0.12341247499, Q4 : 0.591059029102}
2019-04-14 14:57:37.91: SIM {TimeUS : 62934816, Roll : 0.08, Pitch : -17.8, Yaw : 73.44, Alt : 49.3199996948, Lat : 49.2836414, Lng : -123.1146527, Q1 : 0.791794776917, Q2 : 0.093107059598, Q3 : -0.123613797128, Q4 : 0.590856790543}
2019-04-14 14:57:38.01: SIM {TimeUS : 63034776, Roll : 0.1, Pitch : -17.8, Yaw : 73.41, Alt : 49.3199996948, Lat : 49.2836426, Lng : -123.1146467, Q1 : 0.791937530041, Q2 : 0.093188688159, Q3 : -0.123517788947, Q4 : 0.5906727314}
2019-04-14 14:57:38.11: SIM {TimeUS : 63134736, Roll : 0.12, Pitch : -17.76, Yaw : 73.38, Alt : 49.3199996948, Lat : 49.2836438, Lng : -123.1146405, Q1 : 0.792118370533, Q2 : 0.0931241884828, Q3 : -0.123207755387, Q4 : 0.590505123138}
2019-04-14 14:57:38.21: SIM {TimeUS : 63234696, Roll : 0.12, Pitch : -17.74, Yaw : 73.35, Alt : 49.3199996948, Lat : 49.283645, Lng : -123.1146343, Q1 : 0.792284488678, Q2 : 0.0930186286569, Q3 : -0.123058065772, Q4 : 0.590330064297}
2019-04-14 14:57:38.31: SIM {TimeUS : 63334656, Roll : 0.13, Pitch : -17.73, Yaw : 73.33, Alt : 49.3199996948, Lat : 49.2836462, Lng : -123.1146281, Q1 : 0.792433142662, Q2 : 0.0929330214858, Q3 : -0.12295024842, Q4 : 0.590166449547}
2019-04-14 14:57:38.41: SIM {TimeUS : 63435449, Roll : 0.13, Pitch : -17.72, Yaw : 73.31, Alt : 49.3199996948, Lat : 49.2836474, Lng : -123.1146218, Q1 : 0.792548298836, Q2 : 0.0928830429912, Q3 : -0.122877880931, Q4 : 0.590034663677}
2019-04-14 14:57:38.51: SIM {TimeUS : 63535409, Roll : 0.13, Pitch : -17.73, Yaw : 73.29, Alt : 49.3300018311, Lat : 49.2836486, Lng : -123.1146156, Q1 : 0.792619109154, Q2 : 0.0929361879826, Q3 : -0.122982807457, Q4 : 0.589909374714}
2019-04-14 14:57:38.61: SIM {TimeUS : 63635369, Roll : 0.14, Pitch : -17.75, Yaw : 73.28, Alt : 49.3300018311, Lat : 49.2836497, Lng : -123.1146094, Q1 : 0.792661190033, Q2 : 0.093121342361, Q3 : -0.123108528554, Q4 : 0.589797377586}
2019-04-14 14:57:38.71: SIM {TimeUS : 63735329, Roll : 0.14, Pitch : -17.8, Yaw : 73.26, Alt : 49.3300018311, Lat : 49.2836509, Lng : -123.1146031, Q1 : 0.792678177357, Q2 : 0.0933231860399, Q3 : -0.123475514352, Q4 : 0.589665949345}
2019-04-14 14:57:38.81: SIM {TimeUS : 63835289, Roll : 0.13, Pitch : -17.86, Yaw : 73.25, Alt : 49.3300018311, Lat : 49.2836521, Lng : -123.1145969, Q1 : 0.792685687542, Q2 : 0.0935167595744, Q3 : -0.123901680112, Q4 : 0.5895357728}
2019-04-14 14:57:38.91: SIM {TimeUS : 63935249, Roll : 0.12, Pitch : -17.89, Yaw : 73.24, Alt : 49.3300018311, Lat : 49.2836533, Lng : -123.1145906, Q1 : 0.792697548866, Q2 : 0.09364438802, Q3 : -0.124203667045, Q4 : 0.58943605423}
2019-04-14 14:57:39.01: SIM {TimeUS : 64035209, Roll : 0.11, Pitch : -17.93, Yaw : 73.23, Alt : 49.3300018311, Lat : 49.2836545, Lng : -123.1145843, Q1 : 0.792711853981, Q2 : 0.093734882772, Q3 : -0.124515660107, Q4 : 0.589336514473}
2019-04-14 14:57:39.11: SIM {TimeUS : 64135169, Roll : 0.1, Pitch : -17.95, Yaw : 73.23, Alt : 49.3300018311, Lat : 49.2836557, Lng : -123.1145781, Q1 : 0.79273879528, Q2 : 0.0937664881349, Q3 : -0.124737352133, Q4 : 0.589248418808}
2019-04-14 14:57:39.21: SIM {TimeUS : 64235129, Roll : 0.11, Pitch : -17.94, Yaw : 73.22, Alt : 49.3300018311, Lat : 49.2836568, Lng : -123.1145718, Q1 : 0.792782187462, Q2 : 0.0938053950667, Q3 : -0.124643169343, Q4 : 0.589203774929}
2019-04-14 14:57:39.31: SIM {TimeUS : 64335089, Roll : 0.14, Pitch : -17.95, Yaw : 73.21, Alt : 49.3300018311, Lat : 49.283658, Lng : -123.1145655, Q1 : 0.792810201645, Q2 : 0.0940199941397, Q3 : -0.124509781599, Q4 : 0.58916002512}
2019-04-14 14:57:39.41: SIM {TimeUS : 64435049, Roll : 0.15, Pitch : -17.96, Yaw : 73.19, Alt : 49.3300018311, Lat : 49.2836592, Lng : -123.1145591, Q1 : 0.79284286499, Q2 : 0.0941822379827, Q3 : -0.124534346163, Q4 : 0.589085042477}
2019-04-14 14:57:39.51: SIM {TimeUS : 64535009, Roll : 0.17, Pitch : -17.97, Yaw : 73.18, Alt : 49.3300018311, Lat : 49.2836604, Lng : -123.1145529, Q1 : 0.792886018753, Q2 : 0.0942994952202, Q3 : -0.124503001571, Q4 : 0.5890147686}
2019-04-14 14:57:39.61: SIM {TimeUS : 64634969, Roll : 0.18, Pitch : -17.96, Yaw : 73.17, Alt : 49.3300018311, Lat : 49.2836616, Lng : -123.1145465, Q1 : 0.792944073677, Q2 : 0.094335064292, Q3 : -0.124396808445, Q4 : 0.588953316212}
2019-04-14 14:57:39.71: SIM {TimeUS : 64734929, Roll : 0.18, Pitch : -17.95, Yaw : 73.16, Alt : 49.3300018311, Lat : 49.2836628, Lng : -123.1145402, Q1 : 0.793002307415, Q2 : 0.0943296477199, Q3 : -0.124360330403, Q4 : 0.588883519173}
2019-04-14 14:57:39.81: SIM {TimeUS : 64834889, Roll : 0.16, Pitch : -17.98, Yaw : 73.15, Alt : 49.3300018311, Lat : 49.283664, Lng : -123.1145339, Q1 : 0.793050527573, Q2 : 0.0942922011018, Q3 : -0.124615319073, Q4 : 0.588770627975}
2019-04-14 14:57:39.91: SIM {TimeUS : 64934849, Roll : 0.13, Pitch : -18.01, Yaw : 73.14, Alt : 49.3300018311, Lat : 49.2836652, Lng : -123.1145275, Q1 : 0.793088614941, Q2 : 0.0942515730858, Q3 : -0.125057250261, Q4 : 0.588632106781}
2019-04-14 14:57:40.01: SIM {TimeUS : 65034809, Roll : 0.11, Pitch : -18.02, Yaw : 73.13, Alt : 49.3400001526, Lat : 49.2836664, Lng : -123.1145212, Q1 : 0.793147802353, Q2 : 0.0941463187337, Q3 : -0.125220358372, Q4 : 0.588534593582}
2019-04-14 14:57:40.11: SIM {TimeUS : 65134769, Roll : 0.12, Pitch : -18.0, Yaw : 73.12, Alt : 49.3400001526, Lat : 49.2836676, Lng : -123.1145148, Q1 : 0.793211817741, Q2 : 0.0941046327353, Q3 : -0.125063896179, Q4 : 0.588488280773}
2019-04-14 14:57:40.21: SIM {TimeUS : 65234729, Roll : 0.14, Pitch : -17.99, Yaw : 73.11, Alt : 49.3400001526, Lat : 49.2836688, Lng : -123.1145085, Q1 : 0.793263137341, Q2 : 0.0941502675414, Q3 : -0.124866038561, Q4 : 0.588453769684}
2019-04-14 14:57:40.31: SIM {TimeUS : 65334689, Roll : 0.15, Pitch : -17.99, Yaw : 73.1, Alt : 49.3400001526, Lat : 49.28367, Lng : -123.1145021, Q1 : 0.793296456337, Q2 : 0.0942517742515, Q3 : -0.124848388135, Q4 : 0.588396370411}
2019-04-14 14:57:40.41: SIM {TimeUS : 65435482, Roll : 0.15, Pitch : -18.01, Yaw : 73.09, Alt : 49.3400001526, Lat : 49.2836713, Lng : -123.1144957, Q1 : 0.793326258659, Q2 : 0.094287417829, Q3 : -0.125027760863, Q4 : 0.588312327862}
2019-04-14 14:57:40.51: SIM {TimeUS : 65535442, Roll : 0.12, Pitch : -18.04, Yaw : 73.08, Alt : 49.3400001526, Lat : 49.2836725, Lng : -123.1144893, Q1 : 0.793360054493, Q2 : 0.0942626968026, Q3 : -0.125313997269, Q4 : 0.588209807873}
2019-04-14 14:57:40.61: SIM {TimeUS : 65635402, Roll : 0.11, Pitch : -18.06, Yaw : 73.07, Alt : 49.3400001526, Lat : 49.2836737, Lng : -123.1144829, Q1 : 0.793400704861, Q2 : 0.0942331179976, Q3 : -0.125528544188, Q4 : 0.588113963604}
2019-04-14 14:57:40.71: SIM {TimeUS : 65735362, Roll : 0.11, Pitch : -18.07, Yaw : 73.06, Alt : 49.3400001526, Lat : 49.2836749, Lng : -123.1144765, Q1 : 0.793431937695, Q2 : 0.0943347737193, Q3 : -0.125644788146, Q4 : 0.588030695915}
2019-04-14 14:57:40.81: SIM {TimeUS : 65835322, Roll : 0.12, Pitch : -18.09, Yaw : 73.05, Alt : 49.3400001526, Lat : 49.2836761, Lng : -123.1144701, Q1 : 0.793456077576, Q2 : 0.0944850891829, Q3 : -0.125695645809, Q4 : 0.587963163853}
2019-04-14 14:57:40.91: SIM {TimeUS : 65935282, Roll : 0.15, Pitch : -18.1, Yaw : 73.04, Alt : 49.3400001526, Lat : 49.2836774, Lng : -123.1144636, Q1 : 0.793469667435, Q2 : 0.0947317704558, Q3 : -0.125656753778, Q4 : 0.587913393974}
2019-04-14 14:57:41.01: SIM {TimeUS : 66035242, Roll : 0.17, Pitch : -18.12, Yaw : 73.03, Alt : 49.3400001526, Lat : 49.2836786, Lng : -123.1144573, Q1 : 0.793486356735, Q2 : 0.0949336662889, Q3 : -0.125693038106, Q4 : 0.587850570679}
2019-04-14 14:57:41.11: SIM {TimeUS : 66135202, Roll : 0.18, Pitch : -18.14, Yaw : 73.02, Alt : 49.3400001526, Lat : 49.2836798, Lng : -123.1144509, Q1 : 0.793502151966, Q2 : 0.0951289534569, Q3 : -0.125748053193, Q4 : 0.587785899639}
2019-04-14 14:57:41.21: SIM {TimeUS : 66235162, Roll : 0.2, Pitch : -18.15, Yaw : 73.01, Alt : 49.3400001526, Lat : 49.283681, Lng : -123.1144445, Q1 : 0.793518781662, Q2 : 0.0953007936478, Q3 : -0.125755652785, Q4 : 0.587733983994}
2019-04-14 14:57:41.31: SIM {TimeUS : 66335122, Roll : 0.23, Pitch : -18.16, Yaw : 73.01, Alt : 49.3499984741, Lat : 49.2836823, Lng : -123.1144381, Q1 : 0.79352837801, Q2 : 0.0955222323537, Q3 : -0.125654190779, Q4 : 0.587706744671}
