2019-04-14 14:18:37.30: SIM {TimeUS : 40116447, Roll : 0.0, Pitch : 0.0, Yaw : 0.0, Alt : 30.1000003815, Lat : 49.28357, Lng : -123.11502, Q1 : 1.0, Q2 : 0.0, Q3 : 0.0, Q4 : 0.0}
2019-04-14 14:18:37.41: SIM {TimeUS : 40235566, Roll : 0.0, Pitch : 0.0, Yaw : 0.0, Alt : 30.1000003815, Lat : 49.28357, Lng : -123.11502, Q1 : 1.0, Q2 : 0.0, Q3 : 0.0, Q4 : 0.0}
2019-04-14 14:18:37.51: SIM {TimeUS : 40335526, Roll : 0.0, Pitch : 0.0, Yaw : 0.0, Alt : 30.1000003815, Lat : 49.28357, Lng : -123.11502, Q1 : 1.0, Q2 : 0.0, Q3 : 0.0, Q4 : 0.0}
2019-04-14 14:18:37.61: SIM {TimeUS : 40435486, Roll : 0.0, Pitch : 0.0, Yaw : 0.0, Alt : 30.1000003815, Lat : 49.28357, Lng : -123.11502, Q1 : 1.0, Q2 : 0.0, Q3 : 0.0, Q4 : 0.0}
2019-04-14 14:18:37.71: SIM {TimeUS : 40535446, Roll : 0.0, Pitch : 0.0, Yaw : 0.0, Alt : 30.1000003815, Lat : 49.28357, Lng : -123.11502, Q1 : 1.0, Q2 : 0.0, Q3 : 0.0, Q4 : 0.0}
2019-04-14 14:18:37.81: SIM {TimeUS : 40635406, Roll : 0.0, Pitch : 0.0, Yaw : 0.0, Alt : 30.1000003815, Lat : 49.28357, Lng : -123.11502, Q1 : 1.0, Q2 : 0.0, Q3 : 0.0, Q4 : 0.0}
2019-04-14 14:18:37.91: SIM {TimeUS : 40735366, Roll : 0.0, Pitch : 0.0, Yaw : 0.0, Alt : 30.1000003815, Lat : 49.28357, Lng : -123.11502, Q1 : 1.0, Q2 : 0.0, Q3 : 0.0, Q4 : 0.0}
2019-04-14 14:18:38.01: SIM {TimeUS : 40835326, Roll : 0.0, Pitch : 0.0, Yaw : 0.0, Alt : 30.1000003815, Lat : 49.28357, Lng : -123.11502, Q1 : 1.0, Q2 : 0.0, Q3 : 0.0, Q4 : 0.0}
2019-04-14 14:18:38.11: SIM {TimeUS : 40935286, Roll : 0.0, Pitch : 0.0, Yaw : 0.0, Alt : 30.1000003815, Lat : 49.28357, Lng : -123.11502, Q1 : 1.0, Q2 : 0.0, Q3 : 0.0, Q4 : 0.0}
2019-04-14 14:18:38.21: SIM {TimeUS : 41035246, Roll : 0.0, Pitch : 0.0, Yaw : 0.0, Alt : 30.1000003815, Lat : 49.28357, Lng : -123.11502, Q1 : 1.0, Q2 : 0.0, Q3 : 0.0, Q4 : 0.0}
2019-04-14 14:18:38.31: SIM {TimeUS : 41135206, Roll : 0.0, Pitch : 0.0, Yaw : 0.0, Alt : 30.1000003815, Lat : 49.28357, Lng : -123.11502, Q1 : 1.0, Q2 : 0.0, Q3 : 0.0, Q4 : 0.0}
2019-04-14 14:18:38.41: SIM {TimeUS : 41235166, Roll : 0.0, Pitch : 0.0, Yaw : 0.0, Alt : 30.1000003815, Lat : 49.28357, Lng : -123.11502, Q1 : 1.0, Q2 : 0.0, Q3 : 0.0, Q4 : 0.0}
2019-04-14 14:18:38.51: SIM {TimeUS : 41335126, Roll : 0.0, Pitch : 0.0, Yaw : 0.0, Alt : 30.1000003815, Lat : 49.28357, Lng : -123.11502, Q1 : 1.0, Q2 : 0.0, Q3 : 0.0, Q4 : 0.0}
2019-04-14 14:18:38.61: SIM {TimeUS : 41435086, Roll : 0.0, Pitch : 0.0, Yaw : 0.0, Alt : 30.1000003815, Lat : 49.28357, Lng : -123.11502, Q1 : 1.0, Q2 : 0.0, Q3 : 0.0, Q4 : 0.0}
2019-04-14 14:18:38.71: SIM {TimeUS : 41535046, Roll : 0.0, Pitch : 0.0, Yaw : 0.0, Alt : 30.1000003815, Lat : 49.28357, Lng : -123.11502, Q1 : 1.0, Q2 : 0.0, Q3 : 0.0, Q4 : 0.0}
2019-04-14 14:18:38.81: SIM {TimeUS : 41635006, Roll : 0.0, Pitch : 0.0, Yaw : 0.0, Alt : 30.1000003815, Lat : 49.28357, Lng : -123.11502, Q1 : 1.0, Q2 : 0.0, Q3 : 0.0, Q4 : 0.0}
2019-04-14 14:18:38.91: SIM {TimeUS : 41734966, Roll : 0.0, Pitch : 0.0, Yaw : 0.0, Alt : 30.1000003815, Lat : 49.28357, Lng : -123.11502, Q1 : 1.0, Q2 : 0.0, Q3 : 0.0, Q4 : 0.0}
2019-04-14 14:18:39.01: SIM {TimeUS : 41834926, Roll : 0.0, Pitch : 0.0, Yaw : 0.0, Alt : 30.1000003815, Lat : 49.28357, Lng : -123.11502, Q1 : 1.0, Q2 : 0.0, Q3 : 0.0, Q4 : 0.0}
2019-04-14 14:18:39.11: SIM {TimeUS : 41934886, Roll : 0.0, Pitch : 0.0, Yaw : 0.0, Alt : 30.1000003815, Lat : 49.28357, Lng : -123.11502, Q1 : 1.0, Q2 : 0.0, Q3 : 0.0, Q4 : 0.0}
2019-04-14 14:18:39.21: SIM {TimeUS : 42034846, Roll : 0.0, Pitch : 0.0, Yaw : 0.0, Alt : 30.1000003815, Lat : 49.28357, Lng : -123.11502, Q1 : 1.0, Q2 : 0.0, Q3 : 0.0, Q4 : 0.0}
2019-04-14 14:18:39.31: SIM {TimeUS : 42134806, Roll : 0.0, Pitch : 0.0, Yaw : 0.0, Alt : 30.1000003815, Lat : 49.28357, Lng : -123.11502, Q1 : 1.0, Q2 : 0.0, Q3 : 0.0, Q4 : 0.0}
2019-04-14 14:18:39.42: SIM {TimeUS : 42235599, Roll : 0.0, Pitch : 0.0, Yaw : 0.0, Alt : 30.1000003815, Lat : 49.28357, Lng : -123.11502, Q1 : 1.0, Q2 : 0.0, Q3 : 0.0, Q4 : 0.0}
2019-04-14 14:18:39.51: SIM {TimeUS : 42335559, Roll : 0.0, Pitch : 0.0, Yaw : 0.0, Alt : 30.1000003815, Lat : 49.28357, Lng : -123.11502, Q1 : 1.0, Q2 : 0.0, Q3 : 0.0, Q4 : 0.0}
2019-04-14 14:18:39.61: SIM {TimeUS : 42435519, Roll : 0.0, Pitch : 0.0, Yaw : 0.0, Alt : 30.1000003815, Lat : 49.28357, Lng : -123.11502, Q1 : 1.0, Q2 : 0.0, Q3 : 0.0, Q4 : 2.92034322072e-12}
2019-04-14 14:18:39.71: SIM {TimeUS : 42535479, Roll : 0.0, Pitch : 0.0, Yaw : 0.0, Alt : 30.1000003815, Lat : 49.28357, Lng : -123.11502, Q1 : 1.0, Q2 : 0.0, Q3 : 0.0, Q4 : 6.72381109124e-11}
2019-04-14 14:18:39.81: SIM {TimeUS : 42635439, Roll : 0.0, Pitch : 0.0, Yaw : 360.0, Alt : 30.1000003815, Lat : 49.28357, Lng : -123.11502, Q1 : 1.0, Q2 : 0.0, Q3 : 0.0, Q4 : -9.67227649085e-08}
2019-04-14 14:18:39.91: SIM {TimeUS : 42735399, Roll : 0.0, Pitch : 0.0, Yaw : 359.99, Alt : 30.1000003815, Lat : 49.28357, Lng : -123.11502, Q1 : 1.0, Q2 : 0.0, Q3 : 0.0, Q4 : -2.48592527896e-07}
2019-04-14 14:18:40.01: SIM {TimeUS : 42835359, Roll : 0.0, Pitch : 0.0, Yaw : 359.99, Alt : 30.1000003815, Lat : 49.28357, Lng : -123.11502, Q1 : 1.0, Q2 : 0.0, Q3 : 0.0, Q4 : -4.40266575197e-07}
2019-04-14 14:18:40.11: SIM {TimeUS : 42935319, Roll : 0.0, Pitch : 0.0, Yaw : 359.99, Alt : 30.1000003815, Lat : 49.28357, Lng : -123.11502, Q1 : 1.0, Q2 : 0.0, Q3 : 0.0, Q4 : -6.51230095627e-07}
2019-04-14 14:18:40.21: SIM {TimeUS : 43035279, Roll : 0.0, Pitch : 0.0, Yaw : 359.99, Alt : 30.1000003815, Lat : 49.28357, Lng : -123.11502, Q1 : 1.0, Q2 : 0.0, Q3 : 0.0, Q4 : -8.4822761437e-07}
2019-04-14 14:18:40.31: SIM {TimeUS : 43135239, Roll : 0.0, Pitch : 0.0, Yaw : 359.99, Alt : 30.1000003815, Lat : 49.28357, Lng : -123.11502, Q1 : 1.0, Q2 : 0.0, Q3 : 0.0, Q4 : -1.06543734546e-06}
2019-04-14 14:18:40.41: SIM {TimeUS : 43235199, Roll : 0.0, Pitch : 0.0, Yaw : 359.99, Alt : 30.1000003815, Lat : 49.28357, Lng : -123.11502, Q1 : 1.0, Q2 : 0.0, Q3 : 0.0, Q4 : -1.31478896037e-06}
2019-04-14 14:18:40.51: SIM {TimeUS : 43335159, Roll : 0.0, Pitch : 0.0, Yaw : 359.99, Alt : 30.1100006104, Lat : 49.28357, Lng : -123.11502, Q1 : 1.0, Q2 : 0.0, Q3 : 0.0, Q4 : -1.50680511979e-06}
2019-04-14 14:18:40.61: SIM {TimeUS : 43435119, Roll : 0.0, Pitch : 0.0, Yaw : 359.99, Alt : 30.1299991608, Lat : 49.28357, Lng : -123.11502, Q1 : 1.0, Q2 : 0.0, Q3 : 0.0, Q4 : -1.71850535935e-06}
2019-04-14 14:18:40.71: SIM {TimeUS : 43535079, Roll : 0.0, Pitch : 0.0, Yaw : 359.99, Alt : 30.1599998474, Lat : 49.28357, Lng : -123.11502, Q1 : 1.0, Q2 : 0.0, Q3 : 0.0, Q4 : -1.98989641831e-06}
2019-04-14 14:18:40.81: SIM {TimeUS : 43635039, Roll : 0.0, Pitch : 0.0, Yaw : 359.99, Alt : 30.1900005341, Lat : 49.28357, Lng : -123.11502, Q1 : 1.0, Q2 : 0.0, Q3 : 0.0, Q4 : -2.22445487452e-06}
2019-04-14 14:18:40.91: SIM {TimeUS : 43734999, Roll : -0.03, Pitch : -0.03, Yaw : 359.99, Alt : 30.2299995422, Lat : 49.28357, Lng : -123.11502, Q1 : 0.999999880791, Q2 : -0.000329473376041, Q3 : -0.000321046012687, Q4 : -3.4062368286e-06}
2019-04-14 14:18:41.01: SIM {TimeUS : 43834959, Roll : -0.3, Pitch : -0.26, Yaw : 359.99, Alt : 30.3099994659, Lat : 49.28357, Lng : -123.11502, Q1 : 0.999993979931, Q2 : -0.0026364508085, Q3 : -0.00227195373736, Q4 : -2.34766739595e-05}
2019-04-14 14:18:41.11: SIM {TimeUS : 43934919, Roll : -0.62, Pitch : -0.49, Yaw : 359.99, Alt : 30.4400005341, Lat : 49.28357, Lng : -123.11502, Q1 : 0.999975800514, Q2 : -0.00541856884956, Q3 : -0.00436020968482, Q4 : -7.04212652636e-05}
2019-04-14 14:18:41.21: SIM {TimeUS : 44034879, Roll : -0.82, Pitch : -0.65, Yaw : 359.98, Alt : 30.6000003815, Lat : 49.28357, Lng : -123.11502, Q1 : 0.999958097935, Q2 : -0.00717999879271, Q3 : -0.00568077387288, Q4 : -0.00013752488303}
2019-04-14 14:18:41.31: SIM {TimeUS : 44134839, Roll : -0.86, Pitch : -0.68, Yaw : 359.98, Alt : 30.7600002289, Lat : 49.28357, Lng : -123.11502, Q1 : 0.999953746796, Q2 : -0.00751881487668, Q3 : -0.00598929729313, Q4 : -0.000213958657696}
2019-04-14 14:18:41.41: SIM {TimeUS : 44234799, Roll : -0.76, Pitch : -0.61, Yaw : 359.97, Alt : 30.9099998474, Lat : 49.28357, Lng : -123.1150201, Q1 : 0.999963283539, Q2 : -0.00667322613299, Q3 : -0.00536928698421, Q4 : -0.000292838347377}
2019-04-14 14:18:41.52: SIM {TimeUS : 44335592, Roll : -0.56, Pitch : -0.47, Yaw : 359.96, Alt : 31.0699996948, Lat : 49.2835701, Lng : -123.1150202, Q1 : 0.99997907877, Q2 : -0.00496460543945, Q3 : -0.00412238808349, Q4 : -0.00036843775888}
2019-04-14 14:18:41.61: SIM {TimeUS : 44435552, Roll : -0.32, Pitch : -0.31, Yaw : 359.95, Alt : 31.2199993134, Lat : 49.2835701, Lng : -123.1150202, Q1 : 0.999992191792, Q2 : -0.00281709805131, Q3 : -0.00274432590231, Q4 : -0.000429165142123}
2019-04-14 14:18:41.71: SIM {TimeUS : 44535512, Roll : -0.1, Pitch : -0.16, Yaw : 359.94, Alt : 31.3899993896, Lat : 49.2835702, Lng : -123.1150203, Q1 : 0.999998450279, Q2 : -0.000946756277699, Q3 : -0.00139714370016, Q4 : -0.000471737061162}
2019-04-14 14:18:41.81: SIM {TimeUS : 44635472, Roll : 0.02, Pitch : -0.03, Yaw : 359.94, Alt : 31.5599994659, Lat : 49.2835702, Lng : -123.1150204, Q1 : 0.999999821186, Q2 : 0.00018763281696, Q3 : -0.000312356103677, Q4 : -0.00050643942086}
2019-04-14 14:18:41.91: SIM {TimeUS : 44735432, Roll : 0.07, Pitch : 0.03, Yaw : 359.93, Alt : 31.7399997711, Lat : 49.2835703, Lng : -123.1150205, Q1 : 0.999999582767, Q2 : 0.000656877935398, Q3 : 0.000286010734271, Q4 : -0.000533099169843}
2019-04-14 14:18:42.01: SIM {TimeUS : 44835392, Roll : 0.07, Pitch : 0.05, Yaw : 359.93, Alt : 31.9200000763, Lat : 49.2835703, Lng : -123.1150206, Q1 : 0.999999523163, Q2 : 0.000650764035527, Q3 : 0.0004631295742, Q4 : -0.000553849444259}
2019-04-14 14:18:42.11: SIM {TimeUS : 44935352, Roll : 0.06, Pitch : 0.04, Yaw : 359.93, Alt : 32.0999984741, Lat : 49.2835703, Lng : -123.1150206, Q1 : 0.999999582767, Q2 : 0.000559263629839, Q3 : 0.000416021037381, Q4 : -0.000562366156373}
2019-04-14 14:18:42.21: SIM {TimeUS : 45035312, Roll : 0.06, Pitch : 0.03, Yaw : 359.93, Alt : 32.2900009155, Lat : 49.2835703, Lng : -123.1150207, Q1 : 0.999999642372, Q2 : 0.000559346517548, Q3 : 0.000273324811133, Q4 : -0.000564728921745}
2019-04-14 14:18:42.31: SIM {TimeUS : 45135272, Roll : 0.07, Pitch : 0.02, Yaw : 359.93, Alt : 32.4799995422, Lat : 49.2835703, Lng : -123.1150207, Q1 : 0.999999582767, Q2 : 0.000678654701915, Q3 : 0.000198232504772, Q4 : -0.000566831964534}
2019-04-14 14:18:42.41: SIM {TimeUS : 45235232, Roll : 0.09, Pitch : 0.04, Yaw : 359.93, Alt : 32.6800003052, Lat : 49.2835703, Lng : -123.1150208, Q1 : 0.999999403954, Q2 : 0.000866887683515, Q3 : 0.000357339857146, Q4 : -0.000570153701119}
2019-04-14 14:18:42.51: SIM {TimeUS : 45335192, Roll : 0.12, Pitch : 0.09, Yaw : 359.93, Alt : 32.8800010681, Lat : 49.2835704, Lng : -123.1150208, Q1 : 0.999998867512, Q2 : 0.00108339113649, Q3 : 0.000839061918668, Q4 : -0.000583175802603}
2019-04-14 14:18:42.61: SIM {TimeUS : 45435152, Roll : 0.13, Pitch : 0.15, Yaw : 359.93, Alt : 33.0800018311, Lat : 49.2835704, Lng : -123.1150208, Q1 : 0.999998211861, Q2 : 0.00121454021428, Q3 : 0.00134216097649, Q4 : -0.000596409954596}
2019-04-14 14:18:42.71: SIM {TimeUS : 45535112, Roll : 0.16, Pitch : 0.2, Yaw : 359.93, Alt : 33.2799987793, Lat : 49.2835704, Lng : -123.1150209, Q1 : 0.999997317791, Q2 : 0.00140979397111, Q3 : 0.00174792378675, Q4 : -0.000612024043221}
2019-04-14 14:18:42.81: SIM {TimeUS : 45635072, Roll : 0.18, Pitch : 0.21, Yaw : 359.92, Alt : 33.4900016785, Lat : 49.2835704, Lng : -123.1150209, Q1 : 0.999996721745, Q2 : 0.0016249534674, Q3 : 0.00189699896146, Q4 : -0.000621118117124}
2019-04-14 14:18:42.91: SIM {TimeUS : 45735032, Roll : 0.2, Pitch : 0.21, Yaw : 359.92, Alt : 33.6899986267, Lat : 49.2835704, Lng : -123.1150209, Q1 : 0.999996423721, Q2 : 0.00177363445982, Q3 : 0.00189347693231, Q4 : -0.000619246042334}
2019-04-14 14:18:43.01: SIM {TimeUS : 45834992, Roll : 0.19, Pitch : 0.2, Yaw : 359.92, Alt : 33.9000015259, Lat : 49.2835706, Lng : -123.1150209, Q1 : 0.999996781349, Q2 : 0.00167810730636, Q3 : 0.00181679916568, Q4 : -0.00062341906596}
2019-04-14 14:18:43.11: SIM {TimeUS : 45934952, Roll : 0.16, Pitch : 0.16, Yaw : 359.92, Alt : 34.1100006104, Lat : 49.2835706, Lng : -123.1150209, Q1 : 0.999997735023, Q2 : 0.00148258323316, Q3 : 0.00141786201857, Q4 : -0.000624724314548}
2019-04-14 14:18:43.21: SIM {TimeUS : 46034912, Roll : 0.13, Pitch : 0.09, Yaw : 359.92, Alt : 34.3199996948, Lat : 49.2835706, Lng : -123.1150209, Q1 : 0.999998748302, Q2 : 0.00120898790192, Q3 : 0.000850766780786, Q4 : -0.000613101350609}
2019-04-14 14:18:43.31: SIM {TimeUS : 46134872, Roll : 0.1, Pitch : 0.05, Yaw : 359.93, Alt : 34.5299987793, Lat : 49.2835706, Lng : -123.1150209, Q1 : 0.999999284744, Q2 : 0.000903531210497, Q3 : 0.000438367918832, Q4 : -0.000609657319728}
2019-04-14 14:18:43.41: SIM {TimeUS : 46234832, Roll : 0.07, Pitch : 0.02, Yaw : 359.92, Alt : 34.75, Lat : 49.2835706, Lng : -123.1150209, Q1 : 0.999999582767, Q2 : 0.000625766580924, Q3 : 0.000259499647655, Q4 : -0.000622942810878}
2019-04-14 14:18:43.51: SIM {TimeUS : 46334792, Roll : 0.05, Pitch : 0.03, Yaw : 359.92, Alt : 34.9599990845, Lat : 49.2835706, Lng : -123.1150208, Q1 : 0.999999582767, Q2 : 0.000522501650266, Q3 : 0.000328578142216, Q4 : -0.000643457577098}
2019-04-14 14:18:43.62: SIM {TimeUS : 46435585, Roll : 0.05, Pitch : 0.04, Yaw : 359.92, Alt : 35.1800003052, Lat : 49.2835706, Lng : -123.1150208, Q1 : 0.999999582767, Q2 : 0.000515584950335, Q3 : 0.000425125937909, Q4 : -0.000670242123306}
2019-04-14 14:18:43.71: SIM {TimeUS : 46535545, Roll : 0.05, Pitch : 0.06, Yaw : 359.92, Alt : 35.4000015259, Lat : 49.2835706, Lng : -123.1150208, Q1 : 0.999999463558, Q2 : 0.000465063931188, Q3 : 0.000540011504199, Q4 : -0.000697743962519}
2019-04-14 14:18:43.81: SIM {TimeUS : 46635505, Roll : 0.04, Pitch : 0.07, Yaw : 359.91, Alt : 35.6199989319, Lat : 49.2835706, Lng : -123.1150208, Q1 : 0.999999463558, Q2 : 0.00038932802272, Q3 : 0.000670225534122, Q4 : -0.000724599871319}
2019-04-14 14:18:43.91: SIM {TimeUS : 46735465, Roll : 0.03, Pitch : 0.08, Yaw : 359.91, Alt : 35.8400001526, Lat : 49.2835706, Lng : -123.1150208, Q1 : 0.999999403954, Q2 : 0.000277578656096, Q3 : 0.000771122984588, Q4 : -0.000748802092858}
2019-04-14 14:18:44.01: SIM {TimeUS : 46835425, Roll : 0.01, Pitch : 0.07, Yaw : 359.91, Alt : 36.0600013733, Lat : 49.2835704, Lng : -123.1150208, Q1 : 0.999999523163, Q2 : 0.000164572920767, Q3 : 0.000643618463073, Q4 : -0.000755921995733}
2019-04-14 14:18:44.11: SIM {TimeUS : 46935385, Roll : 0.0, Pitch : 0.05, Yaw : 359.91, Alt : 36.2799987793, Lat : 49.2835704, Lng : -123.1150207, Q1 : 0.999999582767, Q2 : 6.98447111063e-05, Q3 : 0.000468755228212, Q4 : -0.00076306349365}
2019-04-14 14:18:44.21: SIM {TimeUS : 47035345, Roll : 0.0, Pitch : 0.03, Yaw : 359.91, Alt : 36.5, Lat : 49.2835704, Lng : -123.1150207, Q1 : 0.999999642372, Q2 : -8.66367627168e-05, Q3 : 0.00033328612335, Q4 : -0.000781176437158}
2019-04-14 14:18:44.31: SIM {TimeUS : 47135305, Roll : -0.02, Pitch : 0.02, Yaw : 359.9, Alt : 36.7200012207, Lat : 49.2835704, Lng : -123.1150207, Q1 : 0.999999642372, Q2 : -0.000186605044291, Q3 : 0.000261857319856, Q4 : -0.00080579589121}
2019-04-14 14:18:44.41: SIM {TimeUS : 47235265, Roll : -0.01, Pitch : 0.01, Yaw : 359.9, Alt : 36.9500007629, Lat : 49.2835704, Lng : -123.1150207, Q1 : 0.999999642372, Q2 : -0.000148804887431, Q3 : 0.000124827405671, Q4 : -0.000833610945847}
2019-04-14 14:18:44.51: SIM {TimeUS : 47335225, Roll : -0.02, Pitch : 0.0, Yaw : 359.9, Alt : 37.1699981689, Lat : 49.2835704, Lng : -123.1150207, Q1 : 0.999999582767, Q2 : -0.000199885864276, Q3 : -7.6583623013e-05, Q4 : -0.000858213868923}
2019-04-14 14:18:44.61: SIM {TimeUS : 47435185, Roll : -0.04, Pitch : -0.04, Yaw : 359.89, Alt : 37.3899993896, Lat : 49.2835704, Lng : -123.1150207, Q1 : 0.999999463558, Q2 : -0.000380279700039, Q3 : -0.000390336674172, Q4 : -0.000885056448169}
2019-04-14 14:18:44.71: SIM {TimeUS : 47535145, Roll : -0.07, Pitch : -0.07, Yaw : 359.89, Alt : 37.6199989319, Lat : 49.2835704, Lng : -123.1150207, Q1 : 0.999999165535, Q2 : -0.000661916972604, Q3 : -0.000663387647364, Q4 : -0.000912185932975}
2019-04-14 14:18:44.81: SIM {TimeUS : 47635105, Roll : -0.1, Pitch : -0.09, Yaw : 359.89, Alt : 37.8499984741, Lat : 49.2835704, Lng : -123.1150207, Q1 : 0.999998807907, Q2 : -0.00091002433328, Q3 : -0.000815735606011, Q4 : -0.000942831276916}
2019-04-14 14:18:44.91: SIM {TimeUS : 47735065, Roll : -0.12, Pitch : -0.1, Yaw : 359.88, Alt : 38.0699996948, Lat : 49.2835704, Lng : -123.1150206, Q1 : 0.999998569489, Q2 : -0.00105611921754, Q3 : -0.00088062643772, Q4 : -0.000977472867817}
2019-04-14 14:18:45.01: SIM {TimeUS : 47835025, Roll : -0.12, Pitch : -0.09, Yaw : 359.88, Alt : 38.2999992371, Lat : 49.2835704, Lng : -123.1150206, Q1 : 0.999998569489, Q2 : -0.00108979723882, Q3 : -0.000826410599984, Q4 : -0.00101368455216}
2019-04-14 14:18:45.11: SIM {TimeUS : 47934985, Roll : -0.11, Pitch : -0.06, Yaw : 359.88, Alt : 38.5299987793, Lat : 49.2835704, Lng : -123.1150206, Q1 : 0.999998807907, Q2 : -0.000962911057286, Q3 : -0.000602899235673, Q4 : -0.00104188395198}
2019-04-14 14:18:45.21: SIM {TimeUS : 48034945, Roll : -0.08, Pitch : -0.05, Yaw : 359.87, Alt : 38.7599983215, Lat : 49.2835704, Lng : -123.1150206, Q1 : 0.999999046326, Q2 : -0.000744779594243, Q3 : -0.000500534195453, Q4 : -0.00106930790935}
2019-04-14 14:18:45.31: SIM {TimeUS : 48134905, Roll : -0.07, Pitch : -0.05, Yaw : 359.87, Alt : 38.9900016785, Lat : 49.2835704, Lng : -123.1150206, Q1 : 0.99999910593, Q2 : -0.000628047855571, Q3 : -0.000494888576213, Q4 : -0.00110212946311}
2019-04-14 14:18:45.41: SIM {TimeUS : 48234865, Roll : -0.06, Pitch : -0.03, Yaw : 359.87, Alt : 39.2099990845, Lat : 49.2835704, Lng : -123.1150206, Q1 : 0.999999165535, Q2 : -0.00056274572853, Q3 : -0.000299777515465, Q4 : -0.00112258724403}
2019-04-14 14:18:45.51: SIM {TimeUS : 48334825, Roll : -0.07, Pitch : 0.0, Yaw : 359.87, Alt : 39.4500007629, Lat : 49.2835704, Lng : -123.1150206, Q1 : 0.99999910593, Q2 : -0.000689347449224, Q3 : -5.97413745709e-05, Q4 : -0.00112985877786}
2019-04-14 14:18:45.61: SIM {TimeUS : 48434785, Roll : -0.08, Pitch : 0.01, Yaw : 359.87, Alt : 39.6800003052, Lat : 49.2835704, Lng : -123.1150206, Q1 : 0.99999910593, Q2 : -0.000699343567248, Q3 : 0.000133916881168, Q4 : -0.00113403575961}
2019-04-14 14:18:45.72: SIM {TimeUS : 48535578, Roll : -0.06, Pitch : 0.04, Yaw : 359.86, Alt : 39.9099998474, Lat : 49.2835704, Lng : -123.1150206, Q1 : 0.999999165535, Q2 : -0.000536344945431, Q3 : 0.000405536353355, Q4 : -0.00114288192708}
2019-04-14 14:18:45.81: SIM {TimeUS : 48635538, Roll : -0.03, Pitch : 0.05, Yaw : 359.86, Alt : 40.1399993896, Lat : 49.2835704, Lng : -123.1150207, Q1 : 0.99999922514, Q2 : -0.000309404102154, Q3 : 0.000442413089331, Q4 : -0.00114759383723}
2019-04-14 14:18:45.91: SIM {TimeUS : 48735498, Roll : 0.0, Pitch : 0.04, Yaw : 359.86, Alt : 40.3699989319, Lat : 49.2835704, Lng : -123.1150207, Q1 : 0.99999922514, Q2 : -3.67415268556e-05, Q3 : 0.0004268749326, Q4 : -0.00114944681991}
2019-04-14 14:18:46.01: SIM {TimeUS : 48835458, Roll : 0.02, Pitch : 0.06, Yaw : 359.86, Alt : 40.5999984741, Lat : 49.2835704, Lng : -123.1150207, Q1 : 0.999999165535, Q2 : 0.000256579747656, Q3 : 0.00055897468701, Q4 : -0.0011547380127}
2019-04-14 14:18:46.11: SIM {TimeUS : 48935418, Roll : 0.07, Pitch : 0.09, Yaw : 359.86, Alt : 40.8300018311, Lat : 49.2835704, Lng : -123.1150207, Q1 : 0.999998748302, Q2 : 0.000651517184451, Q3 : 0.000818033528049, Q4 : -0.0011644186452}
2019-04-14 14:18:46.21: SIM {TimeUS : 49035378, Roll : 0.1, Pitch : 0.12, Yaw : 359.86, Alt : 41.0699996948, Lat : 49.2835706, Lng : -123.1150207, Q1 : 0.99999833107, Q2 : 0.000915294629522, Q3 : 0.0010763205355, Q4 : -0.00118317187298}
2019-04-14 14:18:46.31: SIM {TimeUS : 49135338, Roll : 0.09, Pitch : 0.14, Yaw : 359.86, Alt : 41.2999992371, Lat : 49.2835706, Lng : -123.1150207, Q1 : 0.999998152256, Q2 : 0.000830842065625, Q3 : 0.00125932670198, Q4 : -0.00119604857173}
2019-04-14 14:18:46.41: SIM {TimeUS : 49235298, Roll : 0.04, Pitch : 0.15, Yaw : 359.86, Alt : 41.5299987793, Lat : 49.2835706, Lng : -123.1150207, Q1 : 0.999998271465, Q2 : 0.000413117493736, Q3 : 0.00135667389259, Q4 : -0.00121628772467}
2019-04-14 14:18:46.51: SIM {TimeUS : 49335258, Roll : 0.0, Pitch : 0.15, Yaw : 359.85, Alt : 41.7700004578, Lat : 49.2835706, Lng : -123.1150207, Q1 : 0.99999833107, Q2 : 1.77892361535e-05, Q3 : 0.00134446588345, Q4 : -0.0012433710508}
2019-04-14 14:18:46.61: SIM {TimeUS : 49435218, Roll : -0.02, Pitch : 0.12, Yaw : 359.85, Alt : 42.0, Lat : 49.2835706, Lng : -123.1150207, Q1 : 0.999998569489, Q2 : -0.000179044087417, Q3 : 0.0010974399047, Q4 : -0.00127102877013}
2019-04-14 14:18:46.71: SIM {TimeUS : 49535178, Roll : -0.02, Pitch : 0.09, Yaw : 359.85, Alt : 42.2299995422, Lat : 49.2835706, Lng : -123.1150207, Q1 : 0.999998807907, Q2 : -0.000208363911952, Q3 : 0.000808031123597, Q4 : -0.00129723094869}
2019-04-14 14:18:46.81: SIM {TimeUS : 49635138, Roll : -0.01, Pitch : 0.09, Yaw : 359.84, Alt : 42.4700012207, Lat : 49.2835706, Lng : -123.1150207, Q1 : 0.999998807907, Q2 : -9.09263035282e-05, Q3 : 0.000794564373791, Q4 : -0.0013280864805}
2019-04-14 14:18:46.91: SIM {TimeUS : 49735098, Roll : 0.02, Pitch : 0.11, Yaw : 359.84, Alt : 42.7000007629, Lat : 49.2835706, Lng : -123.1150207, Q1 : 0.999998569489, Q2 : 0.000225005976972, Q3 : 0.000974097871222, Q4 : -0.00136652484071}
2019-04-14 14:18:47.01: SIM {TimeUS : 49835058, Roll : 0.07, Pitch : 0.13, Yaw : 359.83, Alt : 42.9399986267, Lat : 49.2835706, Lng : -123.1150207, Q1 : 0.999998152256, Q2 : 0.000677408941556, Q3 : 0.00115304673091, Q4 : -0.00140001112595}
2019-04-14 14:18:47.11: SIM {TimeUS : 49935018, Roll : 0.11, Pitch : 0.12, Yaw : 359.83, Alt : 43.1699981689, Lat : 49.2835704, Lng : -123.1150207, Q1 : 0.999997794628, Q2 : 0.00101808574982, Q3 : 0.00112724967767, Q4 : -0.00143884343561}
2019-04-14 14:18:47.21: SIM {TimeUS : 50034978, Roll : 0.11, Pitch : 0.11, Yaw : 359.83, Alt : 43.4099998474, Lat : 49.2835704, Lng : -123.1150207, Q1 : 0.999997913837, Q2 : 0.00102340173908, Q3 : 0.000999529380351, Q4 : -0.00147508946247}
2019-04-14 14:18:47.31: SIM {TimeUS : 50134938, Roll : 0.07, Pitch : 0.09, Yaw : 359.82, Alt : 43.6399993896, Lat : 49.2835704, Lng : -123.1150207, Q1 : 0.99999833107, Q2 : 0.000650373927783, Q3 : 0.000835641869344, Q4 : -0.00149004894774}
2019-04-14 14:18:47.41: SIM {TimeUS : 50234898, Roll : 0.01, Pitch : 0.08, Yaw : 359.82, Alt : 43.8800010681, Lat : 49.2835704, Lng : -123.1150207, Q1 : 0.999998569489, Q2 : 0.000120385157061, Q3 : 0.000753693107981, Q4 : -0.00150059419684}
2019-04-14 14:18:47.51: SIM {TimeUS : 50334858, Roll : -0.02, Pitch : 0.09, Yaw : 359.82, Alt : 44.1100006104, Lat : 49.2835704, Lng : -123.1150207, Q1 : 0.999998509884, Q2 : -0.000253561913269, Q3 : 0.000790226506069, Q4 : -0.00151697383262}
2019-04-14 14:18:47.61: SIM {TimeUS : 50434818, Roll : -0.04, Pitch : 0.08, Yaw : 359.82, Alt : 44.3499984741, Lat : 49.2835704, Lng : -123.1150207, Q1 : 0.999998450279, Q2 : -0.000432134867879, Q3 : 0.000737232272513, Q4 : -0.0015354208881}
2019-04-14 14:18:47.71: SIM {TimeUS : 50534778, Roll : -0.04, Pitch : 0.06, Yaw : 359.82, Alt : 44.5900001526, Lat : 49.2835704, Lng : -123.1150206, Q1 : 0.999998569489, Q2 : -0.000386788276955, Q3 : 0.000524205446709, Q4 : -0.00155896611977}
2019-04-14 14:18:47.81: SIM {TimeUS : 50635571, Roll : -0.04, Pitch : 0.03, Yaw : 359.81, Alt : 44.8199996948, Lat : 49.2835704, Lng : -123.1150206, Q1 : 0.999998569489, Q2 : -0.000402382022003, Q3 : 0.000307145965053, Q4 : -0.00159479677677}
2019-04-14 14:18:47.91: SIM {TimeUS : 50735531, Roll : -0.03, Pitch : 0.01, Yaw : 359.81, Alt : 45.0600013733, Lat : 49.2835704, Lng : -123.1150206, Q1 : 0.999998629093, Q2 : -0.00032879479113, Q3 : 0.000110907778435, Q4 : -0.00163357215934}
2019-04-14 14:18:48.01: SIM {TimeUS : 50835491, Roll : -0.01, Pitch : 0.0, Yaw : 359.8, Alt : 45.2999992371, Lat : 49.2835703, Lng : -123.1150206, Q1 : 0.999998569489, Q2 : -0.000130394342705, Q3 : 2.10653615795e-05, Q4 : -0.00167413649615}
2019-04-14 14:18:48.11: SIM {TimeUS : 50935451, Roll : -0.01, Pitch : 0.0, Yaw : 359.8, Alt : 45.5299987793, Lat : 49.2835703, Lng : -123.1150206, Q1 : 0.999998509884, Q2 : -9.18412551982e-05, Q3 : 1.2820532902e-05, Q4 : -0.00171209359542}
2019-04-14 14:18:48.21: SIM {TimeUS : 51035411, Roll : -0.02, Pitch : 0.0, Yaw : 359.79, Alt : 45.7700004578, Lat : 49.2835703, Lng : -123.1150206, Q1 : 0.999998450279, Q2 : -0.000176354064024, Q3 : -4.32793603977e-05, Q4 : -0.00175145454705}
2019-04-14 14:18:48.31: SIM {TimeUS : 51135371, Roll : -0.03, Pitch : -0.02, Yaw : 359.79, Alt : 46.0, Lat : 49.2835703, Lng : -123.1150206, Q1 : 0.99999833107, Q2 : -0.000265327136731, Q3 : -0.000221605820116, Q4 : -0.00179372378625}
2019-04-14 14:18:48.41: SIM {TimeUS : 51235331, Roll : -0.03, Pitch : -0.03, Yaw : 359.79, Alt : 46.2299995422, Lat : 49.2835703, Lng : -123.1150206, Q1 : 0.999998271465, Q2 : -0.000291647826089, Q3 : -0.000311911542667, Q4 : -0.00182858423796}
2019-04-14 14:18:48.51: SIM {TimeUS : 51335291, Roll : -0.02, Pitch : -0.03, Yaw : 359.78, Alt : 46.4500007629, Lat : 49.2835703, Lng : -123.1150206, Q1 : 0.999998152256, Q2 : -0.000234101651586, Q3 : -0.000342194951372, Q4 : -0.0018588649109}
2019-04-14 14:18:48.61: SIM {TimeUS : 51435251, Roll : -0.03, Pitch : -0.04, Yaw : 359.78, Alt : 46.6699981689, Lat : 49.2835703, Lng : -123.1150206, Q1 : 0.999998152256, Q2 : -0.00027111909003, Q3 : -0.000351330847479, Q4 : -0.00188463740051}
2019-04-14 14:18:48.71: SIM {TimeUS : 51535211, Roll : -0.05, Pitch : -0.03, Yaw : 359.78, Alt : 46.8899993896, Lat : 49.2835703, Lng : -123.1150206, Q1 : 0.999998033047, Q2 : -0.00046391991782, Q3 : -0.00030391474138, Q4 : -0.0019059588667}
2019-04-14 14:18:48.81: SIM {TimeUS : 51635171, Roll : -0.08, Pitch : -0.03, Yaw : 359.77, Alt : 47.0900001526, Lat : 49.2835703, Lng : -123.1150205, Q1 : 0.999997794628, Q2 : -0.000771275197621, Q3 : -0.000291544187348, Q4 : -0.00192182231694}
2019-04-14 14:18:48.91: SIM {TimeUS : 51735131, Roll : -0.11, Pitch : -0.03, Yaw : 359.77, Alt : 47.2900009155, Lat : 49.2835703, Lng : -123.1150205, Q1 : 0.999997615814, Q2 : -0.000975838687737, Q3 : -0.000281354499748, Q4 : -0.00194043922238}
2019-04-14 14:18:49.01: SIM {TimeUS : 51835091, Roll : -0.11, Pitch : -0.02, Yaw : 359.77, Alt : 47.4900016785, Lat : 49.2835703, Lng : -123.1150205, Q1 : 0.99999755621, Q2 : -0.000998946721666, Q3 : -0.000177749097929, Q4 : -0.00196159700863}
2019-04-14 14:18:49.11: SIM {TimeUS : 51935051, Roll : -0.11, Pitch : -0.01, Yaw : 359.77, Alt : 47.6699981689, Lat : 49.2835703, Lng : -123.1150205, Q1 : 0.999997496605, Q2 : -0.00103595212568, Q3 : -0.000101066420029, Q4 : -0.00198350893334}
2019-04-14 14:18:49.21: SIM {TimeUS : 52035011, Roll : -0.13, Pitch : -0.02, Yaw : 359.77, Alt : 47.8400001526, Lat : 49.2835703, Lng : -123.1150205, Q1 : 0.999997317791, Q2 : -0.00117400952149, Q3 : -0.000187544108485, Q4 : -0.00200524157844}
2019-04-14 14:18:49.31: SIM {TimeUS : 52134971, Roll : -0.13, Pitch : -0.02, Yaw : 359.76, Alt : 48.0, Lat : 49.2835703, Lng : -123.1150205, Q1 : 0.999997198582, Q2 : -0.00120395224076, Q3 : -0.000247042422416, Q4 : -0.00202747946605}
2019-04-14 14:18:49.41: SIM {TimeUS : 52234931, Roll : -0.13, Pitch : -0.03, Yaw : 359.76, Alt : 48.1500015259, Lat : 49.2835703, Lng : -123.1150205, Q1 : 0.999997198582, Q2 : -0.00114136526827, Q3 : -0.000342415180057, Q4 : -0.00204892153852}
2019-04-14 14:18:49.51: SIM {TimeUS : 52334891, Roll : -0.1, Pitch : -0.05, Yaw : 359.76, Alt : 48.2799987793, Lat : 49.2835703, Lng : -123.1150206, Q1 : 0.999997317791, Q2 : -0.000953826645855, Q3 : -0.00047171904589, Q4 : -0.00207359250635}
2019-04-14 14:18:49.61: SIM {TimeUS : 52434851, Roll : -0.07, Pitch : -0.07, Yaw : 359.75, Alt : 48.4099998474, Lat : 49.2835703, Lng : -123.1150206, Q1 : 0.999997377396, Q2 : -0.000654232862871, Q3 : -0.00061158882454, Q4 : -0.00209868187085}
2019-04-14 14:18:49.71: SIM {TimeUS : 52534811, Roll : -0.05, Pitch : -0.08, Yaw : 359.75, Alt : 48.5200004578, Lat : 49.2835703, Lng : -123.1150206, Q1 : 0.999997377396, Q2 : -0.000457620801171, Q3 : -0.000706049031578, Q4 : -0.00212391559035}
2019-04-14 14:18:49.82: SIM {TimeUS : 52635604, Roll : -0.04, Pitch : -0.08, Yaw : 359.75, Alt : 48.6199989319, Lat : 49.2835703, Lng : -123.1150206, Q1 : 0.999997317791, Q2 : -0.000408073945437, Q3 : -0.000749166181777, Q4 : -0.00214919936843}
2019-04-14 14:18:49.91: SIM {TimeUS : 52735564, Roll : -0.01, Pitch : -0.07, Yaw : 359.75, Alt : 48.7099990845, Lat : 49.2835703, Lng : -123.1150206, Q1 : 0.999997377396, Q2 : -0.00017164851306, Q3 : -0.000683970924001, Q4 : -0.00217257882468}
2019-04-14 14:18:50.01: SIM {TimeUS : 52835524, Roll : 0.01, Pitch : -0.06, Yaw : 359.74, Alt : 48.7799987793, Lat : 49.2835703, Lng : -123.1150206, Q1 : 0.999997437, Q2 : 0.000123749632621, Q3 : -0.000564798305277, Q4 : -0.00219786772504}
2019-04-14 14:18:50.11: SIM {TimeUS : 52935484, Roll : 0.04, Pitch : -0.04, Yaw : 359.74, Alt : 48.8499984741, Lat : 49.2835703, Lng : -123.1150206, Q1 : 0.999997377396, Q2 : 0.000375482894015, Q3 : -0.000411421031458, Q4 : -0.00222298922017}
2019-04-14 14:18:50.21: SIM {TimeUS : 53035444, Roll : 0.06, Pitch : -0.02, Yaw : 359.74, Alt : 48.9099998474, Lat : 49.2835703, Lng : -123.1150206, Q1 : 0.999997317791, Q2 : 0.000529110897332, Q3 : -0.000229163459153, Q4 : -0.00224493560381}
2019-04-14 14:18:50.31: SIM {TimeUS : 53135404, Roll : 0.06, Pitch : -0.01, Yaw : 359.73, Alt : 48.9599990845, Lat : 49.2835703, Lng : -123.1150207, Q1 : 0.999997198582, Q2 : 0.000609236245509, Q3 : -0.000173317050212, Q4 : -0.0022740336135}
2019-04-14 14:18:50.41: SIM {TimeUS : 53235364, Roll : 0.09, Pitch : -0.04, Yaw : 359.73, Alt : 49.0, Lat : 49.2835703, Lng : -123.1150207, Q1 : 0.999996900558, Q2 : 0.000856683647726, Q3 : -0.000357022683602, Q4 : -0.00230835541151}
2019-04-14 14:18:50.51: SIM {TimeUS : 53335324, Roll : 0.25, Pitch : -0.09, Yaw : 359.73, Alt : 49.0400009155, Lat : 49.2835703, Lng : -123.1150207, Q1 : 0.999994337559, Q2 : 0.00225644395687, Q3 : -0.00085601414321, Q4 : -0.00234156614169}
2019-04-14 14:18:50.61: SIM {TimeUS : 53435284, Roll : 0.66, Pitch : -0.21, Yaw : 359.72, Alt : 49.0699996948, Lat : 49.2835703, Lng : -123.1150207, Q1 : 0.999978363514, Q2 : 0.00584042398259, Q3 : -0.00188452936709, Q4 : -0.00236658402719}
2019-04-14 14:18:50.71: SIM {TimeUS : 53535244, Roll : 1.34, Pitch : -0.4, Yaw : 359.72, Alt : 49.0900001526, Lat : 49.2835703, Lng : -123.1150207, Q1 : 0.999922037125, Q2 : 0.011722035706, Q3 : -0.00357945100404, Q4 : -0.00238684867509}
2019-04-14 14:18:50.81: SIM {TimeUS : 53635204, Roll : 2.22, Pitch : -0.65, Yaw : 359.71, Alt : 49.1199989319, Lat : 49.2835704, Lng : -123.1150206, Q1 : 0.999792039394, Q2 : 0.0194155089557, Q3 : -0.00577028142288, Q4 : -0.00239008595236}
2019-04-14 14:18:50.91: SIM {TimeUS : 53735164, Roll : 3.24, Pitch : -0.92, Yaw : 359.7, Alt : 49.1399993896, Lat : 49.2835704, Lng : -123.1150205, Q1 : 0.999563753605, Q2 : 0.0282803419977, Q3 : -0.00817776471376, Q4 : -0.00237385369837}
2019-04-14 14:18:51.01: SIM {TimeUS : 53835124, Roll : 4.22, Pitch : -1.2, Yaw : 359.68, Alt : 49.1500015259, Lat : 49.2835704, Lng : -123.1150204, Q1 : 0.999262750149, Q2 : 0.0368271693587, Q3 : -0.0105999419466, Q4 : -0.00232665590011}
2019-04-14 14:18:51.11: SIM {TimeUS : 53935084, Roll : 5.02, Pitch : -1.45, Yaw : 359.67, Alt : 49.1699981689, Lat : 49.2835706, Lng : -123.1150201, Q1 : 0.998957037926, Q2 : 0.0437667407095, Q3 : -0.0128179714084, Q4 : -0.00223960378207}
2019-04-14 14:18:51.21: SIM {TimeUS : 54035044, Roll : 5.59, Pitch : -1.65, Yaw : 359.67, Alt : 49.1800003052, Lat : 49.2835706, Lng : -123.1150199, Q1 : 0.99870210886, Q2 : 0.0487621761858, Q3 : -0.014554919675, Q4 : -0.00212094560266}
2019-04-14 14:18:51.31: SIM {TimeUS : 54135004, Roll : 6.0, Pitch : -1.82, Yaw : 359.67, Alt : 49.1899986267, Lat : 49.2835707, Lng : -123.1150195, Q1 : 0.998501062393, Q2 : 0.0522878877819, Q3 : -0.0160546675324, Q4 : -0.00198941933922}
2019-04-14 14:18:51.41: SIM {TimeUS : 54234964, Roll : 6.33, Pitch : -1.96, Yaw : 359.68, Alt : 49.2000007629, Lat : 49.2835708, Lng : -123.1150189, Q1 : 0.998325049877, Q2 : 0.0551847070456, Q3 : -0.0172736421227, Q4 : -0.00183592841495}
2019-04-14 14:18:51.51: SIM {TimeUS : 54334924, Roll : 6.66, Pitch : -2.08, Yaw : 359.68, Alt : 49.2099990845, Lat : 49.2835709, Lng : -123.1150182, Q1 : 0.998143792152, Q2 : 0.0580608770251, Q3 : -0.018306273967, Q4 : -0.00166649231687}
2019-04-14 14:18:51.61: SIM {TimeUS : 54434884, Roll : 7.02, Pitch : -2.19, Yaw : 359.69, Alt : 49.2200012207, Lat : 49.283571, Lng : -123.1150175, Q1 : 0.997936189175, Q2 : 0.0612272694707, Q3 : -0.0192968342453, Q4 : -0.00149557762779}
2019-04-14 14:18:51.71: SIM {TimeUS : 54534844, Roll : 7.39, Pitch : -2.28, Yaw : 359.7, Alt : 49.2299995422, Lat : 49.2835713, Lng : -123.1150166, Q1 : 0.997722327709, Q2 : 0.0643886178732, Q3 : -0.0200630538166, Q4 : -0.00132648053113}
2019-04-14 14:18:51.81: SIM {TimeUS : 54634804, Roll : 7.68, Pitch : -2.35, Yaw : 359.7, Alt : 49.2299995422, Lat : 49.2835715, Lng : -123.1150156, Q1 : 0.997542917728, Q2 : 0.0669350624084, Q3 : -0.0206506941468, Q4 : -0.00118437642232}
2019-04-14 14:18:51.92: SIM {TimeUS : 54735597, Roll : 7.89, Pitch : -2.41, Yaw : 359.7, Alt : 49.2400016785, Lat : 49.2835716, Lng : -123.1150145, Q1 : 0.997407495975, Q2 : 0.0687682554126, Q3 : -0.0211688298732, Q4 : -0.00108503014781}
2019-04-14 14:18:52.01: SIM {TimeUS : 54835557, Roll : 8.04, Pitch : -2.46, Yaw : 359.7, Alt : 49.2400016785, Lat : 49.283572, Lng : -123.1150132, Q1 : 0.997304618359, Q2 : 0.0700926706195, Q3 : -0.0216688029468, Q4 : -0.00102995126508}
2019-04-14 14:18:52.11: SIM {TimeUS : 54935517, Roll : 8.17, Pitch : -2.51, Yaw : 359.7, Alt : 49.25, Lat : 49.2835722, Lng : -123.1150119, Q1 : 0.997218132019, Q2 : 0.0711820945144, Q3 : -0.022093353793, Q4 : -0.00100056501105}
2019-04-14 14:18:52.21: SIM {TimeUS : 55035477, Roll : 8.3, Pitch : -2.54, Yaw : 359.7, Alt : 49.25, Lat : 49.2835725, Lng : -123.1150105, Q1 : 0.997131407261, Q2 : 0.0723243802786, Q3 : -0.0222967881709, Q4 : -0.000965970393736}
2019-04-14 14:18:52.31: SIM {TimeUS : 55135437, Roll : 8.54, Pitch : -2.41, Yaw : 359.83, Alt : 49.25, Lat : 49.2835727, Lng : -123.1150089, Q1 : 0.996997773647, Q2 : 0.074493907392, Q3 : -0.0211197137833, Q4 : 0.00011537905084}
2019-04-14 14:18:52.41: SIM {TimeUS : 55235397, Roll : 8.96, Pitch : -2.06, Yaw : 0.6, Alt : 49.2599983215, Lat : 49.2835732, Lng : -123.1150072, Q1 : 0.99675565958, Q2 : 0.0782625600696, Q3 : -0.0175596605986, Q4 : 0.00669931387529}
2019-04-14 14:18:52.51: SIM {TimeUS : 55335357, Roll : 9.51, Pitch : -1.75, Yaw : 2.68, Alt : 49.2599983215, Lat : 49.2835734, Lng : -123.1150056, Q1 : 0.99613070488, Q2 : 0.0833009704947, Q3 : -0.0133156524971, Q4 : 0.0246429610997}
2019-04-14 14:18:52.61: SIM {TimeUS : 55435317, Roll : 10.02, Pitch : -1.89, Yaw : 6.34, Alt : 49.2599983215, Lat : 49.2835738, Lng : -123.1150037, Q1 : 0.99443179369, Q2 : 0.0881761983037, Q3 : -0.0116042625159, Q4 : 0.0565309114754}
2019-04-14 14:18:52.71: SIM {TimeUS : 55535277, Roll : 10.31, Pitch : -2.66, Yaw : 11.46, Alt : 49.2599983215, Lat : 49.2835741, Lng : -123.1150017, Q1 : 0.990497708321, Q2 : 0.0917256399989, Q3 : -0.0140649406239, Q4 : 0.101503573358}
2019-04-14 14:18:52.81: SIM {TimeUS : 55635237, Roll : 10.22, Pitch : -4.03, Yaw : 17.81, Alt : 49.2599983215, Lat : 49.2835745, Lng : -123.1149997, Q1 : 0.982906281948, Q2 : 0.0934333503246, Q3 : -0.020871438086, Q4 : 0.1572573632}
2019-04-14 14:18:52.91: SIM {TimeUS : 55735197, Roll : 9.67, Pitch : -5.85, Yaw : 25.15, Alt : 49.2700004578, Lat : 49.2835747, Lng : -123.1149975, Q1 : 0.970309436321, Q2 : 0.0933154076338, Q3 : -0.0313420780003, Q4 : 0.220928743482}
2019-04-14 14:18:53.01: SIM {TimeUS : 55835157, Roll : 8.61, Pitch : -7.88, Yaw : 33.24, Alt : 49.2700004578, Lat : 49.2835751, Lng : -123.114995, Q1 : 0.951773524284, Q2 : 0.0914147570729, Q3 : -0.0442623533309, Q4 : 0.289501905441}
2019-04-14 14:18:53.11: SIM {TimeUS : 55935117, Roll : 7.03, Pitch : -9.86, Yaw : 41.83, Alt : 49.2700004578, Lat : 49.2835753, Lng : -123.1149926, Q1 : 0.926990509033, Q2 : 0.0877504274249, Q3 : -0.0583019368351, Q4 : 0.359985172749}
2019-04-14 14:18:53.21: SIM {TimeUS : 56035077, Roll : 5.02, Pitch : -11.56, Yaw : 50.69, Alt : 49.2700004578, Lat : 49.2835757, Lng : -123.1149901, Q1 : 0.896364629269, Q2 : 0.082523226738, Q3 : -0.0722391307354, Q4 : 0.429536908865}
2019-04-14 14:18:53.31: SIM {TimeUS : 56135037, Roll : 2.73, Pitch : -12.83, Yaw : 59.53, Alt : 49.2700004578, Lat : 49.2835761, Lng : -123.1149874, Q1 : 0.861050605774, Q2 : 0.0760943219066, Q3 : -0.0852295607328, Q4 : 0.495517373085}
2019-04-14 14:18:53.41: SIM {TimeUS : 56234997, Roll : 0.28, Pitch : -13.63, Yaw : 68.02, Alt : 49.2799987793, Lat : 49.2835764, Lng : -123.1149846, Q1 : 0.822887480259, Q2 : 0.0684571564198, Q3 : -0.0969979688525, Q4 : 0.555662870407}
2019-04-14 14:18:53.51: SIM {TimeUS : 56334957, Roll : -2.42, Pitch : -13.95, Yaw : 75.68, Alt : 49.2799987793, Lat : 49.2835769, Lng : -123.1149817, Q1 : 0.785229146481, Q2 : 0.0579518564045, Q3 : -0.108787752688, Q4 : 0.606813013554}
2019-04-14 14:18:53.61: SIM {TimeUS : 56434917, Roll : -5.03, Pitch : -13.85, Yaw : 81.83, Alt : 49.2799987793, Lat : 49.2835774, Lng : -123.1149786, Q1 : 0.752878546715, Q2 : 0.0459788031876, Q3 : -0.119634665549, Q4 : 0.64555978775}
2019-04-14 14:18:53.71: SIM {TimeUS : 56534877, Roll : -7.04, Pitch : -13.55, Yaw : 86.03, Alt : 49.2799987793, Lat : 49.283578, Lng : -123.1149755, Q1 : 0.729602217674, Q2 : 0.0357525534928, Q3 : -0.127723425627, Q4 : 0.670886814594}
2019-04-14 14:18:53.81: SIM {TimeUS : 56634837, Roll : -8.14, Pitch : -13.24, Yaw : 88.26, Alt : 49.2799987793, Lat : 49.2835787, Lng : -123.1149722, Q1 : 0.716836631298, Q2 : 0.0294951163232, Q3 : -0.131670773029, Q4 : 0.684059977531}
2019-04-14 14:18:53.91: SIM {TimeUS : 56734797, Roll : -8.25, Pitch : -13.1, Yaw : 88.75, Alt : 49.2799987793, Lat : 49.2835794, Lng : -123.1149689, Q1 : 0.713967442513, Q2 : 0.0284485947341, Q3 : -0.131366237998, Q4 : 0.687156558037}
2019-04-14 14:18:54.02: SIM {TimeUS : 56835590, Roll : -7.51, Pitch : -13.22, Yaw : 87.83, Alt : 49.2799987793, Lat : 49.2835802, Lng : -123.1149654, Q1 : 0.7192299366, Q2 : 0.0328054353595, Q3 : -0.127901598811, Q4 : 0.682109475136}
2019-04-14 14:18:54.11: SIM {TimeUS : 56935550, Roll : -6.13, Pitch : -13.59, Yaw : 85.87, Alt : 49.2799987793, Lat : 49.2835812, Lng : -123.1149619, Q1 : 0.730252802372, Q2 : 0.0416060946882, Q3 : -0.12278239429, Q4 : 0.670763909817}
2019-04-14 14:18:54.21: SIM {TimeUS : 57035510, Roll : -4.36, Pitch : -14.17, Yaw : 83.18, Alt : 49.2799987793, Lat : 49.283582, Lng : -123.1149583, Q1 : 0.744766831398, Q2 : 0.0535844936967, Q3 : -0.117287606001, Q4 : 0.654747843742}
2019-04-14 14:18:54.31: SIM {TimeUS : 57135470, Roll : -2.42, Pitch : -14.83, Yaw : 80.07, Alt : 49.2799987793, Lat : 49.2835831, Lng : -123.1149546, Q1 : 0.760778129101, Q2 : 0.066975876689, Q3 : -0.112289875746, Q4 : 0.635705828667}
2019-04-14 14:18:54.41: SIM {TimeUS : 57235430, Roll : -0.51, Pitch : -15.42, Yaw : 76.86, Alt : 49.2799987793, Lat : 49.2835841, Lng : -123.1149508, Q1 : 0.776617228985, Q2 : 0.0798986405134, Q3 : -0.10790026933, Q4 : 0.615499377251}
2019-04-14 14:18:54.51: SIM {TimeUS : 57335390, Roll : 1.17, Pitch : -15.82, Yaw : 73.87, Alt : 49.2799987793, Lat : 49.283585, Lng : -123.1149469, Q1 : 0.790818035603, Q2 : 0.0908209085464, Q3 : -0.103964172304, Q4 : 0.596279978752}
2019-04-14 14:18:54.61: SIM {TimeUS : 57435350, Roll : 2.48, Pitch : -16.02, Yaw : 71.38, Alt : 49.2799987793, Lat : 49.2835861, Lng : -123.1149429, Q1 : 0.802273035049, Q2 : 0.0987490043044, Q3 : -0.100649371743, Q4 : 0.580065786839}
2019-04-14 14:18:54.71: SIM {TimeUS : 57535310, Roll : 3.34, Pitch : -16.05, Yaw : 69.61, Alt : 49.2799987793, Lat : 49.2835871, Lng : -123.1149387, Q1 : 0.81037312746, Q2 : 0.103364288807, Q3 : -0.0981189906597, Q4 : 0.568316757679}
2019-04-14 14:18:54.81: SIM {TimeUS : 57635270, Roll : 3.7, Pitch : -15.98, Yaw : 68.62, Alt : 49.2900009155, Lat : 49.2835879, Lng : -123.1149345, Q1 : 0.81496232748, Q2 : 0.104814551771, Q3 : -0.0967561304569, Q4 : 0.561683654785}
2019-04-14 14:18:54.91: SIM {TimeUS : 57735230, Roll : 3.61, Pitch : -15.91, Yaw : 68.4, Alt : 49.2900009155, Lat : 49.2835889, Lng : -123.1149301, Q1 : 0.816206753254, Q2 : 0.103665269911, Q3 : -0.0968834683299, Q4 : 0.560065805912}
2019-04-14 14:18:55.01: SIM {TimeUS : 57835190, Roll : 3.17, Pitch : -15.9, Yaw : 68.83, Alt : 49.2900009155, Lat : 49.2835897, Lng : -123.1149256, Q1 : 0.814505875111, Q2 : 0.100791223347, Q3 : -0.0986019447446, Q4 : 0.562760174274}
2019-04-14 14:18:55.11: SIM {TimeUS : 57935150, Roll : 2.46, Pitch : -15.98, Yaw : 69.76, Alt : 49.2900009155, Lat : 49.2835907, Lng : -123.1149211, Q1 : 0.810460448265, Q2 : 0.0970062017441, Q3 : -0.101845808327, Q4 : 0.568657279015}
2019-04-14 14:18:55.21: SIM {TimeUS : 58035110, Roll : 1.62, Pitch : -16.12, Yaw : 70.99, Alt : 49.2900009155, Lat : 49.2835916, Lng : -123.1149164, Q1 : 0.80483943224, Q2 : 0.0928565189242, Q3 : -0.106077231467, Q4 : 0.57650578022}
2019-04-14 14:18:55.31: SIM {TimeUS : 58135070, Roll : 0.72, Pitch : -16.29, Yaw : 72.35, Alt : 49.2900009155, Lat : 49.2835923, Lng : -123.1149117, Q1 : 0.798476457596, Q2 : 0.0887570604682, Q3 : -0.110689945519, Q4 : 0.585068643093}
2019-04-14 14:18:55.41: SIM {TimeUS : 58235030, Roll : -0.09, Pitch : -16.42, Yaw : 73.67, Alt : 49.2900009155, Lat : 49.2835933, Lng : -123.1149069, Q1 : 0.79219597578, Q2 : 0.0850205123425, Q3 : -0.11480910331, Q4 : 0.593309283257}
2019-04-14 14:18:55.51: SIM {TimeUS : 58334990, Roll : -0.74, Pitch : -16.5, Yaw : 74.81, Alt : 49.2900009155, Lat : 49.2835941, Lng : -123.1149021, Q1 : 0.786676108837, Q2 : 0.0820761173964, Q3 : -0.117893226445, Q4 : 0.600421071053}
2019-04-14 14:18:55.61: SIM {TimeUS : 58434950, Roll : -1.2, Pitch : -16.53, Yaw : 75.67, Alt : 49.2900009155, Lat : 49.2835952, Lng : -123.1148971, Q1 : 0.782427370548, Q2 : 0.0799970701337, Q3 : -0.119965270162, Q4 : 0.605818629265}
2019-04-14 14:18:55.71: SIM {TimeUS : 58534910, Roll : -1.44, Pitch : -16.55, Yaw : 76.21, Alt : 49.2900009155, Lat : 49.283596, Lng : -123.1148921, Q1 : 0.779704868793, Q2 : 0.0790079236031, Q3 : -0.120950959623, Q4 : 0.609252810478}
2019-04-14 14:18:55.81: SIM {TimeUS : 58634870, Roll : -1.45, Pitch : -16.55, Yaw : 76.43, Alt : 49.2900009155, Lat : 49.283597, Lng : -123.1148871, Q1 : 0.778555214405, Q2 : 0.0791478902102, Q3 : -0.120878711343, Q4 : 0.61071741581}
2019-04-14 14:18:55.91: SIM {TimeUS : 58734830, Roll : -1.31, Pitch : -16.55, Yaw : 76.36, Alt : 49.2900009155, Lat : 49.2835981, Lng : -123.114882, Q1 : 0.778851389885, Q2 : 0.0800657048821, Q3 : -0.120153948665, Q4 : 0.610363066196}
2019-04-14 14:18:56.01: SIM {TimeUS : 58834790, Roll : -1.06, Pitch : -16.58, Yaw : 76.05, Alt : 49.2900009155, Lat : 49.283599, Lng : -123.1148769, Q1 : 0.780287027359, Q2 : 0.0816122815013, Q3 : -0.11923674494, Q4 : 0.608501553535}
2019-04-14 14:18:56.12: SIM {TimeUS : 58935583, Roll : -0.74, Pitch : -16.63, Yaw : 75.57, Alt : 49.2900009155, Lat : 49.2836001, Lng : -123.1148716, Q1 : 0.782522857189, Q2 : 0.0835576727986, Q3 : -0.118297502398, Q4 : 0.605542600155}
2019-04-14 14:18:56.21: SIM {TimeUS : 59035543, Roll : -0.41, Pitch : -16.71, Yaw : 75.02, Alt : 49.2900009155, Lat : 49.2836011, Lng : -123.1148664, Q1 : 0.785133957863, Q2 : 0.0856450796127, Q3 : -0.117436930537, Q4 : 0.602028429508}
2019-04-14 14:18:56.31: SIM {TimeUS : 59135503, Roll : -0.09, Pitch : -16.77, Yaw : 74.45, Alt : 49.2900009155, Lat : 49.283602, Lng : -123.1148611, Q1 : 0.787801027298, Q2 : 0.0875642374158, Q3 : -0.116611354053, Q4 : 0.598417818546}
2019-04-14 14:18:56.41: SIM {TimeUS : 59235463, Roll : 0.18, Pitch : -16.82, Yaw : 73.93, Alt : 49.2900009155, Lat : 49.2836031, Lng : -123.1148558, Q1 : 0.790214240551, Q2 : 0.0892634242773, Q3 : -0.115890324116, Q4 : 0.595115959644}
2019-04-14 14:18:56.51: SIM {TimeUS : 59335423, Roll : 0.41, Pitch : -16.86, Yaw : 73.52, Alt : 49.2900009155, Lat : 49.2836042, Lng : -123.1148504, Q1 : 0.792160212994, Q2 : 0.090656735003, Q3 : -0.115319885314, Q4 : 0.592422962189}
2019-04-14 14:18:56.61: SIM {TimeUS : 59435383, Roll : 0.57, Pitch : -16.89, Yaw : 73.22, Alt : 49.2900009155, Lat : 49.2836053, Lng : -123.114845, Q1 : 0.793533623219, Q2 : 0.0916202440858, Q3 : -0.114939205348, Q4 : 0.590507507324}
2019-04-14 14:18:56.71: SIM {TimeUS : 59535343, Roll : 0.66, Pitch : -16.92, Yaw : 73.05, Alt : 49.2999992371, Lat : 49.2836062, Lng : -123.1148396, Q1 : 0.794279754162, Q2 : 0.092192530632, Q3 : -0.114822454751, Q4 : 0.589437067509}
2019-04-14 14:18:56.81: SIM {TimeUS : 59635303, Roll : 0.66, Pitch : -16.95, Yaw : 73.02, Alt : 49.2999992371, Lat : 49.2836074, Lng : -123.1148341, Q1 : 0.794446706772, Q2 : 0.0923234894872, Q3 : -0.115020379424, Q4 : 0.589152932167}
2019-04-14 14:18:56.91: SIM {TimeUS : 59735263, Roll : 0.59, Pitch : -16.97, Yaw : 73.08, Alt : 49.2999992371, Lat : 49.2836084, Lng : -123.1148286, Q1 : 0.794133961201, Q2 : 0.0919845029712, Q3 : -0.115534603596, Q4 : 0.589526891708}
2019-04-14 14:18:57.01: SIM {TimeUS : 59835223, Roll : 0.46, Pitch : -17.0, Yaw : 73.23, Alt : 49.2999992371, Lat : 49.2836093, Lng : -123.114823, Q1 : 0.79345202446, Q2 : 0.0913588032126, Q3 : -0.116270028055, Q4 : 0.590397119522}
2019-04-14 14:18:57.11: SIM {TimeUS : 59935183, Roll : 0.29, Pitch : -17.03, Yaw : 73.43, Alt : 49.2999992371, Lat : 49.2836104, Lng : -123.1148174, Q1 : 0.792544007301, Q2 : 0.0905895233154, Q3 : -0.117170512676, Q4 : 0.591556072235}
2019-04-14 14:18:57.21: SIM {TimeUS : 60035143, Roll : 0.12, Pitch : -17.06, Yaw : 73.64, Alt : 49.2999992371, Lat : 49.2836115, Lng : -123.1148118, Q1 : 0.791554987431, Q2 : 0.08981962502, Q3 : -0.118133321404, Q4 : 0.592804908752}
2019-04-14 14:18:57.31: SIM {TimeUS : 60135103, Roll : -0.03, Pitch : -17.1, Yaw : 73.83, Alt : 49.2999992371, Lat : 49.2836126, Lng : -123.1148061, Q1 : 0.790619492531, Q2 : 0.0890757218003, Q3 : -0.119070872664, Q4 : 0.593976795673}
2019-04-14 14:18:57.41: SIM {TimeUS : 60235063, Roll : -0.17, Pitch : -17.13, Yaw : 74.0, Alt : 49.2999992371, Lat : 49.2836136, Lng : -123.1148004, Q1 : 0.789834439754, Q2 : 0.0884535461664, Q3 : -0.119907595217, Q4 : 0.594945132732}
2019-04-14 14:18:57.51: SIM {TimeUS : 60335023, Roll : -0.28, Pitch : -17.16, Yaw : 74.12, Alt : 49.2999992371, Lat : 49.2836147, Lng : -123.1147947, Q1 : 0.789270758629, Q2 : 0.0880181863904, Q3 : -0.120559297502, Q4 : 0.595625698566}
2019-04-14 14:18:57.61: SIM {TimeUS : 60434983, Roll : -0.31, Pitch : -17.19, Yaw : 74.18, Alt : 49.2999992371, Lat : 49.2836158, Lng : -123.1147889, Q1 : 0.78894251585, Q2 : 0.0880014225841, Q3 : -0.120926849544, Q4 : 0.59598839283}
2019-04-14 14:18:57.71: SIM {TimeUS : 60534943, Roll : -0.3, Pitch : -17.23, Yaw : 74.19, Alt : 49.2999992371, Lat : 49.2836169, Lng : -123.1147832, Q1 : 0.788869023323, Q2 : 0.0882564112544, Q3 : -0.121085479856, Q4 : 0.596015751362}
2019-04-14 14:18:57.81: SIM {TimeUS : 60634903, Roll : -0.24, Pitch : -17.26, Yaw : 74.14, Alt : 49.3100013733, Lat : 49.283618, Lng : -123.1147774, Q1 : 0.789009869099, Q2 : 0.0887815207243, Q3 : -0.121077165008, Q4 : 0.595752954483}
2019-04-14 14:18:57.91: SIM {TimeUS : 60734863, Roll : -0.15, Pitch : -17.31, Yaw : 74.06, Alt : 49.3100013733, Lat : 49.283619, Lng : -123.1147716, Q1 : 0.789309024811, Q2 : 0.0895636677742, Q3 : -0.120950579643, Q4 : 0.59526515007}
2019-04-14 14:18:58.01: SIM {TimeUS : 60834823, Roll : -0.06, Pitch : -17.34, Yaw : 73.96, Alt : 49.3100013733, Lat : 49.2836201, Lng : -123.1147657, Q1 : 0.789742231369, Q2 : 0.0902878418565, Q3 : -0.120776303113, Q4 : 0.594616174698}
2019-04-14 14:18:58.11: SIM {TimeUS : 60934783, Roll : 0.01, Pitch : -17.36, Yaw : 73.84, Alt : 49.3100013733, Lat : 49.2836213, Lng : -123.1147599, Q1 : 0.790258705616, Q2 : 0.0907878279686, Q3 : -0.120658613741, Q4 : 0.593877255917}
2019-04-14 14:18:58.22: SIM {TimeUS : 61035576, Roll : 0.05, Pitch : -17.38, Yaw : 73.73, Alt : 49.3100013733, Lat : 49.2836224, Lng : -123.1147539, Q1 : 0.790799319744, Q2 : 0.091066390276, Q3 : -0.120595417917, Q4 : 0.593127429485}
2019-04-14 14:18:58.31: SIM {TimeUS : 61135536, Roll : 0.1, Pitch : -17.38, Yaw : 73.63, Alt : 49.3100013733, Lat : 49.2836235, Lng : -123.114748, Q1 : 0.791294157505, Q2 : 0.0912533402443, Q3 : -0.120452485979, Q4 : 0.592467367649}
2019-04-14 14:18:58.41: SIM {TimeUS : 61235496, Roll : 0.13, Pitch : -17.38, Yaw : 73.54, Alt : 49.3100013733, Lat : 49.2836245, Lng : -123.1147421, Q1 : 0.791702449322, Q2 : 0.0914128348231, Q3 : -0.120343267918, Q4 : 0.59191930294}
2019-04-14 14:18:58.51: SIM {TimeUS : 61335456, Roll : 0.17, Pitch : -17.41, Yaw : 73.48, Alt : 49.3100013733, Lat : 49.2836257, Lng : -123.1147362, Q1 : 0.791960597038, Q2 : 0.0917779579759, Q3 : -0.120428882539, Q4 : 0.59149992466}
2019-04-14 14:18:58.61: SIM {TimeUS : 61435416, Roll : 0.19, Pitch : -17.47, Yaw : 73.44, Alt : 49.3100013733, Lat : 49.2836268, Lng : -123.1147302, Q1 : 0.792080760002, Q2 : 0.0922072082758, Q3 : -0.120734319091, Q4 : 0.591209888458}
2019-04-14 14:18:58.71: SIM {TimeUS : 61535376, Roll : 0.2, Pitch : -17.5, Yaw : 73.42, Alt : 49.3100013733, Lat : 49.283628, Lng : -123.1147242, Q1 : 0.792129218578, Q2 : 0.0924029350281, Q3 : -0.120944909751, Q4 : 0.591071367264}
2019-04-14 14:18:58.81: SIM {TimeUS : 61635336, Roll : 0.2, Pitch : -17.51, Yaw : 73.42, Alt : 49.3199996948, Lat : 49.2836291, Lng : -123.1147182, Q1 : 0.792122125626, Q2 : 0.0924090147018, Q3 : -0.121022701263, Q4 : 0.591064035892}
2019-04-14 14:18:58.91: SIM {TimeUS : 61735296, Roll : 0.17, Pitch : -17.52, Yaw : 73.43, Alt : 49.3199996948, Lat : 49.2836303, Lng : -123.1147122, Q1 : 0.792070746422, Q2 : 0.0922967195511, Q3 : -0.121211409569, Q4 : 0.591111719608}
2019-04-14 14:18:59.01: SIM {TimeUS : 61835256, Roll : 0.13, Pitch : -17.54, Yaw : 73.45, Alt : 49.3199996948, Lat : 49.2836314, Lng : -123.1147062, Q1 : 0.791982591152, Q2 : 0.0921312496066, Q3 : -0.121576458216, Q4 : 0.591180682182}
2019-04-14 14:18:59.11: SIM {TimeUS : 61935216, Roll : 0.09, Pitch : -17.57, Yaw : 73.47, Alt : 49.3199996948, Lat : 49.2836324, Lng : -123.1147002, Q1 : 0.791883647442, Q2 : 0.0920146107674, Q3 : -0.121913582087, Q4 : 0.591261923313}
2019-04-14 14:18:59.21: SIM {TimeUS : 62035176, Roll : 0.06, Pitch : -17.59, Yaw : 73.49, Alt : 49.3199996948, Lat : 49.2836336, Lng : -123.1146941, Q1 : 0.791787803173, Q2 : 0.0919649526477, Q3 : -0.12221711129, Q4 : 0.591335356236}
2019-04-14 14:18:59.31: SIM {TimeUS : 62135136, Roll : 0.05, Pitch : -17.61, Yaw : 73.51, Alt : 49.3199996948, Lat : 49.2836347, Lng : -123.114688, Q1 : 0.791717588902, Q2 : 0.0919537991285, Q3 : -0.122382842004, Q4 : 0.591396868229}
2019-04-14 14:18:59.41: SIM {TimeUS : 62235096, Roll : 0.04, Pitch : -17.62, Yaw : 73.51, Alt : 49.3199996948, Lat : 49.2836359, Lng : -123.1146819, Q1 : 0.791684091091, Q2 : 0.0919938981533, Q3 : -0.122505009174, Q4 : 0.591410219669}
2019-04-14 14:18:59.51: SIM {TimeUS : 62335056, Roll : 0.06, Pitch : -17.63, Yaw : 73.51, Alt : 49.3199996948, Lat : 49.2836371, Lng : -123.1146758, Q1 : 0.791683554649, Q2 : 0.0921405181289, Q3 : -0.122495912015, Q4 : 0.591389894485}
2019-04-14 14:18:59.61: SIM {TimeUS : 62435016, Roll : 0.09, Pitch : -17.65, Yaw : 73.49, Alt : 49.3199996948, Lat : 49.2836383, Lng : -123.1146697, Q1 : 0.791693091393, Q2 : 0.0924467742443, Q3 : -0.122472442687, Q4 : 0.591334223747}
2019-04-14 14:18:59.71: SIM {TimeUS : 62534976, Roll : 0.12, Pitch : -17.67, Yaw : 73.48, Alt : 49.3199996948, Lat : 49.2836395, Lng : -123.1146636, Q1 : 0.791731238365, Q2 : 0.0927736312151, Q3 : -0.122468844056, Q4 : 0.591232717037}
2019-04-14 14:18:59.81: SIM {TimeUS : 62634936, Roll : 0.13, Pitch : -17.7, Yaw : 73.45, Alt : 49.3199996948, Lat : 49.2836406, Lng : -123.1146575, Q1 : 0.791809976101, Q2 : 0.0929663777351, Q3 : -0.122686959803, Q4 : 0.591051697731}
2019-04-14 14:18:59.91: SIM {TimeUS : 62734896, Roll : 0.12, Pitch : -17.75, Yaw : 73.43, Alt : 49.3199996948, Lat : 49.2836418, Lng : -123.1146513, Q1 : 0.791903018951, Q2 : 0.0931314304471, Q3 : -0.123075671494, Q4 : 0.590820252895}
2019-04-14 14:19:00.01: SIM {TimeUS : 62834856, Roll : 0.1, Pitch : -17.8, Yaw : 73.4, Alt : 49.3199996948, Lat : 49.283643, Lng : -123.1146452, Q1 : 0.792001485825, Q2 : 0.093256957829, Q3 : -0.123519964516, Q4 : 0.590575695038}
2019-04-14 14:19:00.11: SIM {TimeUS : 62934816, Roll : 0.11, Pitch : -17.84, Yaw : 73.37, Alt : 49.3199996948, Lat : 49.283644, Lng : -123.114639, Q1 : 0.792106509209, Q2 : 0.0934144854546, Q3 : -0.123776182532, Q4 : 0.590356230736}
2019-04-14 14:19:00.21: SIM {TimeUS : 63034776, Roll : 0.12, Pitch : -17.84, Yaw : 73.34, Alt : 49.3199996948, Lat : 49.2836452, Lng : -123.1146328, Q1 : 0.792235076427, Q2 : 0.0935124084353, Q3 : -0.123724974692, Q4 : 0.590178966522}
2019-04-14 14:19:00.31: SIM {TimeUS : 63135569, Roll : 0.15, Pitch : -17.8, Yaw : 73.32, Alt : 49.3199996948, Lat : 49.2836464, Lng : -123.1146265, Q1 : 0.79239243269, Q2 : 0.0934485048056, Q3 : -0.123379461467, Q4 : 0.590050160885}
2019-04-14 14:19:00.41: SIM {TimeUS : 63235529, Roll : 0.15, Pitch : -17.77, Yaw : 73.3, Alt : 49.3199996948, Lat : 49.2836476, Lng : -123.1146203, Q1 : 0.792528152466, Q2 : 0.0933000594378, Q3 : -0.12315531075, Q4 : 0.589938163757}
2019-04-14 14:19:00.51: SIM {TimeUS : 63335489, Roll : 0.15, Pitch : -17.75, Yaw : 73.28, Alt : 49.3300018311, Lat : 49.2836487, Lng : -123.1146141, Q1 : 0.792636036873, Q2 : 0.0931693837047, Q3 : -0.123046174645, Q4 : 0.589836657047}
2019-04-14 14:19:00.61: SIM {TimeUS : 63435449, Roll : 0.14, Pitch : -17.75, Yaw : 73.27, Alt : 49.3300018311, Lat : 49.2836499, Lng : -123.1146077, Q1 : 0.792698800564, Q2 : 0.0931259691715, Q3 : -0.123067706823, Q4 : 0.589754700661}
2019-04-14 14:19:00.71: SIM {TimeUS : 63535409, Roll : 0.14, Pitch : -17.77, Yaw : 73.26, Alt : 49.3300018311, Lat : 49.2836511, Lng : -123.1146016, Q1 : 0.792722761631, Q2 : 0.0931899249554, Q3 : -0.123252689838, Q4 : 0.589673697948}
2019-04-14 14:19:00.81: SIM {TimeUS : 63635369, Roll : 0.15, Pitch : -17.8, Yaw : 73.25, Alt : 49.3300018311, Lat : 49.2836524, Lng : -123.1145953, Q1 : 0.792719900608, Q2 : 0.0934091359377, Q3 : -0.123423144221, Q4 : 0.58960723877}
2019-04-14 14:19:00.91: SIM {TimeUS : 63735329, Roll : 0.15, Pitch : -17.85, Yaw : 73.25, Alt : 49.3300018311, Lat : 49.2836536, Lng : -123.1145891, Q1 : 0.792709708214, Q2 : 0.0936031267047, Q3 : -0.123750403523, Q4 : 0.58952152729}
2019-04-14 14:19:01.01: SIM {TimeUS : 63835289, Roll : 0.14, Pitch : -17.9, Yaw : 73.24, Alt : 49.3300018311, Lat : 49.2836548, Lng : -123.1145828, Q1 : 0.792695939541, Q2 : 0.0937881395221, Q3 : -0.124143473804, Q4 : 0.589428007603}
2019-04-14 14:19:01.11: SIM {TimeUS : 63935249, Roll : 0.13, Pitch : -17.93, Yaw : 73.23, Alt : 49.3300018311, Lat : 49.283656, Lng : -123.1145765, Q1 : 0.792701542377, Q2 : 0.0938887968659, Q3 : -0.12440226227, Q4 : 0.589349925518}
2019-04-14 14:19:01.21: SIM {TimeUS : 64035209, Roll : 0.12, Pitch : -17.95, Yaw : 73.22, Alt : 49.3300018311, Lat : 49.2836571, Lng : -123.1145702, Q1 : 0.792730629444, Q2 : 0.0939117595553, Q3 : -0.124644853175, Q4 : 0.589255869389}
2019-04-14 14:19:01.31: SIM {TimeUS : 64135169, Roll : 0.1, Pitch : -17.97, Yaw : 73.21, Alt : 49.3300018311, Lat : 49.2836583, Lng : -123.1145639, Q1 : 0.792777001858, Q2 : 0.0938803777099, Q3 : -0.124838344753, Q4 : 0.589157521725}
2019-04-14 14:19:01.41: SIM {TimeUS : 64235129, Roll : 0.11, Pitch : -17.96, Yaw : 73.2, Alt : 49.3300018311, Lat : 49.2836595, Lng : -123.1145576, Q1 : 0.792837977409, Q2 : 0.0939063876867, Q3 : -0.124777026474, Q4 : 0.589084208012}
2019-04-14 14:19:01.51: SIM {TimeUS : 64335089, Roll : 0.13, Pitch : -17.97, Yaw : 73.19, Alt : 49.3300018311, Lat : 49.2836607, Lng : -123.1145512, Q1 : 0.792896211147, Q2 : 0.0940832197666, Q3 : -0.124687448144, Q4 : 0.588996589184}
2019-04-14 14:19:01.61: SIM {TimeUS : 64435049, Roll : 0.15, Pitch : -17.98, Yaw : 73.17, Alt : 49.3300018311, Lat : 49.2836619, Lng : -123.114545, Q1 : 0.792957901955, Q2 : 0.0942316800356, Q3 : -0.124747626483, Q4 : 0.588877081871}
2019-04-14 14:19:01.71: SIM {TimeUS : 64535009, Roll : 0.16, Pitch : -17.99, Yaw : 73.15, Alt : 49.3300018311, Lat : 49.2836632, Lng : -123.1145387, Q1 : 0.793028175831, Q2 : 0.0943334028125, Q3 : -0.124734871089, Q4 : 0.588768780231}
2019-04-14 14:19:01.81: SIM {TimeUS : 64634969, Roll : 0.17, Pitch : -17.99, Yaw : 73.14, Alt : 49.3300018311, Lat : 49.2836644, Lng : -123.1145323, Q1 : 0.793105602264, Q2 : 0.0943685919046, Q3 : -0.124676935375, Q4 : 0.588671207428}
2019-04-14 14:19:01.91: SIM {TimeUS : 64734929, Roll : 0.17, Pitch : -17.98, Yaw : 73.12, Alt : 49.3300018311, Lat : 49.2836656, Lng : -123.114526, Q1 : 0.793183982372, Q2 : 0.0943623632193, Q3 : -0.124636605382, Q4 : 0.588575124741}
2019-04-14 14:19:02.01: SIM {TimeUS : 64834889, Roll : 0.16, Pitch : -18.0, Yaw : 73.11, Alt : 49.3400001526, Lat : 49.2836668, Lng : -123.1145196, Q1 : 0.793244183064, Q2 : 0.0943451225758, Q3 : -0.124831020832, Q4 : 0.588455557823}
2019-04-14 14:19:02.11: SIM {TimeUS : 64934849, Roll : 0.14, Pitch : -18.04, Yaw : 73.1, Alt : 49.3400001526, Lat : 49.283668, Lng : -123.1145133, Q1 : 0.793278574944, Q2 : 0.0943825542927, Q3 : -0.125199139118, Q4 : 0.588324904442}
2019-04-14 14:19:02.21: SIM {TimeUS : 65034809, Roll : 0.13, Pitch : -18.04, Yaw : 73.09, Alt : 49.3400001526, Lat : 49.2836692, Lng : -123.1145069, Q1 : 0.793331742287, Q2 : 0.094301879406, Q3 : -0.125345498323, Q4 : 0.588235020638}
2019-04-14 14:19:02.32: SIM {TimeUS : 65135602, Roll : 0.14, Pitch : -18.03, Yaw : 73.08, Alt : 49.3400001526, Lat : 49.2836704, Lng : -123.1145005, Q1 : 0.793386161327, Q2 : 0.0942857861519, Q3 : -0.125173643231, Q4 : 0.588200747967}
2019-04-14 14:19:02.41: SIM {TimeUS : 65235562, Roll : 0.16, Pitch : -18.01, Yaw : 73.07, Alt : 49.3400001526, Lat : 49.2836717, Lng : -123.114494, Q1 : 0.793427944183, Q2 : 0.0943422317505, Q3 : -0.124995067716, Q4 : 0.588173389435}
2019-04-14 14:19:02.51: SIM {TimeUS : 65335522, Roll : 0.16, Pitch : -18.01, Yaw : 73.06, Alt : 49.3400001526, Lat : 49.2836729, Lng : -123.1144877, Q1 : 0.7934653759, Q2 : 0.0943856015801, Q3 : -0.124975383282, Q4 : 0.588120102882}
2019-04-14 14:19:02.61: SIM {TimeUS : 65435482, Roll : 0.15, Pitch : -18.03, Yaw : 73.05, Alt : 49.3400001526, Lat : 49.2836741, Lng : -123.1144813, Q1 : 0.793500602245, Q2 : 0.0943655446172, Q3 : -0.125156030059, Q4 : 0.588037371635}
2019-04-14 14:19:02.71: SIM {TimeUS : 65535442, Roll : 0.12, Pitch : -18.05, Yaw : 73.05, Alt : 49.3400001526, Lat : 49.2836753, Lng : -123.114475, Q1 : 0.793535292149, Q2 : 0.094283208251, Q3 : -0.125462368131, Q4 : 0.587938427925}
2019-04-14 14:19:02.81: SIM {TimeUS : 65635402, Roll : 0.11, Pitch : -18.08, Yaw : 73.04, Alt : 49.3400001526, Lat : 49.2836765, Lng : -123.1144686, Q1 : 0.793560564518, Q2 : 0.0943212658167, Q3 : -0.125704869628, Q4 : 0.587846457958}
2019-04-14 14:19:02.91: SIM {TimeUS : 65735362, Roll : 0.12, Pitch : -18.1, Yaw : 73.03, Alt : 49.3400001526, Lat : 49.2836778, Lng : -123.1144622, Q1 : 0.793577611446, Q2 : 0.094475351274, Q3 : -0.125860229135, Q4 : 0.587765455246}
2019-04-14 14:19:03.01: SIM {TimeUS : 65835322, Roll : 0.13, Pitch : -18.12, Yaw : 73.02, Alt : 49.3400001526, Lat : 49.283679, Lng : -123.1144557, Q1 : 0.793596327305, Q2 : 0.0946447774768, Q3 : -0.125901803374, Q4 : 0.587704002857}
2019-04-14 14:19:03.11: SIM {TimeUS : 65935282, Roll : 0.15, Pitch : -18.13, Yaw : 73.01, Alt : 49.3400001526, Lat : 49.2836802, Lng : -123.1144493, Q1 : 0.793617367744, Q2 : 0.0948366597295, Q3 : -0.125838920474, Q4 : 0.587658047676}
2019-04-14 14:19:03.21: SIM {TimeUS : 66035242, Roll : 0.17, Pitch : -18.14, Yaw : 73.0, Alt : 49.3400001526, Lat : 49.2836814, Lng : -123.1144429, Q1 : 0.793636798859, Q2 : 0.0950086563826, Q3 : -0.12584502995, Q4 : 0.58760279417}
