2019-04-14 12:53:22.30: SIM {TimeUS : 40316367, Roll : 0.0, Pitch : 0.0, Yaw : 0.0, Alt : 30.1000003815, Lat : 49.28357, Lng : -123.11502, Q1 : 1.0, Q2 : 0.0, Q3 : 0.0, Q4 : 0.0}
2019-04-14 12:53:22.41: SIM {TimeUS : 40435486, Roll : 0.0, Pitch : 0.0, Yaw : 0.0, Alt : 30.1000003815, Lat : 49.28357, Lng : -123.11502, Q1 : 1.0, Q2 : 0.0, Q3 : 0.0, Q4 : 0.0}
2019-04-14 12:53:22.51: SIM {TimeUS : 40535446, Roll : 0.0, Pitch : 0.0, Yaw : 0.0, Alt : 30.1000003815, Lat : 49.28357, Lng : -123.11502, Q1 : 1.0, Q2 : 0.0, Q3 : 0.0, Q4 : 0.0}
2019-04-14 12:53:22.61: SIM {TimeUS : 40635406, Roll : 0.0, Pitch : 0.0, Yaw : 0.0, Alt : 30.1000003815, Lat : 49.28357, Lng : -123.11502, Q1 : 1.0, Q2 : 0.0, Q3 : 0.0, Q4 : 0.0}
2019-04-14 12:53:22.71: SIM {TimeUS : 40735366, Roll : 0.0, Pitch : 0.0, Yaw : 0.0, Alt : 30.1000003815, Lat : 49.28357, Lng : -123.11502, Q1 : 1.0, Q2 : 0.0, Q3 : 0.0, Q4 : 0.0}
2019-04-14 12:53:22.81: SIM {TimeUS : 40835326, Roll : 0.0, Pitch : 0.0, Yaw : 0.0, Alt : 30.1000003815, Lat : 49.28357, Lng : -123.11502, Q1 : 1.0, Q2 : 0.0, Q3 : 0.0, Q4 : 0.0}
2019-04-14 12:53:22.91: SIM {TimeUS : 40935286, Roll : 0.0, Pitch : 0.0, Yaw : 0.0, Alt : 30.1000003815, Lat : 49.28357, Lng : -123.11502, Q1 : 1.0, Q2 : 0.0, Q3 : 0.0, Q4 : 0.0}
2019-04-14 12:53:23.01: SIM {TimeUS : 41035246, Roll : 0.0, Pitch : 0.0, Yaw : 0.0, Alt : 30.1000003815, Lat : 49.28357, Lng : -123.11502, Q1 : 1.0, Q2 : 0.0, Q3 : 0.0, Q4 : 0.0}
2019-04-14 12:53:23.11: SIM {TimeUS : 41135206, Roll : 0.0, Pitch : 0.0, Yaw : 0.0, Alt : 30.1000003815, Lat : 49.28357, Lng : -123.11502, Q1 : 1.0, Q2 : 0.0, Q3 : 0.0, Q4 : 0.0}
2019-04-14 12:53:23.21: SIM {TimeUS : 41235166, Roll : 0.0, Pitch : 0.0, Yaw : 0.0, Alt : 30.1000003815, Lat : 49.28357, Lng : -123.11502, Q1 : 1.0, Q2 : 0.0, Q3 : 0.0, Q4 : 0.0}
2019-04-14 12:53:23.31: SIM {TimeUS : 41335126, Roll : 0.0, Pitch : 0.0, Yaw : 0.0, Alt : 30.1000003815, Lat : 49.28357, Lng : -123.11502, Q1 : 1.0, Q2 : 0.0, Q3 : 0.0, Q4 : 0.0}
2019-04-14 12:53:23.41: SIM {TimeUS : 41435086, Roll : 0.0, Pitch : 0.0, Yaw : 0.0, Alt : 30.1000003815, Lat : 49.28357, Lng : -123.11502, Q1 : 1.0, Q2 : 0.0, Q3 : 0.0, Q4 : 0.0}
2019-04-14 12:53:23.51: SIM {TimeUS : 41535046, Roll : 0.0, Pitch : 0.0, Yaw : 0.0, Alt : 30.1000003815, Lat : 49.28357, Lng : -123.11502, Q1 : 1.0, Q2 : 0.0, Q3 : 0.0, Q4 : 0.0}
2019-04-14 12:53:23.61: SIM {TimeUS : 41635006, Roll : 0.0, Pitch : 0.0, Yaw : 0.0, Alt : 30.1000003815, Lat : 49.28357, Lng : -123.11502, Q1 : 1.0, Q2 : 0.0, Q3 : 0.0, Q4 : 0.0}
2019-04-14 12:53:23.71: SIM {TimeUS : 41734966, Roll : 0.0, Pitch : 0.0, Yaw : 0.0, Alt : 30.1000003815, Lat : 49.28357, Lng : -123.11502, Q1 : 1.0, Q2 : 0.0, Q3 : 0.0, Q4 : 0.0}
2019-04-14 12:53:23.81: SIM {TimeUS : 41834926, Roll : 0.0, Pitch : 0.0, Yaw : 0.0, Alt : 30.1000003815, Lat : 49.28357, Lng : -123.11502, Q1 : 1.0, Q2 : 0.0, Q3 : 0.0, Q4 : 0.0}
2019-04-14 12:53:23.91: SIM {TimeUS : 41934886, Roll : 0.0, Pitch : 0.0, Yaw : 0.0, Alt : 30.1000003815, Lat : 49.28357, Lng : -123.11502, Q1 : 1.0, Q2 : 0.0, Q3 : 0.0, Q4 : 0.0}
2019-04-14 12:53:24.01: SIM {TimeUS : 42034846, Roll : 0.0, Pitch : 0.0, Yaw : 0.0, Alt : 30.1000003815, Lat : 49.28357, Lng : -123.11502, Q1 : 1.0, Q2 : 0.0, Q3 : 0.0, Q4 : 0.0}
2019-04-14 12:53:24.11: SIM {TimeUS : 42134806, Roll : 0.0, Pitch : 0.0, Yaw : 0.0, Alt : 30.1000003815, Lat : 49.28357, Lng : -123.11502, Q1 : 1.0, Q2 : 0.0, Q3 : 0.0, Q4 : 0.0}
2019-04-14 12:53:24.21: SIM {TimeUS : 42234766, Roll : 0.0, Pitch : 0.0, Yaw : 0.0, Alt : 30.1000003815, Lat : 49.28357, Lng : -123.11502, Q1 : 1.0, Q2 : 0.0, Q3 : 0.0, Q4 : 0.0}
2019-04-14 12:53:24.31: SIM {TimeUS : 42334726, Roll : 0.0, Pitch : 0.0, Yaw : 0.0, Alt : 30.1000003815, Lat : 49.28357, Lng : -123.11502, Q1 : 1.0, Q2 : 0.0, Q3 : 0.0, Q4 : 0.0}
2019-04-14 12:53:24.42: SIM {TimeUS : 42435519, Roll : 0.0, Pitch : 0.0, Yaw : 0.0, Alt : 30.1000003815, Lat : 49.28357, Lng : -123.11502, Q1 : 1.0, Q2 : 0.0, Q3 : 0.0, Q4 : 0.0}
2019-04-14 12:53:24.51: SIM {TimeUS : 42535479, Roll : 0.0, Pitch : 0.0, Yaw : 0.0, Alt : 30.1000003815, Lat : 49.28357, Lng : -123.11502, Q1 : 1.0, Q2 : 0.0, Q3 : 0.0, Q4 : 0.0}
2019-04-14 12:53:24.61: SIM {TimeUS : 42635439, Roll : 0.0, Pitch : 0.0, Yaw : 0.0, Alt : 30.1000003815, Lat : 49.28357, Lng : -123.11502, Q1 : 1.0, Q2 : 0.0, Q3 : 0.0, Q4 : 8.72913286792e-12}
2019-04-14 12:53:24.71: SIM {TimeUS : 42735399, Roll : 0.0, Pitch : 0.0, Yaw : 0.0, Alt : 30.1000003815, Lat : 49.28357, Lng : -123.11502, Q1 : 1.0, Q2 : 0.0, Q3 : 0.0, Q4 : 2.80113182649e-10}
2019-04-14 12:53:24.81: SIM {TimeUS : 42835359, Roll : 0.0, Pitch : 0.0, Yaw : 360.0, Alt : 30.1000003815, Lat : 49.28357, Lng : -123.11502, Q1 : 1.0, Q2 : 0.0, Q3 : 0.0, Q4 : -1.44344426189e-07}
2019-04-14 12:53:24.91: SIM {TimeUS : 42935319, Roll : 0.0, Pitch : 0.0, Yaw : 359.99, Alt : 30.1000003815, Lat : 49.28357, Lng : -123.11502, Q1 : 1.0, Q2 : 0.0, Q3 : 0.0, Q4 : -3.46942243823e-07}
2019-04-14 12:53:25.01: SIM {TimeUS : 43035279, Roll : 0.0, Pitch : 0.0, Yaw : 359.99, Alt : 30.1000003815, Lat : 49.28357, Lng : -123.11502, Q1 : 1.0, Q2 : 0.0, Q3 : 0.0, Q4 : -5.51277366867e-07}
2019-04-14 12:53:25.11: SIM {TimeUS : 43135239, Roll : 0.0, Pitch : 0.0, Yaw : 359.99, Alt : 30.1000003815, Lat : 49.28357, Lng : -123.11502, Q1 : 1.0, Q2 : 0.0, Q3 : 0.0, Q4 : -7.84804853993e-07}
2019-04-14 12:53:25.21: SIM {TimeUS : 43235199, Roll : 0.0, Pitch : 0.0, Yaw : 359.99, Alt : 30.1000003815, Lat : 49.28357, Lng : -123.11502, Q1 : 1.0, Q2 : 0.0, Q3 : 0.0, Q4 : -9.61660589383e-07}
2019-04-14 12:53:25.31: SIM {TimeUS : 43335159, Roll : 0.0, Pitch : 0.0, Yaw : 359.99, Alt : 30.1000003815, Lat : 49.28357, Lng : -123.11502, Q1 : 1.0, Q2 : 0.0, Q3 : 0.0, Q4 : -1.14583053801e-06}
2019-04-14 12:53:25.41: SIM {TimeUS : 43435119, Roll : 0.0, Pitch : 0.0, Yaw : 359.99, Alt : 30.1000003815, Lat : 49.28357, Lng : -123.11502, Q1 : 1.0, Q2 : 0.0, Q3 : 0.0, Q4 : -1.36623623348e-06}
2019-04-14 12:53:25.51: SIM {TimeUS : 43535079, Roll : 0.0, Pitch : 0.0, Yaw : 359.99, Alt : 30.1200008392, Lat : 49.28357, Lng : -123.11502, Q1 : 1.0, Q2 : 0.0, Q3 : 0.0, Q4 : -1.58869772804e-06}
2019-04-14 12:53:25.61: SIM {TimeUS : 43635039, Roll : 0.0, Pitch : 0.0, Yaw : 359.99, Alt : 30.1399993896, Lat : 49.28357, Lng : -123.11502, Q1 : 1.0, Q2 : 0.0, Q3 : 0.0, Q4 : -1.82320513886e-06}
2019-04-14 12:53:25.71: SIM {TimeUS : 43734999, Roll : 0.0, Pitch : 0.0, Yaw : 359.99, Alt : 30.1700000763, Lat : 49.28357, Lng : -123.11502, Q1 : 1.0, Q2 : 0.0, Q3 : 0.0, Q4 : -2.00191516342e-06}
2019-04-14 12:53:25.81: SIM {TimeUS : 43834959, Roll : 0.0, Pitch : 0.0, Yaw : 359.99, Alt : 30.2000007629, Lat : 49.28357, Lng : -123.11502, Q1 : 1.0, Q2 : 0.0, Q3 : 0.0, Q4 : -2.22606104217e-06}
2019-04-14 12:53:25.91: SIM {TimeUS : 43934919, Roll : -0.1, Pitch : -0.09, Yaw : 359.99, Alt : 30.25, Lat : 49.28357, Lng : -123.11502, Q1 : 0.999999284744, Q2 : -0.000874290126376, Q3 : -0.000817453721538, Q4 : -9.54933784669e-06}
2019-04-14 12:53:26.01: SIM {TimeUS : 44034879, Roll : -0.38, Pitch : -0.35, Yaw : 359.99, Alt : 30.3500003815, Lat : 49.28357, Lng : -123.11502, Q1 : 0.999989449978, Q2 : -0.00338378944434, Q3 : -0.00310611608438, Q4 : -4.0351987991e-05}
2019-04-14 12:53:26.11: SIM {TimeUS : 44134839, Roll : -0.67, Pitch : -0.6, Yaw : 359.99, Alt : 30.4899997711, Lat : 49.28357, Lng : -123.11502, Q1 : 0.999968528748, Q2 : -0.00588901061565, Q3 : -0.00531853036955, Q4 : -9.61408804869e-05}
2019-04-14 12:53:26.21: SIM {TimeUS : 44234799, Roll : -0.84, Pitch : -0.74, Yaw : 359.98, Alt : 30.6499996185, Lat : 49.28357, Lng : -123.11502, Q1 : 0.999951899052, Q2 : -0.00736651755869, Q3 : -0.00647579180077, Q4 : -0.000168890604982}
2019-04-14 12:53:26.31: SIM {TimeUS : 44334759, Roll : -0.84, Pitch : -0.73, Yaw : 359.97, Alt : 30.8099994659, Lat : 49.28357, Lng : -123.11502, Q1 : 0.99995213747, Q2 : -0.00741612166166, Q3 : -0.00637437356636, Q4 : -0.000251007295446}
2019-04-14 12:53:26.41: SIM {TimeUS : 44434719, Roll : -0.7, Pitch : -0.62, Yaw : 359.96, Alt : 30.9599990845, Lat : 49.28357, Lng : -123.1150201, Q1 : 0.999966561794, Q2 : -0.0061159604229, Q3 : -0.00541858328506, Q4 : -0.000332481780788}
2019-04-14 12:53:26.52: SIM {TimeUS : 44535512, Roll : -0.47, Pitch : -0.44, Yaw : 359.95, Alt : 31.1200008392, Lat : 49.2835701, Lng : -123.1150202, Q1 : 0.999984025955, Q2 : -0.00412124907598, Q3 : -0.00383853097446, Q4 : -0.00040744926082}
2019-04-14 12:53:26.61: SIM {TimeUS : 44635472, Roll : -0.25, Pitch : -0.23, Yaw : 359.94, Alt : 31.2800006866, Lat : 49.2835701, Lng : -123.1150203, Q1 : 0.999995231628, Q2 : -0.00222209747881, Q3 : -0.00208877096884, Q4 : -0.00046708525042}
2019-04-14 12:53:26.71: SIM {TimeUS : 44735432, Roll : -0.08, Pitch : -0.07, Yaw : 359.94, Alt : 31.4400005341, Lat : 49.2835702, Lng : -123.1150203, Q1 : 0.999999403954, Q2 : -0.000706264283508, Q3 : -0.000669489789288, Q4 : -0.000512135506142}
2019-04-14 12:53:26.81: SIM {TimeUS : 44835392, Roll : 0.02, Pitch : 0.02, Yaw : 359.93, Alt : 31.6100006104, Lat : 49.2835702, Lng : -123.1150204, Q1 : 0.999999821186, Q2 : 0.000246351846727, Q3 : 0.000189832571778, Q4 : -0.00054686848307}
2019-04-14 12:53:26.91: SIM {TimeUS : 44935352, Roll : 0.07, Pitch : 0.05, Yaw : 359.93, Alt : 31.7900009155, Lat : 49.2835703, Lng : -123.1150205, Q1 : 0.999999463558, Q2 : 0.000680155702867, Q3 : 0.000522927904967, Q4 : -0.000565852795262}
2019-04-14 12:53:27.01: SIM {TimeUS : 45035312, Roll : 0.09, Pitch : 0.05, Yaw : 359.93, Alt : 31.9799995422, Lat : 49.2835703, Lng : -123.1150206, Q1 : 0.999999344349, Q2 : 0.000849510601256, Q3 : 0.000485270196805, Q4 : -0.000568512885366}
2019-04-14 12:53:27.11: SIM {TimeUS : 45135272, Roll : 0.09, Pitch : 0.03, Yaw : 359.93, Alt : 32.1599998474, Lat : 49.2835703, Lng : -123.1150206, Q1 : 0.999999403954, Q2 : 0.000870046380442, Q3 : 0.000333217874868, Q4 : -0.00056340941228}
2019-04-14 12:53:27.21: SIM {TimeUS : 45235232, Roll : 0.09, Pitch : 0.03, Yaw : 359.93, Alt : 32.3499984741, Lat : 49.2835703, Lng : -123.1150207, Q1 : 0.999999463558, Q2 : 0.000820219866, Q3 : 0.000326257199049, Q4 : -0.000543837144505}
2019-04-14 12:53:27.31: SIM {TimeUS : 45335192, Roll : 0.08, Pitch : 0.06, Yaw : 359.94, Alt : 32.5400009155, Lat : 49.2835703, Lng : -123.1150207, Q1 : 0.999999403954, Q2 : 0.000753295607865, Q3 : 0.000574901641812, Q4 : -0.000515405205078}
2019-04-14 12:53:27.41: SIM {TimeUS : 45435152, Roll : 0.07, Pitch : 0.09, Yaw : 359.94, Alt : 32.7400016785, Lat : 49.2835703, Lng : -123.1150208, Q1 : 0.999999284744, Q2 : 0.000694495392963, Q3 : 0.000864827248733, Q4 : -0.0004838599707}
2019-04-14 12:53:27.51: SIM {TimeUS : 45535112, Roll : 0.1, Pitch : 0.14, Yaw : 359.94, Alt : 32.9399986267, Lat : 49.2835704, Lng : -123.1150208, Q1 : 0.999998688698, Q2 : 0.000889286107849, Q3 : 0.0012577783782, Q4 : -0.00046246862621}
2019-04-14 12:53:27.61: SIM {TimeUS : 45635072, Roll : 0.13, Pitch : 0.17, Yaw : 359.94, Alt : 33.1399993896, Lat : 49.2835704, Lng : -123.1150208, Q1 : 0.999998033047, Q2 : 0.00118731637485, Q3 : 0.00153514405247, Q4 : -0.000448768085334}
2019-04-14 12:53:27.71: SIM {TimeUS : 45735032, Roll : 0.15, Pitch : 0.18, Yaw : 359.94, Alt : 33.3400001526, Lat : 49.2835704, Lng : -123.1150208, Q1 : 0.999997615814, Q2 : 0.00137246761005, Q3 : 0.00164757715538, Q4 : -0.000457299116533}
2019-04-14 12:53:27.81: SIM {TimeUS : 45834992, Roll : 0.16, Pitch : 0.19, Yaw : 359.94, Alt : 33.5499992371, Lat : 49.2835704, Lng : -123.1150209, Q1 : 0.999997377396, Q2 : 0.00141442974564, Q3 : 0.0017247229116, Q4 : -0.000470879458589}
2019-04-14 12:53:27.91: SIM {TimeUS : 45934952, Roll : 0.15, Pitch : 0.16, Yaw : 359.94, Alt : 33.75, Lat : 49.2835704, Lng : -123.1150209, Q1 : 0.999997854233, Q2 : 0.00138598971535, Q3 : 0.00146184198093, Q4 : -0.000504040333908}
2019-04-14 12:53:28.01: SIM {TimeUS : 46034912, Roll : 0.14, Pitch : 0.12, Yaw : 359.93, Alt : 33.9599990845, Lat : 49.2835704, Lng : -123.1150209, Q1 : 0.999998390675, Q2 : 0.00130412005819, Q3 : 0.00113110709935, Q4 : -0.000540126406122}
2019-04-14 12:53:28.11: SIM {TimeUS : 46134872, Roll : 0.13, Pitch : 0.1, Yaw : 359.93, Alt : 34.1699981689, Lat : 49.2835704, Lng : -123.1150209, Q1 : 0.999998807907, Q2 : 0.001139924163, Q3 : 0.000911706767511, Q4 : -0.000573913450353}
2019-04-14 12:53:28.21: SIM {TimeUS : 46234832, Roll : 0.11, Pitch : 0.09, Yaw : 359.93, Alt : 34.3899993896, Lat : 49.2835706, Lng : -123.1150209, Q1 : 0.999998986721, Q2 : 0.00103930965997, Q3 : 0.000796673120931, Q4 : -0.000603407563176}
2019-04-14 12:53:28.31: SIM {TimeUS : 46334792, Roll : 0.11, Pitch : 0.08, Yaw : 359.92, Alt : 34.5999984741, Lat : 49.2835706, Lng : -123.1150209, Q1 : 0.999998986721, Q2 : 0.00103015464265, Q3 : 0.000780510948971, Q4 : -0.000633549585473}
2019-04-14 12:53:28.41: SIM {TimeUS : 46434752, Roll : 0.1, Pitch : 0.07, Yaw : 359.92, Alt : 34.8100013733, Lat : 49.2835706, Lng : -123.1150209, Q1 : 0.999999165535, Q2 : 0.000946016109083, Q3 : 0.000641519727651, Q4 : -0.000654158939142}
2019-04-14 12:53:28.51: SIM {TimeUS : 46534712, Roll : 0.08, Pitch : 0.05, Yaw : 359.92, Alt : 35.0299987793, Lat : 49.2835704, Lng : -123.1150208, Q1 : 0.999999344349, Q2 : 0.000768120284192, Q3 : 0.000476620247355, Q4 : -0.000668197521009}
2019-04-14 12:53:28.62: SIM {TimeUS : 46635505, Roll : 0.06, Pitch : 0.04, Yaw : 359.92, Alt : 35.25, Lat : 49.2835704, Lng : -123.1150208, Q1 : 0.999999523163, Q2 : 0.000595674675424, Q3 : 0.000389523484046, Q4 : -0.000678638694808}
2019-04-14 12:53:28.71: SIM {TimeUS : 46735465, Roll : 0.04, Pitch : 0.04, Yaw : 359.92, Alt : 35.4599990845, Lat : 49.2835704, Lng : -123.1150208, Q1 : 0.999999582767, Q2 : 0.000429448205978, Q3 : 0.00037410002551, Q4 : -0.000686670071445}
2019-04-14 12:53:28.81: SIM {TimeUS : 46835425, Roll : 0.04, Pitch : 0.02, Yaw : 359.92, Alt : 35.6800003052, Lat : 49.2835704, Lng : -123.1150208, Q1 : 0.999999701977, Q2 : 0.0003627158585, Q3 : 0.000185155164218, Q4 : -0.000692025525495}
2019-04-14 12:53:28.91: SIM {TimeUS : 46935385, Roll : 0.03, Pitch : 0.0, Yaw : 359.92, Alt : 35.9000015259, Lat : 49.2835704, Lng : -123.1150208, Q1 : 0.999999701977, Q2 : 0.000312001386192, Q3 : 6.5107618866e-05, Q4 : -0.000698221381754}
2019-04-14 12:53:29.01: SIM {TimeUS : 47035345, Roll : 0.01, Pitch : 0.0, Yaw : 359.91, Alt : 36.1199989319, Lat : 49.2835704, Lng : -123.1150208, Q1 : 0.999999761581, Q2 : 0.000160507144756, Q3 : 2.79194282484e-05, Q4 : -0.000718515075278}
2019-04-14 12:53:29.11: SIM {TimeUS : 47135305, Roll : 0.01, Pitch : 0.0, Yaw : 359.91, Alt : 36.3400001526, Lat : 49.2835704, Lng : -123.1150207, Q1 : 0.999999701977, Q2 : 0.000103268321254, Q3 : 5.98680089752e-05, Q4 : -0.000742887787055}
2019-04-14 12:53:29.21: SIM {TimeUS : 47235265, Roll : 0.01, Pitch : 0.0, Yaw : 359.91, Alt : 36.5699996948, Lat : 49.2835704, Lng : -123.1150207, Q1 : 0.999999701977, Q2 : 0.000152576059918, Q3 : 6.63251776132e-05, Q4 : -0.000770028389525}
2019-04-14 12:53:29.31: SIM {TimeUS : 47335225, Roll : 0.0, Pitch : 0.0, Yaw : 359.9, Alt : 36.7900009155, Lat : 49.2835704, Lng : -123.1150207, Q1 : 0.999999701977, Q2 : 4.70245213364e-05, Q3 : -7.19766176189e-05, Q4 : -0.000797258515377}
2019-04-14 12:53:29.41: SIM {TimeUS : 47435185, Roll : -0.02, Pitch : -0.04, Yaw : 359.9, Alt : 37.0099983215, Lat : 49.2835704, Lng : -123.1150207, Q1 : 0.999999523163, Q2 : -0.000257524836343, Q3 : -0.000408285210142, Q4 : -0.000825757451821}
2019-04-14 12:53:29.51: SIM {TimeUS : 47535145, Roll : -0.07, Pitch : -0.08, Yaw : 359.9, Alt : 37.2400016785, Lat : 49.2835704, Lng : -123.1150207, Q1 : 0.999999165535, Q2 : -0.000646782806143, Q3 : -0.000721625750884, Q4 : -0.000853881705552}
2019-04-14 12:53:29.61: SIM {TimeUS : 47635105, Roll : -0.11, Pitch : -0.1, Yaw : 359.89, Alt : 37.4599990845, Lat : 49.2835704, Lng : -123.1150207, Q1 : 0.999998688698, Q2 : -0.000988851068541, Q3 : -0.000921428203583, Q4 : -0.000885907444172}
2019-04-14 12:53:29.71: SIM {TimeUS : 47735065, Roll : -0.13, Pitch : -0.11, Yaw : 359.89, Alt : 37.6899986267, Lat : 49.2835704, Lng : -123.1150207, Q1 : 0.999998450279, Q2 : -0.00114439602476, Q3 : -0.00100399844814, Q4 : -0.000918332138099}
2019-04-14 12:53:29.81: SIM {TimeUS : 47835025, Roll : -0.13, Pitch : -0.1, Yaw : 359.89, Alt : 37.9199981689, Lat : 49.2835704, Lng : -123.1150206, Q1 : 0.999998450279, Q2 : -0.00114507274702, Q3 : -0.00093996146461, Q4 : -0.000951595196966}
2019-04-14 12:53:29.91: SIM {TimeUS : 47934985, Roll : -0.11, Pitch : -0.07, Yaw : 359.88, Alt : 38.1399993896, Lat : 49.2835704, Lng : -123.1150206, Q1 : 0.999998867512, Q2 : -0.000967128376942, Q3 : -0.000648977642413, Q4 : -0.000980615383014}
2019-04-14 12:53:30.01: SIM {TimeUS : 48034945, Roll : -0.08, Pitch : -0.04, Yaw : 359.88, Alt : 38.3699989319, Lat : 49.2835704, Lng : -123.1150206, Q1 : 0.999999165535, Q2 : -0.000726782949641, Q3 : -0.000405871658586, Q4 : -0.00100733397994}
2019-04-14 12:53:30.11: SIM {TimeUS : 48134905, Roll : -0.06, Pitch : -0.03, Yaw : 359.88, Alt : 38.5999984741, Lat : 49.2835704, Lng : -123.1150206, Q1 : 0.99999922514, Q2 : -0.000601774896495, Q3 : -0.00031795760151, Q4 : -0.00103441148531}
2019-04-14 12:53:30.21: SIM {TimeUS : 48234865, Roll : -0.06, Pitch : -0.01, Yaw : 359.87, Alt : 38.8300018311, Lat : 49.2835704, Lng : -123.1150206, Q1 : 0.999999284744, Q2 : -0.000588218506891, Q3 : -0.000120426237117, Q4 : -0.00105191930197}
2019-04-14 12:53:30.31: SIM {TimeUS : 48334825, Roll : -0.08, Pitch : 0.01, Yaw : 359.87, Alt : 39.0600013733, Lat : 49.2835706, Lng : -123.1150206, Q1 : 0.999999165535, Q2 : -0.000737868074793, Q3 : 9.17676734389e-05, Q4 : -0.00106641161256}
2019-04-14 12:53:30.41: SIM {TimeUS : 48434785, Roll : -0.08, Pitch : 0.02, Yaw : 359.87, Alt : 39.2900009155, Lat : 49.2835706, Lng : -123.1150206, Q1 : 0.99999910593, Q2 : -0.000747530895751, Q3 : 0.000225106748985, Q4 : -0.00107714626938}
2019-04-14 12:53:30.51: SIM {TimeUS : 48534745, Roll : -0.06, Pitch : 0.04, Yaw : 359.87, Alt : 39.5200004578, Lat : 49.2835706, Lng : -123.1150206, Q1 : 0.999999165535, Q2 : -0.000597827078309, Q3 : 0.000411134038586, Q4 : -0.00108616705984}
2019-04-14 12:53:30.61: SIM {TimeUS : 48634705, Roll : -0.04, Pitch : 0.04, Yaw : 359.87, Alt : 39.75, Lat : 49.2835706, Lng : -123.1150207, Q1 : 0.99999922514, Q2 : -0.000401140016038, Q3 : 0.000404700433137, Q4 : -0.00108585203998}
2019-04-14 12:53:30.72: SIM {TimeUS : 48735498, Roll : -0.01, Pitch : 0.03, Yaw : 359.87, Alt : 39.9799995422, Lat : 49.2835706, Lng : -123.1150207, Q1 : 0.999999344349, Q2 : -0.000158933442435, Q3 : 0.000347724067979, Q4 : -0.00108496239409}
2019-04-14 12:53:30.81: SIM {TimeUS : 48835458, Roll : 0.01, Pitch : 0.06, Yaw : 359.87, Alt : 40.2099990845, Lat : 49.2835706, Lng : -123.1150207, Q1 : 0.999999284744, Q2 : 0.00014989299234, Q3 : 0.000538424530532, Q4 : -0.00107694207691}
2019-04-14 12:53:30.91: SIM {TimeUS : 48935418, Roll : 0.05, Pitch : 0.1, Yaw : 359.87, Alt : 40.4399986267, Lat : 49.2835706, Lng : -123.1150207, Q1 : 0.999998867512, Q2 : 0.000513096805662, Q3 : 0.000893838063348, Q4 : -0.00107661588117}
2019-04-14 12:53:31.01: SIM {TimeUS : 49035378, Roll : 0.09, Pitch : 0.14, Yaw : 359.87, Alt : 40.6699981689, Lat : 49.2835706, Lng : -123.1150207, Q1 : 0.999998271465, Q2 : 0.000789931393228, Q3 : 0.00127016752958, Q4 : -0.00108491675928}
2019-04-14 12:53:31.11: SIM {TimeUS : 49135338, Roll : 0.08, Pitch : 0.18, Yaw : 359.87, Alt : 40.9099998474, Lat : 49.2835706, Lng : -123.1150207, Q1 : 0.999997854233, Q2 : 0.000738202477805, Q3 : 0.00159040407743, Q4 : -0.00108984147664}
2019-04-14 12:53:31.21: SIM {TimeUS : 49235298, Roll : 0.03, Pitch : 0.2, Yaw : 359.87, Alt : 41.1399993896, Lat : 49.2835706, Lng : -123.1150207, Q1 : 0.999997735023, Q2 : 0.000335895252647, Q3 : 0.00178966706153, Q4 : -0.00111129158176}
2019-04-14 12:53:31.31: SIM {TimeUS : 49335258, Roll : 0.0, Pitch : 0.2, Yaw : 359.86, Alt : 41.3699989319, Lat : 49.2835706, Lng : -123.1150207, Q1 : 0.999997675419, Q2 : -5.64996735193e-05, Q3 : 0.00182129221503, Q4 : -0.00113618269097}
2019-04-14 12:53:31.41: SIM {TimeUS : 49435218, Roll : -0.03, Pitch : 0.17, Yaw : 359.86, Alt : 41.6100006104, Lat : 49.2835706, Lng : -123.1150207, Q1 : 0.999998092651, Q2 : -0.000269673124421, Q3 : 0.00153768190648, Q4 : -0.00115901243407}
2019-04-14 12:53:31.51: SIM {TimeUS : 49535178, Roll : -0.03, Pitch : 0.13, Yaw : 359.86, Alt : 41.8400001526, Lat : 49.2835706, Lng : -123.1150207, Q1 : 0.999998569489, Q2 : -0.00032334815478, Q3 : 0.00116048182826, Q4 : -0.00118889880832}
2019-04-14 12:53:31.61: SIM {TimeUS : 49635138, Roll : -0.02, Pitch : 0.12, Yaw : 359.85, Alt : 42.0699996948, Lat : 49.2835706, Lng : -123.1150207, Q1 : 0.999998688698, Q2 : -0.000190940438188, Q3 : 0.00105372606777, Q4 : -0.00122880202252}
2019-04-14 12:53:31.71: SIM {TimeUS : 49735098, Roll : 0.01, Pitch : 0.12, Yaw : 359.85, Alt : 42.3100013733, Lat : 49.2835706, Lng : -123.1150207, Q1 : 0.999998509884, Q2 : 0.000156246329425, Q3 : 0.00113002653234, Q4 : -0.00127512519248}
2019-04-14 12:53:31.81: SIM {TimeUS : 49835058, Roll : 0.07, Pitch : 0.13, Yaw : 359.84, Alt : 42.5400009155, Lat : 49.2835706, Lng : -123.1150207, Q1 : 0.999998211861, Q2 : 0.000621629005764, Q3 : 0.00120266666636, Q4 : -0.0013208668679}
2019-04-14 12:53:31.91: SIM {TimeUS : 49935018, Roll : 0.1, Pitch : 0.12, Yaw : 359.84, Alt : 42.7799987793, Lat : 49.2835706, Lng : -123.1150207, Q1 : 0.999998033047, Q2 : 0.000961346901022, Q3 : 0.00107558630407, Q4 : -0.00137522548903}
2019-04-14 12:53:32.01: SIM {TimeUS : 50034978, Roll : 0.11, Pitch : 0.1, Yaw : 359.83, Alt : 43.0099983215, Lat : 49.2835706, Lng : -123.1150207, Q1 : 0.999998092651, Q2 : 0.000984775135294, Q3 : 0.000880809791852, Q4 : -0.00142920145299}
2019-04-14 12:53:32.11: SIM {TimeUS : 50134938, Roll : 0.07, Pitch : 0.08, Yaw : 359.83, Alt : 43.25, Lat : 49.2835706, Lng : -123.1150207, Q1 : 0.999998450279, Q2 : 0.000645413121674, Q3 : 0.000751217477955, Q4 : -0.00146211253013}
2019-04-14 12:53:32.21: SIM {TimeUS : 50234898, Roll : 0.01, Pitch : 0.07, Yaw : 359.82, Alt : 43.4799995422, Lat : 49.2835704, Lng : -123.1150207, Q1 : 0.999998629093, Q2 : 0.000151583590196, Q3 : 0.000674490933307, Q4 : -0.00148495670874}
2019-04-14 12:53:32.31: SIM {TimeUS : 50334858, Roll : -0.02, Pitch : 0.08, Yaw : 359.82, Alt : 43.7200012207, Lat : 49.2835704, Lng : -123.1150207, Q1 : 0.999998569489, Q2 : -0.000219935187488, Q3 : 0.000737634371035, Q4 : -0.00150531157851}
2019-04-14 12:53:32.41: SIM {TimeUS : 50434818, Roll : -0.04, Pitch : 0.08, Yaw : 359.82, Alt : 43.9500007629, Lat : 49.2835704, Lng : -123.1150207, Q1 : 0.999998509884, Q2 : -0.000399214914069, Q3 : 0.000739525654353, Q4 : -0.00152422348037}
2019-04-14 12:53:32.51: SIM {TimeUS : 50534778, Roll : -0.04, Pitch : 0.06, Yaw : 359.82, Alt : 44.1899986267, Lat : 49.2835704, Lng : -123.1150207, Q1 : 0.999998629093, Q2 : -0.000350217305822, Q3 : 0.000584602938034, Q4 : -0.00153665570542}
2019-04-14 12:53:32.61: SIM {TimeUS : 50634738, Roll : -0.04, Pitch : 0.04, Yaw : 359.82, Alt : 44.4199981689, Lat : 49.2835704, Lng : -123.1150206, Q1 : 0.999998629093, Q2 : -0.000367320666555, Q3 : 0.000365167186828, Q4 : -0.00155010458548}
2019-04-14 12:53:32.71: SIM {TimeUS : 50734698, Roll : -0.03, Pitch : 0.01, Yaw : 359.82, Alt : 44.6599998474, Lat : 49.2835704, Lng : -123.1150206, Q1 : 0.999998688698, Q2 : -0.000315037032124, Q3 : 0.00014512326743, Q4 : -0.00156668003183}
2019-04-14 12:53:32.81: SIM {TimeUS : 50835491, Roll : -0.02, Pitch : 0.0, Yaw : 359.81, Alt : 44.9000015259, Lat : 49.2835704, Lng : -123.1150206, Q1 : 0.999998748302, Q2 : -0.000194140782696, Q3 : 9.1491403964e-07, Q4 : -0.00159271038137}
2019-04-14 12:53:32.91: SIM {TimeUS : 50935451, Roll : -0.02, Pitch : 0.0, Yaw : 359.81, Alt : 45.1399993896, Lat : 49.2835703, Lng : -123.1150206, Q1 : 0.999998688698, Q2 : -0.000176343441126, Q3 : 3.47416118984e-07, Q4 : -0.00162056926638}
2019-04-14 12:53:33.01: SIM {TimeUS : 51035411, Roll : -0.02, Pitch : 0.0, Yaw : 359.81, Alt : 45.3699989319, Lat : 49.2835703, Lng : -123.1150206, Q1 : 0.999998629093, Q2 : -0.000225292504183, Q3 : -5.21900437889e-05, Q4 : -0.00165415613446}
2019-04-14 12:53:33.11: SIM {TimeUS : 51135371, Roll : -0.03, Pitch : -0.02, Yaw : 359.8, Alt : 45.6100006104, Lat : 49.2835703, Lng : -123.1150206, Q1 : 0.999998509884, Q2 : -0.000265847658738, Q3 : -0.000239428176428, Q4 : -0.00169147236738}
2019-04-14 12:53:33.21: SIM {TimeUS : 51235331, Roll : -0.03, Pitch : -0.04, Yaw : 359.8, Alt : 45.8400001526, Lat : 49.2835703, Lng : -123.1150206, Q1 : 0.999998390675, Q2 : -0.000268228031928, Q3 : -0.000368999317288, Q4 : -0.00172670721076}
2019-04-14 12:53:33.31: SIM {TimeUS : 51335291, Roll : -0.02, Pitch : -0.05, Yaw : 359.79, Alt : 46.0699996948, Lat : 49.2835703, Lng : -123.1150206, Q1 : 0.99999833107, Q2 : -0.000177115434781, Q3 : -0.000437935988884, Q4 : -0.00175760395359}
2019-04-14 12:53:33.41: SIM {TimeUS : 51435251, Roll : -0.02, Pitch : -0.05, Yaw : 359.79, Alt : 46.2999992371, Lat : 49.2835703, Lng : -123.1150206, Q1 : 0.999998271465, Q2 : -0.000199707879801, Q3 : -0.000460720300907, Q4 : -0.0017837441992}
2019-04-14 12:53:33.51: SIM {TimeUS : 51535211, Roll : -0.04, Pitch : -0.04, Yaw : 359.79, Alt : 46.5200004578, Lat : 49.2835703, Lng : -123.1150206, Q1 : 0.999998211861, Q2 : -0.000398985081119, Q3 : -0.000419456337113, Q4 : -0.0018059310969}
2019-04-14 12:53:33.61: SIM {TimeUS : 51635171, Roll : -0.07, Pitch : -0.04, Yaw : 359.79, Alt : 46.7400016785, Lat : 49.2835703, Lng : -123.1150206, Q1 : 0.999998033047, Q2 : -0.000694979564287, Q3 : -0.000383007456549, Q4 : -0.00182429514825}
2019-04-14 12:53:33.71: SIM {TimeUS : 51735131, Roll : -0.1, Pitch : -0.04, Yaw : 359.78, Alt : 46.9500007629, Lat : 49.2835703, Lng : -123.1150206, Q1 : 0.999997794628, Q2 : -0.000920065212995, Q3 : -0.000372246955521, Q4 : -0.00184357701801}
2019-04-14 12:53:33.81: SIM {TimeUS : 51835091, Roll : -0.11, Pitch : -0.03, Yaw : 359.78, Alt : 47.1599998474, Lat : 49.2835703, Lng : -123.1150206, Q1 : 0.999997735023, Q2 : -0.000986169208772, Q3 : -0.000267770083155, Q4 : -0.00186240836047}
2019-04-14 12:53:33.91: SIM {TimeUS : 51935051, Roll : -0.1, Pitch : 0.0, Yaw : 359.78, Alt : 47.3499984741, Lat : 49.2835703, Lng : -123.1150206, Q1 : 0.999997794628, Q2 : -0.000911103503313, Q3 : -5.29811441083e-05, Q4 : -0.00188312551472}
2019-04-14 12:53:34.01: SIM {TimeUS : 52035011, Roll : -0.08, Pitch : 0.0, Yaw : 359.78, Alt : 47.5400009155, Lat : 49.2835703, Lng : -123.1150206, Q1 : 0.999997913837, Q2 : -0.000715498288628, Q3 : 7.68672543927e-05, Q4 : -0.00190408853814}
2019-04-14 12:53:34.11: SIM {TimeUS : 52134971, Roll : -0.08, Pitch : 0.0, Yaw : 359.77, Alt : 47.7200012207, Lat : 49.2835703, Lng : -123.1150206, Q1 : 0.999997913837, Q2 : -0.000703486555722, Q3 : 5.18802607985e-06, Q4 : -0.00193112238776}
2019-04-14 12:53:34.21: SIM {TimeUS : 52234931, Roll : -0.08, Pitch : -0.02, Yaw : 359.77, Alt : 47.8899993896, Lat : 49.2835703, Lng : -123.1150206, Q1 : 0.999997735023, Q2 : -0.000772416009568, Q3 : -0.000208041528822, Q4 : -0.00196133740246}
2019-04-14 12:53:34.31: SIM {TimeUS : 52334891, Roll : -0.08, Pitch : -0.05, Yaw : 359.77, Alt : 48.0499992371, Lat : 49.2835703, Lng : -123.1150206, Q1 : 0.999997675419, Q2 : -0.000710308784619, Q3 : -0.000480312912259, Q4 : -0.00199030013755}
2019-04-14 12:53:34.41: SIM {TimeUS : 52434851, Roll : -0.05, Pitch : -0.07, Yaw : 359.76, Alt : 48.1899986267, Lat : 49.2835703, Lng : -123.1150206, Q1 : 0.999997615814, Q2 : -0.00049702799879, Q3 : -0.00067450501956, Q4 : -0.00201865890995}
2019-04-14 12:53:34.51: SIM {TimeUS : 52534811, Roll : -0.04, Pitch : -0.09, Yaw : 359.76, Alt : 48.3199996948, Lat : 49.2835703, Lng : -123.1150206, Q1 : 0.999997496605, Q2 : -0.000359453639248, Q3 : -0.000792579026893, Q4 : -0.00204851804301}
2019-04-14 12:53:34.61: SIM {TimeUS : 52634771, Roll : -0.03, Pitch : -0.09, Yaw : 359.76, Alt : 48.4399986267, Lat : 49.2835703, Lng : -123.1150206, Q1 : 0.999997377396, Q2 : -0.000337886624038, Q3 : -0.00085809227312, Q4 : -0.00208226055838}
2019-04-14 12:53:34.71: SIM {TimeUS : 52734731, Roll : -0.01, Pitch : -0.08, Yaw : 359.75, Alt : 48.5499992371, Lat : 49.2835703, Lng : -123.1150206, Q1 : 0.999997437, Q2 : -0.000107579013275, Q3 : -0.000767178891692, Q4 : -0.00211569503881}
2019-04-14 12:53:34.82: SIM {TimeUS : 52835524, Roll : 0.02, Pitch : -0.06, Yaw : 359.75, Alt : 48.6500015259, Lat : 49.2835703, Lng : -123.1150206, Q1 : 0.999997496605, Q2 : 0.000208521581953, Q3 : -0.000567786803003, Q4 : -0.00214857957326}
2019-04-14 12:53:34.91: SIM {TimeUS : 52935484, Roll : 0.05, Pitch : -0.03, Yaw : 359.75, Alt : 48.7299995422, Lat : 49.2835703, Lng : -123.1150206, Q1 : 0.999997437, Q2 : 0.000456313602626, Q3 : -0.000341513485182, Q4 : -0.00217956793495}
2019-04-14 12:53:35.01: SIM {TimeUS : 53035444, Roll : 0.05, Pitch : -0.01, Yaw : 359.74, Alt : 48.7999992371, Lat : 49.2835703, Lng : -123.1150206, Q1 : 0.999997377396, Q2 : 0.000521058624145, Q3 : -0.000175627632416, Q4 : -0.00221053604037}
2019-04-14 12:53:35.11: SIM {TimeUS : 53135404, Roll : 0.06, Pitch : -0.01, Yaw : 359.74, Alt : 48.8699989319, Lat : 49.2835703, Lng : -123.1150207, Q1 : 0.999997317791, Q2 : 0.00056062231306, Q3 : -9.60231773206e-05, Q4 : -0.00223754299805}
2019-04-14 12:53:35.21: SIM {TimeUS : 53235364, Roll : 0.06, Pitch : -0.02, Yaw : 359.74, Alt : 48.9199981689, Lat : 49.2835703, Lng : -123.1150207, Q1 : 0.999997317791, Q2 : 0.000524305156432, Q3 : -0.000206374505069, Q4 : -0.00225882418454}
2019-04-14 12:53:35.31: SIM {TimeUS : 53335324, Roll : 0.05, Pitch : -0.03, Yaw : 359.73, Alt : 48.9700012207, Lat : 49.2835703, Lng : -123.1150207, Q1 : 0.999997258186, Q2 : 0.000441768555902, Q3 : -0.000343360588886, Q4 : -0.00228325324133}
2019-04-14 12:53:35.41: SIM {TimeUS : 53435284, Roll : 0.15, Pitch : -0.06, Yaw : 359.73, Alt : 49.0099983215, Lat : 49.2835703, Lng : -123.1150207, Q1 : 0.999996185303, Q2 : 0.00138271495234, Q3 : -0.000611270428635, Q4 : -0.00230796984397}
2019-04-14 12:53:35.51: SIM {TimeUS : 53535244, Roll : 0.49, Pitch : -0.16, Yaw : 359.73, Alt : 49.0400009155, Lat : 49.2835703, Lng : -123.1150207, Q1 : 0.999987006187, Q2 : 0.00430017150939, Q3 : -0.00143407681026, Q4 : -0.00232481700368}
2019-04-14 12:53:35.61: SIM {TimeUS : 53635204, Roll : 1.09, Pitch : -0.32, Yaw : 359.72, Alt : 49.0699996948, Lat : 49.2835703, Lng : -123.1150207, Q1 : 0.999947428703, Q2 : 0.00956492125988, Q3 : -0.00285163195804, Q4 : -0.00233945553191}
2019-04-14 12:53:35.71: SIM {TimeUS : 53735164, Roll : 1.95, Pitch : -0.55, Yaw : 359.72, Alt : 49.0999984741, Lat : 49.2835704, Lng : -123.1150206, Q1 : 0.99983972311, Q2 : 0.0170763339847, Q3 : -0.0048442534171, Q4 : -0.00233979080804}
2019-04-14 12:53:35.81: SIM {TimeUS : 53835124, Roll : 2.97, Pitch : -0.82, Yaw : 359.71, Alt : 49.1199989319, Lat : 49.2835704, Lng : -123.1150206, Q1 : 0.999634623528, Q2 : 0.0259228926152, Q3 : -0.00729526206851, Q4 : -0.00232211849652}
2019-04-14 12:53:35.91: SIM {TimeUS : 53935084, Roll : 3.97, Pitch : -1.14, Yaw : 359.69, Alt : 49.1399993896, Lat : 49.2835704, Lng : -123.1150204, Q1 : 0.999344587326, Q2 : 0.0346935763955, Q3 : -0.0100763142109, Q4 : -0.00228353100829}
2019-04-14 12:53:36.01: SIM {TimeUS : 54035044, Roll : 4.81, Pitch : -1.42, Yaw : 359.68, Alt : 49.1599998474, Lat : 49.2835706, Lng : -123.1150202, Q1 : 0.999036848545, Q2 : 0.0419908091426, Q3 : -0.0125443516299, Q4 : -0.00220482330769}
2019-04-14 12:53:36.11: SIM {TimeUS : 54135004, Roll : 5.43, Pitch : -1.65, Yaw : 359.68, Alt : 49.1699981689, Lat : 49.2835706, Lng : -123.11502, Q1 : 0.998770356178, Q2 : 0.0473438762128, Q3 : -0.0145605457947, Q4 : -0.00209340592846}
2019-04-14 12:53:36.21: SIM {TimeUS : 54234964, Roll : 5.88, Pitch : -1.82, Yaw : 359.68, Alt : 49.1800003052, Lat : 49.2835707, Lng : -123.1150196, Q1 : 0.998554766178, Q2 : 0.0512468628585, Q3 : -0.0160724204034, Q4 : -0.00195045548026}
2019-04-14 12:53:36.31: SIM {TimeUS : 54334924, Roll : 6.24, Pitch : -1.94, Yaw : 359.68, Alt : 49.1899986267, Lat : 49.2835708, Lng : -123.115019, Q1 : 0.998372614384, Q2 : 0.0543736703694, Q3 : -0.0171028021723, Q4 : -0.00178510625847}
2019-04-14 12:53:36.41: SIM {TimeUS : 54434884, Roll : 6.58, Pitch : -2.05, Yaw : 359.69, Alt : 49.2000007629, Lat : 49.2835709, Lng : -123.1150184, Q1 : 0.998190820217, Q2 : 0.0573387108743, Q3 : -0.0180219057947, Q4 : -0.00162289722357}
2019-04-14 12:53:36.51: SIM {TimeUS : 54534844, Roll : 6.94, Pitch : -2.15, Yaw : 359.7, Alt : 49.2099990845, Lat : 49.283571, Lng : -123.1150177, Q1 : 0.997989535332, Q2 : 0.0604687556624, Q3 : -0.0189292579889, Q4 : -0.00145454320591}
2019-04-14 12:53:36.61: SIM {TimeUS : 54634804, Roll : 7.29, Pitch : -2.25, Yaw : 359.7, Alt : 49.2200012207, Lat : 49.2835713, Lng : -123.1150168, Q1 : 0.997782886028, Q2 : 0.0635381937027, Q3 : -0.0197637844831, Q4 : -0.00129438459408}
2019-04-14 12:53:36.71: SIM {TimeUS : 54734764, Roll : 7.58, Pitch : -2.34, Yaw : 359.71, Alt : 49.2299995422, Lat : 49.2835715, Lng : -123.1150159, Q1 : 0.997605144978, Q2 : 0.0660345554352, Q3 : -0.0205431524664, Q4 : -0.00116776104551}
2019-04-14 12:53:36.81: SIM {TimeUS : 54834724, Roll : 7.8, Pitch : -2.42, Yaw : 359.71, Alt : 49.2299995422, Lat : 49.2835716, Lng : -123.1150148, Q1 : 0.997459888458, Q2 : 0.0679805278778, Q3 : -0.0212434455752, Q4 : -0.00105534354225}
2019-04-14 12:53:36.92: SIM {TimeUS : 54935517, Roll : 7.98, Pitch : -2.47, Yaw : 359.71, Alt : 49.2400016785, Lat : 49.2835719, Lng : -123.1150136, Q1 : 0.997341036797, Q2 : 0.0695503279567, Q3 : -0.0217410195619, Q4 : -0.000958367367275}
2019-04-14 12:53:37.01: SIM {TimeUS : 55035477, Roll : 8.11, Pitch : -2.49, Yaw : 359.72, Alt : 49.2400016785, Lat : 49.2835721, Lng : -123.1150123, Q1 : 0.997259318829, Q2 : 0.0706596076488, Q3 : -0.0219146665186, Q4 : -0.000884689332452}
2019-04-14 12:53:37.11: SIM {TimeUS : 55135437, Roll : 8.23, Pitch : -2.5, Yaw : 359.72, Alt : 49.25, Lat : 49.2835725, Lng : -123.1150109, Q1 : 0.997182548046, Q2 : 0.0717103108764, Q3 : -0.0219981726259, Q4 : -0.000833803147543}
2019-04-14 12:53:37.21: SIM {TimeUS : 55235397, Roll : 8.42, Pitch : -2.44, Yaw : 359.77, Alt : 49.25, Lat : 49.2835727, Lng : -123.1150094, Q1 : 0.99706941843, Q2 : 0.073437102139, Q3 : -0.0214343108237, Q4 : -0.000373571179807}
2019-04-14 12:53:37.31: SIM {TimeUS : 55335357, Roll : 8.8, Pitch : -2.15, Yaw : 0.28, Alt : 49.25, Lat : 49.2835731, Lng : -123.1150078, Q1 : 0.996865987778, Q2 : 0.0767923146486, Q3 : -0.0185977295041, Q4 : 0.00391400698572}
2019-04-14 12:53:37.41: SIM {TimeUS : 55435317, Roll : 9.33, Pitch : -1.79, Yaw : 1.91, Alt : 49.2599983215, Lat : 49.2835733, Lng : -123.115006, Q1 : 0.996400475502, Q2 : 0.0816237777472, Q3 : -0.0142109012231, Q4 : 0.0179370362312}
2019-04-14 12:53:37.51: SIM {TimeUS : 55535277, Roll : 9.87, Pitch : -1.78, Yaw : 5.09, Alt : 49.2599983215, Lat : 49.2835737, Lng : -123.1150042, Q1 : 0.995125412941, Q2 : 0.0866678133607, Q3 : -0.0116810519248, Q4 : 0.0455817133188}
2019-04-14 12:53:37.61: SIM {TimeUS : 55635237, Roll : 10.25, Pitch : -2.37, Yaw : 9.78, Alt : 49.2599983215, Lat : 49.283574, Lng : -123.1150023, Q1 : 0.991991341114, Q2 : 0.0908240750432, Q3 : -0.0129538876936, Q4 : 0.0868119522929}
2019-04-14 12:53:37.71: SIM {TimeUS : 55735197, Roll : 10.32, Pitch : -3.59, Yaw : 15.79, Alt : 49.2599983215, Lat : 49.2835744, Lng : -123.1150003, Q1 : 0.985620200634, Q2 : 0.0933768600225, Q3 : -0.0185596682131, Q4 : 0.139603361487}
2019-04-14 12:53:37.81: SIM {TimeUS : 55835157, Roll : 9.93, Pitch : -5.29, Yaw : 22.86, Alt : 49.2599983215, Lat : 49.2835746, Lng : -123.1149981, Q1 : 0.97463530302, Q2 : 0.0939199477434, Q3 : -0.027930745855, Q4 : 0.201208919287}
2019-04-14 12:53:37.91: SIM {TimeUS : 55935117, Roll : 9.01, Pitch : -7.26, Yaw : 30.75, Alt : 49.2700004578, Lat : 49.283575, Lng : -123.1149958, Q1 : 0.957963883877, Q2 : 0.0923878550529, Q3 : -0.0400926023722, Q4 : 0.268630445004}
2019-04-14 12:53:38.01: SIM {TimeUS : 56035077, Roll : 7.56, Pitch : -9.26, Yaw : 39.22, Alt : 49.2700004578, Lat : 49.2835752, Lng : -123.1149934, Q1 : 0.935072779655, Q2 : 0.0890259817243, Q3 : -0.0538582466543, Q4 : 0.33883997798}
2019-04-14 12:53:38.11: SIM {TimeUS : 56135037, Roll : 5.66, Pitch : -11.08, Yaw : 48.02, Alt : 49.2700004578, Lat : 49.2835756, Lng : -123.1149908, Q1 : 0.906116783619, Q2 : 0.0841985717416, Q3 : -0.0681244134903, Q4 : 0.408927857876}
2019-04-14 12:53:38.21: SIM {TimeUS : 56234997, Roll : 3.43, Pitch : -12.53, Yaw : 56.89, Alt : 49.2700004578, Lat : 49.2835759, Lng : -123.1149882, Q1 : 0.872034132481, Q2 : 0.0781443044543, Q3 : -0.0817647874355, Q4 : 0.476197898388}
2019-04-14 12:53:38.31: SIM {TimeUS : 56334957, Roll : 1.02, Pitch : -13.49, Yaw : 65.53, Alt : 49.2700004578, Lat : 49.2835763, Lng : -123.1149854, Q1 : 0.83446586132, Q2 : 0.0710177868605, Q3 : -0.0939881801605, Q4 : 0.538321018219}
2019-04-14 12:53:38.41: SIM {TimeUS : 56434917, Roll : -1.63, Pitch : -13.94, Yaw : 73.51, Alt : 49.2799987793, Lat : 49.2835768, Lng : -123.1149825, Q1 : 0.796186804771, Q2 : 0.0612839311361, Q3 : -0.105760514736, Q4 : 0.59257543087}
2019-04-14 12:53:38.51: SIM {TimeUS : 56534877, Roll : -4.33, Pitch : -13.95, Yaw : 80.18, Alt : 49.2799987793, Lat : 49.2835773, Lng : -123.1149795, Q1 : 0.76176160574, Q2 : 0.0494907982647, Q3 : -0.117014892399, Q4 : 0.635277450085}
2019-04-14 12:53:38.61: SIM {TimeUS : 56634837, Roll : -6.54, Pitch : -13.67, Yaw : 84.98, Alt : 49.2799987793, Lat : 49.2835777, Lng : -123.1149764, Q1 : 0.735532522202, Q2 : 0.0384747684002, Q3 : -0.125960052013, Q4 : 0.6645642519}
2019-04-14 12:53:38.71: SIM {TimeUS : 56734797, Roll : -7.92, Pitch : -13.34, Yaw : 87.78, Alt : 49.2799987793, Lat : 49.2835785, Lng : -123.1149732, Q1 : 0.719642221928, Q2 : 0.0309098232538, Q3 : -0.131085336208, Q4 : 0.681158065796}
2019-04-14 12:53:38.81: SIM {TimeUS : 56834757, Roll : -8.32, Pitch : -13.13, Yaw : 88.75, Alt : 49.2799987793, Lat : 49.2835792, Lng : -123.1149699, Q1 : 0.714002609253, Q2 : 0.0282281283289, Q3 : -0.131953120232, Q4 : 0.687016606331}
2019-04-14 12:53:38.91: SIM {TimeUS : 56934717, Roll : -7.84, Pitch : -13.15, Yaw : 88.21, Alt : 49.2799987793, Lat : 49.28358, Lng : -123.1149664, Q1 : 0.71706455946, Q2 : 0.0307366922498, Q3 : -0.129304975271, Q4 : 0.684217751026}
2019-04-14 12:53:39.02: SIM {TimeUS : 57035510, Roll : -6.63, Pitch : -13.44, Yaw : 86.51, Alt : 49.2799987793, Lat : 49.2835808, Lng : -123.1149629, Q1 : 0.72668915987, Q2 : 0.0382401794195, Q3 : -0.124445386231, Q4 : 0.674517512321}
2019-04-14 12:53:39.11: SIM {TimeUS : 57135470, Roll : -4.94, Pitch : -13.96, Yaw : 84.01, Alt : 49.2799987793, Lat : 49.2835818, Lng : -123.1149593, Q1 : 0.740394413471, Q2 : 0.0494699254632, Q3 : -0.118894957006, Q4 : 0.659721791744}
2019-04-14 12:53:39.21: SIM {TimeUS : 57235430, Roll : -3.02, Pitch : -14.61, Yaw : 80.99, Alt : 49.2799987793, Lat : 49.2835829, Lng : -123.1149557, Q1 : 0.756151556969, Q2 : 0.0626910626888, Q3 : -0.113693840802, Q4 : 0.641387879848}
2019-04-14 12:53:39.31: SIM {TimeUS : 57335390, Roll : -1.07, Pitch : -15.24, Yaw : 77.78, Alt : 49.2799987793, Lat : 49.2835838, Lng : -123.1149519, Q1 : 0.772205471992, Q2 : 0.0760097578168, Q3 : -0.10909859091, Q4 : 0.621304094791}
2019-04-14 12:53:39.41: SIM {TimeUS : 57435350, Roll : 0.68, Pitch : -15.72, Yaw : 74.68, Alt : 49.2799987793, Lat : 49.2835849, Lng : -123.114948, Q1 : 0.787023544312, Q2 : 0.0877296105027, Q3 : -0.10515396297, Q4 : 0.60153144598}
2019-04-14 12:53:39.51: SIM {TimeUS : 57535310, Roll : 2.13, Pitch : -15.99, Yaw : 72.02, Alt : 49.2799987793, Lat : 49.2835859, Lng : -123.114944, Q1 : 0.799365520477, Q2 : 0.0967055112123, Q3 : -0.101692296565, Q4 : 0.584227263927}
2019-04-14 12:53:39.61: SIM {TimeUS : 57635270, Roll : 3.13, Pitch : -16.06, Yaw : 70.02, Alt : 49.2799987793, Lat : 49.2835867, Lng : -123.1149399, Q1 : 0.808487951756, Q2 : 0.102336868644, Q3 : -0.0988733097911, Q4 : 0.571050345898}
2019-04-14 12:53:39.71: SIM {TimeUS : 57735230, Roll : 3.64, Pitch : -16.01, Yaw : 68.8, Alt : 49.2799987793, Lat : 49.2835878, Lng : -123.1149357, Q1 : 0.814103245735, Q2 : 0.104677155614, Q3 : -0.0970559492707, Q4 : 0.562902092934}
2019-04-14 12:53:39.81: SIM {TimeUS : 57835190, Roll : 3.7, Pitch : -15.93, Yaw : 68.37, Alt : 49.2799987793, Lat : 49.2835886, Lng : -123.1149314, Q1 : 0.816273808479, Q2 : 0.104344308376, Q3 : -0.0966147258878, Q4 : 0.559888362885}
2019-04-14 12:53:39.91: SIM {TimeUS : 57935150, Roll : 3.36, Pitch : -15.91, Yaw : 68.62, Alt : 49.2799987793, Lat : 49.2835896, Lng : -123.1149269, Q1 : 0.815349936485, Q2 : 0.102057270706, Q3 : -0.0979318991303, Q4 : 0.561425149441}
2019-04-14 12:53:40.01: SIM {TimeUS : 58035110, Roll : 2.72, Pitch : -15.98, Yaw : 69.42, Alt : 49.2900009155, Lat : 49.2835904, Lng : -123.1149224, Q1 : 0.811908423901, Q2 : 0.0985087007284, Q3 : -0.100845567882, Q4 : 0.566507697105}
2019-04-14 12:53:40.11: SIM {TimeUS : 58135070, Roll : 1.88, Pitch : -16.11, Yaw : 70.59, Alt : 49.2900009155, Lat : 49.2835914, Lng : -123.1149178, Q1 : 0.806674480438, Q2 : 0.0942973718047, Q3 : -0.104967445135, Q4 : 0.573904335499}
2019-04-14 12:53:40.21: SIM {TimeUS : 58235030, Roll : 0.98, Pitch : -16.25, Yaw : 71.93, Alt : 49.2900009155, Lat : 49.2835922, Lng : -123.1149131, Q1 : 0.80047160387, Q2 : 0.0899240970612, Q3 : -0.109387136996, Q4 : 0.582403063774}
2019-04-14 12:53:40.31: SIM {TimeUS : 58334990, Roll : 0.15, Pitch : -16.36, Yaw : 73.28, Alt : 49.2900009155, Lat : 49.2835931, Lng : -123.1149083, Q1 : 0.794096410275, Q2 : 0.0860206112266, Q3 : -0.113402739167, Q4 : 0.590890169144}
2019-04-14 12:53:40.41: SIM {TimeUS : 58434950, Roll : -0.55, Pitch : -16.44, Yaw : 74.48, Alt : 49.2900009155, Lat : 49.283594, Lng : -123.1149035, Q1 : 0.788298130035, Q2 : 0.0827165916562, Q3 : -0.116793356836, Q4 : 0.598417341709}
2019-04-14 12:53:40.51: SIM {TimeUS : 58534910, Roll : -1.07, Pitch : -16.5, Yaw : 75.43, Alt : 49.2900009155, Lat : 49.2835949, Lng : -123.1148985, Q1 : 0.783611893654, Q2 : 0.0804601162672, Q3 : -0.11920543015, Q4 : 0.604374587536}
2019-04-14 12:53:40.61: SIM {TimeUS : 58634870, Roll : -1.35, Pitch : -16.52, Yaw : 76.07, Alt : 49.2900009155, Lat : 49.2835958, Lng : -123.1148935, Q1 : 0.780402541161, Q2 : 0.0793219283223, Q3 : -0.120361045003, Q4 : 0.608434975147}
2019-04-14 12:53:40.71: SIM {TimeUS : 58734830, Roll : -1.43, Pitch : -16.52, Yaw : 76.39, Alt : 49.2900009155, Lat : 49.2835968, Lng : -123.1148886, Q1 : 0.778795599937, Q2 : 0.0791253224015, Q3 : -0.120563969016, Q4 : 0.610476076603}
2019-04-14 12:53:40.81: SIM {TimeUS : 58834790, Roll : -1.35, Pitch : -16.53, Yaw : 76.39, Alt : 49.2900009155, Lat : 49.2835977, Lng : -123.1148835, Q1 : 0.778688549995, Q2 : 0.0797454342246, Q3 : -0.120261222124, Q4 : 0.610591590405}
2019-04-14 12:53:40.91: SIM {TimeUS : 58934750, Roll : -1.15, Pitch : -16.58, Yaw : 76.15, Alt : 49.2900009155, Lat : 49.2835988, Lng : -123.1148784, Q1 : 0.779817044735, Q2 : 0.0810809507966, Q3 : -0.11963763833, Q4 : 0.609096169472}
2019-04-14 12:53:41.01: SIM {TimeUS : 59034710, Roll : -0.86, Pitch : -16.64, Yaw : 75.72, Alt : 49.2900009155, Lat : 49.2835998, Lng : -123.1148732, Q1 : 0.781816601753, Q2 : 0.0829816684127, Q3 : -0.118871748447, Q4 : 0.606420993805}
2019-04-14 12:53:41.12: SIM {TimeUS : 59135503, Roll : -0.52, Pitch : -16.71, Yaw : 75.18, Alt : 49.2900009155, Lat : 49.2836008, Lng : -123.1148679, Q1 : 0.784356713295, Q2 : 0.0850525423884, Q3 : -0.117942683399, Q4 : 0.603025853634}
2019-04-14 12:53:41.21: SIM {TimeUS : 59235463, Roll : -0.18, Pitch : -16.76, Yaw : 74.61, Alt : 49.2900009155, Lat : 49.2836019, Lng : -123.1148627, Q1 : 0.787011086941, Q2 : 0.0871251448989, Q3 : -0.116904117167, Q4 : 0.599463284016}
2019-04-14 12:53:41.31: SIM {TimeUS : 59335423, Roll : 0.13, Pitch : -16.81, Yaw : 74.08, Alt : 49.2900009155, Lat : 49.2836029, Lng : -123.1148573, Q1 : 0.789485156536, Q2 : 0.0890230536461, Q3 : -0.115949682891, Q4 : 0.596107184887}
2019-04-14 12:53:41.41: SIM {TimeUS : 59435383, Roll : 0.4, Pitch : -16.84, Yaw : 73.64, Alt : 49.2900009155, Lat : 49.2836039, Lng : -123.114852, Q1 : 0.79155087471, Q2 : 0.0905518010259, Q3 : -0.11517456919, Q4 : 0.59328109026}
2019-04-14 12:53:41.51: SIM {TimeUS : 59535343, Roll : 0.58, Pitch : -16.87, Yaw : 73.31, Alt : 49.2900009155, Lat : 49.2836049, Lng : -123.1148466, Q1 : 0.793055951595, Q2 : 0.091674298048, Q3 : -0.114657118917, Q4 : 0.591195344925}
2019-04-14 12:53:41.61: SIM {TimeUS : 59635303, Roll : 0.68, Pitch : -16.9, Yaw : 73.12, Alt : 49.2900009155, Lat : 49.2836061, Lng : -123.1148412, Q1 : 0.793943107128, Q2 : 0.0922967195511, Q3 : -0.114494368434, Q4 : 0.589937865734}
2019-04-14 12:53:41.71: SIM {TimeUS : 59735263, Roll : 0.68, Pitch : -16.92, Yaw : 73.06, Alt : 49.2900009155, Lat : 49.2836071, Lng : -123.1148357, Q1 : 0.794257164001, Q2 : 0.0923453196883, Q3 : -0.114721782506, Q4 : 0.589463174343}
2019-04-14 12:53:41.81: SIM {TimeUS : 59835223, Roll : 0.6, Pitch : -16.95, Yaw : 73.1, Alt : 49.2999992371, Lat : 49.283608, Lng : -123.1148302, Q1 : 0.79406863451, Q2 : 0.0920000299811, Q3 : -0.115292645991, Q4 : 0.589659690857}
2019-04-14 12:53:41.91: SIM {TimeUS : 59935183, Roll : 0.47, Pitch : -16.98, Yaw : 73.22, Alt : 49.2999992371, Lat : 49.2836092, Lng : -123.1148246, Q1 : 0.793487668037, Q2 : 0.0913806855679, Q3 : -0.116136945784, Q4 : 0.590372025967}
2019-04-14 12:53:42.01: SIM {TimeUS : 60035143, Roll : 0.31, Pitch : -17.03, Yaw : 73.4, Alt : 49.2999992371, Lat : 49.2836102, Lng : -123.114819, Q1 : 0.792642474174, Q2 : 0.0906864479184, Q3 : -0.117123737931, Q4 : 0.59141856432}
2019-04-14 12:53:42.11: SIM {TimeUS : 60135103, Roll : 0.13, Pitch : -17.07, Yaw : 73.61, Alt : 49.2999992371, Lat : 49.2836112, Lng : -123.1148134, Q1 : 0.791691958904, Q2 : 0.0898820459843, Q3 : -0.118155159056, Q4 : 0.59260815382}
2019-04-14 12:53:42.21: SIM {TimeUS : 60235063, Roll : -0.02, Pitch : -17.09, Yaw : 73.8, Alt : 49.2999992371, Lat : 49.2836122, Lng : -123.1148077, Q1 : 0.790772974491, Q2 : 0.0890531986952, Q3 : -0.119001924992, Q4 : 0.593789637089}
2019-04-14 12:53:42.31: SIM {TimeUS : 60335023, Roll : -0.17, Pitch : -17.11, Yaw : 73.98, Alt : 49.2999992371, Lat : 49.2836134, Lng : -123.114802, Q1 : 0.789978384972, Q2 : 0.0883595719934, Q3 : -0.119771264493, Q4 : 0.594795405865}
2019-04-14 12:53:42.41: SIM {TimeUS : 60434983, Roll : -0.25, Pitch : -17.15, Yaw : 74.1, Alt : 49.2999992371, Lat : 49.2836144, Lng : -123.1147963, Q1 : 0.789353787899, Q2 : 0.088077776134, Q3 : -0.120352745056, Q4 : 0.595548510551}
2019-04-14 12:53:42.51: SIM {TimeUS : 60534943, Roll : -0.28, Pitch : -17.19, Yaw : 74.17, Alt : 49.2999992371, Lat : 49.2836154, Lng : -123.1147906, Q1 : 0.788954496384, Q2 : 0.0881695151329, Q3 : -0.120745748281, Q4 : 0.595984399319}
2019-04-14 12:53:42.61: SIM {TimeUS : 60634903, Roll : -0.26, Pitch : -17.24, Yaw : 74.19, Alt : 49.2999992371, Lat : 49.2836165, Lng : -123.1147848, Q1 : 0.788788735867, Q2 : 0.0886155068874, Q3 : -0.120969705284, Q4 : 0.596092224121}
2019-04-14 12:53:42.71: SIM {TimeUS : 60734863, Roll : -0.2, Pitch : -17.29, Yaw : 74.16, Alt : 49.2999992371, Lat : 49.2836177, Lng : -123.1147791, Q1 : 0.78885358572, Q2 : 0.0892468690872, Q3 : -0.121010482311, Q4 : 0.595903933048}
2019-04-14 12:53:42.81: SIM {TimeUS : 60834823, Roll : -0.13, Pitch : -17.33, Yaw : 74.09, Alt : 49.3100013733, Lat : 49.2836188, Lng : -123.1147733, Q1 : 0.789129436016, Q2 : 0.0898463651538, Q3 : -0.120970897377, Q4 : 0.595456540585}
2019-04-14 12:53:42.91: SIM {TimeUS : 60934783, Roll : -0.07, Pitch : -17.34, Yaw : 73.99, Alt : 49.3100013733, Lat : 49.2836199, Lng : -123.1147674, Q1 : 0.789576530457, Q2 : 0.0902369320393, Q3 : -0.120814219117, Q4 : 0.594836175442}
2019-04-14 12:53:43.01: SIM {TimeUS : 61034743, Roll : -0.03, Pitch : -17.34, Yaw : 73.88, Alt : 49.3100013733, Lat : 49.2836209, Lng : -123.1147616, Q1 : 0.790123283863, Q2 : 0.0904134958982, Q3 : -0.120723672211, Q4 : 0.594101369381}
2019-04-14 12:53:43.11: SIM {TimeUS : 61134703, Roll : 0.01, Pitch : -17.35, Yaw : 73.76, Alt : 49.3100013733, Lat : 49.283622, Lng : -123.1147557, Q1 : 0.790680468082, Q2 : 0.0906288698316, Q3 : -0.120567582548, Q4 : 0.593358457088}
2019-04-14 12:53:43.22: SIM {TimeUS : 61235496, Roll : 0.06, Pitch : -17.35, Yaw : 73.66, Alt : 49.3100013733, Lat : 49.2836232, Lng : -123.1147497, Q1 : 0.791194796562, Q2 : 0.0908688306808, Q3 : -0.120441868901, Q4 : 0.592661321163}
2019-04-14 12:53:43.31: SIM {TimeUS : 61335456, Roll : 0.12, Pitch : -17.37, Yaw : 73.57, Alt : 49.3100013733, Lat : 49.2836243, Lng : -123.1147438, Q1 : 0.791587591171, Q2 : 0.0913267731667, Q3 : -0.120365612209, Q4 : 0.592081606388}
2019-04-14 12:53:43.41: SIM {TimeUS : 61435416, Roll : 0.18, Pitch : -17.43, Yaw : 73.5, Alt : 49.3100013733, Lat : 49.2836254, Lng : -123.1147379, Q1 : 0.791841864586, Q2 : 0.0919392853975, Q3 : -0.120510473847, Q4 : 0.591617166996}
2019-04-14 12:53:43.51: SIM {TimeUS : 61535376, Roll : 0.21, Pitch : -17.46, Yaw : 73.45, Alt : 49.3100013733, Lat : 49.2836266, Lng : -123.1147319, Q1 : 0.792015612125, Q2 : 0.0923162847757, Q3 : -0.120583221316, Q4 : 0.591310977936}
2019-04-14 12:53:43.61: SIM {TimeUS : 61635336, Roll : 0.23, Pitch : -17.47, Yaw : 73.43, Alt : 49.3100013733, Lat : 49.2836276, Lng : -123.114726, Q1 : 0.79211807251, Q2 : 0.0924456343055, Q3 : -0.120571665466, Q4 : 0.591155827045}
2019-04-14 12:53:43.71: SIM {TimeUS : 61735296, Roll : 0.21, Pitch : -17.49, Yaw : 73.42, Alt : 49.3100013733, Lat : 49.2836287, Lng : -123.11472, Q1 : 0.792143583298, Q2 : 0.0923694446683, Q3 : -0.120816685259, Q4 : 0.591083645821}
2019-04-14 12:53:43.81: SIM {TimeUS : 61835256, Roll : 0.16, Pitch : -17.52, Yaw : 73.43, Alt : 49.3100013733, Lat : 49.2836299, Lng : -123.114714, Q1 : 0.792101919651, Q2 : 0.0922105535865, Q3 : -0.121252074838, Q4 : 0.591075062752}
2019-04-14 12:53:43.91: SIM {TimeUS : 61935216, Roll : 0.12, Pitch : -17.55, Yaw : 73.45, Alt : 49.3199996948, Lat : 49.2836311, Lng : -123.1147079, Q1 : 0.792006373405, Q2 : 0.0921328663826, Q3 : -0.121623247862, Q4 : 0.591138958931}
2019-04-14 12:53:44.01: SIM {TimeUS : 62035176, Roll : 0.09, Pitch : -17.58, Yaw : 73.47, Alt : 49.3199996948, Lat : 49.2836322, Lng : -123.1147019, Q1 : 0.791883349419, Q2 : 0.0921139493585, Q3 : -0.122000329196, Q4 : 0.591229021549}
2019-04-14 12:53:44.11: SIM {TimeUS : 62135136, Roll : 0.07, Pitch : -17.6, Yaw : 73.49, Alt : 49.3199996948, Lat : 49.2836334, Lng : -123.1146958, Q1 : 0.791773617268, Q2 : 0.0920840576291, Q3 : -0.122244179249, Q4 : 0.591330230236}
2019-04-14 12:53:44.21: SIM {TimeUS : 62235096, Roll : 0.06, Pitch : -17.62, Yaw : 73.51, Alt : 49.3199996948, Lat : 49.2836345, Lng : -123.1146898, Q1 : 0.791693866253, Q2 : 0.0920908898115, Q3 : -0.122421637177, Q4 : 0.591399252415}
2019-04-14 12:53:44.31: SIM {TimeUS : 62335056, Roll : 0.06, Pitch : -17.62, Yaw : 73.51, Alt : 49.3199996948, Lat : 49.2836357, Lng : -123.1146837, Q1 : 0.79165583849, Q2 : 0.0921489968896, Q3 : -0.122443690896, Q4 : 0.591436564922}
2019-04-14 12:53:44.41: SIM {TimeUS : 62435016, Roll : 0.08, Pitch : -17.64, Yaw : 73.51, Alt : 49.3199996948, Lat : 49.2836367, Lng : -123.1146776, Q1 : 0.791641533375, Q2 : 0.0923426449299, Q3 : -0.122432298958, Q4 : 0.59142780304}
2019-04-14 12:53:44.51: SIM {TimeUS : 62534976, Roll : 0.1, Pitch : -17.66, Yaw : 73.5, Alt : 49.3199996948, Lat : 49.2836379, Lng : -123.1146715, Q1 : 0.791660606861, Q2 : 0.0925679132342, Q3 : -0.122460126877, Q4 : 0.591361284256}
2019-04-14 12:53:44.61: SIM {TimeUS : 62634936, Roll : 0.1, Pitch : -17.68, Yaw : 73.48, Alt : 49.3199996948, Lat : 49.283639, Lng : -123.1146654, Q1 : 0.79172295332, Q2 : 0.0927167311311, Q3 : -0.12263661623, Q4 : 0.591217935085}
2019-04-14 12:53:44.71: SIM {TimeUS : 62734896, Roll : 0.09, Pitch : -17.73, Yaw : 73.46, Alt : 49.3199996948, Lat : 49.2836402, Lng : -123.1146592, Q1 : 0.791806936264, Q2 : 0.0928439125419, Q3 : -0.123033858836, Q4 : 0.591002941132}
2019-04-14 12:53:44.81: SIM {TimeUS : 62834856, Roll : 0.08, Pitch : -17.78, Yaw : 73.43, Alt : 49.3199996948, Lat : 49.2836414, Lng : -123.1146531, Q1 : 0.791898906231, Q2 : 0.0929913073778, Q3 : -0.123442783952, Q4 : 0.590771198273}
2019-04-14 12:53:44.91: SIM {TimeUS : 62934816, Roll : 0.09, Pitch : -17.81, Yaw : 73.4, Alt : 49.3199996948, Lat : 49.2836426, Lng : -123.1146469, Q1 : 0.791999220848, Q2 : 0.0931974723935, Q3 : -0.123625293374, Q4 : 0.590566039085}
2019-04-14 12:53:45.01: SIM {TimeUS : 63034776, Roll : 0.11, Pitch : -17.81, Yaw : 73.37, Alt : 49.3199996948, Lat : 49.2836438, Lng : -123.1146407, Q1 : 0.792138040066, Q2 : 0.0932669788599, Q3 : -0.123575374484, Q4 : 0.590379416943}
2019-04-14 12:53:45.11: SIM {TimeUS : 63134736, Roll : 0.13, Pitch : -17.78, Yaw : 73.34, Alt : 49.3199996948, Lat : 49.283645, Lng : -123.1146345, Q1 : 0.792300224304, Q2 : 0.0932426229119, Q3 : -0.123276405036, Q4 : 0.590228021145}
2019-04-14 12:53:45.21: SIM {TimeUS : 63234696, Roll : 0.14, Pitch : -17.76, Yaw : 73.32, Alt : 49.3199996948, Lat : 49.2836461, Lng : -123.1146283, Q1 : 0.792445242405, Q2 : 0.0931569263339, Q3 : -0.123093381524, Q4 : 0.590085089207}
2019-04-14 12:53:45.31: SIM {TimeUS : 63335489, Roll : 0.14, Pitch : -17.74, Yaw : 73.3, Alt : 49.3199996948, Lat : 49.2836473, Lng : -123.1146221, Q1 : 0.792580962181, Q2 : 0.0930316895247, Q3 : -0.122997552156, Q4 : 0.589942514896}
2019-04-14 12:53:45.41: SIM {TimeUS : 63435449, Roll : 0.13, Pitch : -17.73, Yaw : 73.28, Alt : 49.3199996948, Lat : 49.2836485, Lng : -123.1146158, Q1 : 0.792683780193, Q2 : 0.0929373428226, Q3 : -0.122954130173, Q4 : 0.589828312397}
2019-04-14 12:53:45.51: SIM {TimeUS : 63535409, Roll : 0.13, Pitch : -17.74, Yaw : 73.26, Alt : 49.3300018311, Lat : 49.2836497, Lng : -123.1146096, Q1 : 0.792745709419, Q2 : 0.092955365777, Q3 : -0.123081251979, Q4 : 0.589715659618}
2019-04-14 12:53:45.61: SIM {TimeUS : 63635369, Roll : 0.14, Pitch : -17.76, Yaw : 73.25, Alt : 49.3300018311, Lat : 49.2836509, Lng : -123.1146034, Q1 : 0.792775392532, Q2 : 0.0931269600987, Q3 : -0.123204924166, Q4 : 0.589622795582}
2019-04-14 12:53:45.71: SIM {TimeUS : 63735329, Roll : 0.13, Pitch : -17.81, Yaw : 73.24, Alt : 49.3300018311, Lat : 49.2836521, Lng : -123.1145971, Q1 : 0.792777776718, Q2 : 0.0933409780264, Q3 : -0.123552799225, Q4 : 0.589513003826}
2019-04-14 12:53:45.81: SIM {TimeUS : 63835289, Roll : 0.13, Pitch : -17.87, Yaw : 73.23, Alt : 49.3300018311, Lat : 49.2836531, Lng : -123.1145907, Q1 : 0.792770266533, Q2 : 0.0935613662004, Q3 : -0.123977519572, Q4 : 0.589398980141}
2019-04-14 12:53:45.91: SIM {TimeUS : 63935249, Roll : 0.13, Pitch : -17.91, Yaw : 73.23, Alt : 49.3300018311, Lat : 49.2836543, Lng : -123.1145846, Q1 : 0.792765498161, Q2 : 0.093756377697, Q3 : -0.124281279743, Q4 : 0.589310467243}
2019-04-14 12:53:46.01: SIM {TimeUS : 64035209, Roll : 0.12, Pitch : -17.94, Yaw : 73.22, Alt : 49.3300018311, Lat : 49.2836555, Lng : -123.1145783, Q1 : 0.792772173882, Q2 : 0.0938769727945, Q3 : -0.124585881829, Q4 : 0.58921790123}
2019-04-14 12:53:46.11: SIM {TimeUS : 64135169, Roll : 0.11, Pitch : -17.96, Yaw : 73.21, Alt : 49.3300018311, Lat : 49.2836567, Lng : -123.114572, Q1 : 0.792793750763, Q2 : 0.0939333587885, Q3 : -0.124755717814, Q4 : 0.58914399147}
2019-04-14 12:53:46.21: SIM {TimeUS : 64235129, Roll : 0.13, Pitch : -17.95, Yaw : 73.2, Alt : 49.3300018311, Lat : 49.2836579, Lng : -123.1145657, Q1 : 0.792832434177, Q2 : 0.0939875766635, Q3 : -0.124595679343, Q4 : 0.589117109776}
2019-04-14 12:53:46.31: SIM {TimeUS : 64335089, Roll : 0.16, Pitch : -17.95, Yaw : 73.19, Alt : 49.3300018311, Lat : 49.2836591, Lng : -123.1145594, Q1 : 0.792862951756, Q2 : 0.0941470265388, Q3 : -0.124455831945, Q4 : 0.589080154896}
2019-04-14 12:53:46.41: SIM {TimeUS : 64435049, Roll : 0.16, Pitch : -17.96, Yaw : 73.18, Alt : 49.3300018311, Lat : 49.2836603, Lng : -123.1145531, Q1 : 0.792896270752, Q2 : 0.0942577049136, Q3 : -0.124504759908, Q4 : 0.589007258415}
2019-04-14 12:53:46.51: SIM {TimeUS : 64535009, Roll : 0.17, Pitch : -17.97, Yaw : 73.17, Alt : 49.3300018311, Lat : 49.2836615, Lng : -123.1145468, Q1 : 0.792939603329, Q2 : 0.0943449735641, Q3 : -0.124513588846, Q4 : 0.588933110237}
2019-04-14 12:53:46.61: SIM {TimeUS : 64634969, Roll : 0.18, Pitch : -17.97, Yaw : 73.16, Alt : 49.3300018311, Lat : 49.2836627, Lng : -123.1145405, Q1 : 0.792995870113, Q2 : 0.0943623036146, Q3 : -0.124468997121, Q4 : 0.588863968849}
2019-04-14 12:53:46.71: SIM {TimeUS : 64734929, Roll : 0.18, Pitch : -17.97, Yaw : 73.15, Alt : 49.3300018311, Lat : 49.2836639, Lng : -123.1145341, Q1 : 0.79305434227, Q2 : 0.0943554788828, Q3 : -0.124464005232, Q4 : 0.588787376881}
2019-04-14 12:53:46.81: SIM {TimeUS : 64834889, Roll : 0.16, Pitch : -17.99, Yaw : 73.14, Alt : 49.3300018311, Lat : 49.2836651, Lng : -123.1145278, Q1 : 0.793102145195, Q2 : 0.0943253561854, Q3 : -0.124702841043, Q4 : 0.588677287102}
2019-04-14 12:53:46.91: SIM {TimeUS : 64934849, Roll : 0.14, Pitch : -18.02, Yaw : 73.13, Alt : 49.3300018311, Lat : 49.2836664, Lng : -123.1145214, Q1 : 0.7931381464, Q2 : 0.0943154767156, Q3 : -0.12510432303, Q4 : 0.588545143604}
2019-04-14 12:53:47.01: SIM {TimeUS : 65034809, Roll : 0.12, Pitch : -18.03, Yaw : 73.12, Alt : 49.3400001526, Lat : 49.2836676, Lng : -123.1145151, Q1 : 0.793197989464, Q2 : 0.0942110642791, Q3 : -0.125233769417, Q4 : 0.588453710079}
2019-04-14 12:53:47.11: SIM {TimeUS : 65134769, Roll : 0.13, Pitch : -18.01, Yaw : 73.11, Alt : 49.3400001526, Lat : 49.2836688, Lng : -123.1145086, Q1 : 0.793263137341, Q2 : 0.0941711962223, Q3 : -0.125050783157, Q4 : 0.588411152363}
2019-04-14 12:53:47.21: SIM {TimeUS : 65234729, Roll : 0.15, Pitch : -17.99, Yaw : 73.1, Alt : 49.3400001526, Lat : 49.28367, Lng : -123.1145023, Q1 : 0.793317079544, Q2 : 0.0942114591599, Q3 : -0.124854214489, Q4 : 0.588373661041}
2019-04-14 12:53:47.32: SIM {TimeUS : 65335522, Roll : 0.16, Pitch : -18.0, Yaw : 73.09, Alt : 49.3400001526, Lat : 49.2836712, Lng : -123.1144959, Q1 : 0.793355762959, Q2 : 0.0943059623241, Q3 : -0.124866738915, Q4 : 0.588303804398}
2019-04-14 12:53:47.41: SIM {TimeUS : 65435482, Roll : 0.14, Pitch : -18.02, Yaw : 73.08, Alt : 49.3400001526, Lat : 49.2836724, Lng : -123.1144895, Q1 : 0.793401002884, Q2 : 0.0942762345076, Q3 : -0.125078335404, Q4 : 0.588202595711}
2019-04-14 12:53:47.51: SIM {TimeUS : 65535442, Roll : 0.11, Pitch : -18.04, Yaw : 73.07, Alt : 49.3400001526, Lat : 49.2836736, Lng : -123.1144832, Q1 : 0.793453156948, Q2 : 0.0941533595324, Q3 : -0.125407576561, Q4 : 0.5880818367}
2019-04-14 12:53:47.61: SIM {TimeUS : 65635402, Roll : 0.09, Pitch : -18.06, Yaw : 73.05, Alt : 49.3400001526, Lat : 49.2836749, Lng : -123.1144768, Q1 : 0.793501913548, Q2 : 0.0941388010979, Q3 : -0.125666320324, Q4 : 0.587963163853}
2019-04-14 12:53:47.71: SIM {TimeUS : 65735362, Roll : 0.1, Pitch : -18.09, Yaw : 73.04, Alt : 49.3400001526, Lat : 49.2836761, Lng : -123.1144703, Q1 : 0.793539166451, Q2 : 0.0942789167166, Q3 : -0.125814214349, Q4 : 0.58785867691}
2019-04-14 12:53:47.81: SIM {TimeUS : 65835322, Roll : 0.11, Pitch : -18.11, Yaw : 73.03, Alt : 49.3400001526, Lat : 49.2836773, Lng : -123.114464, Q1 : 0.793569803238, Q2 : 0.0944650769234, Q3 : -0.125890702009, Q4 : 0.587771117687}
2019-04-14 12:53:47.91: SIM {TimeUS : 65935282, Roll : 0.14, Pitch : -18.12, Yaw : 73.02, Alt : 49.3400001526, Lat : 49.2836785, Lng : -123.1144576, Q1 : 0.79359382391, Q2 : 0.0947284847498, Q3 : -0.125851795077, Q4 : 0.587704658508}
2019-04-14 12:53:48.01: SIM {TimeUS : 66035242, Roll : 0.16, Pitch : -18.13, Yaw : 73.0, Alt : 49.3400001526, Lat : 49.2836798, Lng : -123.1144512, Q1 : 0.793625891209, Q2 : 0.0949094519019, Q3 : -0.125874787569, Q4 : 0.58762717247}
2019-04-14 12:53:48.11: SIM {TimeUS : 66135202, Roll : 0.17, Pitch : -18.15, Yaw : 72.99, Alt : 49.3400001526, Lat : 49.283681, Lng : -123.1144448, Q1 : 0.793656289577, Q2 : 0.0950806215405, Q3 : -0.125919163227, Q4 : 0.587548911572}
2019-04-14 12:53:48.21: SIM {TimeUS : 66235162, Roll : 0.19, Pitch : -18.16, Yaw : 72.98, Alt : 49.3400001526, Lat : 49.2836822, Lng : -123.1144383, Q1 : 0.793680906296, Q2 : 0.0952610448003, Q3 : -0.125919163227, Q4 : 0.587486445904}
