2019-04-14 14:43:30.20: SIM {TimeUS : 40216407, Roll : 0.0, Pitch : 0.0, Yaw : 0.0, Alt : 30.1000003815, Lat : 49.28357, Lng : -123.11502, Q1 : 1.0, Q2 : 0.0, Q3 : 0.0, Q4 : 0.0}
2019-04-14 14:43:30.31: SIM {TimeUS : 40335526, Roll : 0.0, Pitch : 0.0, Yaw : 0.0, Alt : 30.1000003815, Lat : 49.28357, Lng : -123.11502, Q1 : 1.0, Q2 : 0.0, Q3 : 0.0, Q4 : 0.0}
2019-04-14 14:43:30.41: SIM {TimeUS : 40435486, Roll : 0.0, Pitch : 0.0, Yaw : 0.0, Alt : 30.1000003815, Lat : 49.28357, Lng : -123.11502, Q1 : 1.0, Q2 : 0.0, Q3 : 0.0, Q4 : 0.0}
2019-04-14 14:43:30.51: SIM {TimeUS : 40535446, Roll : 0.0, Pitch : 0.0, Yaw : 0.0, Alt : 30.1000003815, Lat : 49.28357, Lng : -123.11502, Q1 : 1.0, Q2 : 0.0, Q3 : 0.0, Q4 : 0.0}
2019-04-14 14:43:30.61: SIM {TimeUS : 40635406, Roll : 0.0, Pitch : 0.0, Yaw : 0.0, Alt : 30.1000003815, Lat : 49.28357, Lng : -123.11502, Q1 : 1.0, Q2 : 0.0, Q3 : 0.0, Q4 : 0.0}
2019-04-14 14:43:30.71: SIM {TimeUS : 40735366, Roll : 0.0, Pitch : 0.0, Yaw : 0.0, Alt : 30.1000003815, Lat : 49.28357, Lng : -123.11502, Q1 : 1.0, Q2 : 0.0, Q3 : 0.0, Q4 : 0.0}
2019-04-14 14:43:30.81: SIM {TimeUS : 40835326, Roll : 0.0, Pitch : 0.0, Yaw : 0.0, Alt : 30.1000003815, Lat : 49.28357, Lng : -123.11502, Q1 : 1.0, Q2 : 0.0, Q3 : 0.0, Q4 : 0.0}
2019-04-14 14:43:30.91: SIM {TimeUS : 40935286, Roll : 0.0, Pitch : 0.0, Yaw : 0.0, Alt : 30.1000003815, Lat : 49.28357, Lng : -123.11502, Q1 : 1.0, Q2 : 0.0, Q3 : 0.0, Q4 : 0.0}
2019-04-14 14:43:31.01: SIM {TimeUS : 41035246, Roll : 0.0, Pitch : 0.0, Yaw : 0.0, Alt : 30.1000003815, Lat : 49.28357, Lng : -123.11502, Q1 : 1.0, Q2 : 0.0, Q3 : 0.0, Q4 : 0.0}
2019-04-14 14:43:31.11: SIM {TimeUS : 41135206, Roll : 0.0, Pitch : 0.0, Yaw : 0.0, Alt : 30.1000003815, Lat : 49.28357, Lng : -123.11502, Q1 : 1.0, Q2 : 0.0, Q3 : 0.0, Q4 : 0.0}
2019-04-14 14:43:31.21: SIM {TimeUS : 41235166, Roll : 0.0, Pitch : 0.0, Yaw : 0.0, Alt : 30.1000003815, Lat : 49.28357, Lng : -123.11502, Q1 : 1.0, Q2 : 0.0, Q3 : 0.0, Q4 : 0.0}
2019-04-14 14:43:31.31: SIM {TimeUS : 41335126, Roll : 0.0, Pitch : 0.0, Yaw : 0.0, Alt : 30.1000003815, Lat : 49.28357, Lng : -123.11502, Q1 : 1.0, Q2 : 0.0, Q3 : 0.0, Q4 : 0.0}
2019-04-14 14:43:31.41: SIM {TimeUS : 41435086, Roll : 0.0, Pitch : 0.0, Yaw : 0.0, Alt : 30.1000003815, Lat : 49.28357, Lng : -123.11502, Q1 : 1.0, Q2 : 0.0, Q3 : 0.0, Q4 : 0.0}
2019-04-14 14:43:31.51: SIM {TimeUS : 41535046, Roll : 0.0, Pitch : 0.0, Yaw : 0.0, Alt : 30.1000003815, Lat : 49.28357, Lng : -123.11502, Q1 : 1.0, Q2 : 0.0, Q3 : 0.0, Q4 : 0.0}
2019-04-14 14:43:31.61: SIM {TimeUS : 41635006, Roll : 0.0, Pitch : 0.0, Yaw : 0.0, Alt : 30.1000003815, Lat : 49.28357, Lng : -123.11502, Q1 : 1.0, Q2 : 0.0, Q3 : 0.0, Q4 : 0.0}
2019-04-14 14:43:31.71: SIM {TimeUS : 41734966, Roll : 0.0, Pitch : 0.0, Yaw : 0.0, Alt : 30.1000003815, Lat : 49.28357, Lng : -123.11502, Q1 : 1.0, Q2 : 0.0, Q3 : 0.0, Q4 : 0.0}
2019-04-14 14:43:31.81: SIM {TimeUS : 41834926, Roll : 0.0, Pitch : 0.0, Yaw : 0.0, Alt : 30.1000003815, Lat : 49.28357, Lng : -123.11502, Q1 : 1.0, Q2 : 0.0, Q3 : 0.0, Q4 : 0.0}
2019-04-14 14:43:31.91: SIM {TimeUS : 41934886, Roll : 0.0, Pitch : 0.0, Yaw : 0.0, Alt : 30.1000003815, Lat : 49.28357, Lng : -123.11502, Q1 : 1.0, Q2 : 0.0, Q3 : 0.0, Q4 : 0.0}
2019-04-14 14:43:32.01: SIM {TimeUS : 42034846, Roll : 0.0, Pitch : 0.0, Yaw : 0.0, Alt : 30.1000003815, Lat : 49.28357, Lng : -123.11502, Q1 : 1.0, Q2 : 0.0, Q3 : 0.0, Q4 : 0.0}
2019-04-14 14:43:32.11: SIM {TimeUS : 42134806, Roll : 0.0, Pitch : 0.0, Yaw : 0.0, Alt : 30.1000003815, Lat : 49.28357, Lng : -123.11502, Q1 : 1.0, Q2 : 0.0, Q3 : 0.0, Q4 : 0.0}
2019-04-14 14:43:32.21: SIM {TimeUS : 42234766, Roll : 0.0, Pitch : 0.0, Yaw : 0.0, Alt : 30.1000003815, Lat : 49.28357, Lng : -123.11502, Q1 : 1.0, Q2 : 0.0, Q3 : 0.0, Q4 : 0.0}
2019-04-14 14:43:32.31: SIM {TimeUS : 42335559, Roll : 0.0, Pitch : 0.0, Yaw : 0.0, Alt : 30.1000003815, Lat : 49.28357, Lng : -123.11502, Q1 : 1.0, Q2 : 0.0, Q3 : 0.0, Q4 : 0.0}
2019-04-14 14:43:32.41: SIM {TimeUS : 42435519, Roll : 0.0, Pitch : 0.0, Yaw : 0.0, Alt : 30.1000003815, Lat : 49.28357, Lng : -123.11502, Q1 : 1.0, Q2 : 0.0, Q3 : 0.0, Q4 : 0.0}
2019-04-14 14:43:32.51: SIM {TimeUS : 42535479, Roll : 0.0, Pitch : 0.0, Yaw : 360.0, Alt : 30.1000003815, Lat : 49.28357, Lng : -123.11502, Q1 : 1.0, Q2 : 0.0, Q3 : 0.0, Q4 : -1.1336584449e-11}
2019-04-14 14:43:32.61: SIM {TimeUS : 42635439, Roll : 0.0, Pitch : 0.0, Yaw : 360.0, Alt : 30.1000003815, Lat : 49.28357, Lng : -123.11502, Q1 : 1.0, Q2 : 0.0, Q3 : 0.0, Q4 : -1.61812430122e-08}
2019-04-14 14:43:32.71: SIM {TimeUS : 42735399, Roll : 0.0, Pitch : 0.0, Yaw : 359.99, Alt : 30.1000003815, Lat : 49.28357, Lng : -123.11502, Q1 : 1.0, Q2 : 0.0, Q3 : 0.0, Q4 : -2.16404146158e-07}
2019-04-14 14:43:32.81: SIM {TimeUS : 42835359, Roll : 0.0, Pitch : 0.0, Yaw : 359.99, Alt : 30.1000003815, Lat : 49.28357, Lng : -123.11502, Q1 : 1.0, Q2 : 0.0, Q3 : 0.0, Q4 : -4.00140066859e-07}
2019-04-14 14:43:32.91: SIM {TimeUS : 42935319, Roll : 0.0, Pitch : 0.0, Yaw : 359.99, Alt : 30.1000003815, Lat : 49.28357, Lng : -123.11502, Q1 : 1.0, Q2 : 0.0, Q3 : 0.0, Q4 : -5.78742856305e-07}
2019-04-14 14:43:33.01: SIM {TimeUS : 43035279, Roll : 0.0, Pitch : 0.0, Yaw : 359.99, Alt : 30.1000003815, Lat : 49.28357, Lng : -123.11502, Q1 : 1.0, Q2 : 0.0, Q3 : 0.0, Q4 : -7.99804467988e-07}
2019-04-14 14:43:33.11: SIM {TimeUS : 43135239, Roll : 0.0, Pitch : 0.0, Yaw : 359.99, Alt : 30.1000003815, Lat : 49.28357, Lng : -123.11502, Q1 : 1.0, Q2 : 0.0, Q3 : 0.0, Q4 : -1.00090221622e-06}
2019-04-14 14:43:33.21: SIM {TimeUS : 43235199, Roll : 0.0, Pitch : 0.0, Yaw : 359.99, Alt : 30.1000003815, Lat : 49.28357, Lng : -123.11502, Q1 : 1.0, Q2 : 0.0, Q3 : 0.0, Q4 : -1.18568971175e-06}
2019-04-14 14:43:33.31: SIM {TimeUS : 43335159, Roll : 0.0, Pitch : 0.0, Yaw : 359.99, Alt : 30.1000003815, Lat : 49.28357, Lng : -123.11502, Q1 : 1.0, Q2 : 0.0, Q3 : 0.0, Q4 : -1.36967435083e-06}
2019-04-14 14:43:33.41: SIM {TimeUS : 43435119, Roll : 0.0, Pitch : 0.0, Yaw : 359.99, Alt : 30.1200008392, Lat : 49.28357, Lng : -123.11502, Q1 : 1.0, Q2 : 0.0, Q3 : 0.0, Q4 : -1.59766761954e-06}
2019-04-14 14:43:33.51: SIM {TimeUS : 43535079, Roll : 0.0, Pitch : 0.0, Yaw : 359.99, Alt : 30.1499996185, Lat : 49.28357, Lng : -123.11502, Q1 : 1.0, Q2 : 0.0, Q3 : 0.0, Q4 : -1.82050450803e-06}
2019-04-14 14:43:33.61: SIM {TimeUS : 43635039, Roll : 0.0, Pitch : 0.0, Yaw : 359.99, Alt : 30.1800003052, Lat : 49.28357, Lng : -123.11502, Q1 : 1.0, Q2 : 0.0, Q3 : 0.0, Q4 : -2.07927223528e-06}
2019-04-14 14:43:33.71: SIM {TimeUS : 43734999, Roll : 0.0, Pitch : 0.0, Yaw : 359.99, Alt : 30.2099990845, Lat : 49.28357, Lng : -123.11502, Q1 : 1.0, Q2 : -8.46819239086e-06, Q3 : -7.5176099017e-06, Q4 : -2.36227833739e-06}
2019-04-14 14:43:33.81: SIM {TimeUS : 43834959, Roll : -0.19, Pitch : -0.15, Yaw : 359.99, Alt : 30.2700004578, Lat : 49.28357, Lng : -123.11502, Q1 : 0.999997675419, Q2 : -0.00167278957088, Q3 : -0.00137585261837, Q4 : -1.84880373126e-05}
2019-04-14 14:43:33.91: SIM {TimeUS : 43934919, Roll : -0.5, Pitch : -0.41, Yaw : 359.99, Alt : 30.3899993896, Lat : 49.28357, Lng : -123.11502, Q1 : 0.999983847141, Q2 : -0.00440711108968, Q3 : -0.00359473098069, Q4 : -6.1946666392e-05}
2019-04-14 14:43:34.01: SIM {TimeUS : 44034879, Roll : -0.74, Pitch : -0.62, Yaw : 359.98, Alt : 30.5400009155, Lat : 49.28357, Lng : -123.11502, Q1 : 0.99996393919, Q2 : -0.00649789581075, Q3 : -0.0054677138105, Q4 : -0.000132879096782}
2019-04-14 14:43:34.11: SIM {TimeUS : 44134839, Roll : -0.83, Pitch : -0.72, Yaw : 359.97, Alt : 30.7000007629, Lat : 49.28357, Lng : -123.11502, Q1 : 0.999953269958, Q2 : -0.0073137357831, Q3 : -0.00631409324706, Q4 : -0.000221245310968}
2019-04-14 14:43:34.21: SIM {TimeUS : 44234799, Roll : -0.78, Pitch : -0.68, Yaw : 359.96, Alt : 30.8600006104, Lat : 49.28357, Lng : -123.1150201, Q1 : 0.999958276749, Q2 : -0.00686680106446, Q3 : -0.00601511215791, Q4 : -0.00031673439662}
2019-04-14 14:43:34.31: SIM {TimeUS : 44334759, Roll : -0.63, Pitch : -0.55, Yaw : 359.95, Alt : 31.0100002289, Lat : 49.2835701, Lng : -123.1150201, Q1 : 0.999972939491, Q2 : -0.00550365634263, Q3 : -0.00486168963835, Q4 : -0.000405251776101}
2019-04-14 14:43:34.41: SIM {TimeUS : 44435552, Roll : -0.39, Pitch : -0.39, Yaw : 359.94, Alt : 31.1700000763, Lat : 49.2835701, Lng : -123.1150202, Q1 : 0.999988019466, Q2 : -0.00348017015494, Q3 : -0.00341044389643, Q4 : -0.000478640809888}
2019-04-14 14:43:34.51: SIM {TimeUS : 44535512, Roll : -0.17, Pitch : -0.21, Yaw : 359.93, Alt : 31.3299999237, Lat : 49.2835701, Lng : -123.1150203, Q1 : 0.999996840954, Q2 : -0.00156533368863, Q3 : -0.00187749473844, Q4 : -0.000532284786459}
2019-04-14 14:43:34.61: SIM {TimeUS : 44635472, Roll : -0.03, Pitch : -0.06, Yaw : 359.93, Alt : 31.5, Lat : 49.2835702, Lng : -123.1150204, Q1 : 0.999999642372, Q2 : -0.000292047334369, Q3 : -0.000579353771172, Q4 : -0.000570955337025}
2019-04-14 14:43:34.71: SIM {TimeUS : 44735432, Roll : 0.04, Pitch : 0.02, Yaw : 359.93, Alt : 31.6700000763, Lat : 49.2835702, Lng : -123.1150205, Q1 : 0.999999761581, Q2 : 0.000357945507858, Q3 : 0.00019999302458, Q4 : -0.000592533266172}
2019-04-14 14:43:34.81: SIM {TimeUS : 44835392, Roll : 0.05, Pitch : 0.05, Yaw : 359.93, Alt : 31.8500003815, Lat : 49.2835703, Lng : -123.1150205, Q1 : 0.999999582767, Q2 : 0.000513093429618, Q3 : 0.000510225072503, Q4 : -0.00060522207059}
2019-04-14 14:43:34.91: SIM {TimeUS : 44935352, Roll : 0.05, Pitch : 0.05, Yaw : 359.93, Alt : 32.0400009155, Lat : 49.2835703, Lng : -123.1150206, Q1 : 0.999999582767, Q2 : 0.000509266392328, Q3 : 0.000470737111755, Q4 : -0.000601345207542}
2019-04-14 14:43:35.01: SIM {TimeUS : 45035312, Roll : 0.06, Pitch : 0.03, Yaw : 359.93, Alt : 32.2299995422, Lat : 49.2835703, Lng : -123.1150207, Q1 : 0.999999642372, Q2 : 0.000547730305698, Q3 : 0.000282851193333, Q4 : -0.000583629589528}
2019-04-14 14:43:35.11: SIM {TimeUS : 45135272, Roll : 0.08, Pitch : 0.02, Yaw : 359.93, Alt : 32.4199981689, Lat : 49.2835703, Lng : -123.1150207, Q1 : 0.999999582767, Q2 : 0.000709730316885, Q3 : 0.000202494789846, Q4 : -0.000563593464904}
2019-04-14 14:43:35.21: SIM {TimeUS : 45235232, Roll : 0.1, Pitch : 0.05, Yaw : 359.93, Alt : 32.6100006104, Lat : 49.2835703, Lng : -123.1150208, Q1 : 0.999999344349, Q2 : 0.000904636981431, Q3 : 0.000439458934125, Q4 : -0.000534497783519}
2019-04-14 14:43:35.31: SIM {TimeUS : 45335192, Roll : 0.12, Pitch : 0.1, Yaw : 359.94, Alt : 32.8100013733, Lat : 49.2835704, Lng : -123.1150208, Q1 : 0.999998867512, Q2 : 0.00109488132875, Q3 : 0.000915264012292, Q4 : -0.000490647507831}
2019-04-14 14:43:35.41: SIM {TimeUS : 45435152, Roll : 0.14, Pitch : 0.15, Yaw : 359.94, Alt : 33.0099983215, Lat : 49.2835704, Lng : -123.1150208, Q1 : 0.999998211861, Q2 : 0.00122256088071, Q3 : 0.0013625966385, Q4 : -0.000451991683803}
2019-04-14 14:43:35.51: SIM {TimeUS : 45535112, Roll : 0.16, Pitch : 0.19, Yaw : 359.95, Alt : 33.2099990845, Lat : 49.2835704, Lng : -123.1150209, Q1 : 0.999997437, Q2 : 0.00141726608854, Q3 : 0.00171491398942, Q4 : -0.000424365978688}
2019-04-14 14:43:35.61: SIM {TimeUS : 45635072, Roll : 0.18, Pitch : 0.21, Yaw : 359.95, Alt : 33.4199981689, Lat : 49.2835704, Lng : -123.1150209, Q1 : 0.999996840954, Q2 : 0.00162826105952, Q3 : 0.00187048723456, Q4 : -0.000417141534854}
2019-04-14 14:43:35.71: SIM {TimeUS : 45735032, Roll : 0.19, Pitch : 0.21, Yaw : 359.95, Alt : 33.6199989319, Lat : 49.2835704, Lng : -123.1150209, Q1 : 0.99999666214, Q2 : 0.00169867835939, Q3 : 0.00188729981892, Q4 : -0.000423902733019}
2019-04-14 14:43:35.81: SIM {TimeUS : 45834992, Roll : 0.17, Pitch : 0.2, Yaw : 359.94, Alt : 33.8300018311, Lat : 49.2835704, Lng : -123.1150209, Q1 : 0.999997079372, Q2 : 0.00154137972277, Q3 : 0.00181268167216, Q4 : -0.000442456948804}
2019-04-14 14:43:35.91: SIM {TimeUS : 45934952, Roll : 0.15, Pitch : 0.16, Yaw : 359.94, Alt : 34.0400009155, Lat : 49.2835704, Lng : -123.1150209, Q1 : 0.999997913837, Q2 : 0.0013382465113, Q3 : 0.00147270946763, Q4 : -0.000465137389256}
2019-04-14 14:43:36.01: SIM {TimeUS : 46034912, Roll : 0.13, Pitch : 0.11, Yaw : 359.94, Alt : 34.25, Lat : 49.2835706, Lng : -123.1150209, Q1 : 0.999998807907, Q2 : 0.00113855313975, Q3 : 0.000961978221312, Q4 : -0.0004781257594}
2019-04-14 14:43:36.11: SIM {TimeUS : 46134872, Roll : 0.1, Pitch : 0.06, Yaw : 359.94, Alt : 34.4599990845, Lat : 49.2835706, Lng : -123.1150209, Q1 : 0.999999284744, Q2 : 0.000942898041103, Q3 : 0.000583055079915, Q4 : -0.000500228139572}
2019-04-14 14:43:36.21: SIM {TimeUS : 46234832, Roll : 0.08, Pitch : 0.04, Yaw : 359.93, Alt : 34.6699981689, Lat : 49.2835706, Lng : -123.1150209, Q1 : 0.999999523163, Q2 : 0.000763122108765, Q3 : 0.000374855473638, Q4 : -0.000534154241905}
2019-04-14 14:43:36.31: SIM {TimeUS : 46334792, Roll : 0.08, Pitch : 0.04, Yaw : 359.93, Alt : 34.8899993896, Lat : 49.2835704, Lng : -123.1150209, Q1 : 0.999999463558, Q2 : 0.000735110079404, Q3 : 0.000383343111025, Q4 : -0.000575324927922}
2019-04-14 14:43:36.41: SIM {TimeUS : 46434752, Roll : 0.08, Pitch : 0.04, Yaw : 359.92, Alt : 35.0999984741, Lat : 49.2835704, Lng : -123.1150208, Q1 : 0.999999463558, Q2 : 0.000753123429604, Q3 : 0.000395397102693, Q4 : -0.000622531224508}
2019-04-14 14:43:36.51: SIM {TimeUS : 46535545, Roll : 0.07, Pitch : 0.05, Yaw : 359.92, Alt : 35.3199996948, Lat : 49.2835704, Lng : -123.1150208, Q1 : 0.999999403954, Q2 : 0.000680749246385, Q3 : 0.000472223560791, Q4 : -0.000673130620271}
2019-04-14 14:43:36.61: SIM {TimeUS : 46635505, Roll : 0.05, Pitch : 0.06, Yaw : 359.91, Alt : 35.5400009155, Lat : 49.2835704, Lng : -123.1150208, Q1 : 0.999999463558, Q2 : 0.000508960161824, Q3 : 0.00055033393437, Q4 : -0.000721328135114}
2019-04-14 14:43:36.71: SIM {TimeUS : 46735465, Roll : 0.03, Pitch : 0.07, Yaw : 359.91, Alt : 35.7599983215, Lat : 49.2835704, Lng : -123.1150208, Q1 : 0.999999463558, Q2 : 0.000324832479237, Q3 : 0.000636060955003, Q4 : -0.000762493582442}
2019-04-14 14:43:36.81: SIM {TimeUS : 46835425, Roll : 0.02, Pitch : 0.05, Yaw : 359.9, Alt : 35.9799995422, Lat : 49.2835704, Lng : -123.1150208, Q1 : 0.999999582767, Q2 : 0.000190687351278, Q3 : 0.000461930438178, Q4 : -0.000787326076534}
2019-04-14 14:43:36.91: SIM {TimeUS : 46935385, Roll : 0.01, Pitch : 0.03, Yaw : 359.9, Alt : 36.2000007629, Lat : 49.2835704, Lng : -123.1150207, Q1 : 0.999999642372, Q2 : 9.62578633334e-05, Q3 : 0.000269022973953, Q4 : -0.000805006420705}
2019-04-14 14:43:37.01: SIM {TimeUS : 47035345, Roll : 0.0, Pitch : 0.01, Yaw : 359.9, Alt : 36.4199981689, Lat : 49.2835704, Lng : -123.1150207, Q1 : 0.999999642372, Q2 : -2.24829673243e-05, Q3 : 0.000103230202512, Q4 : -0.000825061928481}
2019-04-14 14:43:37.11: SIM {TimeUS : 47135305, Roll : 0.0, Pitch : 0.0, Yaw : 359.9, Alt : 36.6399993896, Lat : 49.2835704, Lng : -123.1150207, Q1 : 0.999999642372, Q2 : -8.20597051643e-05, Q3 : 4.93051811645e-06, Q4 : -0.000844070571475}
2019-04-14 14:43:37.21: SIM {TimeUS : 47235265, Roll : 0.0, Pitch : -0.01, Yaw : 359.9, Alt : 36.8699989319, Lat : 49.2835704, Lng : -123.1150207, Q1 : 0.999999642372, Q2 : 9.79964625003e-07, Q3 : -9.45847132243e-05, Q4 : -0.000861649692524}
2019-04-14 14:43:37.31: SIM {TimeUS : 47335225, Roll : 0.0, Pitch : -0.02, Yaw : 359.89, Alt : 37.0900001526, Lat : 49.2835704, Lng : -123.1150207, Q1 : 0.999999582767, Q2 : -5.01508548041e-05, Q3 : -0.000256084604189, Q4 : -0.000876492005773}
2019-04-14 14:43:37.41: SIM {TimeUS : 47435185, Roll : -0.03, Pitch : -0.05, Yaw : 359.89, Alt : 37.3199996948, Lat : 49.2835704, Lng : -123.1150207, Q1 : 0.999999403954, Q2 : -0.000291366130114, Q3 : -0.000513157167006, Q4 : -0.000895930512343}
2019-04-14 14:43:37.51: SIM {TimeUS : 47535145, Roll : -0.07, Pitch : -0.08, Yaw : 359.89, Alt : 37.5400009155, Lat : 49.2835704, Lng : -123.1150207, Q1 : 0.99999910593, Q2 : -0.000638543802779, Q3 : -0.000725310877897, Q4 : -0.000923671410419}
2019-04-14 14:43:37.61: SIM {TimeUS : 47635105, Roll : -0.1, Pitch : -0.09, Yaw : 359.89, Alt : 37.7700004578, Lat : 49.2835704, Lng : -123.1150206, Q1 : 0.999998748302, Q2 : -0.000953679380473, Q3 : -0.000840956519824, Q4 : -0.000952785951085}
2019-04-14 14:43:37.71: SIM {TimeUS : 47735065, Roll : -0.13, Pitch : -0.09, Yaw : 359.88, Alt : 37.9900016785, Lat : 49.2835704, Lng : -123.1150206, Q1 : 0.999998450279, Q2 : -0.0011611826485, Q3 : -0.000869572570082, Q4 : -0.00098391820211}
2019-04-14 14:43:37.81: SIM {TimeUS : 47835025, Roll : -0.14, Pitch : -0.09, Yaw : 359.88, Alt : 38.2200012207, Lat : 49.2835704, Lng : -123.1150206, Q1 : 0.999998390675, Q2 : -0.00122390943579, Q3 : -0.000800007721409, Q4 : -0.00101248524152}
2019-04-14 14:43:37.91: SIM {TimeUS : 47934985, Roll : -0.12, Pitch : -0.06, Yaw : 359.88, Alt : 38.4500007629, Lat : 49.2835704, Lng : -123.1150206, Q1 : 0.999998748302, Q2 : -0.00106720125768, Q3 : -0.000540392939001, Q4 : -0.00103632279206}
2019-04-14 14:43:38.01: SIM {TimeUS : 48034945, Roll : -0.09, Pitch : -0.04, Yaw : 359.87, Alt : 38.6800003052, Lat : 49.2835704, Lng : -123.1150206, Q1 : 0.999999046326, Q2 : -0.000794056395534, Q3 : -0.000406592240324, Q4 : -0.00105844810605}
2019-04-14 14:43:38.11: SIM {TimeUS : 48134905, Roll : -0.07, Pitch : -0.04, Yaw : 359.87, Alt : 38.9099998474, Lat : 49.2835704, Lng : -123.1150206, Q1 : 0.999999165535, Q2 : -0.000617874378804, Q3 : -0.000380908866646, Q4 : -0.00109067221638}
2019-04-14 14:43:38.21: SIM {TimeUS : 48234865, Roll : -0.06, Pitch : -0.02, Yaw : 359.87, Alt : 39.1399993896, Lat : 49.2835704, Lng : -123.1150206, Q1 : 0.999999165535, Q2 : -0.000556698767468, Q3 : -0.000215251231566, Q4 : -0.00111349252984}
2019-04-14 14:43:38.31: SIM {TimeUS : 48334825, Roll : -0.07, Pitch : 0.0, Yaw : 359.87, Alt : 39.3600006104, Lat : 49.2835704, Lng : -123.1150206, Q1 : 0.99999910593, Q2 : -0.000693572685122, Q3 : -2.36777304963e-05, Q4 : -0.00112403265666}
2019-04-14 14:43:38.41: SIM {TimeUS : 48434785, Roll : -0.08, Pitch : 0.01, Yaw : 359.87, Alt : 39.5900001526, Lat : 49.2835704, Lng : -123.1150206, Q1 : 0.99999910593, Q2 : -0.000713365734555, Q3 : 0.000122415745864, Q4 : -0.00112747808453}
2019-04-14 14:43:38.51: SIM {TimeUS : 48534745, Roll : -0.06, Pitch : 0.04, Yaw : 359.87, Alt : 39.8300018311, Lat : 49.2835704, Lng : -123.1150206, Q1 : 0.999999165535, Q2 : -0.000545183371287, Q3 : 0.000355512776878, Q4 : -0.00113087764475}
2019-04-14 14:43:38.61: SIM {TimeUS : 48635538, Roll : -0.03, Pitch : 0.04, Yaw : 359.87, Alt : 40.0600013733, Lat : 49.2835704, Lng : -123.1150206, Q1 : 0.999999284744, Q2 : -0.000311728799716, Q3 : 0.000349611946149, Q4 : -0.00112872978207}
2019-04-14 14:43:38.71: SIM {TimeUS : 48735498, Roll : 0.0, Pitch : 0.03, Yaw : 359.87, Alt : 40.2900009155, Lat : 49.2835706, Lng : -123.1150207, Q1 : 0.999999284744, Q2 : -1.95712345885e-05, Q3 : 0.000284518901026, Q4 : -0.00112921698019}
2019-04-14 14:43:38.81: SIM {TimeUS : 48835458, Roll : 0.03, Pitch : 0.05, Yaw : 359.87, Alt : 40.5200004578, Lat : 49.2835706, Lng : -123.1150207, Q1 : 0.99999922514, Q2 : 0.00029640464345, Q3 : 0.000451853848062, Q4 : -0.00112732150592}
2019-04-14 14:43:38.91: SIM {TimeUS : 48935418, Roll : 0.07, Pitch : 0.08, Yaw : 359.87, Alt : 40.75, Lat : 49.2835706, Lng : -123.1150207, Q1 : 0.999998867512, Q2 : 0.000637051358353, Q3 : 0.000775375461672, Q4 : -0.00113426102325}
2019-04-14 14:43:39.01: SIM {TimeUS : 49035378, Roll : 0.09, Pitch : 0.12, Yaw : 359.86, Alt : 40.9900016785, Lat : 49.2835706, Lng : -123.1150207, Q1 : 0.999998390675, Q2 : 0.000869365292601, Q3 : 0.00108663586434, Q4 : -0.00115090701729}
2019-04-14 14:43:39.11: SIM {TimeUS : 49135338, Roll : 0.08, Pitch : 0.15, Yaw : 359.86, Alt : 41.2200012207, Lat : 49.2835706, Lng : -123.1150207, Q1 : 0.999998152256, Q2 : 0.000765050877817, Q3 : 0.00132909405511, Q4 : -0.00116318464279}
2019-04-14 14:43:39.21: SIM {TimeUS : 49235298, Roll : 0.03, Pitch : 0.16, Yaw : 359.86, Alt : 41.4500007629, Lat : 49.2835706, Lng : -123.1150207, Q1 : 0.999998152256, Q2 : 0.000321147585055, Q3 : 0.00146649742965, Q4 : -0.00119066459592}
2019-04-14 14:43:39.31: SIM {TimeUS : 49335258, Roll : -0.01, Pitch : 0.17, Yaw : 359.86, Alt : 41.6800003052, Lat : 49.2835706, Lng : -123.1150207, Q1 : 0.999998092651, Q2 : -0.00010649242904, Q3 : 0.00151160766836, Q4 : -0.0012189418776}
2019-04-14 14:43:39.41: SIM {TimeUS : 49435218, Roll : -0.03, Pitch : 0.15, Yaw : 359.85, Alt : 41.9199981689, Lat : 49.2835706, Lng : -123.1150207, Q1 : 0.99999833107, Q2 : -0.000279453670373, Q3 : 0.00132714107167, Q4 : -0.00124783953652}
2019-04-14 14:43:39.51: SIM {TimeUS : 49535178, Roll : -0.03, Pitch : 0.12, Yaw : 359.85, Alt : 42.1500015259, Lat : 49.2835706, Lng : -123.1150207, Q1 : 0.999998569489, Q2 : -0.000265918875812, Q3 : 0.00105429592077, Q4 : -0.00128064223099}
2019-04-14 14:43:39.61: SIM {TimeUS : 49635138, Roll : -0.01, Pitch : 0.11, Yaw : 359.84, Alt : 42.3899993896, Lat : 49.2835706, Lng : -123.1150207, Q1 : 0.999998569489, Q2 : -0.000117365969345, Q3 : 0.00102389801759, Q4 : -0.00131956173573}
2019-04-14 14:43:39.71: SIM {TimeUS : 49735098, Roll : 0.02, Pitch : 0.13, Yaw : 359.84, Alt : 42.6199989319, Lat : 49.2835706, Lng : -123.1150207, Q1 : 0.999998390675, Q2 : 0.000222450165893, Q3 : 0.00115083926357, Q4 : -0.00136470503639}
2019-04-14 14:43:39.81: SIM {TimeUS : 49835058, Roll : 0.07, Pitch : 0.14, Yaw : 359.83, Alt : 42.8600006104, Lat : 49.2835706, Lng : -123.1150207, Q1 : 0.999997973442, Q2 : 0.000682762940414, Q3 : 0.00125908502378, Q4 : -0.00140700745396}
2019-04-14 14:43:39.91: SIM {TimeUS : 49935018, Roll : 0.11, Pitch : 0.13, Yaw : 359.83, Alt : 43.0900001526, Lat : 49.2835706, Lng : -123.1150207, Q1 : 0.999997794628, Q2 : 0.00102737487759, Q3 : 0.00113408116158, Q4 : -0.00145071570296}
2019-04-14 14:43:40.01: SIM {TimeUS : 50034978, Roll : 0.11, Pitch : 0.1, Yaw : 359.82, Alt : 43.3300018311, Lat : 49.2835706, Lng : -123.1150207, Q1 : 0.999997973442, Q2 : 0.00103267142549, Q3 : 0.000885870074853, Q4 : -0.00148952775635}
2019-04-14 14:43:40.11: SIM {TimeUS : 50134938, Roll : 0.07, Pitch : 0.08, Yaw : 359.82, Alt : 43.5600013733, Lat : 49.2835704, Lng : -123.1150207, Q1 : 0.999998390675, Q2 : 0.000654624367598, Q3 : 0.000721421965864, Q4 : -0.00150946748909}
2019-04-14 14:43:40.21: SIM {TimeUS : 50234898, Roll : 0.01, Pitch : 0.07, Yaw : 359.82, Alt : 43.7999992371, Lat : 49.2835704, Lng : -123.1150207, Q1 : 0.999998569489, Q2 : 0.000116901363072, Q3 : 0.000678480602801, Q4 : -0.00151860609185}
2019-04-14 14:43:40.31: SIM {TimeUS : 50334858, Roll : -0.03, Pitch : 0.09, Yaw : 359.82, Alt : 44.0299987793, Lat : 49.2835704, Lng : -123.1150207, Q1 : 0.999998450279, Q2 : -0.000260754022747, Q3 : 0.000799760629889, Q4 : -0.00152781303041}
2019-04-14 14:43:40.41: SIM {TimeUS : 50434818, Roll : -0.04, Pitch : 0.09, Yaw : 359.82, Alt : 44.2700004578, Lat : 49.2835704, Lng : -123.1150207, Q1 : 0.999998390675, Q2 : -0.00043019594159, Q3 : 0.000850882846862, Q4 : -0.00153844465967}
2019-04-14 14:43:40.51: SIM {TimeUS : 50534778, Roll : -0.04, Pitch : 0.08, Yaw : 359.82, Alt : 44.5, Lat : 49.2835704, Lng : -123.1150206, Q1 : 0.999998450279, Q2 : -0.000386475847336, Q3 : 0.000720746058505, Q4 : -0.0015519115841}
2019-04-14 14:43:40.61: SIM {TimeUS : 50634738, Roll : -0.04, Pitch : 0.06, Yaw : 359.81, Alt : 44.7400016785, Lat : 49.2835704, Lng : -123.1150206, Q1 : 0.999998509884, Q2 : -0.000409472879255, Q3 : 0.000569743860979, Q4 : -0.00157275120728}
2019-04-14 14:43:40.71: SIM {TimeUS : 50735531, Roll : -0.04, Pitch : 0.04, Yaw : 359.81, Alt : 44.9799995422, Lat : 49.2835704, Lng : -123.1150206, Q1 : 0.999998569489, Q2 : -0.00037017869181, Q3 : 0.000395791867049, Q4 : -0.00159208336845}
2019-04-14 14:43:40.81: SIM {TimeUS : 50835491, Roll : -0.02, Pitch : 0.02, Yaw : 359.81, Alt : 45.2099990845, Lat : 49.2835704, Lng : -123.1150206, Q1 : 0.999998629093, Q2 : -0.0002152735251, Q3 : 0.000250524783041, Q4 : -0.00161920522805}
2019-04-14 14:43:40.91: SIM {TimeUS : 50935451, Roll : -0.01, Pitch : 0.01, Yaw : 359.81, Alt : 45.4500007629, Lat : 49.2835703, Lng : -123.1150206, Q1 : 0.999998629093, Q2 : -0.000141805925523, Q3 : 0.000151380925672, Q4 : -0.00165029487107}
2019-04-14 14:43:41.01: SIM {TimeUS : 51035411, Roll : -0.01, Pitch : 0.0, Yaw : 359.8, Alt : 45.6800003052, Lat : 49.2835703, Lng : -123.1150206, Q1 : 0.999998569489, Q2 : -0.000157330578077, Q3 : -4.30321335898e-07, Q4 : -0.0016827477375}
2019-04-14 14:43:41.11: SIM {TimeUS : 51135371, Roll : -0.02, Pitch : -0.02, Yaw : 359.8, Alt : 45.9199981689, Lat : 49.2835703, Lng : -123.1150206, Q1 : 0.999998509884, Q2 : -0.000194875479792, Q3 : -0.000237602042034, Q4 : -0.00171237881295}
2019-04-14 14:43:41.21: SIM {TimeUS : 51235331, Roll : -0.02, Pitch : -0.04, Yaw : 359.8, Alt : 46.1500015259, Lat : 49.2835703, Lng : -123.1150206, Q1 : 0.999998390675, Q2 : -0.00019941937353, Q3 : -0.000369198591216, Q4 : -0.00174290197901}
2019-04-14 14:43:41.31: SIM {TimeUS : 51335291, Roll : -0.01, Pitch : -0.05, Yaw : 359.79, Alt : 46.3699989319, Lat : 49.2835703, Lng : -123.1150206, Q1 : 0.99999833107, Q2 : -0.000143087061588, Q3 : -0.000445353740361, Q4 : -0.00177438033279}
2019-04-14 14:43:41.41: SIM {TimeUS : 51435251, Roll : -0.01, Pitch : -0.05, Yaw : 359.79, Alt : 46.5900001526, Lat : 49.2835703, Lng : -123.1150206, Q1 : 0.999998271465, Q2 : -0.000170446379343, Q3 : -0.000444078556029, Q4 : -0.00180615042336}
2019-04-14 14:43:41.51: SIM {TimeUS : 51535211, Roll : -0.04, Pitch : -0.04, Yaw : 359.78, Alt : 46.8100013733, Lat : 49.2835703, Lng : -123.1150206, Q1 : 0.999998152256, Q2 : -0.000374390045181, Q3 : -0.000409673608374, Q4 : -0.00183873774949}
2019-04-14 14:43:41.61: SIM {TimeUS : 51635171, Roll : -0.08, Pitch : -0.04, Yaw : 359.78, Alt : 47.0200004578, Lat : 49.2835703, Lng : -123.1150205, Q1 : 0.999997913837, Q2 : -0.000709930958692, Q3 : -0.000386587111279, Q4 : -0.00186813261826}
2019-04-14 14:43:41.71: SIM {TimeUS : 51735131, Roll : -0.1, Pitch : -0.04, Yaw : 359.78, Alt : 47.2200012207, Lat : 49.2835703, Lng : -123.1150205, Q1 : 0.999997675419, Q2 : -0.00095760304248, Q3 : -0.000360985024599, Q4 : -0.00189934298396}
2019-04-14 14:43:41.81: SIM {TimeUS : 51835091, Roll : -0.11, Pitch : -0.03, Yaw : 359.77, Alt : 47.4199981689, Lat : 49.2835703, Lng : -123.1150205, Q1 : 0.999997615814, Q2 : -0.00100373860914, Q3 : -0.000274977152003, Q4 : -0.00192967290059}
2019-04-14 14:43:41.91: SIM {TimeUS : 51935051, Roll : -0.1, Pitch : 0.0, Yaw : 359.77, Alt : 47.5999984741, Lat : 49.2835703, Lng : -123.1150205, Q1 : 0.999997675419, Q2 : -0.000887068919837, Q3 : -6.86226994731e-05, Q4 : -0.00195661210455}
2019-04-14 14:43:42.01: SIM {TimeUS : 52035011, Roll : -0.11, Pitch : -0.01, Yaw : 359.77, Alt : 47.7799987793, Lat : 49.2835703, Lng : -123.1150205, Q1 : 0.99999755621, Q2 : -0.00100251857657, Q3 : -0.000145558209624, Q4 : -0.00198064604774}
2019-04-14 14:43:42.11: SIM {TimeUS : 52134971, Roll : -0.12, Pitch : -0.03, Yaw : 359.77, Alt : 47.9399986267, Lat : 49.2835703, Lng : -123.1150205, Q1 : 0.999997317791, Q2 : -0.00110969366506, Q3 : -0.000317889818689, Q4 : -0.00200435845181}
2019-04-14 14:43:42.21: SIM {TimeUS : 52234931, Roll : -0.12, Pitch : -0.05, Yaw : 359.76, Alt : 48.0999984741, Lat : 49.2835703, Lng : -123.1150205, Q1 : 0.999997198582, Q2 : -0.00112306547817, Q3 : -0.000456584733911, Q4 : -0.00202764407732}
2019-04-14 14:43:42.31: SIM {TimeUS : 52334891, Roll : -0.1, Pitch : -0.06, Yaw : 359.76, Alt : 48.2400016785, Lat : 49.2835703, Lng : -123.1150206, Q1 : 0.999997258186, Q2 : -0.00095236877678, Q3 : -0.00057762383949, Q4 : -0.00205687782727}
2019-04-14 14:43:42.41: SIM {TimeUS : 52434851, Roll : -0.07, Pitch : -0.07, Yaw : 359.76, Alt : 48.3600006104, Lat : 49.2835703, Lng : -123.1150206, Q1 : 0.999997377396, Q2 : -0.000669969944283, Q3 : -0.000671096902806, Q4 : -0.00208513531834}
2019-04-14 14:43:42.51: SIM {TimeUS : 52534811, Roll : -0.05, Pitch : -0.08, Yaw : 359.75, Alt : 48.4799995422, Lat : 49.2835703, Lng : -123.1150206, Q1 : 0.999997377396, Q2 : -0.000476464891108, Q3 : -0.00072281685425, Q4 : -0.00210954179056}
2019-04-14 14:43:42.61: SIM {TimeUS : 52634771, Roll : -0.04, Pitch : -0.08, Yaw : 359.75, Alt : 48.5800018311, Lat : 49.2835703, Lng : -123.1150206, Q1 : 0.999997377396, Q2 : -0.000392598682083, Q3 : -0.000755474553443, Q4 : -0.00213002460077}
2019-04-14 14:43:42.71: SIM {TimeUS : 52735564, Roll : -0.01, Pitch : -0.07, Yaw : 359.75, Alt : 48.6800003052, Lat : 49.2835703, Lng : -123.1150206, Q1 : 0.999997437, Q2 : -0.000139572963235, Q3 : -0.000678091077134, Q4 : -0.00215249229223}
2019-04-14 14:43:42.81: SIM {TimeUS : 52835524, Roll : 0.01, Pitch : -0.06, Yaw : 359.75, Alt : 48.7599983215, Lat : 49.2835703, Lng : -123.1150206, Q1 : 0.999997496605, Q2 : 0.000129734034999, Q3 : -0.000533455226105, Q4 : -0.0021738128271}
2019-04-14 14:43:42.91: SIM {TimeUS : 52935484, Roll : 0.03, Pitch : -0.03, Yaw : 359.74, Alt : 48.8300018311, Lat : 49.2835703, Lng : -123.1150206, Q1 : 0.999997437, Q2 : 0.00033656321466, Q3 : -0.000332585914293, Q4 : -0.00219660857692}
2019-04-14 14:43:43.01: SIM {TimeUS : 53035444, Roll : 0.05, Pitch : -0.01, Yaw : 359.74, Alt : 48.8899993896, Lat : 49.2835703, Lng : -123.1150206, Q1 : 0.999997437, Q2 : 0.00047330086818, Q3 : -0.000131809516461, Q4 : -0.00221923505887}
2019-04-14 14:43:43.11: SIM {TimeUS : 53135404, Roll : 0.06, Pitch : 0.0, Yaw : 359.74, Alt : 48.9399986267, Lat : 49.2835703, Lng : -123.1150206, Q1 : 0.999997317791, Q2 : 0.000560082728043, Q3 : -6.35653486825e-05, Q4 : -0.00224504829384}
2019-04-14 14:43:43.21: SIM {TimeUS : 53235364, Roll : 0.07, Pitch : -0.02, Yaw : 359.73, Alt : 48.9799995422, Lat : 49.2835703, Lng : -123.1150207, Q1 : 0.999997198582, Q2 : 0.000613745767623, Q3 : -0.000216873013414, Q4 : -0.00227421266027}
2019-04-14 14:43:43.31: SIM {TimeUS : 53335324, Roll : 0.16, Pitch : -0.06, Yaw : 359.73, Alt : 49.0200004578, Lat : 49.2835703, Lng : -123.1150207, Q1 : 0.999996066093, Q2 : 0.00148149370216, Q3 : -0.000571870827116, Q4 : -0.00230470416136}
2019-04-14 14:43:43.41: SIM {TimeUS : 53435284, Roll : 0.5, Pitch : -0.15, Yaw : 359.73, Alt : 49.0600013733, Lat : 49.2835703, Lng : -123.1150207, Q1 : 0.999986708164, Q2 : 0.00437097204849, Q3 : -0.00140153430402, Q4 : -0.00234145508148}
2019-04-14 14:43:43.51: SIM {TimeUS : 53535244, Roll : 1.09, Pitch : -0.33, Yaw : 359.72, Alt : 49.0800018311, Lat : 49.2835703, Lng : -123.1150207, Q1 : 0.999946892262, Q2 : 0.00958494376391, Q3 : -0.00295718689449, Q4 : -0.00237152515911}
2019-04-14 14:43:43.61: SIM {TimeUS : 53635204, Roll : 1.92, Pitch : -0.57, Yaw : 359.71, Alt : 49.1100006104, Lat : 49.2835703, Lng : -123.1150206, Q1 : 0.999842941761, Q2 : 0.0168244671077, Q3 : -0.0050380914472, Q4 : -0.00238974252716}
2019-04-14 14:43:43.71: SIM {TimeUS : 53735164, Roll : 2.92, Pitch : -0.84, Yaw : 359.7, Alt : 49.1300010681, Lat : 49.2835704, Lng : -123.1150206, Q1 : 0.999644696712, Q2 : 0.0254981182516, Q3 : -0.00739380158484, Q4 : -0.00238369894214}
2019-04-14 14:43:43.81: SIM {TimeUS : 53835124, Roll : 3.93, Pitch : -1.11, Yaw : 359.69, Alt : 49.1500015259, Lat : 49.2835704, Lng : -123.1150204, Q1 : 0.999361038208, Q2 : 0.034278165549, Q3 : -0.00984681211412, Q4 : -0.00235159322619}
2019-04-14 14:43:43.91: SIM {TimeUS : 53935084, Roll : 4.78, Pitch : -1.38, Yaw : 359.67, Alt : 49.1599998474, Lat : 49.2835704, Lng : -123.1150202, Q1 : 0.999051272869, Q2 : 0.0417385920882, Q3 : -0.0122114401311, Q4 : -0.00229948642664}
2019-04-14 14:43:44.01: SIM {TimeUS : 54035044, Roll : 5.42, Pitch : -1.6, Yaw : 359.67, Alt : 49.1800003052, Lat : 49.2835706, Lng : -123.11502, Q1 : 0.998779475689, Q2 : 0.0472803637385, Q3 : -0.0141203710809, Q4 : -0.00220776931383}
2019-04-14 14:43:44.11: SIM {TimeUS : 54135004, Roll : 5.87, Pitch : -1.77, Yaw : 359.67, Alt : 49.1899986267, Lat : 49.2835707, Lng : -123.1150196, Q1 : 0.998565495014, Q2 : 0.0511741787195, Q3 : -0.0156157445163, Q4 : -0.00208056531847}
2019-04-14 14:43:44.21: SIM {TimeUS : 54234964, Roll : 6.22, Pitch : -1.91, Yaw : 359.67, Alt : 49.2000007629, Lat : 49.2835708, Lng : -123.1150191, Q1 : 0.998385310173, Q2 : 0.0542035400867, Q3 : -0.0168824251741, Q4 : -0.00192730687559}
2019-04-14 14:43:44.31: SIM {TimeUS : 54334924, Roll : 6.55, Pitch : -2.02, Yaw : 359.68, Alt : 49.2099990845, Lat : 49.2835709, Lng : -123.1150184, Q1 : 0.998207092285, Q2 : 0.0571078918874, Q3 : -0.0178392790258, Q4 : -0.00174419395626}
2019-04-14 14:43:44.41: SIM {TimeUS : 54434884, Roll : 6.91, Pitch : -2.14, Yaw : 359.68, Alt : 49.2200012207, Lat : 49.283571, Lng : -123.1150177, Q1 : 0.998005270958, Q2 : 0.0602410659194, Q3 : -0.0188166387379, Q4 : -0.00157456507441}
2019-04-14 14:43:44.51: SIM {TimeUS : 54534844, Roll : 7.28, Pitch : -2.25, Yaw : 359.69, Alt : 49.2200012207, Lat : 49.2835712, Lng : -123.1150169, Q1 : 0.997789621353, Q2 : 0.0634245350957, Q3 : -0.019778681919, Q4 : -0.00141252146568}
2019-04-14 14:43:44.61: SIM {TimeUS : 54634804, Roll : 7.58, Pitch : -2.33, Yaw : 359.7, Alt : 49.2299995422, Lat : 49.2835714, Lng : -123.1150159, Q1 : 0.99760133028, Q2 : 0.0661108344793, Q3 : -0.0204784534872, Q4 : -0.00125641445629}
2019-04-14 14:43:44.71: SIM {TimeUS : 54734764, Roll : 7.82, Pitch : -2.4, Yaw : 359.7, Alt : 49.2299995422, Lat : 49.2835716, Lng : -123.1150148, Q1 : 0.997453629971, Q2 : 0.0681216344237, Q3 : -0.021081905812, Q4 : -0.00112803885713}
2019-04-14 14:43:44.81: SIM {TimeUS : 54835557, Roll : 7.99, Pitch : -2.46, Yaw : 359.7, Alt : 49.2400016785, Lat : 49.2835719, Lng : -123.1150136, Q1 : 0.997334778309, Q2 : 0.0696640536189, Q3 : -0.0216611176729, Q4 : -0.00103703071363}
2019-04-14 14:43:44.91: SIM {TimeUS : 54935517, Roll : 8.13, Pitch : -2.51, Yaw : 359.7, Alt : 49.2400016785, Lat : 49.2835721, Lng : -123.1150123, Q1 : 0.997240483761, Q2 : 0.0708787292242, Q3 : -0.0220618136227, Q4 : -0.000968516804278}
2019-04-14 14:43:45.01: SIM {TimeUS : 55035477, Roll : 8.25, Pitch : -2.53, Yaw : 359.71, Alt : 49.25, Lat : 49.2835724, Lng : -123.1150109, Q1 : 0.997162401676, Q2 : 0.0719027221203, Q3 : -0.0222788453102, Q4 : -0.000922704930417}
2019-04-14 14:43:45.11: SIM {TimeUS : 55135437, Roll : 8.45, Pitch : -2.47, Yaw : 359.76, Alt : 49.25, Lat : 49.2835727, Lng : -123.1150094, Q1 : 0.997049927711, Q2 : 0.073638163507, Q3 : -0.0216484759003, Q4 : -0.000454144028481}
2019-04-14 14:43:45.21: SIM {TimeUS : 55235397, Roll : 8.81, Pitch : -2.17, Yaw : 0.27, Alt : 49.2599983215, Lat : 49.2835729, Lng : -123.1150078, Q1 : 0.996855080128, Q2 : 0.0768983587623, Q3 : -0.0187584348023, Q4 : 0.00384206604213}
2019-04-14 14:43:45.31: SIM {TimeUS : 55335357, Roll : 9.34, Pitch : -1.79, Yaw : 1.9, Alt : 49.2599983215, Lat : 49.2835733, Lng : -123.115006, Q1 : 0.996391773224, Q2 : 0.0817301124334, Q3 : -0.0142854042351, Q4 : 0.0178774129599}
2019-04-14 14:43:45.41: SIM {TimeUS : 55435317, Roll : 9.89, Pitch : -1.77, Yaw : 5.08, Alt : 49.2599983215, Lat : 49.2835737, Lng : -123.1150043, Q1 : 0.995116055012, Q2 : 0.0868064761162, Q3 : -0.0116180349141, Q4 : 0.0455379337072}
2019-04-14 14:43:45.51: SIM {TimeUS : 55535277, Roll : 10.26, Pitch : -2.36, Yaw : 9.78, Alt : 49.2599983215, Lat : 49.2835739, Lng : -123.1150024, Q1 : 0.991994976997, Q2 : 0.090844489634, Q3 : -0.0128525970504, Q4 : 0.0867647305131}
2019-04-14 14:43:45.61: SIM {TimeUS : 55635237, Roll : 10.3, Pitch : -3.58, Yaw : 15.79, Alt : 49.2599983215, Lat : 49.2835743, Lng : -123.1150003, Q1 : 0.985648393631, Q2 : 0.093158364296, Q3 : -0.0185017455369, Q4 : 0.139557868242}
2019-04-14 14:43:45.71: SIM {TimeUS : 55735197, Roll : 9.9, Pitch : -5.3, Yaw : 22.86, Alt : 49.2700004578, Lat : 49.2835746, Lng : -123.1149981, Q1 : 0.974669098854, Q2 : 0.0936248376966, Q3 : -0.0280913375318, Q4 : 0.201160132885}
2019-04-14 14:43:45.81: SIM {TimeUS : 55835157, Roll : 8.98, Pitch : -7.29, Yaw : 30.74, Alt : 49.2700004578, Lat : 49.283575, Lng : -123.1149959, Q1 : 0.957978963852, Q2 : 0.0922215506434, Q3 : -0.0404518991709, Q4 : 0.268579870462}
2019-04-14 14:43:45.91: SIM {TimeUS : 55935117, Roll : 7.54, Pitch : -9.31, Yaw : 39.21, Alt : 49.2700004578, Lat : 49.2835752, Lng : -123.1149934, Q1 : 0.935065746307, Q2 : 0.0889841392636, Q3 : -0.0542992092669, Q4 : 0.33880007267}
2019-04-14 14:43:46.01: SIM {TimeUS : 56035077, Roll : 5.64, Pitch : -11.11, Yaw : 48.02, Alt : 49.2700004578, Lat : 49.2835756, Lng : -123.1149909, Q1 : 0.906108856201, Q2 : 0.0841063708067, Q3 : -0.0684055089951, Q4 : 0.408917486668}
2019-04-14 14:43:46.11: SIM {TimeUS : 56135037, Roll : 3.4, Pitch : -12.53, Yaw : 56.9, Alt : 49.2700004578, Lat : 49.2835758, Lng : -123.1149883, Q1 : 0.872037112713, Q2 : 0.0779529511929, Q3 : -0.0818341374397, Q4 : 0.476211935282}
2019-04-14 14:43:46.21: SIM {TimeUS : 56234997, Roll : 1.0, Pitch : -13.47, Yaw : 65.53, Alt : 49.2700004578, Lat : 49.2835763, Lng : -123.1149855, Q1 : 0.834479391575, Q2 : 0.0708058699965, Q3 : -0.0938922315836, Q4 : 0.538344681263}
2019-04-14 14:43:46.31: SIM {TimeUS : 56334957, Roll : -1.64, Pitch : -13.91, Yaw : 73.51, Alt : 49.2799987793, Lat : 49.2835768, Lng : -123.1149826, Q1 : 0.796227633953, Q2 : 0.0610633417964, Q3 : -0.105608269572, Q4 : 0.592570483685}
2019-04-14 14:43:46.41: SIM {TimeUS : 56434917, Roll : -4.34, Pitch : -13.91, Yaw : 80.17, Alt : 49.2799987793, Lat : 49.2835771, Lng : -123.1149796, Q1 : 0.761867344379, Q2 : 0.0491590052843, Q3 : -0.116793185472, Q4 : 0.635217249393}
2019-04-14 14:43:46.51: SIM {TimeUS : 56534877, Roll : -6.55, Pitch : -13.63, Yaw : 84.95, Alt : 49.2799987793, Lat : 49.2835777, Lng : -123.1149765, Q1 : 0.735693871975, Q2 : 0.0381778776646, Q3 : -0.125775694847, Q4 : 0.664437711239}
2019-04-14 14:43:46.61: SIM {TimeUS : 56634837, Roll : -7.92, Pitch : -13.31, Yaw : 87.74, Alt : 49.2799987793, Lat : 49.2835783, Lng : -123.1149733, Q1 : 0.719845116138, Q2 : 0.0306508988142, Q3 : -0.130961298943, Q4 : 0.680979192257}
2019-04-14 14:43:46.71: SIM {TimeUS : 56734797, Roll : -8.31, Pitch : -13.11, Yaw : 88.71, Alt : 49.2799987793, Lat : 49.2835792, Lng : -123.1149699, Q1 : 0.714225113392, Q2 : 0.0281347744167, Q3 : -0.131805673242, Q4 : 0.686817467213}
2019-04-14 14:43:46.81: SIM {TimeUS : 56834757, Roll : -7.8, Pitch : -13.16, Yaw : 88.18, Alt : 49.2799987793, Lat : 49.28358, Lng : -123.1149665, Q1 : 0.71727091074, Q2 : 0.0309979524463, Q3 : -0.129146769643, Q4 : 0.684019505978}
2019-04-14 14:43:46.91: SIM {TimeUS : 56935550, Roll : -6.58, Pitch : -13.47, Yaw : 86.48, Alt : 49.2799987793, Lat : 49.2835808, Lng : -123.114963, Q1 : 0.726871192455, Q2 : 0.0386786386371, Q3 : -0.124391190708, Q4 : 0.67430639267}
2019-04-14 14:43:47.01: SIM {TimeUS : 57035510, Roll : -4.89, Pitch : -14.0, Yaw : 83.97, Alt : 49.2799987793, Lat : 49.2835818, Lng : -123.1149594, Q1 : 0.740548193455, Q2 : 0.0499234497547, Q3 : -0.118884250522, Q4 : 0.659516870975}
2019-04-14 14:43:47.11: SIM {TimeUS : 57135470, Roll : -2.97, Pitch : -14.64, Yaw : 80.97, Alt : 49.2799987793, Lat : 49.2835828, Lng : -123.1149558, Q1 : 0.756261885166, Q2 : 0.0631358996034, Q3 : -0.113645613194, Q4 : 0.641222655773}
2019-04-14 14:43:47.21: SIM {TimeUS : 57235430, Roll : -1.04, Pitch : -15.26, Yaw : 77.76, Alt : 49.2799987793, Lat : 49.2835837, Lng : -123.114952, Q1 : 0.772264480591, Q2 : 0.0763710737228, Q3 : -0.109050817788, Q4 : 0.621194779873}
2019-04-14 14:43:47.31: SIM {TimeUS : 57335390, Roll : 0.72, Pitch : -15.72, Yaw : 74.67, Alt : 49.2799987793, Lat : 49.2835848, Lng : -123.1149481, Q1 : 0.787032604218, Q2 : 0.0879787877202, Q3 : -0.104976668954, Q4 : 0.601514220238}
2019-04-14 14:43:47.41: SIM {TimeUS : 57435350, Roll : 2.15, Pitch : -15.98, Yaw : 72.02, Alt : 49.2799987793, Lat : 49.2835858, Lng : -123.1149442, Q1 : 0.799329221249, Q2 : 0.0967972949147, Q3 : -0.101478718221, Q4 : 0.584298849106}
2019-04-14 14:43:47.51: SIM {TimeUS : 57535310, Roll : 3.14, Pitch : -16.04, Yaw : 70.04, Alt : 49.2799987793, Lat : 49.2835867, Lng : -123.1149401, Q1 : 0.808400452137, Q2 : 0.102334231138, Q3 : -0.0986860021949, Q4 : 0.571207106113}
2019-04-14 14:43:47.61: SIM {TimeUS : 57635270, Roll : 3.64, Pitch : -16.0, Yaw : 68.83, Alt : 49.2900009155, Lat : 49.2835877, Lng : -123.1149358, Q1 : 0.813971936703, Q2 : 0.10460908711, Q3 : -0.0969675257802, Q4 : 0.563119769096}
2019-04-14 14:43:47.71: SIM {TimeUS : 57735230, Roll : 3.67, Pitch : -15.92, Yaw : 68.41, Alt : 49.2900009155, Lat : 49.2835886, Lng : -123.1149315, Q1 : 0.816125392914, Q2 : 0.104126103222, Q3 : -0.0966529324651, Q4 : 0.560138702393}
2019-04-14 14:43:47.81: SIM {TimeUS : 57835190, Roll : 3.32, Pitch : -15.89, Yaw : 68.67, Alt : 49.2900009155, Lat : 49.2835896, Lng : -123.114927, Q1 : 0.815196454525, Q2 : 0.101706728339, Q3 : -0.0979144051671, Q4 : 0.561714589596}
2019-04-14 14:43:47.91: SIM {TimeUS : 57935150, Roll : 2.69, Pitch : -15.95, Yaw : 69.47, Alt : 49.2900009155, Lat : 49.2835904, Lng : -123.1149225, Q1 : 0.811732709408, Q2 : 0.098190061748, Q3 : -0.10076161474, Q4 : 0.566829681396}
2019-04-14 14:43:48.01: SIM {TimeUS : 58035110, Roll : 1.87, Pitch : -16.08, Yaw : 70.64, Alt : 49.2900009155, Lat : 49.2835913, Lng : -123.1149179, Q1 : 0.806473314762, Q2 : 0.094126328826, Q3 : -0.104763649404, Q4 : 0.57425224781}
2019-04-14 14:43:48.11: SIM {TimeUS : 58135070, Roll : 0.98, Pitch : -16.25, Yaw : 71.98, Alt : 49.2900009155, Lat : 49.2835922, Lng : -123.1149132, Q1 : 0.800244092941, Q2 : 0.089957498014, Q3 : -0.109367012978, Q4 : 0.582714259624}
2019-04-14 14:43:48.21: SIM {TimeUS : 58235030, Roll : 0.13, Pitch : -16.38, Yaw : 73.32, Alt : 49.2900009155, Lat : 49.2835931, Lng : -123.1149084, Q1 : 0.793882131577, Q2 : 0.0860399752855, Q3 : -0.113634698093, Q4 : 0.591130614281}
2019-04-14 14:43:48.31: SIM {TimeUS : 58334990, Roll : -0.56, Pitch : -16.47, Yaw : 74.52, Alt : 49.2900009155, Lat : 49.283594, Lng : -123.1149036, Q1 : 0.788103699684, Q2 : 0.0828236937523, Q3 : -0.116996951401, Q4 : 0.598618805408}
2019-04-14 14:43:48.41: SIM {TimeUS : 58434950, Roll : -1.09, Pitch : -16.52, Yaw : 75.46, Alt : 49.2900009155, Lat : 49.2835949, Lng : -123.1148987, Q1 : 0.783474624157, Q2 : 0.0804274976254, Q3 : -0.119415551424, Q4 : 0.604515433311}
2019-04-14 14:43:48.51: SIM {TimeUS : 58534910, Roll : -1.39, Pitch : -16.54, Yaw : 76.09, Alt : 49.2900009155, Lat : 49.2835958, Lng : -123.1148937, Q1 : 0.78031027317, Q2 : 0.0791907012463, Q3 : -0.120734646916, Q4 : 0.608496427536}
2019-04-14 14:43:48.61: SIM {TimeUS : 58634870, Roll : -1.45, Pitch : -16.54, Yaw : 76.4, Alt : 49.2900009155, Lat : 49.2835968, Lng : -123.1148887, Q1 : 0.778726518154, Q2 : 0.0791035071015, Q3 : -0.120857641101, Q4 : 0.610508918762}
2019-04-14 14:43:48.71: SIM {TimeUS : 58734830, Roll : -1.34, Pitch : -16.54, Yaw : 76.4, Alt : 49.2900009155, Lat : 49.2835977, Lng : -123.1148836, Q1 : 0.778646230698, Q2 : 0.0798113271594, Q3 : -0.120235435665, Q4 : 0.610642015934}
2019-04-14 14:43:48.81: SIM {TimeUS : 58834790, Roll : -1.12, Pitch : -16.56, Yaw : 76.15, Alt : 49.2900009155, Lat : 49.2835988, Lng : -123.1148785, Q1 : 0.779797375202, Q2 : 0.0811621323228, Q3 : -0.119396366179, Q4 : 0.609157860279}
2019-04-14 14:43:48.91: SIM {TimeUS : 58934750, Roll : -0.83, Pitch : -16.61, Yaw : 75.72, Alt : 49.2900009155, Lat : 49.2835998, Lng : -123.1148733, Q1 : 0.781819462776, Q2 : 0.0830145999789, Q3 : -0.118522368371, Q4 : 0.606481134892}
2019-04-14 14:43:49.01: SIM {TimeUS : 59035543, Roll : -0.5, Pitch : -16.69, Yaw : 75.18, Alt : 49.2900009155, Lat : 49.2836007, Lng : -123.1148681, Q1 : 0.784351408482, Q2 : 0.0851541385055, Q3 : -0.117696933448, Q4 : 0.603066444397}
2019-04-14 14:43:49.11: SIM {TimeUS : 59135503, Roll : -0.17, Pitch : -16.76, Yaw : 74.61, Alt : 49.2900009155, Lat : 49.2836019, Lng : -123.1148628, Q1 : 0.787013411522, Q2 : 0.0871430113912, Q3 : -0.116844415665, Q4 : 0.59946924448}
2019-04-14 14:43:49.21: SIM {TimeUS : 59235463, Roll : 0.12, Pitch : -16.81, Yaw : 74.08, Alt : 49.2900009155, Lat : 49.2836029, Lng : -123.1148575, Q1 : 0.789496898651, Q2 : 0.0889393910766, Q3 : -0.11602678895, Q4 : 0.59608912468}
2019-04-14 14:43:49.31: SIM {TimeUS : 59335423, Roll : 0.37, Pitch : -16.85, Yaw : 73.64, Alt : 49.2900009155, Lat : 49.2836038, Lng : -123.1148521, Q1 : 0.79156512022, Q2 : 0.090442456305, Q3 : -0.115364938974, Q4 : 0.593241751194}
2019-04-14 14:43:49.41: SIM {TimeUS : 59435383, Roll : 0.55, Pitch : -16.89, Yaw : 73.31, Alt : 49.2900009155, Lat : 49.2836049, Lng : -123.1148467, Q1 : 0.793079555035, Q2 : 0.0914992541075, Q3 : -0.114980243146, Q4 : 0.591127991676}
2019-04-14 14:43:49.51: SIM {TimeUS : 59535343, Roll : 0.64, Pitch : -16.91, Yaw : 73.12, Alt : 49.2900009155, Lat : 49.283606, Lng : -123.1148413, Q1 : 0.793986916542, Q2 : 0.0920956879854, Q3 : -0.114785537124, Q4 : 0.58985376358}
2019-04-14 14:43:49.61: SIM {TimeUS : 59635303, Roll : 0.67, Pitch : -16.93, Yaw : 73.05, Alt : 49.2999992371, Lat : 49.2836071, Lng : -123.1148358, Q1 : 0.794300556183, Q2 : 0.0922781601548, Q3 : -0.114854238927, Q4 : 0.589389443398}
2019-04-14 14:43:49.71: SIM {TimeUS : 59735263, Roll : 0.61, Pitch : -16.94, Yaw : 73.09, Alt : 49.2999992371, Lat : 49.283608, Lng : -123.1148303, Q1 : 0.794119477272, Q2 : 0.0919678360224, Q3 : -0.115221001208, Q4 : 0.589610338211}
2019-04-14 14:43:49.81: SIM {TimeUS : 59835223, Roll : 0.48, Pitch : -16.96, Yaw : 73.22, Alt : 49.2999992371, Lat : 49.2836091, Lng : -123.1148247, Q1 : 0.793545424938, Q2 : 0.0913408622146, Q3 : -0.115864701569, Q4 : 0.590354084969}
2019-04-14 14:43:49.91: SIM {TimeUS : 59935183, Roll : 0.33, Pitch : -16.99, Yaw : 73.4, Alt : 49.2999992371, Lat : 49.2836102, Lng : -123.1148191, Q1 : 0.792691707611, Q2 : 0.0906494930387, Q3 : -0.116769947112, Q4 : 0.591428160667}
2019-04-14 14:43:50.01: SIM {TimeUS : 60035143, Roll : 0.16, Pitch : -17.05, Yaw : 73.6, Alt : 49.2999992371, Lat : 49.2836111, Lng : -123.1148135, Q1 : 0.791710972786, Q2 : 0.0899437740445, Q3 : -0.117862172425, Q4 : 0.592631697655}
2019-04-14 14:43:50.11: SIM {TimeUS : 60135103, Roll : 0.0, Pitch : -17.09, Yaw : 73.8, Alt : 49.2999992371, Lat : 49.2836122, Lng : -123.1148079, Q1 : 0.790756821632, Q2 : 0.0892294943333, Q3 : -0.118896521628, Q4 : 0.593805849552}
2019-04-14 14:43:50.21: SIM {TimeUS : 60235063, Roll : -0.15, Pitch : -17.12, Yaw : 73.97, Alt : 49.2999992371, Lat : 49.2836133, Lng : -123.1148022, Q1 : 0.789954125881, Q2 : 0.0885487124324, Q3 : -0.119716450572, Q4 : 0.594810545444}
2019-04-14 14:43:50.31: SIM {TimeUS : 60335023, Roll : -0.25, Pitch : -17.15, Yaw : 74.1, Alt : 49.2999992371, Lat : 49.2836144, Lng : -123.1147965, Q1 : 0.789355039597, Q2 : 0.0880711227655, Q3 : -0.120371580124, Q4 : 0.595544099808}
2019-04-14 14:43:50.41: SIM {TimeUS : 60434983, Roll : -0.3, Pitch : -17.19, Yaw : 74.17, Alt : 49.2999992371, Lat : 49.2836154, Lng : -123.1147907, Q1 : 0.788973271847, Q2 : 0.088049583137, Q3 : -0.120795637369, Q4 : 0.595967233181}
2019-04-14 14:43:50.51: SIM {TimeUS : 60534943, Roll : -0.29, Pitch : -17.23, Yaw : 74.19, Alt : 49.2999992371, Lat : 49.2836165, Lng : -123.114785, Q1 : 0.788835406303, Q2 : 0.088309392333, Q3 : -0.12104254961, Q4 : 0.596061110497}
2019-04-14 14:43:50.61: SIM {TimeUS : 60634903, Roll : -0.25, Pitch : -17.27, Yaw : 74.16, Alt : 49.2999992371, Lat : 49.2836176, Lng : -123.1147792, Q1 : 0.788912475109, Q2 : 0.0888384282589, Q3 : -0.121126584709, Q4 : 0.59586340189}
2019-04-14 14:43:50.71: SIM {TimeUS : 60734863, Roll : -0.16, Pitch : -17.32, Yaw : 74.09, Alt : 49.3100013733, Lat : 49.2836187, Lng : -123.1147734, Q1 : 0.789174795151, Q2 : 0.0895477235317, Q3 : -0.121062904596, Q4 : 0.595422685146}
2019-04-14 14:43:50.81: SIM {TimeUS : 60834823, Roll : -0.08, Pitch : -17.35, Yaw : 73.99, Alt : 49.3100013733, Lat : 49.2836197, Lng : -123.1147676, Q1 : 0.789585590363, Q2 : 0.090203858912, Q3 : -0.120944775641, Q4 : 0.594802677631}
2019-04-14 14:43:50.91: SIM {TimeUS : 60934783, Roll : -0.01, Pitch : -17.38, Yaw : 73.88, Alt : 49.3100013733, Lat : 49.2836208, Lng : -123.1147617, Q1 : 0.790088236332, Q2 : 0.0906853452325, Q3 : -0.120851270854, Q4 : 0.59408056736}
2019-04-14 14:43:51.01: SIM {TimeUS : 61034743, Roll : 0.03, Pitch : -17.38, Yaw : 73.76, Alt : 49.3100013733, Lat : 49.283622, Lng : -123.1147558, Q1 : 0.790623366833, Q2 : 0.0909833759069, Q3 : -0.120720498264, Q4 : 0.593349218369}
2019-04-14 14:43:51.11: SIM {TimeUS : 61135536, Roll : 0.08, Pitch : -17.38, Yaw : 73.66, Alt : 49.3100013733, Lat : 49.2836232, Lng : -123.1147499, Q1 : 0.791129946709, Q2 : 0.0912011563778, Q3 : -0.12049241364, Q4 : 0.592686593533}
2019-04-14 14:43:51.21: SIM {TimeUS : 61235496, Roll : 0.13, Pitch : -17.37, Yaw : 73.57, Alt : 49.3100013733, Lat : 49.2836243, Lng : -123.1147439, Q1 : 0.79155421257, Q2 : 0.0913682729006, Q3 : -0.120283082128, Q4 : 0.592136621475}
2019-04-14 14:43:51.31: SIM {TimeUS : 61335456, Roll : 0.17, Pitch : -17.4, Yaw : 73.51, Alt : 49.3100013733, Lat : 49.2836254, Lng : -123.114738, Q1 : 0.791828632355, Q2 : 0.0917534679174, Q3 : -0.12027643621, Q4 : 0.59171128273}
2019-04-14 14:43:51.41: SIM {TimeUS : 61435416, Roll : 0.2, Pitch : -17.45, Yaw : 73.46, Alt : 49.3100013733, Lat : 49.2836264, Lng : -123.1147321, Q1 : 0.791966676712, Q2 : 0.0921980813146, Q3 : -0.120561718941, Q4 : 0.591399371624}
2019-04-14 14:43:51.51: SIM {TimeUS : 61535376, Roll : 0.21, Pitch : -17.49, Yaw : 73.44, Alt : 49.3100013733, Lat : 49.2836276, Lng : -123.1147261, Q1 : 0.792027235031, Q2 : 0.0924489200115, Q3 : -0.12080706656, Q4 : 0.591229021549}
2019-04-14 14:43:51.61: SIM {TimeUS : 61635336, Roll : 0.21, Pitch : -17.51, Yaw : 73.44, Alt : 49.3100013733, Lat : 49.2836287, Lng : -123.1147201, Q1 : 0.792036235332, Q2 : 0.0924748405814, Q3 : -0.120932385325, Q4 : 0.591187298298}
2019-04-14 14:43:51.71: SIM {TimeUS : 61735296, Roll : 0.17, Pitch : -17.52, Yaw : 73.45, Alt : 49.3199996948, Lat : 49.2836299, Lng : -123.1147141, Q1 : 0.792006254196, Q2 : 0.0923214927316, Q3 : -0.121177837253, Q4 : 0.591201126575}
2019-04-14 14:43:51.81: SIM {TimeUS : 61835256, Roll : 0.12, Pitch : -17.54, Yaw : 73.46, Alt : 49.3199996948, Lat : 49.2836311, Lng : -123.1147081, Q1 : 0.791935265064, Q2 : 0.0921233296394, Q3 : -0.121580287814, Q4 : 0.591244518757}
2019-04-14 14:43:51.91: SIM {TimeUS : 61935216, Roll : 0.09, Pitch : -17.56, Yaw : 73.48, Alt : 49.3199996948, Lat : 49.2836322, Lng : -123.114702, Q1 : 0.791852116585, Q2 : 0.0919780284166, Q3 : -0.121895931661, Q4 : 0.591313540936}
2019-04-14 14:43:52.01: SIM {TimeUS : 62035176, Roll : 0.06, Pitch : -17.59, Yaw : 73.5, Alt : 49.3199996948, Lat : 49.2836333, Lng : -123.114696, Q1 : 0.791757941246, Q2 : 0.0919582396746, Q3 : -0.122162915766, Q4 : 0.591387569904}
2019-04-14 14:43:52.11: SIM {TimeUS : 62135136, Roll : 0.05, Pitch : -17.6, Yaw : 73.51, Alt : 49.3199996948, Lat : 49.2836345, Lng : -123.1146898, Q1 : 0.791679441929, Q2 : 0.0919927805662, Q3 : -0.122306101024, Q4 : 0.591457724571}
2019-04-14 14:43:52.21: SIM {TimeUS : 62235096, Roll : 0.05, Pitch : -17.62, Yaw : 73.52, Alt : 49.3199996948, Lat : 49.2836355, Lng : -123.1146838, Q1 : 0.79163146019, Q2 : 0.0920864865184, Q3 : -0.122447282076, Q4 : 0.59147810936}
2019-04-14 14:43:52.31: SIM {TimeUS : 62335056, Roll : 0.06, Pitch : -17.63, Yaw : 73.52, Alt : 49.3199996948, Lat : 49.2836367, Lng : -123.1146777, Q1 : 0.791625499725, Q2 : 0.0922095254064, Q3 : -0.122459806502, Q4 : 0.591464340687}
2019-04-14 14:43:52.41: SIM {TimeUS : 62435016, Roll : 0.09, Pitch : -17.65, Yaw : 73.51, Alt : 49.3199996948, Lat : 49.2836378, Lng : -123.1146716, Q1 : 0.791640102863, Q2 : 0.0924449712038, Q3 : -0.122459672391, Q4 : 0.591408073902}
2019-04-14 14:43:52.51: SIM {TimeUS : 62534976, Roll : 0.11, Pitch : -17.67, Yaw : 73.49, Alt : 49.3199996948, Lat : 49.283639, Lng : -123.1146655, Q1 : 0.7916842103, Q2 : 0.0927203670144, Q3 : -0.122508347034, Q4 : 0.591295897961}
2019-04-14 14:43:52.61: SIM {TimeUS : 62634936, Roll : 0.12, Pitch : -17.7, Yaw : 73.46, Alt : 49.3199996948, Lat : 49.2836402, Lng : -123.1146594, Q1 : 0.791762590408, Q2 : 0.0929122641683, Q3 : -0.12270950526, Q4 : 0.59111905098}
2019-04-14 14:43:52.71: SIM {TimeUS : 62734896, Roll : 0.11, Pitch : -17.75, Yaw : 73.44, Alt : 49.3199996948, Lat : 49.2836414, Lng : -123.1146532, Q1 : 0.791853904724, Q2 : 0.0930774584413, Q3 : -0.123082973063, Q4 : 0.590893030167}
2019-04-14 14:43:52.81: SIM {TimeUS : 62834856, Roll : 0.1, Pitch : -17.79, Yaw : 73.41, Alt : 49.3199996948, Lat : 49.2836426, Lng : -123.1146471, Q1 : 0.791959583759, Q2 : 0.0931683927774, Q3 : -0.123506583273, Q4 : 0.590648651123}
2019-04-14 14:43:52.91: SIM {TimeUS : 62934816, Roll : 0.1, Pitch : -17.83, Yaw : 73.38, Alt : 49.3199996948, Lat : 49.2836438, Lng : -123.1146409, Q1 : 0.792066216469, Q2 : 0.0933214053512, Q3 : -0.123729176819, Q4 : 0.590434908867}
2019-04-14 14:43:53.01: SIM {TimeUS : 63034776, Roll : 0.12, Pitch : -17.83, Yaw : 73.36, Alt : 49.3199996948, Lat : 49.2836449, Lng : -123.1146347, Q1 : 0.792194604874, Q2 : 0.0934245958924, Q3 : -0.123657606542, Q4 : 0.590261280537}
2019-04-14 14:43:53.11: SIM {TimeUS : 63134736, Roll : 0.14, Pitch : -17.8, Yaw : 73.33, Alt : 49.3199996948, Lat : 49.2836461, Lng : -123.1146285, Q1 : 0.792341351509, Q2 : 0.0934172794223, Q3 : -0.123336113989, Q4 : 0.590132772923}
2019-04-14 14:43:53.21: SIM {TimeUS : 63235529, Roll : 0.15, Pitch : -17.77, Yaw : 73.31, Alt : 49.3199996948, Lat : 49.2836473, Lng : -123.1146222, Q1 : 0.792468070984, Q2 : 0.0933514237404, Q3 : -0.123152025044, Q4 : 0.59001147747}
2019-04-14 14:43:53.31: SIM {TimeUS : 63335489, Roll : 0.15, Pitch : -17.76, Yaw : 73.29, Alt : 49.3300018311, Lat : 49.2836485, Lng : -123.114616, Q1 : 0.792581379414, Q2 : 0.0932125896215, Q3 : -0.12305867672, Q4 : 0.589900612831}
2019-04-14 14:43:53.41: SIM {TimeUS : 63435449, Roll : 0.14, Pitch : -17.75, Yaw : 73.28, Alt : 49.3300018311, Lat : 49.2836495, Lng : -123.1146098, Q1 : 0.792663991451, Q2 : 0.0931112542748, Q3 : -0.123053342104, Q4 : 0.589806735516}
2019-04-14 14:43:53.51: SIM {TimeUS : 63535409, Roll : 0.13, Pitch : -17.76, Yaw : 73.27, Alt : 49.3300018311, Lat : 49.2836507, Lng : -123.1146035, Q1 : 0.79271030426, Q2 : 0.093103222549, Q3 : -0.123219005764, Q4 : 0.58971118927}
2019-04-14 14:43:53.61: SIM {TimeUS : 63635369, Roll : 0.14, Pitch : -17.79, Yaw : 73.26, Alt : 49.3300018311, Lat : 49.2836519, Lng : -123.1145973, Q1 : 0.792728543282, Q2 : 0.0932378694415, Q3 : -0.123375050724, Q4 : 0.589632749557}
2019-04-14 14:43:53.71: SIM {TimeUS : 63735329, Roll : 0.13, Pitch : -17.83, Yaw : 73.25, Alt : 49.3300018311, Lat : 49.2836531, Lng : -123.114591, Q1 : 0.792723238468, Q2 : 0.0934372395277, Q3 : -0.123711034656, Q4 : 0.589537918568}
2019-04-14 14:43:53.81: SIM {TimeUS : 63835289, Roll : 0.13, Pitch : -17.89, Yaw : 73.24, Alt : 49.3300018311, Lat : 49.2836543, Lng : -123.1145847, Q1 : 0.792708873749, Q2 : 0.0936665832996, Q3 : -0.124115630984, Q4 : 0.589435815811}
2019-04-14 14:43:53.91: SIM {TimeUS : 63935249, Roll : 0.13, Pitch : -17.92, Yaw : 73.23, Alt : 49.3300018311, Lat : 49.2836555, Lng : -123.1145785, Q1 : 0.792707145214, Q2 : 0.0938462018967, Q3 : -0.124376542866, Q4 : 0.589354515076}
2019-04-14 14:43:54.01: SIM {TimeUS : 64035209, Roll : 0.12, Pitch : -17.95, Yaw : 73.23, Alt : 49.3300018311, Lat : 49.2836567, Lng : -123.1145722, Q1 : 0.792726457119, Q2 : 0.0939277336001, Q3 : -0.124635323882, Q4 : 0.589260876179}
2019-04-14 14:43:54.11: SIM {TimeUS : 64135169, Roll : 0.11, Pitch : -17.97, Yaw : 73.22, Alt : 49.3300018311, Lat : 49.2836579, Lng : -123.1145659, Q1 : 0.79276227951, Q2 : 0.0939544290304, Q3 : -0.124798372388, Q4 : 0.589173972607}
2019-04-14 14:43:54.21: SIM {TimeUS : 64235129, Roll : 0.12, Pitch : -17.96, Yaw : 73.21, Alt : 49.3300018311, Lat : 49.2836591, Lng : -123.1145596, Q1 : 0.792813897133, Q2 : 0.0939919874072, Q3 : -0.124693825841, Q4 : 0.58912062645}
2019-04-14 14:43:54.31: SIM {TimeUS : 64335089, Roll : 0.15, Pitch : -17.97, Yaw : 73.19, Alt : 49.3300018311, Lat : 49.2836603, Lng : -123.1145533, Q1 : 0.792850553989, Q2 : 0.0941886454821, Q3 : -0.124608144164, Q4 : 0.589057981968}
2019-04-14 14:43:54.41: SIM {TimeUS : 64435049, Roll : 0.16, Pitch : -17.98, Yaw : 73.18, Alt : 49.3300018311, Lat : 49.2836615, Lng : -123.1145469, Q1 : 0.792892813683, Q2 : 0.0943289622664, Q3 : -0.124674350023, Q4 : 0.588964641094}
2019-04-14 14:43:54.51: SIM {TimeUS : 64535009, Roll : 0.16, Pitch : -17.99, Yaw : 73.17, Alt : 49.3300018311, Lat : 49.2836627, Lng : -123.1145406, Q1 : 0.792952597141, Q2 : 0.0943830087781, Q3 : -0.124713636935, Q4 : 0.5888671875}
2019-04-14 14:43:54.61: SIM {TimeUS : 64634969, Roll : 0.17, Pitch : -17.99, Yaw : 73.15, Alt : 49.3300018311, Lat : 49.2836639, Lng : -123.1145343, Q1 : 0.793025076389, Q2 : 0.0943736210465, Q3 : -0.124678425491, Q4 : 0.588778555393}
2019-04-14 14:43:54.71: SIM {TimeUS : 64734929, Roll : 0.17, Pitch : -17.98, Yaw : 73.14, Alt : 49.3400001526, Lat : 49.2836651, Lng : -123.1145279, Q1 : 0.79309874773, Q2 : 0.0943486690521, Q3 : -0.124653466046, Q4 : 0.588688611984}
2019-04-14 14:43:54.81: SIM {TimeUS : 64834889, Roll : 0.15, Pitch : -18.0, Yaw : 73.13, Alt : 49.3400001526, Lat : 49.2836664, Lng : -123.1145216, Q1 : 0.793161332607, Q2 : 0.0942840129137, Q3 : -0.124877750874, Q4 : 0.588567078114}
2019-04-14 14:43:54.91: SIM {TimeUS : 64934849, Roll : 0.12, Pitch : -18.04, Yaw : 73.11, Alt : 49.3400001526, Lat : 49.2836676, Lng : -123.1145152, Q1 : 0.793206930161, Q2 : 0.0942546352744, Q3 : -0.125290453434, Q4 : 0.588422656059}
2019-04-14 14:43:55.01: SIM {TimeUS : 65034809, Roll : 0.11, Pitch : -18.05, Yaw : 73.1, Alt : 49.3400001526, Lat : 49.2836688, Lng : -123.1145089, Q1 : 0.793265521526, Q2 : 0.0942046567798, Q3 : -0.125442668796, Q4 : 0.588319182396}
2019-04-14 14:43:55.11: SIM {TimeUS : 65134769, Roll : 0.12, Pitch : -18.03, Yaw : 73.09, Alt : 49.3400001526, Lat : 49.28367, Lng : -123.1145025, Q1 : 0.793338298798, Q2 : 0.0941770300269, Q3 : -0.125258505344, Q4 : 0.588264703751}
2019-04-14 14:43:55.21: SIM {TimeUS : 65235562, Roll : 0.14, Pitch : -18.01, Yaw : 73.08, Alt : 49.3400001526, Lat : 49.2836712, Lng : -123.1144961, Q1 : 0.793401658535, Q2 : 0.0942162945867, Q3 : -0.125057280064, Q4 : 0.588215768337}
2019-04-14 14:43:55.31: SIM {TimeUS : 65335522, Roll : 0.15, Pitch : -18.02, Yaw : 73.07, Alt : 49.3400001526, Lat : 49.2836724, Lng : -123.1144897, Q1 : 0.793451726437, Q2 : 0.0942912772298, Q3 : -0.125063017011, Q4 : 0.588135004044}
2019-04-14 14:43:55.41: SIM {TimeUS : 65435482, Roll : 0.13, Pitch : -18.03, Yaw : 73.05, Alt : 49.3400001526, Lat : 49.2836736, Lng : -123.1144833, Q1 : 0.793509244919, Q2 : 0.0942550301552, Q3 : -0.12524715066, Q4 : 0.588024020195}
2019-04-14 14:43:55.51: SIM {TimeUS : 65535442, Roll : 0.11, Pitch : -18.05, Yaw : 73.04, Alt : 49.3400001526, Lat : 49.2836749, Lng : -123.1144769, Q1 : 0.793563842773, Q2 : 0.0941845700145, Q3 : -0.125543028116, Q4 : 0.587898492813}
2019-04-14 14:43:55.61: SIM {TimeUS : 65635402, Roll : 0.1, Pitch : -18.08, Yaw : 73.03, Alt : 49.3400001526, Lat : 49.2836761, Lng : -123.1144705, Q1 : 0.793608546257, Q2 : 0.0942104682326, Q3 : -0.125773102045, Q4 : 0.587784826756}
2019-04-14 14:43:55.71: SIM {TimeUS : 65735362, Roll : 0.1, Pitch : -18.1, Yaw : 73.02, Alt : 49.3400001526, Lat : 49.2836773, Lng : -123.1144641, Q1 : 0.79364413023, Q2 : 0.0943530499935, Q3 : -0.125919386744, Q4 : 0.587682545185}
2019-04-14 14:43:55.81: SIM {TimeUS : 65835322, Roll : 0.12, Pitch : -18.12, Yaw : 73.0, Alt : 49.3400001526, Lat : 49.2836785, Lng : -123.1144577, Q1 : 0.793673634529, Q2 : 0.0945387035608, Q3 : -0.125991284847, Q4 : 0.587597489357}
2019-04-14 14:43:55.91: SIM {TimeUS : 65935282, Roll : 0.14, Pitch : -18.13, Yaw : 72.99, Alt : 49.3400001526, Lat : 49.2836797, Lng : -123.1144513, Q1 : 0.793696045876, Q2 : 0.0947922766209, Q3 : -0.125953391194, Q4 : 0.587534487247}
2019-04-14 14:43:56.01: SIM {TimeUS : 66035242, Roll : 0.16, Pitch : -18.15, Yaw : 72.98, Alt : 49.3400001526, Lat : 49.283681, Lng : -123.1144449, Q1 : 0.79372292757, Q2 : 0.094957433641, Q3 : -0.125970184803, Q4 : 0.587467968464}
2019-04-14 14:43:56.11: SIM {TimeUS : 66135202, Roll : 0.17, Pitch : -18.16, Yaw : 72.97, Alt : 49.3499984741, Lat : 49.2836822, Lng : -123.1144385, Q1 : 0.793749392033, Q2 : 0.0950950607657, Q3 : -0.12601788342, Q4 : 0.587399721146}
