2019-04-14 14:04:55.20: SIM {TimeUS : 40216407, Roll : 0.0, Pitch : 0.0, Yaw : 0.0, Alt : 30.1000003815, Lat : 49.28357, Lng : -123.11502, Q1 : 1.0, Q2 : 0.0, Q3 : 0.0, Q4 : 0.0}
2019-04-14 14:04:55.31: SIM {TimeUS : 40335526, Roll : 0.0, Pitch : 0.0, Yaw : 0.0, Alt : 30.1000003815, Lat : 49.28357, Lng : -123.11502, Q1 : 1.0, Q2 : 0.0, Q3 : 0.0, Q4 : 0.0}
2019-04-14 14:04:55.41: SIM {TimeUS : 40435486, Roll : 0.0, Pitch : 0.0, Yaw : 0.0, Alt : 30.1000003815, Lat : 49.28357, Lng : -123.11502, Q1 : 1.0, Q2 : 0.0, Q3 : 0.0, Q4 : 0.0}
2019-04-14 14:04:55.51: SIM {TimeUS : 40535446, Roll : 0.0, Pitch : 0.0, Yaw : 0.0, Alt : 30.1000003815, Lat : 49.28357, Lng : -123.11502, Q1 : 1.0, Q2 : 0.0, Q3 : 0.0, Q4 : 0.0}
2019-04-14 14:04:55.61: SIM {TimeUS : 40635406, Roll : 0.0, Pitch : 0.0, Yaw : 0.0, Alt : 30.1000003815, Lat : 49.28357, Lng : -123.11502, Q1 : 1.0, Q2 : 0.0, Q3 : 0.0, Q4 : 0.0}
2019-04-14 14:04:55.71: SIM {TimeUS : 40735366, Roll : 0.0, Pitch : 0.0, Yaw : 0.0, Alt : 30.1000003815, Lat : 49.28357, Lng : -123.11502, Q1 : 1.0, Q2 : 0.0, Q3 : 0.0, Q4 : 0.0}
2019-04-14 14:04:55.81: SIM {TimeUS : 40835326, Roll : 0.0, Pitch : 0.0, Yaw : 0.0, Alt : 30.1000003815, Lat : 49.28357, Lng : -123.11502, Q1 : 1.0, Q2 : 0.0, Q3 : 0.0, Q4 : 0.0}
2019-04-14 14:04:55.91: SIM {TimeUS : 40935286, Roll : 0.0, Pitch : 0.0, Yaw : 0.0, Alt : 30.1000003815, Lat : 49.28357, Lng : -123.11502, Q1 : 1.0, Q2 : 0.0, Q3 : 0.0, Q4 : 0.0}
2019-04-14 14:04:56.01: SIM {TimeUS : 41035246, Roll : 0.0, Pitch : 0.0, Yaw : 0.0, Alt : 30.1000003815, Lat : 49.28357, Lng : -123.11502, Q1 : 1.0, Q2 : 0.0, Q3 : 0.0, Q4 : 0.0}
2019-04-14 14:04:56.11: SIM {TimeUS : 41135206, Roll : 0.0, Pitch : 0.0, Yaw : 0.0, Alt : 30.1000003815, Lat : 49.28357, Lng : -123.11502, Q1 : 1.0, Q2 : 0.0, Q3 : 0.0, Q4 : 0.0}
2019-04-14 14:04:56.21: SIM {TimeUS : 41235166, Roll : 0.0, Pitch : 0.0, Yaw : 0.0, Alt : 30.1000003815, Lat : 49.28357, Lng : -123.11502, Q1 : 1.0, Q2 : 0.0, Q3 : 0.0, Q4 : 0.0}
2019-04-14 14:04:56.31: SIM {TimeUS : 41335126, Roll : 0.0, Pitch : 0.0, Yaw : 0.0, Alt : 30.1000003815, Lat : 49.28357, Lng : -123.11502, Q1 : 1.0, Q2 : 0.0, Q3 : 0.0, Q4 : 0.0}
2019-04-14 14:04:56.41: SIM {TimeUS : 41435086, Roll : 0.0, Pitch : 0.0, Yaw : 0.0, Alt : 30.1000003815, Lat : 49.28357, Lng : -123.11502, Q1 : 1.0, Q2 : 0.0, Q3 : 0.0, Q4 : 0.0}
2019-04-14 14:04:56.51: SIM {TimeUS : 41535046, Roll : 0.0, Pitch : 0.0, Yaw : 0.0, Alt : 30.1000003815, Lat : 49.28357, Lng : -123.11502, Q1 : 1.0, Q2 : 0.0, Q3 : 0.0, Q4 : 0.0}
2019-04-14 14:04:56.61: SIM {TimeUS : 41635006, Roll : 0.0, Pitch : 0.0, Yaw : 0.0, Alt : 30.1000003815, Lat : 49.28357, Lng : -123.11502, Q1 : 1.0, Q2 : 0.0, Q3 : 0.0, Q4 : 0.0}
2019-04-14 14:04:56.71: SIM {TimeUS : 41734966, Roll : 0.0, Pitch : 0.0, Yaw : 0.0, Alt : 30.1000003815, Lat : 49.28357, Lng : -123.11502, Q1 : 1.0, Q2 : 0.0, Q3 : 0.0, Q4 : 0.0}
2019-04-14 14:04:56.81: SIM {TimeUS : 41834926, Roll : 0.0, Pitch : 0.0, Yaw : 0.0, Alt : 30.1000003815, Lat : 49.28357, Lng : -123.11502, Q1 : 1.0, Q2 : 0.0, Q3 : 0.0, Q4 : 0.0}
2019-04-14 14:04:56.91: SIM {TimeUS : 41934886, Roll : 0.0, Pitch : 0.0, Yaw : 0.0, Alt : 30.1000003815, Lat : 49.28357, Lng : -123.11502, Q1 : 1.0, Q2 : 0.0, Q3 : 0.0, Q4 : 0.0}
2019-04-14 14:04:57.01: SIM {TimeUS : 42034846, Roll : 0.0, Pitch : 0.0, Yaw : 0.0, Alt : 30.1000003815, Lat : 49.28357, Lng : -123.11502, Q1 : 1.0, Q2 : 0.0, Q3 : 0.0, Q4 : 0.0}
2019-04-14 14:04:57.11: SIM {TimeUS : 42134806, Roll : 0.0, Pitch : 0.0, Yaw : 0.0, Alt : 30.1000003815, Lat : 49.28357, Lng : -123.11502, Q1 : 1.0, Q2 : 0.0, Q3 : 0.0, Q4 : 0.0}
2019-04-14 14:04:57.21: SIM {TimeUS : 42234766, Roll : 0.0, Pitch : 0.0, Yaw : 0.0, Alt : 30.1000003815, Lat : 49.28357, Lng : -123.11502, Q1 : 1.0, Q2 : 0.0, Q3 : 0.0, Q4 : 0.0}
2019-04-14 14:04:57.31: SIM {TimeUS : 42335559, Roll : 0.0, Pitch : 0.0, Yaw : 0.0, Alt : 30.1000003815, Lat : 49.28357, Lng : -123.11502, Q1 : 1.0, Q2 : 0.0, Q3 : 0.0, Q4 : 0.0}
2019-04-14 14:04:57.41: SIM {TimeUS : 42435519, Roll : 0.0, Pitch : 0.0, Yaw : 0.0, Alt : 30.1000003815, Lat : 49.28357, Lng : -123.11502, Q1 : 1.0, Q2 : 0.0, Q3 : 0.0, Q4 : 0.0}
2019-04-14 14:04:57.51: SIM {TimeUS : 42535479, Roll : 0.0, Pitch : 0.0, Yaw : 360.0, Alt : 30.1000003815, Lat : 49.28357, Lng : -123.11502, Q1 : 1.0, Q2 : 0.0, Q3 : 0.0, Q4 : -1.1336584449e-11}
2019-04-14 14:04:57.61: SIM {TimeUS : 42635439, Roll : 0.0, Pitch : 0.0, Yaw : 360.0, Alt : 30.1000003815, Lat : 49.28357, Lng : -123.11502, Q1 : 1.0, Q2 : 0.0, Q3 : 0.0, Q4 : -1.61812430122e-08}
2019-04-14 14:04:57.71: SIM {TimeUS : 42735399, Roll : 0.0, Pitch : 0.0, Yaw : 359.99, Alt : 30.1000003815, Lat : 49.28357, Lng : -123.11502, Q1 : 1.0, Q2 : 0.0, Q3 : 0.0, Q4 : -2.16404146158e-07}
2019-04-14 14:04:57.81: SIM {TimeUS : 42835359, Roll : 0.0, Pitch : 0.0, Yaw : 359.99, Alt : 30.1000003815, Lat : 49.28357, Lng : -123.11502, Q1 : 1.0, Q2 : 0.0, Q3 : 0.0, Q4 : -4.00140066859e-07}
2019-04-14 14:04:57.91: SIM {TimeUS : 42935319, Roll : 0.0, Pitch : 0.0, Yaw : 359.99, Alt : 30.1000003815, Lat : 49.28357, Lng : -123.11502, Q1 : 1.0, Q2 : 0.0, Q3 : 0.0, Q4 : -5.78742856305e-07}
2019-04-14 14:04:58.01: SIM {TimeUS : 43035279, Roll : 0.0, Pitch : 0.0, Yaw : 359.99, Alt : 30.1000003815, Lat : 49.28357, Lng : -123.11502, Q1 : 1.0, Q2 : 0.0, Q3 : 0.0, Q4 : -7.99804467988e-07}
2019-04-14 14:04:58.11: SIM {TimeUS : 43135239, Roll : 0.0, Pitch : 0.0, Yaw : 359.99, Alt : 30.1000003815, Lat : 49.28357, Lng : -123.11502, Q1 : 1.0, Q2 : 0.0, Q3 : 0.0, Q4 : -1.00090221622e-06}
2019-04-14 14:04:58.21: SIM {TimeUS : 43235199, Roll : 0.0, Pitch : 0.0, Yaw : 359.99, Alt : 30.1000003815, Lat : 49.28357, Lng : -123.11502, Q1 : 1.0, Q2 : 0.0, Q3 : 0.0, Q4 : -1.18568971175e-06}
2019-04-14 14:04:58.31: SIM {TimeUS : 43335159, Roll : 0.0, Pitch : 0.0, Yaw : 359.99, Alt : 30.1000003815, Lat : 49.28357, Lng : -123.11502, Q1 : 1.0, Q2 : 0.0, Q3 : 0.0, Q4 : -1.36967435083e-06}
2019-04-14 14:04:58.41: SIM {TimeUS : 43435119, Roll : 0.0, Pitch : 0.0, Yaw : 359.99, Alt : 30.1200008392, Lat : 49.28357, Lng : -123.11502, Q1 : 1.0, Q2 : 0.0, Q3 : 0.0, Q4 : -1.59766761954e-06}
2019-04-14 14:04:58.51: SIM {TimeUS : 43535079, Roll : 0.0, Pitch : 0.0, Yaw : 359.99, Alt : 30.1499996185, Lat : 49.28357, Lng : -123.11502, Q1 : 1.0, Q2 : 0.0, Q3 : 0.0, Q4 : -1.82050450803e-06}
2019-04-14 14:04:58.61: SIM {TimeUS : 43635039, Roll : 0.0, Pitch : 0.0, Yaw : 359.99, Alt : 30.1800003052, Lat : 49.28357, Lng : -123.11502, Q1 : 1.0, Q2 : 0.0, Q3 : 0.0, Q4 : -2.07927223528e-06}
2019-04-14 14:04:58.71: SIM {TimeUS : 43734999, Roll : 0.0, Pitch : 0.0, Yaw : 359.99, Alt : 30.2099990845, Lat : 49.28357, Lng : -123.11502, Q1 : 1.0, Q2 : -8.46819239086e-06, Q3 : -7.5176099017e-06, Q4 : -2.36227833739e-06}
2019-04-14 14:04:58.81: SIM {TimeUS : 43834959, Roll : -0.19, Pitch : -0.15, Yaw : 359.99, Alt : 30.2700004578, Lat : 49.28357, Lng : -123.11502, Q1 : 0.999997675419, Q2 : -0.00167278957088, Q3 : -0.00137585261837, Q4 : -1.84880373126e-05}
2019-04-14 14:04:58.91: SIM {TimeUS : 43934919, Roll : -0.5, Pitch : -0.41, Yaw : 359.99, Alt : 30.3899993896, Lat : 49.28357, Lng : -123.11502, Q1 : 0.999983847141, Q2 : -0.00440711108968, Q3 : -0.00359473098069, Q4 : -6.1946666392e-05}
2019-04-14 14:04:59.01: SIM {TimeUS : 44034879, Roll : -0.74, Pitch : -0.62, Yaw : 359.98, Alt : 30.5400009155, Lat : 49.28357, Lng : -123.11502, Q1 : 0.99996393919, Q2 : -0.00649789581075, Q3 : -0.0054677138105, Q4 : -0.000132879096782}
2019-04-14 14:04:59.11: SIM {TimeUS : 44134839, Roll : -0.83, Pitch : -0.72, Yaw : 359.97, Alt : 30.7000007629, Lat : 49.28357, Lng : -123.11502, Q1 : 0.999953269958, Q2 : -0.0073137357831, Q3 : -0.00631409324706, Q4 : -0.000221245310968}
2019-04-14 14:04:59.21: SIM {TimeUS : 44234799, Roll : -0.78, Pitch : -0.68, Yaw : 359.96, Alt : 30.8600006104, Lat : 49.28357, Lng : -123.1150201, Q1 : 0.999958276749, Q2 : -0.00686680106446, Q3 : -0.00601511215791, Q4 : -0.00031673439662}
2019-04-14 14:04:59.31: SIM {TimeUS : 44334759, Roll : -0.63, Pitch : -0.55, Yaw : 359.95, Alt : 31.0100002289, Lat : 49.2835701, Lng : -123.1150201, Q1 : 0.999972939491, Q2 : -0.00550365634263, Q3 : -0.00486168963835, Q4 : -0.000405251776101}
2019-04-14 14:04:59.41: SIM {TimeUS : 44435552, Roll : -0.39, Pitch : -0.39, Yaw : 359.94, Alt : 31.1700000763, Lat : 49.2835701, Lng : -123.1150202, Q1 : 0.999988019466, Q2 : -0.00348017015494, Q3 : -0.00341044389643, Q4 : -0.000478640809888}
2019-04-14 14:04:59.51: SIM {TimeUS : 44535512, Roll : -0.17, Pitch : -0.21, Yaw : 359.93, Alt : 31.3299999237, Lat : 49.2835701, Lng : -123.1150203, Q1 : 0.999996840954, Q2 : -0.00156533368863, Q3 : -0.00187749473844, Q4 : -0.000532284786459}
2019-04-14 14:04:59.61: SIM {TimeUS : 44635472, Roll : -0.03, Pitch : -0.06, Yaw : 359.93, Alt : 31.5, Lat : 49.2835702, Lng : -123.1150204, Q1 : 0.999999642372, Q2 : -0.000292047334369, Q3 : -0.000579353771172, Q4 : -0.000570955337025}
2019-04-14 14:04:59.71: SIM {TimeUS : 44735432, Roll : 0.04, Pitch : 0.02, Yaw : 359.93, Alt : 31.6700000763, Lat : 49.2835702, Lng : -123.1150205, Q1 : 0.999999761581, Q2 : 0.000357945507858, Q3 : 0.00019999302458, Q4 : -0.000592533266172}
2019-04-14 14:04:59.81: SIM {TimeUS : 44835392, Roll : 0.05, Pitch : 0.05, Yaw : 359.93, Alt : 31.8500003815, Lat : 49.2835703, Lng : -123.1150205, Q1 : 0.999999582767, Q2 : 0.000513093429618, Q3 : 0.000510225072503, Q4 : -0.00060522207059}
2019-04-14 14:04:59.91: SIM {TimeUS : 44935352, Roll : 0.05, Pitch : 0.05, Yaw : 359.93, Alt : 32.0400009155, Lat : 49.2835703, Lng : -123.1150206, Q1 : 0.999999582767, Q2 : 0.000509266392328, Q3 : 0.000470737111755, Q4 : -0.000601345207542}
2019-04-14 14:05:00.01: SIM {TimeUS : 45035312, Roll : 0.06, Pitch : 0.03, Yaw : 359.93, Alt : 32.2299995422, Lat : 49.2835703, Lng : -123.1150207, Q1 : 0.999999642372, Q2 : 0.000547730305698, Q3 : 0.000282851193333, Q4 : -0.000583629589528}
2019-04-14 14:05:00.11: SIM {TimeUS : 45135272, Roll : 0.08, Pitch : 0.02, Yaw : 359.93, Alt : 32.4199981689, Lat : 49.2835703, Lng : -123.1150207, Q1 : 0.999999582767, Q2 : 0.000709730316885, Q3 : 0.000202494789846, Q4 : -0.000563593464904}
2019-04-14 14:05:00.21: SIM {TimeUS : 45235232, Roll : 0.1, Pitch : 0.05, Yaw : 359.93, Alt : 32.6100006104, Lat : 49.2835703, Lng : -123.1150208, Q1 : 0.999999344349, Q2 : 0.000904636981431, Q3 : 0.000439458934125, Q4 : -0.000534497783519}
2019-04-14 14:05:00.31: SIM {TimeUS : 45335192, Roll : 0.12, Pitch : 0.1, Yaw : 359.94, Alt : 32.8100013733, Lat : 49.2835704, Lng : -123.1150208, Q1 : 0.999998867512, Q2 : 0.00109488132875, Q3 : 0.000915264012292, Q4 : -0.000490647507831}
2019-04-14 14:05:00.41: SIM {TimeUS : 45435152, Roll : 0.14, Pitch : 0.15, Yaw : 359.94, Alt : 33.0099983215, Lat : 49.2835704, Lng : -123.1150208, Q1 : 0.999998211861, Q2 : 0.00122256088071, Q3 : 0.0013625966385, Q4 : -0.000451991683803}
2019-04-14 14:05:00.51: SIM {TimeUS : 45535112, Roll : 0.16, Pitch : 0.19, Yaw : 359.95, Alt : 33.2099990845, Lat : 49.2835704, Lng : -123.1150209, Q1 : 0.999997437, Q2 : 0.00141726608854, Q3 : 0.00171491398942, Q4 : -0.000424365978688}
2019-04-14 14:05:00.61: SIM {TimeUS : 45635072, Roll : 0.18, Pitch : 0.21, Yaw : 359.95, Alt : 33.4199981689, Lat : 49.2835704, Lng : -123.1150209, Q1 : 0.999996840954, Q2 : 0.00162826105952, Q3 : 0.00187048723456, Q4 : -0.000417141534854}
2019-04-14 14:05:00.71: SIM {TimeUS : 45735032, Roll : 0.19, Pitch : 0.21, Yaw : 359.95, Alt : 33.6199989319, Lat : 49.2835704, Lng : -123.1150209, Q1 : 0.99999666214, Q2 : 0.00169867835939, Q3 : 0.00188729981892, Q4 : -0.000423902733019}
2019-04-14 14:05:00.81: SIM {TimeUS : 45834992, Roll : 0.17, Pitch : 0.2, Yaw : 359.94, Alt : 33.8300018311, Lat : 49.2835704, Lng : -123.1150209, Q1 : 0.999997079372, Q2 : 0.00154137972277, Q3 : 0.00181268167216, Q4 : -0.000442456948804}
2019-04-14 14:05:00.91: SIM {TimeUS : 45934952, Roll : 0.15, Pitch : 0.16, Yaw : 359.94, Alt : 34.0400009155, Lat : 49.2835704, Lng : -123.1150209, Q1 : 0.999997913837, Q2 : 0.0013382465113, Q3 : 0.00147270946763, Q4 : -0.000465137389256}
2019-04-14 14:05:01.01: SIM {TimeUS : 46034912, Roll : 0.13, Pitch : 0.11, Yaw : 359.94, Alt : 34.25, Lat : 49.2835706, Lng : -123.1150209, Q1 : 0.999998807907, Q2 : 0.00113855313975, Q3 : 0.000961978221312, Q4 : -0.0004781257594}
2019-04-14 14:05:01.11: SIM {TimeUS : 46134872, Roll : 0.1, Pitch : 0.06, Yaw : 359.94, Alt : 34.4599990845, Lat : 49.2835706, Lng : -123.1150209, Q1 : 0.999999284744, Q2 : 0.000942898041103, Q3 : 0.000583055079915, Q4 : -0.000500228139572}
2019-04-14 14:05:01.21: SIM {TimeUS : 46234832, Roll : 0.08, Pitch : 0.04, Yaw : 359.93, Alt : 34.6699981689, Lat : 49.2835706, Lng : -123.1150209, Q1 : 0.999999523163, Q2 : 0.000763122108765, Q3 : 0.000374855473638, Q4 : -0.000534154241905}
2019-04-14 14:05:01.31: SIM {TimeUS : 46334792, Roll : 0.08, Pitch : 0.04, Yaw : 359.93, Alt : 34.8899993896, Lat : 49.2835704, Lng : -123.1150209, Q1 : 0.999999463558, Q2 : 0.000735110079404, Q3 : 0.000383343111025, Q4 : -0.000575324927922}
2019-04-14 14:05:01.41: SIM {TimeUS : 46434752, Roll : 0.08, Pitch : 0.04, Yaw : 359.92, Alt : 35.0999984741, Lat : 49.2835704, Lng : -123.1150208, Q1 : 0.999999463558, Q2 : 0.000753123429604, Q3 : 0.000395397102693, Q4 : -0.000622531224508}
2019-04-14 14:05:01.51: SIM {TimeUS : 46535545, Roll : 0.07, Pitch : 0.05, Yaw : 359.92, Alt : 35.3199996948, Lat : 49.2835704, Lng : -123.1150208, Q1 : 0.999999403954, Q2 : 0.000680749246385, Q3 : 0.000472223560791, Q4 : -0.000673130620271}
2019-04-14 14:05:01.61: SIM {TimeUS : 46635505, Roll : 0.05, Pitch : 0.06, Yaw : 359.91, Alt : 35.5400009155, Lat : 49.2835704, Lng : -123.1150208, Q1 : 0.999999463558, Q2 : 0.000508960161824, Q3 : 0.00055033393437, Q4 : -0.000721328135114}
2019-04-14 14:05:01.71: SIM {TimeUS : 46735465, Roll : 0.03, Pitch : 0.07, Yaw : 359.91, Alt : 35.7599983215, Lat : 49.2835704, Lng : -123.1150208, Q1 : 0.999999463558, Q2 : 0.000324832479237, Q3 : 0.000636060955003, Q4 : -0.000762493582442}
2019-04-14 14:05:01.81: SIM {TimeUS : 46835425, Roll : 0.02, Pitch : 0.05, Yaw : 359.9, Alt : 35.9799995422, Lat : 49.2835704, Lng : -123.1150208, Q1 : 0.999999582767, Q2 : 0.000190687351278, Q3 : 0.000461930438178, Q4 : -0.000787326076534}
2019-04-14 14:05:01.91: SIM {TimeUS : 46935385, Roll : 0.01, Pitch : 0.03, Yaw : 359.9, Alt : 36.2000007629, Lat : 49.2835704, Lng : -123.1150207, Q1 : 0.999999642372, Q2 : 9.62578633334e-05, Q3 : 0.000269022973953, Q4 : -0.000805006420705}
2019-04-14 14:05:02.01: SIM {TimeUS : 47035345, Roll : 0.0, Pitch : 0.01, Yaw : 359.9, Alt : 36.4199981689, Lat : 49.2835704, Lng : -123.1150207, Q1 : 0.999999642372, Q2 : -2.24829673243e-05, Q3 : 0.000103230202512, Q4 : -0.000825061928481}
2019-04-14 14:05:02.11: SIM {TimeUS : 47135305, Roll : 0.0, Pitch : 0.0, Yaw : 359.9, Alt : 36.6399993896, Lat : 49.2835704, Lng : -123.1150207, Q1 : 0.999999642372, Q2 : -8.20597051643e-05, Q3 : 4.93051811645e-06, Q4 : -0.000844070571475}
2019-04-14 14:05:02.21: SIM {TimeUS : 47235265, Roll : 0.0, Pitch : -0.01, Yaw : 359.9, Alt : 36.8699989319, Lat : 49.2835704, Lng : -123.1150207, Q1 : 0.999999642372, Q2 : 9.79964625003e-07, Q3 : -9.45847132243e-05, Q4 : -0.000861649692524}
2019-04-14 14:05:02.31: SIM {TimeUS : 47335225, Roll : 0.0, Pitch : -0.02, Yaw : 359.89, Alt : 37.0900001526, Lat : 49.2835704, Lng : -123.1150207, Q1 : 0.999999582767, Q2 : -5.01508548041e-05, Q3 : -0.000256084604189, Q4 : -0.000876492005773}
2019-04-14 14:05:02.41: SIM {TimeUS : 47435185, Roll : -0.03, Pitch : -0.05, Yaw : 359.89, Alt : 37.3199996948, Lat : 49.2835704, Lng : -123.1150207, Q1 : 0.999999403954, Q2 : -0.000291366130114, Q3 : -0.000513157167006, Q4 : -0.000895930512343}
2019-04-14 14:05:02.51: SIM {TimeUS : 47535145, Roll : -0.07, Pitch : -0.08, Yaw : 359.89, Alt : 37.5400009155, Lat : 49.2835704, Lng : -123.1150207, Q1 : 0.99999910593, Q2 : -0.000638543802779, Q3 : -0.000725310877897, Q4 : -0.000923671410419}
2019-04-14 14:05:02.61: SIM {TimeUS : 47635105, Roll : -0.1, Pitch : -0.09, Yaw : 359.89, Alt : 37.7700004578, Lat : 49.2835704, Lng : -123.1150206, Q1 : 0.999998748302, Q2 : -0.000953679380473, Q3 : -0.000840956519824, Q4 : -0.000952785951085}
2019-04-14 14:05:02.71: SIM {TimeUS : 47735065, Roll : -0.13, Pitch : -0.09, Yaw : 359.88, Alt : 37.9900016785, Lat : 49.2835704, Lng : -123.1150206, Q1 : 0.999998450279, Q2 : -0.0011611826485, Q3 : -0.000869572570082, Q4 : -0.00098391820211}
2019-04-14 14:05:02.81: SIM {TimeUS : 47835025, Roll : -0.14, Pitch : -0.09, Yaw : 359.88, Alt : 38.2200012207, Lat : 49.2835704, Lng : -123.1150206, Q1 : 0.999998390675, Q2 : -0.00122390943579, Q3 : -0.000800007721409, Q4 : -0.00101248524152}
2019-04-14 14:05:02.91: SIM {TimeUS : 47934985, Roll : -0.12, Pitch : -0.06, Yaw : 359.88, Alt : 38.4500007629, Lat : 49.2835704, Lng : -123.1150206, Q1 : 0.999998748302, Q2 : -0.00106720125768, Q3 : -0.000540392939001, Q4 : -0.00103632279206}
2019-04-14 14:05:03.01: SIM {TimeUS : 48034945, Roll : -0.09, Pitch : -0.04, Yaw : 359.87, Alt : 38.6800003052, Lat : 49.2835704, Lng : -123.1150206, Q1 : 0.999999046326, Q2 : -0.000794056395534, Q3 : -0.000406592240324, Q4 : -0.00105844810605}
2019-04-14 14:05:03.11: SIM {TimeUS : 48134905, Roll : -0.07, Pitch : -0.04, Yaw : 359.87, Alt : 38.9099998474, Lat : 49.2835704, Lng : -123.1150206, Q1 : 0.999999165535, Q2 : -0.000617874378804, Q3 : -0.000380908866646, Q4 : -0.00109067221638}
2019-04-14 14:05:03.21: SIM {TimeUS : 48234865, Roll : -0.06, Pitch : -0.02, Yaw : 359.87, Alt : 39.1399993896, Lat : 49.2835704, Lng : -123.1150206, Q1 : 0.999999165535, Q2 : -0.000556698767468, Q3 : -0.000215251231566, Q4 : -0.00111349252984}
2019-04-14 14:05:03.31: SIM {TimeUS : 48334825, Roll : -0.07, Pitch : 0.0, Yaw : 359.87, Alt : 39.3600006104, Lat : 49.2835704, Lng : -123.1150206, Q1 : 0.99999910593, Q2 : -0.000693572685122, Q3 : -2.36777304963e-05, Q4 : -0.00112403265666}
2019-04-14 14:05:03.41: SIM {TimeUS : 48434785, Roll : -0.08, Pitch : 0.01, Yaw : 359.87, Alt : 39.5900001526, Lat : 49.2835704, Lng : -123.1150206, Q1 : 0.99999910593, Q2 : -0.000713365734555, Q3 : 0.000122415745864, Q4 : -0.00112747808453}
2019-04-14 14:05:03.51: SIM {TimeUS : 48534745, Roll : -0.06, Pitch : 0.04, Yaw : 359.87, Alt : 39.8300018311, Lat : 49.2835704, Lng : -123.1150206, Q1 : 0.999999165535, Q2 : -0.000545183371287, Q3 : 0.000355512776878, Q4 : -0.00113087764475}
2019-04-14 14:05:03.61: SIM {TimeUS : 48635538, Roll : -0.03, Pitch : 0.04, Yaw : 359.87, Alt : 40.0600013733, Lat : 49.2835704, Lng : -123.1150206, Q1 : 0.999999284744, Q2 : -0.000311728799716, Q3 : 0.000349611946149, Q4 : -0.00112872978207}
2019-04-14 14:05:03.71: SIM {TimeUS : 48735498, Roll : 0.0, Pitch : 0.03, Yaw : 359.87, Alt : 40.2900009155, Lat : 49.2835706, Lng : -123.1150207, Q1 : 0.999999284744, Q2 : -1.95712345885e-05, Q3 : 0.000284518901026, Q4 : -0.00112921698019}
2019-04-14 14:05:03.81: SIM {TimeUS : 48835458, Roll : 0.03, Pitch : 0.05, Yaw : 359.87, Alt : 40.5200004578, Lat : 49.2835706, Lng : -123.1150207, Q1 : 0.99999922514, Q2 : 0.00029640464345, Q3 : 0.000451853848062, Q4 : -0.00112732150592}
2019-04-14 14:05:03.91: SIM {TimeUS : 48935418, Roll : 0.07, Pitch : 0.08, Yaw : 359.87, Alt : 40.75, Lat : 49.2835706, Lng : -123.1150207, Q1 : 0.999998867512, Q2 : 0.000637051358353, Q3 : 0.000775375461672, Q4 : -0.00113426102325}
2019-04-14 14:05:04.01: SIM {TimeUS : 49035378, Roll : 0.09, Pitch : 0.12, Yaw : 359.86, Alt : 40.9900016785, Lat : 49.2835706, Lng : -123.1150207, Q1 : 0.999998390675, Q2 : 0.000869365292601, Q3 : 0.00108663586434, Q4 : -0.00115090701729}
2019-04-14 14:05:04.11: SIM {TimeUS : 49135338, Roll : 0.08, Pitch : 0.15, Yaw : 359.86, Alt : 41.2200012207, Lat : 49.2835706, Lng : -123.1150207, Q1 : 0.999998152256, Q2 : 0.000765050877817, Q3 : 0.00132909405511, Q4 : -0.00116318464279}
2019-04-14 14:05:04.21: SIM {TimeUS : 49235298, Roll : 0.03, Pitch : 0.16, Yaw : 359.86, Alt : 41.4500007629, Lat : 49.2835706, Lng : -123.1150207, Q1 : 0.999998152256, Q2 : 0.000321147585055, Q3 : 0.00146649742965, Q4 : -0.00119066459592}
2019-04-14 14:05:04.31: SIM {TimeUS : 49335258, Roll : -0.01, Pitch : 0.17, Yaw : 359.86, Alt : 41.6800003052, Lat : 49.2835706, Lng : -123.1150207, Q1 : 0.999998092651, Q2 : -0.00010649242904, Q3 : 0.00151160766836, Q4 : -0.0012189418776}
2019-04-14 14:05:04.41: SIM {TimeUS : 49435218, Roll : -0.03, Pitch : 0.15, Yaw : 359.85, Alt : 41.9199981689, Lat : 49.2835706, Lng : -123.1150207, Q1 : 0.99999833107, Q2 : -0.000279453670373, Q3 : 0.00132714107167, Q4 : -0.00124783953652}
2019-04-14 14:05:04.51: SIM {TimeUS : 49535178, Roll : -0.03, Pitch : 0.12, Yaw : 359.85, Alt : 42.1500015259, Lat : 49.2835706, Lng : -123.1150207, Q1 : 0.999998569489, Q2 : -0.000265918875812, Q3 : 0.00105429592077, Q4 : -0.00128064223099}
2019-04-14 14:05:04.61: SIM {TimeUS : 49635138, Roll : -0.01, Pitch : 0.11, Yaw : 359.84, Alt : 42.3899993896, Lat : 49.2835706, Lng : -123.1150207, Q1 : 0.999998569489, Q2 : -0.000117365969345, Q3 : 0.00102389801759, Q4 : -0.00131956173573}
2019-04-14 14:05:04.71: SIM {TimeUS : 49735098, Roll : 0.02, Pitch : 0.13, Yaw : 359.84, Alt : 42.6199989319, Lat : 49.2835706, Lng : -123.1150207, Q1 : 0.999998390675, Q2 : 0.000222450165893, Q3 : 0.00115083926357, Q4 : -0.00136470503639}
2019-04-14 14:05:04.81: SIM {TimeUS : 49835058, Roll : 0.07, Pitch : 0.14, Yaw : 359.83, Alt : 42.8600006104, Lat : 49.2835706, Lng : -123.1150207, Q1 : 0.999997973442, Q2 : 0.000682762940414, Q3 : 0.00125908502378, Q4 : -0.00140700745396}
2019-04-14 14:05:04.91: SIM {TimeUS : 49935018, Roll : 0.11, Pitch : 0.13, Yaw : 359.83, Alt : 43.0900001526, Lat : 49.2835706, Lng : -123.1150207, Q1 : 0.999997794628, Q2 : 0.00102737487759, Q3 : 0.00113408116158, Q4 : -0.00145071570296}
2019-04-14 14:05:05.01: SIM {TimeUS : 50034978, Roll : 0.11, Pitch : 0.1, Yaw : 359.82, Alt : 43.3300018311, Lat : 49.2835706, Lng : -123.1150207, Q1 : 0.999997973442, Q2 : 0.00103267142549, Q3 : 0.000885870074853, Q4 : -0.00148952775635}
2019-04-14 14:05:05.11: SIM {TimeUS : 50134938, Roll : 0.07, Pitch : 0.08, Yaw : 359.82, Alt : 43.5600013733, Lat : 49.2835704, Lng : -123.1150207, Q1 : 0.999998390675, Q2 : 0.000654624367598, Q3 : 0.000721421965864, Q4 : -0.00150946748909}
2019-04-14 14:05:05.21: SIM {TimeUS : 50234898, Roll : 0.01, Pitch : 0.07, Yaw : 359.82, Alt : 43.7999992371, Lat : 49.2835704, Lng : -123.1150207, Q1 : 0.999998569489, Q2 : 0.000116901363072, Q3 : 0.000678480602801, Q4 : -0.00151860609185}
2019-04-14 14:05:05.31: SIM {TimeUS : 50334858, Roll : -0.03, Pitch : 0.09, Yaw : 359.82, Alt : 44.0299987793, Lat : 49.2835704, Lng : -123.1150207, Q1 : 0.999998450279, Q2 : -0.000260754022747, Q3 : 0.000799760629889, Q4 : -0.00152781303041}
2019-04-14 14:05:05.41: SIM {TimeUS : 50434818, Roll : -0.04, Pitch : 0.09, Yaw : 359.82, Alt : 44.2700004578, Lat : 49.2835704, Lng : -123.1150207, Q1 : 0.999998390675, Q2 : -0.00043019594159, Q3 : 0.000850882846862, Q4 : -0.00153844465967}
2019-04-14 14:05:05.51: SIM {TimeUS : 50534778, Roll : -0.04, Pitch : 0.08, Yaw : 359.82, Alt : 44.5, Lat : 49.2835704, Lng : -123.1150206, Q1 : 0.999998450279, Q2 : -0.000386475847336, Q3 : 0.000720746058505, Q4 : -0.0015519115841}
2019-04-14 14:05:05.61: SIM {TimeUS : 50634738, Roll : -0.04, Pitch : 0.06, Yaw : 359.81, Alt : 44.7400016785, Lat : 49.2835704, Lng : -123.1150206, Q1 : 0.999998509884, Q2 : -0.000409472879255, Q3 : 0.000569743860979, Q4 : -0.00157275120728}
2019-04-14 14:05:05.71: SIM {TimeUS : 50735531, Roll : -0.04, Pitch : 0.04, Yaw : 359.81, Alt : 44.9799995422, Lat : 49.2835704, Lng : -123.1150206, Q1 : 0.999998569489, Q2 : -0.00037017869181, Q3 : 0.000395791867049, Q4 : -0.00159208336845}
2019-04-14 14:05:05.81: SIM {TimeUS : 50835491, Roll : -0.02, Pitch : 0.02, Yaw : 359.81, Alt : 45.2099990845, Lat : 49.2835704, Lng : -123.1150206, Q1 : 0.999998629093, Q2 : -0.0002152735251, Q3 : 0.000250524783041, Q4 : -0.00161920522805}
2019-04-14 14:05:05.91: SIM {TimeUS : 50935451, Roll : -0.01, Pitch : 0.01, Yaw : 359.81, Alt : 45.4500007629, Lat : 49.2835703, Lng : -123.1150206, Q1 : 0.999998629093, Q2 : -0.000141805925523, Q3 : 0.000151380925672, Q4 : -0.00165029487107}
2019-04-14 14:05:06.01: SIM {TimeUS : 51035411, Roll : -0.01, Pitch : 0.0, Yaw : 359.8, Alt : 45.6800003052, Lat : 49.2835703, Lng : -123.1150206, Q1 : 0.999998569489, Q2 : -0.000157330578077, Q3 : -4.30321335898e-07, Q4 : -0.0016827477375}
2019-04-14 14:05:06.11: SIM {TimeUS : 51135371, Roll : -0.02, Pitch : -0.02, Yaw : 359.8, Alt : 45.9199981689, Lat : 49.2835703, Lng : -123.1150206, Q1 : 0.999998509884, Q2 : -0.000194875479792, Q3 : -0.000237602042034, Q4 : -0.00171237881295}
2019-04-14 14:05:06.21: SIM {TimeUS : 51235331, Roll : -0.02, Pitch : -0.04, Yaw : 359.8, Alt : 46.1500015259, Lat : 49.2835703, Lng : -123.1150206, Q1 : 0.999998390675, Q2 : -0.00019941937353, Q3 : -0.000369198591216, Q4 : -0.00174290197901}
2019-04-14 14:05:06.31: SIM {TimeUS : 51335291, Roll : -0.01, Pitch : -0.05, Yaw : 359.79, Alt : 46.3699989319, Lat : 49.2835703, Lng : -123.1150206, Q1 : 0.99999833107, Q2 : -0.000143087061588, Q3 : -0.000445353740361, Q4 : -0.00177438033279}
2019-04-14 14:05:06.41: SIM {TimeUS : 51435251, Roll : -0.01, Pitch : -0.05, Yaw : 359.79, Alt : 46.5900001526, Lat : 49.2835703, Lng : -123.1150206, Q1 : 0.999998271465, Q2 : -0.000170446379343, Q3 : -0.000444078556029, Q4 : -0.00180615042336}
2019-04-14 14:05:06.51: SIM {TimeUS : 51535211, Roll : -0.04, Pitch : -0.04, Yaw : 359.78, Alt : 46.8100013733, Lat : 49.2835703, Lng : -123.1150206, Q1 : 0.999998152256, Q2 : -0.000374390045181, Q3 : -0.000409673608374, Q4 : -0.00183873774949}
2019-04-14 14:05:06.61: SIM {TimeUS : 51635171, Roll : -0.08, Pitch : -0.04, Yaw : 359.78, Alt : 47.0200004578, Lat : 49.2835703, Lng : -123.1150205, Q1 : 0.999997913837, Q2 : -0.000709930958692, Q3 : -0.000386587111279, Q4 : -0.00186813261826}
2019-04-14 14:05:06.71: SIM {TimeUS : 51735131, Roll : -0.1, Pitch : -0.04, Yaw : 359.78, Alt : 47.2200012207, Lat : 49.2835703, Lng : -123.1150205, Q1 : 0.999997675419, Q2 : -0.00095760304248, Q3 : -0.000360985024599, Q4 : -0.00189934298396}
2019-04-14 14:05:06.81: SIM {TimeUS : 51835091, Roll : -0.11, Pitch : -0.03, Yaw : 359.77, Alt : 47.4199981689, Lat : 49.2835703, Lng : -123.1150205, Q1 : 0.999997615814, Q2 : -0.00100373860914, Q3 : -0.000274977152003, Q4 : -0.00192967290059}
2019-04-14 14:05:06.91: SIM {TimeUS : 51935051, Roll : -0.1, Pitch : 0.0, Yaw : 359.77, Alt : 47.5999984741, Lat : 49.2835703, Lng : -123.1150205, Q1 : 0.999997675419, Q2 : -0.000887068919837, Q3 : -6.86226994731e-05, Q4 : -0.00195661210455}
2019-04-14 14:05:07.01: SIM {TimeUS : 52035011, Roll : -0.11, Pitch : -0.01, Yaw : 359.77, Alt : 47.7799987793, Lat : 49.2835703, Lng : -123.1150205, Q1 : 0.99999755621, Q2 : -0.00100251857657, Q3 : -0.000145558209624, Q4 : -0.00198064604774}
2019-04-14 14:05:07.11: SIM {TimeUS : 52134971, Roll : -0.12, Pitch : -0.03, Yaw : 359.77, Alt : 47.9399986267, Lat : 49.2835703, Lng : -123.1150205, Q1 : 0.999997317791, Q2 : -0.00110969366506, Q3 : -0.000317889818689, Q4 : -0.00200435845181}
2019-04-14 14:05:07.21: SIM {TimeUS : 52234931, Roll : -0.12, Pitch : -0.05, Yaw : 359.76, Alt : 48.0999984741, Lat : 49.2835703, Lng : -123.1150205, Q1 : 0.999997198582, Q2 : -0.00112306547817, Q3 : -0.000456584733911, Q4 : -0.00202764407732}
2019-04-14 14:05:07.31: SIM {TimeUS : 52334891, Roll : -0.1, Pitch : -0.06, Yaw : 359.76, Alt : 48.2400016785, Lat : 49.2835703, Lng : -123.1150206, Q1 : 0.999997258186, Q2 : -0.00095236877678, Q3 : -0.00057762383949, Q4 : -0.00205687782727}
2019-04-14 14:05:07.41: SIM {TimeUS : 52434851, Roll : -0.07, Pitch : -0.07, Yaw : 359.76, Alt : 48.3600006104, Lat : 49.2835703, Lng : -123.1150206, Q1 : 0.999997377396, Q2 : -0.000669969944283, Q3 : -0.000671096902806, Q4 : -0.00208513531834}
2019-04-14 14:05:07.51: SIM {TimeUS : 52534811, Roll : -0.05, Pitch : -0.08, Yaw : 359.75, Alt : 48.4799995422, Lat : 49.2835703, Lng : -123.1150206, Q1 : 0.999997377396, Q2 : -0.000476464891108, Q3 : -0.00072281685425, Q4 : -0.00210954179056}
2019-04-14 14:05:07.61: SIM {TimeUS : 52634771, Roll : -0.04, Pitch : -0.08, Yaw : 359.75, Alt : 48.5800018311, Lat : 49.2835703, Lng : -123.1150206, Q1 : 0.999997377396, Q2 : -0.000392598682083, Q3 : -0.000755474553443, Q4 : -0.00213002460077}
2019-04-14 14:05:07.71: SIM {TimeUS : 52735564, Roll : -0.01, Pitch : -0.07, Yaw : 359.75, Alt : 48.6800003052, Lat : 49.2835703, Lng : -123.1150206, Q1 : 0.999997437, Q2 : -0.000139572963235, Q3 : -0.000678091077134, Q4 : -0.00215249229223}
2019-04-14 14:05:07.81: SIM {TimeUS : 52835524, Roll : 0.01, Pitch : -0.06, Yaw : 359.75, Alt : 48.7599983215, Lat : 49.2835703, Lng : -123.1150206, Q1 : 0.999997496605, Q2 : 0.000129734034999, Q3 : -0.000533455226105, Q4 : -0.0021738128271}
2019-04-14 14:05:07.91: SIM {TimeUS : 52935484, Roll : 0.03, Pitch : -0.03, Yaw : 359.74, Alt : 48.8300018311, Lat : 49.2835703, Lng : -123.1150206, Q1 : 0.999997437, Q2 : 0.00033656321466, Q3 : -0.000332585914293, Q4 : -0.00219660857692}
2019-04-14 14:05:08.01: SIM {TimeUS : 53035444, Roll : 0.05, Pitch : -0.01, Yaw : 359.74, Alt : 48.8899993896, Lat : 49.2835703, Lng : -123.1150206, Q1 : 0.999997437, Q2 : 0.00047330086818, Q3 : -0.000131809516461, Q4 : -0.00221923505887}
2019-04-14 14:05:08.11: SIM {TimeUS : 53135404, Roll : 0.06, Pitch : 0.0, Yaw : 359.74, Alt : 48.9399986267, Lat : 49.2835703, Lng : -123.1150206, Q1 : 0.999997317791, Q2 : 0.000558674102649, Q3 : -6.25557950116e-05, Q4 : -0.00224527390674}
2019-04-14 14:05:08.21: SIM {TimeUS : 53235364, Roll : 0.06, Pitch : -0.02, Yaw : 359.73, Alt : 48.9799995422, Lat : 49.2835703, Lng : -123.1150207, Q1 : 0.999997258186, Q2 : 0.00055602757493, Q3 : -0.000187204321264, Q4 : -0.00227502197959}
2019-04-14 14:05:08.31: SIM {TimeUS : 53335324, Roll : 0.11, Pitch : -0.04, Yaw : 359.73, Alt : 49.0200004578, Lat : 49.2835703, Lng : -123.1150207, Q1 : 0.999996721745, Q2 : 0.00100249168463, Q3 : -0.000429770239862, Q4 : -0.00230485480279}
2019-04-14 14:05:08.41: SIM {TimeUS : 53435284, Roll : 0.36, Pitch : -0.12, Yaw : 359.73, Alt : 49.0600013733, Lat : 49.2835703, Lng : -123.1150207, Q1 : 0.999991714954, Q2 : 0.00316435541026, Q3 : -0.0010594795458, Q4 : -0.00233520730399}
2019-04-14 14:05:08.51: SIM {TimeUS : 53535244, Roll : 0.87, Pitch : -0.27, Yaw : 359.72, Alt : 49.0800018311, Lat : 49.2835703, Lng : -123.1150207, Q1 : 0.999965429306, Q2 : 0.0076069473289, Q3 : -0.0023966578301, Q4 : -0.00236253649928}
2019-04-14 14:05:08.61: SIM {TimeUS : 53635204, Roll : 1.63, Pitch : -0.48, Yaw : 359.72, Alt : 49.1100006104, Lat : 49.2835703, Lng : -123.1150206, Q1 : 0.999886333942, Q2 : 0.0142588019371, Q3 : -0.00428137136623, Q4 : -0.0023785920348}
2019-04-14 14:05:08.71: SIM {TimeUS : 53735164, Roll : 2.6, Pitch : -0.74, Yaw : 359.71, Alt : 49.1300010681, Lat : 49.2835704, Lng : -123.1150206, Q1 : 0.999718368053, Q2 : 0.0226895492524, Q3 : -0.0065302378498, Q4 : -0.00237652403302}
2019-04-14 14:05:08.81: SIM {TimeUS : 53835124, Roll : 3.63, Pitch : -1.02, Yaw : 359.69, Alt : 49.1500015259, Lat : 49.2835704, Lng : -123.1150205, Q1 : 0.999453723431, Q2 : 0.0316955558956, Q3 : -0.00906190555543, Q4 : -0.00235155434348}
2019-04-14 14:05:08.91: SIM {TimeUS : 53935084, Roll : 4.55, Pitch : -1.31, Yaw : 359.68, Alt : 49.1599998474, Lat : 49.2835704, Lng : -123.1150203, Q1 : 0.999140262604, Q2 : 0.0397342815995, Q3 : -0.0116053707898, Q4 : -0.00230843923055}
2019-04-14 14:05:09.01: SIM {TimeUS : 54035044, Roll : 5.25, Pitch : -1.55, Yaw : 359.67, Alt : 49.1800003052, Lat : 49.2835706, Lng : -123.11502, Q1 : 0.9988540411, Q2 : 0.0458143465221, Q3 : -0.0136652290821, Q4 : -0.0022269077599}
2019-04-14 14:05:09.11: SIM {TimeUS : 54135004, Roll : 5.74, Pitch : -1.73, Yaw : 359.66, Alt : 49.1899986267, Lat : 49.2835707, Lng : -123.1150197, Q1 : 0.99862831831, Q2 : 0.0500297062099, Q3 : -0.0152966110036, Q4 : -0.00211721146479}
2019-04-14 14:05:09.21: SIM {TimeUS : 54234964, Roll : 6.1, Pitch : -1.88, Yaw : 359.67, Alt : 49.2000007629, Lat : 49.2835708, Lng : -123.1150192, Q1 : 0.998444855213, Q2 : 0.0531774871051, Q3 : -0.0166189465672, Q4 : -0.00197227462195}
2019-04-14 14:05:09.31: SIM {TimeUS : 54334924, Roll : 6.43, Pitch : -1.99, Yaw : 359.68, Alt : 49.2099990845, Lat : 49.2835709, Lng : -123.1150187, Q1 : 0.998271763325, Q2 : 0.0560513027012, Q3 : -0.0175649281591, Q4 : -0.00178611557931}
2019-04-14 14:05:09.41: SIM {TimeUS : 54434884, Roll : 6.78, Pitch : -2.1, Yaw : 359.69, Alt : 49.2200012207, Lat : 49.2835709, Lng : -123.115018, Q1 : 0.998077332973, Q2 : 0.0591305568814, Q3 : -0.0185126289725, Q4 : -0.00159733498003}
2019-04-14 14:05:09.51: SIM {TimeUS : 54534844, Roll : 7.16, Pitch : -2.21, Yaw : 359.69, Alt : 49.2200012207, Lat : 49.2835712, Lng : -123.1150171, Q1 : 0.99786055088, Q2 : 0.0623960420489, Q3 : -0.0194687768817, Q4 : -0.00142088078428}
2019-04-14 14:05:09.61: SIM {TimeUS : 54634804, Roll : 7.49, Pitch : -2.3, Yaw : 359.7, Alt : 49.2299995422, Lat : 49.2835714, Lng : -123.1150162, Q1 : 0.997660219669, Q2 : 0.0653037577868, Q3 : -0.0201995465904, Q4 : -0.00125340255909}
2019-04-14 14:05:09.71: SIM {TimeUS : 54734764, Roll : 7.74, Pitch : -2.37, Yaw : 359.71, Alt : 49.2299995422, Lat : 49.2835715, Lng : -123.1150151, Q1 : 0.997501790524, Q2 : 0.0674762576818, Q3 : -0.0208788830787, Q4 : -0.00111724832095}
2019-04-14 14:05:09.81: SIM {TimeUS : 54835557, Roll : 7.93, Pitch : -2.44, Yaw : 359.71, Alt : 49.2400016785, Lat : 49.2835718, Lng : -123.1150139, Q1 : 0.997374534607, Q2 : 0.0691465139389, Q3 : -0.0214884392917, Q4 : -0.00101587211248}
2019-04-14 14:05:09.91: SIM {TimeUS : 54935517, Roll : 8.08, Pitch : -2.5, Yaw : 359.71, Alt : 49.2400016785, Lat : 49.2835721, Lng : -123.1150128, Q1 : 0.997276008129, Q2 : 0.0704167410731, Q3 : -0.021936384961, Q4 : -0.000939667166676}
2019-04-14 14:05:10.01: SIM {TimeUS : 55035477, Roll : 8.19, Pitch : -2.52, Yaw : 359.71, Alt : 49.25, Lat : 49.2835722, Lng : -123.1150114, Q1 : 0.997200846672, Q2 : 0.071394585073, Q3 : -0.0221920236945, Q4 : -0.000897235993762}
2019-04-14 14:05:10.11: SIM {TimeUS : 55135437, Roll : 8.35, Pitch : -2.52, Yaw : 359.72, Alt : 49.25, Lat : 49.2835726, Lng : -123.1150099, Q1 : 0.997102618217, Q2 : 0.0727736502886, Q3 : -0.022131273523, Q4 : -0.000779177993536}
2019-04-14 14:05:10.21: SIM {TimeUS : 55235397, Roll : 8.66, Pitch : -2.31, Yaw : 0.0, Alt : 49.2599983215, Lat : 49.2835729, Lng : -123.1150083, Q1 : 0.996940433979, Q2 : 0.0754981413484, Q3 : -0.0201854147017, Q4 : 0.00154408509843}
2019-04-14 14:05:10.31: SIM {TimeUS : 55335357, Roll : 9.15, Pitch : -1.92, Yaw : 1.16, Alt : 49.2599983215, Lat : 49.2835733, Lng : -123.1150067, Q1 : 0.99660128355, Q2 : 0.0799972116947, Q3 : -0.0159439239651, Q4 : 0.0114986365661}
2019-04-14 14:05:10.41: SIM {TimeUS : 55435317, Roll : 9.72, Pitch : -1.73, Yaw : 3.78, Alt : 49.2599983215, Lat : 49.2835735, Lng : -123.1150049, Q1 : 0.995700895786, Q2 : 0.0851839035749, Q3 : -0.0123156094924, Q4 : 0.0342300273478}
2019-04-14 14:05:10.51: SIM {TimeUS : 55535277, Roll : 10.17, Pitch : -2.1, Yaw : 7.97, Alt : 49.2599983215, Lat : 49.2835739, Lng : -123.115003, Q1 : 0.993371069431, Q2 : 0.0897000133991, Q3 : -0.0120592778549, Q4 : 0.0708691179752}
2019-04-14 14:05:10.61: SIM {TimeUS : 55635237, Roll : 10.34, Pitch : -3.1, Yaw : 13.55, Alt : 49.2599983215, Lat : 49.2835743, Lng : -123.115001, Q1 : 0.988317549229, Q2 : 0.0926765203476, Q3 : -0.0161855909973, Q4 : 0.11990622431}
2019-04-14 14:05:10.71: SIM {TimeUS : 55735197, Roll : 10.1, Pitch : -4.67, Yaw : 20.28, Alt : 49.2700004578, Lat : 49.2835745, Lng : -123.1149989, Q1 : 0.97910451889, Q2 : 0.0937976464629, Q3 : -0.0244727078825, Q4 : 0.178766608238}
2019-04-14 14:05:10.81: SIM {TimeUS : 55835157, Roll : 9.37, Pitch : -6.59, Yaw : 27.9, Alt : 49.2700004578, Lat : 49.2835749, Lng : -123.1149966, Q1 : 0.964511334896, Q2 : 0.0929775238037, Q3 : -0.035942569375, Q4 : 0.244501933455}
2019-04-14 14:05:10.91: SIM {TimeUS : 55935117, Roll : 8.1, Pitch : -8.62, Yaw : 36.2, Alt : 49.2700004578, Lat : 49.2835751, Lng : -123.1149942, Q1 : 0.943800866604, Q2 : 0.0902952104807, Q3 : -0.0493656396866, Q4 : 0.31408560276}
2019-04-14 14:05:11.01: SIM {TimeUS : 56035077, Roll : 6.35, Pitch : -10.51, Yaw : 44.92, Alt : 49.2700004578, Lat : 49.2835755, Lng : -123.1149917, Q1 : 0.916895270348, Q2 : 0.0859384611249, Q3 : -0.0634885430336, Q4 : 0.38456055522}
2019-04-14 14:05:11.11: SIM {TimeUS : 56135037, Roll : 4.21, Pitch : -12.09, Yaw : 53.8, Alt : 49.2700004578, Lat : 49.2835758, Lng : -123.1149891, Q1 : 0.884451985359, Q2 : 0.080238930881, Q3 : -0.0773040056229, Q4 : 0.453134149313}
2019-04-14 14:05:11.21: SIM {TimeUS : 56234997, Roll : 1.86, Pitch : -13.21, Yaw : 62.56, Alt : 49.2700004578, Lat : 49.2835762, Lng : -123.1149864, Q1 : 0.847879707813, Q2 : 0.0735534206033, Q3 : -0.0898897126317, Q4 : 0.517310142517}
2019-04-14 14:05:11.31: SIM {TimeUS : 56334957, Roll : -0.69, Pitch : -13.83, Yaw : 70.83, Alt : 49.2799987793, Lat : 49.2835765, Lng : -123.1149835, Q1 : 0.809415876865, Q2 : 0.0649130865932, Q3 : -0.101639613509, Q4 : 0.574718773365}
2019-04-14 14:05:11.41: SIM {TimeUS : 56434917, Roll : -3.42, Pitch : -13.97, Yaw : 78.03, Alt : 49.2799987793, Lat : 49.283577, Lng : -123.1149806, Q1 : 0.773131489754, Q2 : 0.0535033494234, Q3 : -0.113147825003, Q4 : 0.621773838997}
2019-04-14 14:05:11.51: SIM {TimeUS : 56534877, Roll : -5.85, Pitch : -13.77, Yaw : 83.51, Alt : 49.2799987793, Lat : 49.2835776, Lng : -123.1149775, Q1 : 0.743725061417, Q2 : 0.0418883264065, Q3 : -0.123098254204, Q4 : 0.655717372894}
2019-04-14 14:05:11.61: SIM {TimeUS : 56634837, Roll : -7.55, Pitch : -13.43, Yaw : 86.99, Alt : 49.2799987793, Lat : 49.2835782, Lng : -123.1149743, Q1 : 0.724180936813, Q2 : 0.032908000052, Q3 : -0.129687294364, Q4 : 0.676505923271}
2019-04-14 14:05:11.71: SIM {TimeUS : 56734797, Roll : -8.28, Pitch : -13.17, Yaw : 88.56, Alt : 49.2799987793, Lat : 49.2835789, Lng : -123.114971, Q1 : 0.715109705925, Q2 : 0.0285028722137, Q3 : -0.13198338449, Q4 : 0.685847043991}
2019-04-14 14:05:11.81: SIM {TimeUS : 56834757, Roll : -8.07, Pitch : -13.11, Yaw : 88.51, Alt : 49.2799987793, Lat : 49.2835797, Lng : -123.1149676, Q1 : 0.715358018875, Q2 : 0.029454568401, Q3 : -0.130394816399, Q4 : 0.685851693153}
2019-04-14 14:05:11.91: SIM {TimeUS : 56935550, Roll : -7.07, Pitch : -13.33, Yaw : 87.18, Alt : 49.2799987793, Lat : 49.2835806, Lng : -123.1149642, Q1 : 0.722954213619, Q2 : 0.035492837429, Q3 : -0.126177847385, Q4 : 0.678348481655}
2019-04-14 14:05:12.01: SIM {TimeUS : 57035510, Roll : -5.52, Pitch : -13.78, Yaw : 84.92, Alt : 49.2799987793, Lat : 49.2835816, Lng : -123.1149606, Q1 : 0.735433518887, Q2 : 0.0456290021539, Q3 : -0.120738066733, Q4 : 0.66519010067}
2019-04-14 14:05:12.11: SIM {TimeUS : 57135470, Roll : -3.66, Pitch : -14.4, Yaw : 82.06, Alt : 49.2799987793, Lat : 49.2835824, Lng : -123.114957, Q1 : 0.750639259815, Q2 : 0.058371629566, Q3 : -0.115342117846, Q4 : 0.647942662239}
2019-04-14 14:05:12.21: SIM {TimeUS : 57235430, Roll : -1.71, Pitch : -15.05, Yaw : 78.89, Alt : 49.2799987793, Lat : 49.2835835, Lng : -123.1149531, Q1 : 0.766713440418, Q2 : 0.0717989578843, Q3 : -0.110564850271, Q4 : 0.628307938576}
2019-04-14 14:05:12.31: SIM {TimeUS : 57335390, Roll : 0.13, Pitch : -15.58, Yaw : 75.73, Alt : 49.2799987793, Lat : 49.2835844, Lng : -123.1149494, Q1 : 0.782065331936, Q2 : 0.0841508507729, Q3 : -0.106328725815, Q4 : 0.608265340328}
2019-04-14 14:05:12.41: SIM {TimeUS : 57435350, Roll : 1.69, Pitch : -15.92, Yaw : 72.89, Alt : 49.2799987793, Lat : 49.2835855, Lng : -123.1149455, Q1 : 0.79532623291, Q2 : 0.0940693840384, Q3 : -0.10268624872, Q4 : 0.589968383312}
2019-04-14 14:05:12.51: SIM {TimeUS : 57535310, Roll : 2.85, Pitch : -16.05, Yaw : 70.66, Alt : 49.2799987793, Lat : 49.2835865, Lng : -123.1149414, Q1 : 0.805567502975, Q2 : 0.100833676755, Q3 : -0.0996316894889, Q4 : 0.575297415257}
2019-04-14 14:05:12.61: SIM {TimeUS : 57635270, Roll : 3.52, Pitch : -16.03, Yaw : 69.17, Alt : 49.2799987793, Lat : 49.2835874, Lng : -123.1149372, Q1 : 0.812367856503, Q2 : 0.104243032634, Q3 : -0.0974874123931, Q4 : 0.565409660339}
2019-04-14 14:05:12.71: SIM {TimeUS : 57735230, Roll : 3.71, Pitch : -15.96, Yaw : 68.48, Alt : 49.2900009155, Lat : 49.2835884, Lng : -123.1149329, Q1 : 0.815692663193, Q2 : 0.104653544724, Q3 : -0.0966525450349, Q4 : 0.560670554638}
2019-04-14 14:05:12.81: SIM {TimeUS : 57835190, Roll : 3.49, Pitch : -15.91, Yaw : 68.51, Alt : 49.2900009155, Lat : 49.2835892, Lng : -123.1149285, Q1 : 0.815789461136, Q2 : 0.102853640914, Q3 : -0.0973307266831, Q4 : 0.560745418072}
2019-04-14 14:05:12.91: SIM {TimeUS : 57935150, Roll : 2.95, Pitch : -15.93, Yaw : 69.14, Alt : 49.2900009155, Lat : 49.2835902, Lng : -123.1149239, Q1 : 0.813140273094, Q2 : 0.0996590331197, Q3 : -0.0996506437659, Q4 : 0.564748346806}
2019-04-14 14:05:13.01: SIM {TimeUS : 58035110, Roll : 2.18, Pitch : -16.04, Yaw : 70.2, Alt : 49.2900009155, Lat : 49.283591, Lng : -123.1149194, Q1 : 0.808429956436, Q2 : 0.0956865176558, Q3 : -0.103302791715, Q4 : 0.571501195431}
2019-04-14 14:05:13.11: SIM {TimeUS : 58135070, Roll : 1.3, Pitch : -16.2, Yaw : 71.5, Alt : 49.2900009155, Lat : 49.2835919, Lng : -123.1149147, Q1 : 0.802453219891, Q2 : 0.0914485380054, Q3 : -0.10777695477, Q4 : 0.579732835293}
2019-04-14 14:05:13.21: SIM {TimeUS : 58235030, Roll : 0.42, Pitch : -16.34, Yaw : 72.86, Alt : 49.2900009155, Lat : 49.2835928, Lng : -123.11491, Q1 : 0.796051561832, Q2 : 0.0873638093472, Q3 : -0.112154737115, Q4 : 0.588294804096}
2019-04-14 14:05:13.31: SIM {TimeUS : 58334990, Roll : -0.32, Pitch : -16.44, Yaw : 74.13, Alt : 49.2900009155, Lat : 49.2835937, Lng : -123.1149052, Q1 : 0.789983391762, Q2 : 0.0839215889573, Q3 : -0.115800864995, Q4 : 0.596216082573}
2019-04-14 14:05:13.41: SIM {TimeUS : 58434950, Roll : -0.92, Pitch : -16.5, Yaw : 75.17, Alt : 49.2900009155, Lat : 49.2835946, Lng : -123.1149002, Q1 : 0.784889042377, Q2 : 0.0812210813165, Q3 : -0.11860255897, Q4 : 0.60273194313}
2019-04-14 14:05:13.51: SIM {TimeUS : 58534910, Roll : -1.3, Pitch : -16.54, Yaw : 75.92, Alt : 49.2900009155, Lat : 49.2835954, Lng : -123.1148953, Q1 : 0.781170487404, Q2 : 0.0795714557171, Q3 : -0.120352290571, Q4 : 0.607417821884}
2019-04-14 14:05:13.61: SIM {TimeUS : 58634870, Roll : -1.44, Pitch : -16.53, Yaw : 76.34, Alt : 49.2900009155, Lat : 49.2835964, Lng : -123.1148903, Q1 : 0.779032170773, Q2 : 0.0790310427547, Q3 : -0.120770893991, Q4 : 0.610145330429}
2019-04-14 14:05:13.71: SIM {TimeUS : 58734830, Roll : -1.39, Pitch : -16.52, Yaw : 76.45, Alt : 49.2900009155, Lat : 49.2835975, Lng : -123.1148853, Q1 : 0.778435647488, Q2 : 0.0794389024377, Q3 : -0.120386622846, Q4 : 0.610929191113}
2019-04-14 14:05:13.81: SIM {TimeUS : 58834790, Roll : -1.21, Pitch : -16.55, Yaw : 76.28, Alt : 49.2900009155, Lat : 49.2835984, Lng : -123.1148801, Q1 : 0.779167115688, Q2 : 0.0806112959981, Q3 : -0.11969717592, Q4 : 0.609977900982}
2019-04-14 14:05:13.91: SIM {TimeUS : 58934750, Roll : -0.94, Pitch : -16.6, Yaw : 75.91, Alt : 49.2900009155, Lat : 49.2835995, Lng : -123.114875, Q1 : 0.780907809734, Q2 : 0.0823544561863, Q3 : -0.118867821991, Q4 : 0.607676923275}
2019-04-14 14:05:14.01: SIM {TimeUS : 59035543, Roll : -0.62, Pitch : -16.68, Yaw : 75.4, Alt : 49.2900009155, Lat : 49.2836005, Lng : -123.1148697, Q1 : 0.78329616785, Q2 : 0.0844765454531, Q3 : -0.118060670793, Q4 : 0.604460537434}
2019-04-14 14:05:14.11: SIM {TimeUS : 59135503, Roll : -0.28, Pitch : -16.74, Yaw : 74.84, Alt : 49.2900009155, Lat : 49.2836014, Lng : -123.1148645, Q1 : 0.785947501659, Q2 : 0.0865220725536, Q3 : -0.117151737213, Q4 : 0.600896000862}
2019-04-14 14:05:14.21: SIM {TimeUS : 59235463, Roll : 0.03, Pitch : -16.79, Yaw : 74.29, Alt : 49.2900009155, Lat : 49.2836025, Lng : -123.1148592, Q1 : 0.788529753685, Q2 : 0.0884267091751, Q3 : -0.11623300612, Q4 : 0.597403943539}
2019-04-14 14:05:14.31: SIM {TimeUS : 59335423, Roll : 0.3, Pitch : -16.84, Yaw : 73.81, Alt : 49.2900009155, Lat : 49.2836036, Lng : -123.1148539, Q1 : 0.790773034096, Q2 : 0.0900543406606, Q3 : -0.115492962301, Q4 : 0.594331264496}
2019-04-14 14:05:14.41: SIM {TimeUS : 59435383, Roll : 0.51, Pitch : -16.87, Yaw : 73.43, Alt : 49.2900009155, Lat : 49.2836045, Lng : -123.1148485, Q1 : 0.792505800724, Q2 : 0.0912649929523, Q3 : -0.114962540567, Q4 : 0.591936588287}
2019-04-14 14:05:14.51: SIM {TimeUS : 59535343, Roll : 0.63, Pitch : -16.89, Yaw : 73.19, Alt : 49.2900009155, Lat : 49.2836056, Lng : -123.114843, Q1 : 0.793632149696, Q2 : 0.0920060202479, Q3 : -0.114705011249, Q4 : 0.590360641479}
2019-04-14 14:05:14.61: SIM {TimeUS : 59635303, Roll : 0.67, Pitch : -16.92, Yaw : 73.08, Alt : 49.2999992371, Lat : 49.2836067, Lng : -123.1148376, Q1 : 0.794140219688, Q2 : 0.0923440605402, Q3 : -0.114754520357, Q4 : 0.589614570141}
2019-04-14 14:05:14.71: SIM {TimeUS : 59735263, Roll : 0.64, Pitch : -16.94, Yaw : 73.09, Alt : 49.2999992371, Lat : 49.2836078, Lng : -123.1148321, Q1 : 0.794113099575, Q2 : 0.0921992510557, Q3 : -0.11509566009, Q4 : 0.589607298374}
2019-04-14 14:05:14.81: SIM {TimeUS : 59835223, Roll : 0.53, Pitch : -16.97, Yaw : 73.19, Alt : 49.2999992371, Lat : 49.2836087, Lng : -123.1148265, Q1 : 0.793645977974, Q2 : 0.0917480960488, Q3 : -0.115749187768, Q4 : 0.590178370476}
2019-04-14 14:05:14.91: SIM {TimeUS : 59935183, Roll : 0.38, Pitch : -17.01, Yaw : 73.35, Alt : 49.2999992371, Lat : 49.2836098, Lng : -123.114821, Q1 : 0.792877793312, Q2 : 0.0910619720817, Q3 : -0.116646125913, Q4 : 0.591139793396}
2019-04-14 14:05:15.01: SIM {TimeUS : 60035143, Roll : 0.22, Pitch : -17.05, Yaw : 73.55, Alt : 49.2999992371, Lat : 49.2836109, Lng : -123.1148153, Q1 : 0.791946470737, Q2 : 0.0903261899948, Q3 : -0.117634736001, Q4 : 0.592303991318}
2019-04-14 14:05:15.11: SIM {TimeUS : 60135103, Roll : 0.05, Pitch : -17.09, Yaw : 73.75, Alt : 49.2999992371, Lat : 49.2836118, Lng : -123.1148097, Q1 : 0.790997684002, Q2 : 0.0895426496863, Q3 : -0.118633463979, Q4 : 0.593490362167}
2019-04-14 14:05:15.21: SIM {TimeUS : 60235063, Roll : -0.1, Pitch : -17.12, Yaw : 73.93, Alt : 49.2999992371, Lat : 49.2836129, Lng : -123.114804, Q1 : 0.790149450302, Q2 : 0.0887858122587, Q3 : -0.119471818209, Q4 : 0.594564855099}
2019-04-14 14:05:15.31: SIM {TimeUS : 60335023, Roll : -0.22, Pitch : -17.14, Yaw : 74.07, Alt : 49.2999992371, Lat : 49.283614, Lng : -123.1147983, Q1 : 0.789487361908, Q2 : 0.0882301107049, Q3 : -0.120140105486, Q4 : 0.59539192915}
2019-04-14 14:05:15.41: SIM {TimeUS : 60434983, Roll : -0.28, Pitch : -17.17, Yaw : 74.16, Alt : 49.2999992371, Lat : 49.2836151, Lng : -123.1147926, Q1 : 0.78902977705, Q2 : 0.0880910754204, Q3 : -0.120625406504, Q4 : 0.595920741558}
2019-04-14 14:05:15.51: SIM {TimeUS : 60534943, Roll : -0.3, Pitch : -17.21, Yaw : 74.2, Alt : 49.2999992371, Lat : 49.2836162, Lng : -123.1147868, Q1 : 0.788817405701, Q2 : 0.0882250741124, Q3 : -0.120961368084, Q4 : 0.596113920212}
2019-04-14 14:05:15.61: SIM {TimeUS : 60634903, Roll : -0.27, Pitch : -17.26, Yaw : 74.18, Alt : 49.2999992371, Lat : 49.2836172, Lng : -123.114781, Q1 : 0.788832128048, Q2 : 0.0886503458023, Q3 : -0.121141657233, Q4 : 0.595994770527}
2019-04-14 14:05:15.71: SIM {TimeUS : 60734863, Roll : -0.2, Pitch : -17.3, Yaw : 74.12, Alt : 49.3100013733, Lat : 49.2836183, Lng : -123.1147752, Q1 : 0.789050936699, Q2 : 0.0892483964562, Q3 : -0.12116766721, Q4 : 0.595610380173}
2019-04-14 14:05:15.81: SIM {TimeUS : 60834823, Roll : -0.13, Pitch : -17.34, Yaw : 74.03, Alt : 49.3100013733, Lat : 49.2836195, Lng : -123.1147694, Q1 : 0.78943747282, Q2 : 0.0898652747273, Q3 : -0.121059514582, Q4 : 0.595027208328}
2019-04-14 14:05:15.91: SIM {TimeUS : 60934783, Roll : -0.06, Pitch : -17.35, Yaw : 73.92, Alt : 49.3100013733, Lat : 49.2836206, Lng : -123.1147636, Q1 : 0.789944291115, Q2 : 0.0902781188488, Q3 : -0.120887443423, Q4 : 0.594326615334}
2019-04-14 14:05:16.01: SIM {TimeUS : 61034743, Roll : 0.0, Pitch : -17.35, Yaw : 73.8, Alt : 49.3100013733, Lat : 49.2836217, Lng : -123.1147577, Q1 : 0.790494143963, Q2 : 0.0905521139503, Q3 : -0.120708331466, Q4 : 0.59358972311}
2019-04-14 14:05:16.11: SIM {TimeUS : 61135536, Roll : 0.05, Pitch : -17.35, Yaw : 73.69, Alt : 49.3100013733, Lat : 49.2836227, Lng : -123.1147518, Q1 : 0.791010141373, Q2 : 0.0908894911408, Q3 : -0.120457790792, Q4 : 0.592901349068}
2019-04-14 14:05:16.21: SIM {TimeUS : 61235496, Roll : 0.11, Pitch : -17.36, Yaw : 73.6, Alt : 49.3100013733, Lat : 49.2836238, Lng : -123.1147459, Q1 : 0.791457653046, Q2 : 0.0911967456341, Q3 : -0.120267577469, Q4 : 0.59229528904}
2019-04-14 14:05:16.31: SIM {TimeUS : 61335456, Roll : 0.16, Pitch : -17.39, Yaw : 73.52, Alt : 49.3100013733, Lat : 49.283625, Lng : -123.1147399, Q1 : 0.791776478291, Q2 : 0.0916489884257, Q3 : -0.120274685323, Q4 : 0.591797709465}
2019-04-14 14:05:16.41: SIM {TimeUS : 61435416, Roll : 0.2, Pitch : -17.45, Yaw : 73.47, Alt : 49.3100013733, Lat : 49.2836262, Lng : -123.114734, Q1 : 0.791957139969, Q2 : 0.0921573862433, Q3 : -0.12057480216, Q4 : 0.591415822506}
2019-04-14 14:05:16.51: SIM {TimeUS : 61535376, Roll : 0.21, Pitch : -17.49, Yaw : 73.44, Alt : 49.3100013733, Lat : 49.2836273, Lng : -123.114728, Q1 : 0.792061150074, Q2 : 0.0924200341105, Q3 : -0.120800428092, Q4 : 0.591189444065}
2019-04-14 14:05:16.61: SIM {TimeUS : 61635336, Roll : 0.21, Pitch : -17.5, Yaw : 73.43, Alt : 49.3100013733, Lat : 49.2836284, Lng : -123.114722, Q1 : 0.792097508907, Q2 : 0.0924718901515, Q3 : -0.120900072157, Q4 : 0.59111225605}
2019-04-14 14:05:16.71: SIM {TimeUS : 61735296, Roll : 0.18, Pitch : -17.51, Yaw : 73.43, Alt : 49.3199996948, Lat : 49.2836294, Lng : -123.114716, Q1 : 0.792085051537, Q2 : 0.0923056378961, Q3 : -0.121120326221, Q4 : 0.59110981226}
2019-04-14 14:05:16.81: SIM {TimeUS : 61835256, Roll : 0.13, Pitch : -17.53, Yaw : 73.45, Alt : 49.3199996948, Lat : 49.2836306, Lng : -123.11471, Q1 : 0.792021453381, Q2 : 0.0921041890979, Q3 : -0.121503822505, Q4 : 0.591147840023}
2019-04-14 14:05:16.91: SIM {TimeUS : 61935216, Roll : 0.09, Pitch : -17.55, Yaw : 73.47, Alt : 49.3199996948, Lat : 49.2836317, Lng : -123.114704, Q1 : 0.791936039925, Q2 : 0.0919729545712, Q3 : -0.121802993119, Q4 : 0.591221034527}
2019-04-14 14:05:17.01: SIM {TimeUS : 62035176, Roll : 0.06, Pitch : -17.58, Yaw : 73.49, Alt : 49.3199996948, Lat : 49.2836329, Lng : -123.1146979, Q1 : 0.791837990284, Q2 : 0.0919067189097, Q3 : -0.122092068195, Q4 : 0.591303050518}
2019-04-14 14:05:17.11: SIM {TimeUS : 62135136, Roll : 0.05, Pitch : -17.59, Yaw : 73.5, Alt : 49.3199996948, Lat : 49.2836341, Lng : -123.1146919, Q1 : 0.791752576828, Q2 : 0.0918935090303, Q3 : -0.122277073562, Q4 : 0.591381311417}
2019-04-14 14:05:17.21: SIM {TimeUS : 62235096, Roll : 0.04, Pitch : -17.61, Yaw : 73.51, Alt : 49.3199996948, Lat : 49.2836352, Lng : -123.1146858, Q1 : 0.791695713997, Q2 : 0.0919549539685, Q3 : -0.122452273965, Q4 : 0.591411590576}
2019-04-14 14:05:17.31: SIM {TimeUS : 62335056, Roll : 0.05, Pitch : -17.62, Yaw : 73.51, Alt : 49.3199996948, Lat : 49.2836364, Lng : -123.1146797, Q1 : 0.791677415371, Q2 : 0.092088021338, Q3 : -0.122463904321, Q4 : 0.591412901878}
2019-04-14 14:05:17.41: SIM {TimeUS : 62435016, Roll : 0.08, Pitch : -17.64, Yaw : 73.5, Alt : 49.3199996948, Lat : 49.2836376, Lng : -123.1146736, Q1 : 0.791669070721, Q2 : 0.0923869907856, Q3 : -0.122418403625, Q4 : 0.591386914253}
2019-04-14 14:05:17.51: SIM {TimeUS : 62534976, Roll : 0.12, Pitch : -17.66, Yaw : 73.49, Alt : 49.3199996948, Lat : 49.2836387, Lng : -123.1146675, Q1 : 0.791694641113, Q2 : 0.0926925763488, Q3 : -0.122395865619, Q4 : 0.59130948782}
2019-04-14 14:05:17.61: SIM {TimeUS : 62634936, Roll : 0.12, Pitch : -17.69, Yaw : 73.47, Alt : 49.3199996948, Lat : 49.2836399, Lng : -123.1146613, Q1 : 0.791758418083, Q2 : 0.0928799510002, Q3 : -0.122598700225, Q4 : 0.591152667999}
2019-04-14 14:05:17.71: SIM {TimeUS : 62734896, Roll : 0.11, Pitch : -17.74, Yaw : 73.44, Alt : 49.3199996948, Lat : 49.2836409, Lng : -123.1146552, Q1 : 0.791839182377, Q2 : 0.0930350646377, Q3 : -0.123022176325, Q4 : 0.590932130814}
2019-04-14 14:05:17.81: SIM {TimeUS : 62834856, Roll : 0.1, Pitch : -17.8, Yaw : 73.42, Alt : 49.3199996948, Lat : 49.2836421, Lng : -123.114649, Q1 : 0.791927397251, Q2 : 0.0931865125895, Q3 : -0.123500980437, Q4 : 0.590690135956}
2019-04-14 14:05:17.91: SIM {TimeUS : 62934816, Roll : 0.1, Pitch : -17.83, Yaw : 73.39, Alt : 49.3199996948, Lat : 49.2836433, Lng : -123.1146429, Q1 : 0.792032837868, Q2 : 0.0933613106608, Q3 : -0.123741365969, Q4 : 0.590470731258}
2019-04-14 14:05:18.01: SIM {TimeUS : 63034776, Roll : 0.12, Pitch : -17.82, Yaw : 73.36, Alt : 49.3199996948, Lat : 49.2836445, Lng : -123.1146367, Q1 : 0.792180120945, Q2 : 0.0934067890048, Q3 : -0.123655147851, Q4 : 0.590284049511}
2019-04-14 14:05:18.11: SIM {TimeUS : 63134736, Roll : 0.14, Pitch : -17.79, Yaw : 73.33, Alt : 49.3199996948, Lat : 49.2836457, Lng : -123.1146305, Q1 : 0.792347848415, Q2 : 0.0933414101601, Q3 : -0.123311161995, Q4 : 0.590141177177}
2019-04-14 14:05:18.21: SIM {TimeUS : 63235529, Roll : 0.14, Pitch : -17.76, Yaw : 73.31, Alt : 49.3199996948, Lat : 49.2836469, Lng : -123.1146242, Q1 : 0.792493164539, Q2 : 0.0932035818696, Q3 : -0.12311565876, Q4 : 0.590008735657}
2019-04-14 14:05:18.31: SIM {TimeUS : 63335489, Roll : 0.14, Pitch : -17.74, Yaw : 73.29, Alt : 49.3300018311, Lat : 49.2836481, Lng : -123.114618, Q1 : 0.792613983154, Q2 : 0.0930529385805, Q3 : -0.122987031937, Q4 : 0.589896976948}
2019-04-14 14:05:18.41: SIM {TimeUS : 63435449, Roll : 0.13, Pitch : -17.73, Yaw : 73.28, Alt : 49.3300018311, Lat : 49.2836493, Lng : -123.1146118, Q1 : 0.792693138123, Q2 : 0.0929616913199, Q3 : -0.122989445925, Q4 : 0.589804470539}
2019-04-14 14:05:18.51: SIM {TimeUS : 63535409, Roll : 0.12, Pitch : -17.75, Yaw : 73.27, Alt : 49.3300018311, Lat : 49.2836504, Lng : -123.1146055, Q1 : 0.792726516724, Q2 : 0.0930065661669, Q3 : -0.12319868803, Q4 : 0.589708864689}
2019-04-14 14:05:18.61: SIM {TimeUS : 63635369, Roll : 0.13, Pitch : -17.79, Yaw : 73.26, Alt : 49.3300018311, Lat : 49.2836516, Lng : -123.1145993, Q1 : 0.792736470699, Q2 : 0.0931815952063, Q3 : -0.123429790139, Q4 : 0.589619576931}
2019-04-14 14:05:18.71: SIM {TimeUS : 63735329, Roll : 0.12, Pitch : -17.83, Yaw : 73.25, Alt : 49.3300018311, Lat : 49.2836528, Lng : -123.114593, Q1 : 0.792735040188, Q2 : 0.0933811590075, Q3 : -0.123784922063, Q4 : 0.589515447617}
2019-04-14 14:05:18.81: SIM {TimeUS : 63835289, Roll : 0.12, Pitch : -17.89, Yaw : 73.24, Alt : 49.3300018311, Lat : 49.283654, Lng : -123.1145868, Q1 : 0.792729556561, Q2 : 0.0935956686735, Q3 : -0.124177418649, Q4 : 0.589406251907}
2019-04-14 14:05:18.91: SIM {TimeUS : 63935249, Roll : 0.11, Pitch : -17.92, Yaw : 73.23, Alt : 49.3300018311, Lat : 49.2836552, Lng : -123.1145805, Q1 : 0.792737483978, Q2 : 0.0937541201711, Q3 : -0.124435953796, Q4 : 0.589315891266}
2019-04-14 14:05:19.01: SIM {TimeUS : 64035209, Roll : 0.11, Pitch : -17.95, Yaw : 73.22, Alt : 49.3300018311, Lat : 49.2836564, Lng : -123.1145742, Q1 : 0.792762458324, Q2 : 0.0938459411263, Q3 : -0.124684855342, Q4 : 0.589214980602}
2019-04-14 14:05:19.11: SIM {TimeUS : 64135169, Roll : 0.1, Pitch : -17.97, Yaw : 73.21, Alt : 49.3300018311, Lat : 49.2836576, Lng : -123.1145679, Q1 : 0.792803049088, Q2 : 0.0938787087798, Q3 : -0.124867275357, Q4 : 0.589116632938}
2019-04-14 14:05:19.21: SIM {TimeUS : 64235129, Roll : 0.11, Pitch : -17.96, Yaw : 73.2, Alt : 49.3300018311, Lat : 49.2836588, Lng : -123.1145615, Q1 : 0.792863607407, Q2 : 0.093932248652, Q3 : -0.124757781625, Q4 : 0.589049756527}
2019-04-14 14:05:19.31: SIM {TimeUS : 64335089, Roll : 0.14, Pitch : -17.97, Yaw : 73.18, Alt : 49.3300018311, Lat : 49.28366, Lng : -123.1145553, Q1 : 0.79291510582, Q2 : 0.0941222384572, Q3 : -0.12465275079, Q4 : 0.588972270489}
2019-04-14 14:05:19.41: SIM {TimeUS : 64435049, Roll : 0.15, Pitch : -17.98, Yaw : 73.17, Alt : 49.3300018311, Lat : 49.2836612, Lng : -123.114549, Q1 : 0.792968928814, Q2 : 0.094267398119, Q3 : -0.124694690108, Q4 : 0.588867723942}
2019-04-14 14:05:19.51: SIM {TimeUS : 64535009, Roll : 0.16, Pitch : -17.99, Yaw : 73.15, Alt : 49.3300018311, Lat : 49.2836624, Lng : -123.1145427, Q1 : 0.793032705784, Q2 : 0.0943555757403, Q3 : -0.124703504145, Q4 : 0.588765859604}
2019-04-14 14:05:19.61: SIM {TimeUS : 64634969, Roll : 0.18, Pitch : -17.98, Yaw : 73.14, Alt : 49.3300018311, Lat : 49.2836635, Lng : -123.1145363, Q1 : 0.793104410172, Q2 : 0.0943795442581, Q3 : -0.12461014092, Q4 : 0.588685154915}
2019-04-14 14:05:19.71: SIM {TimeUS : 64734929, Roll : 0.18, Pitch : -17.98, Yaw : 73.12, Alt : 49.3400001526, Lat : 49.2836647, Lng : -123.1145299, Q1 : 0.793165683746, Q2 : 0.0944061502814, Q3 : -0.12453725189, Q4 : 0.588613808155}
2019-04-14 14:05:19.81: SIM {TimeUS : 64834889, Roll : 0.17, Pitch : -17.99, Yaw : 73.11, Alt : 49.3400001526, Lat : 49.2836659, Lng : -123.1145236, Q1 : 0.793212532997, Q2 : 0.0943965166807, Q3 : -0.124714814126, Q4 : 0.588514566422}
2019-04-14 14:05:19.91: SIM {TimeUS : 64934849, Roll : 0.15, Pitch : -18.03, Yaw : 73.1, Alt : 49.3400001526, Lat : 49.2836671, Lng : -123.1145173, Q1 : 0.793235778809, Q2 : 0.0944107621908, Q3 : -0.125082179904, Q4 : 0.588403046131}
2019-04-14 14:05:20.01: SIM {TimeUS : 65034809, Roll : 0.14, Pitch : -18.03, Yaw : 73.1, Alt : 49.3400001526, Lat : 49.2836683, Lng : -123.1145109, Q1 : 0.793270885944, Q2 : 0.0943449661136, Q3 : -0.1252066046, Q4 : 0.588339745998}
2019-04-14 14:05:20.11: SIM {TimeUS : 65134769, Roll : 0.15, Pitch : -18.02, Yaw : 73.09, Alt : 49.3400001526, Lat : 49.2836697, Lng : -123.1145046, Q1 : 0.793305516243, Q2 : 0.094337746501, Q3 : -0.125072985888, Q4 : 0.588322639465}
2019-04-14 14:05:20.21: SIM {TimeUS : 65235562, Roll : 0.16, Pitch : -18.01, Yaw : 73.09, Alt : 49.3400001526, Lat : 49.2836709, Lng : -123.1144981, Q1 : 0.793327987194, Q2 : 0.0944091975689, Q3 : -0.12491440773, Q4 : 0.588314592838}
2019-04-14 14:05:20.31: SIM {TimeUS : 65335522, Roll : 0.17, Pitch : -18.02, Yaw : 73.08, Alt : 49.3400001526, Lat : 49.283672, Lng : -123.1144918, Q1 : 0.793345928192, Q2 : 0.0944862142205, Q3 : -0.124925121665, Q4 : 0.58827573061}
2019-04-14 14:05:20.41: SIM {TimeUS : 65435482, Roll : 0.16, Pitch : -18.03, Yaw : 73.08, Alt : 49.3400001526, Lat : 49.2836732, Lng : -123.1144854, Q1 : 0.793373763561, Q2 : 0.0944574400783, Q3 : -0.125119894743, Q4 : 0.588201463223}
2019-04-14 14:05:20.51: SIM {TimeUS : 65535442, Roll : 0.13, Pitch : -18.06, Yaw : 73.07, Alt : 49.3400001526, Lat : 49.2836744, Lng : -123.114479, Q1 : 0.793406009674, Q2 : 0.0943499580026, Q3 : -0.125448480248, Q4 : 0.588105201721}
2019-04-14 14:05:20.61: SIM {TimeUS : 65635402, Roll : 0.1, Pitch : -18.08, Yaw : 73.06, Alt : 49.3400001526, Lat : 49.2836758, Lng : -123.1144726, Q1 : 0.793444573879, Q2 : 0.0942962691188, Q3 : -0.125690609217, Q4 : 0.588010013103}
2019-04-14 14:05:20.71: SIM {TimeUS : 65735362, Roll : 0.1, Pitch : -18.09, Yaw : 73.05, Alt : 49.3400001526, Lat : 49.283677, Lng : -123.1144662, Q1 : 0.79347461462, Q2 : 0.0943762883544, Q3 : -0.125826656818, Q4 : 0.58792757988}
2019-04-14 14:05:20.81: SIM {TimeUS : 65835322, Roll : 0.12, Pitch : -18.11, Yaw : 73.04, Alt : 49.3400001526, Lat : 49.2836782, Lng : -123.1144598, Q1 : 0.793497145176, Q2 : 0.0945248156786, Q3 : -0.125866517425, Q4 : 0.587864816189}
2019-04-14 14:05:20.91: SIM {TimeUS : 65935282, Roll : 0.15, Pitch : -18.12, Yaw : 73.03, Alt : 49.3400001526, Lat : 49.2836793, Lng : -123.1144533, Q1 : 0.793514847755, Q2 : 0.0947885066271, Q3 : -0.125805780292, Q4 : 0.587811410427}
2019-04-14 14:05:21.01: SIM {TimeUS : 66035242, Roll : 0.17, Pitch : -18.14, Yaw : 73.02, Alt : 49.3400001526, Lat : 49.2836807, Lng : -123.114447, Q1 : 0.793540656567, Q2 : 0.0949906930327, Q3 : -0.125834420323, Q4 : 0.587737798691}
2019-04-14 14:05:21.11: SIM {TimeUS : 66135202, Roll : 0.18, Pitch : -18.15, Yaw : 73.01, Alt : 49.3499984741, Lat : 49.2836819, Lng : -123.1144406, Q1 : 0.793565690517, Q2 : 0.095181837678, Q3 : -0.125870972872, Q4 : 0.587665259838}
