2019-04-14 14:15:53.20: SIM {TimeUS : 40216407, Roll : 0.0, Pitch : 0.0, Yaw : 0.0, Alt : 30.1000003815, Lat : 49.28357, Lng : -123.11502, Q1 : 1.0, Q2 : 0.0, Q3 : 0.0, Q4 : 0.0}
2019-04-14 14:15:53.31: SIM {TimeUS : 40335526, Roll : 0.0, Pitch : 0.0, Yaw : 0.0, Alt : 30.1000003815, Lat : 49.28357, Lng : -123.11502, Q1 : 1.0, Q2 : 0.0, Q3 : 0.0, Q4 : 0.0}
2019-04-14 14:15:53.41: SIM {TimeUS : 40435486, Roll : 0.0, Pitch : 0.0, Yaw : 0.0, Alt : 30.1000003815, Lat : 49.28357, Lng : -123.11502, Q1 : 1.0, Q2 : 0.0, Q3 : 0.0, Q4 : 0.0}
2019-04-14 14:15:53.51: SIM {TimeUS : 40535446, Roll : 0.0, Pitch : 0.0, Yaw : 0.0, Alt : 30.1000003815, Lat : 49.28357, Lng : -123.11502, Q1 : 1.0, Q2 : 0.0, Q3 : 0.0, Q4 : 0.0}
2019-04-14 14:15:53.61: SIM {TimeUS : 40635406, Roll : 0.0, Pitch : 0.0, Yaw : 0.0, Alt : 30.1000003815, Lat : 49.28357, Lng : -123.11502, Q1 : 1.0, Q2 : 0.0, Q3 : 0.0, Q4 : 0.0}
2019-04-14 14:15:53.71: SIM {TimeUS : 40735366, Roll : 0.0, Pitch : 0.0, Yaw : 0.0, Alt : 30.1000003815, Lat : 49.28357, Lng : -123.11502, Q1 : 1.0, Q2 : 0.0, Q3 : 0.0, Q4 : 0.0}
2019-04-14 14:15:53.81: SIM {TimeUS : 40835326, Roll : 0.0, Pitch : 0.0, Yaw : 0.0, Alt : 30.1000003815, Lat : 49.28357, Lng : -123.11502, Q1 : 1.0, Q2 : 0.0, Q3 : 0.0, Q4 : 0.0}
2019-04-14 14:15:53.91: SIM {TimeUS : 40935286, Roll : 0.0, Pitch : 0.0, Yaw : 0.0, Alt : 30.1000003815, Lat : 49.28357, Lng : -123.11502, Q1 : 1.0, Q2 : 0.0, Q3 : 0.0, Q4 : 0.0}
2019-04-14 14:15:54.01: SIM {TimeUS : 41035246, Roll : 0.0, Pitch : 0.0, Yaw : 0.0, Alt : 30.1000003815, Lat : 49.28357, Lng : -123.11502, Q1 : 1.0, Q2 : 0.0, Q3 : 0.0, Q4 : 0.0}
2019-04-14 14:15:54.11: SIM {TimeUS : 41135206, Roll : 0.0, Pitch : 0.0, Yaw : 0.0, Alt : 30.1000003815, Lat : 49.28357, Lng : -123.11502, Q1 : 1.0, Q2 : 0.0, Q3 : 0.0, Q4 : 0.0}
2019-04-14 14:15:54.21: SIM {TimeUS : 41235166, Roll : 0.0, Pitch : 0.0, Yaw : 0.0, Alt : 30.1000003815, Lat : 49.28357, Lng : -123.11502, Q1 : 1.0, Q2 : 0.0, Q3 : 0.0, Q4 : 0.0}
2019-04-14 14:15:54.31: SIM {TimeUS : 41335126, Roll : 0.0, Pitch : 0.0, Yaw : 0.0, Alt : 30.1000003815, Lat : 49.28357, Lng : -123.11502, Q1 : 1.0, Q2 : 0.0, Q3 : 0.0, Q4 : 0.0}
2019-04-14 14:15:54.41: SIM {TimeUS : 41435086, Roll : 0.0, Pitch : 0.0, Yaw : 0.0, Alt : 30.1000003815, Lat : 49.28357, Lng : -123.11502, Q1 : 1.0, Q2 : 0.0, Q3 : 0.0, Q4 : 0.0}
2019-04-14 14:15:54.51: SIM {TimeUS : 41535046, Roll : 0.0, Pitch : 0.0, Yaw : 0.0, Alt : 30.1000003815, Lat : 49.28357, Lng : -123.11502, Q1 : 1.0, Q2 : 0.0, Q3 : 0.0, Q4 : 0.0}
2019-04-14 14:15:54.61: SIM {TimeUS : 41635006, Roll : 0.0, Pitch : 0.0, Yaw : 0.0, Alt : 30.1000003815, Lat : 49.28357, Lng : -123.11502, Q1 : 1.0, Q2 : 0.0, Q3 : 0.0, Q4 : 0.0}
2019-04-14 14:15:54.71: SIM {TimeUS : 41734966, Roll : 0.0, Pitch : 0.0, Yaw : 0.0, Alt : 30.1000003815, Lat : 49.28357, Lng : -123.11502, Q1 : 1.0, Q2 : 0.0, Q3 : 0.0, Q4 : 0.0}
2019-04-14 14:15:54.81: SIM {TimeUS : 41834926, Roll : 0.0, Pitch : 0.0, Yaw : 0.0, Alt : 30.1000003815, Lat : 49.28357, Lng : -123.11502, Q1 : 1.0, Q2 : 0.0, Q3 : 0.0, Q4 : 0.0}
2019-04-14 14:15:54.91: SIM {TimeUS : 41934886, Roll : 0.0, Pitch : 0.0, Yaw : 0.0, Alt : 30.1000003815, Lat : 49.28357, Lng : -123.11502, Q1 : 1.0, Q2 : 0.0, Q3 : 0.0, Q4 : 0.0}
2019-04-14 14:15:55.01: SIM {TimeUS : 42034846, Roll : 0.0, Pitch : 0.0, Yaw : 0.0, Alt : 30.1000003815, Lat : 49.28357, Lng : -123.11502, Q1 : 1.0, Q2 : 0.0, Q3 : 0.0, Q4 : 0.0}
2019-04-14 14:15:55.11: SIM {TimeUS : 42134806, Roll : 0.0, Pitch : 0.0, Yaw : 0.0, Alt : 30.1000003815, Lat : 49.28357, Lng : -123.11502, Q1 : 1.0, Q2 : 0.0, Q3 : 0.0, Q4 : 0.0}
2019-04-14 14:15:55.21: SIM {TimeUS : 42234766, Roll : 0.0, Pitch : 0.0, Yaw : 0.0, Alt : 30.1000003815, Lat : 49.28357, Lng : -123.11502, Q1 : 1.0, Q2 : 0.0, Q3 : 0.0, Q4 : 0.0}
2019-04-14 14:15:55.31: SIM {TimeUS : 42335559, Roll : 0.0, Pitch : 0.0, Yaw : 0.0, Alt : 30.1000003815, Lat : 49.28357, Lng : -123.11502, Q1 : 1.0, Q2 : 0.0, Q3 : 0.0, Q4 : 0.0}
2019-04-14 14:15:55.41: SIM {TimeUS : 42435519, Roll : 0.0, Pitch : 0.0, Yaw : 0.0, Alt : 30.1000003815, Lat : 49.28357, Lng : -123.11502, Q1 : 1.0, Q2 : 0.0, Q3 : 0.0, Q4 : 0.0}
2019-04-14 14:15:55.51: SIM {TimeUS : 42535479, Roll : 0.0, Pitch : 0.0, Yaw : 360.0, Alt : 30.1000003815, Lat : 49.28357, Lng : -123.11502, Q1 : 1.0, Q2 : 0.0, Q3 : 0.0, Q4 : -1.4079991513e-12}
2019-04-14 14:15:55.61: SIM {TimeUS : 42635439, Roll : 0.0, Pitch : 0.0, Yaw : 0.0, Alt : 30.1000003815, Lat : 49.28357, Lng : -123.11502, Q1 : 1.0, Q2 : 0.0, Q3 : 0.0, Q4 : 2.27504577677e-11}
2019-04-14 14:15:55.71: SIM {TimeUS : 42735399, Roll : 0.0, Pitch : 0.0, Yaw : 360.0, Alt : 30.1000003815, Lat : 49.28357, Lng : -123.11502, Q1 : 1.0, Q2 : 0.0, Q3 : 0.0, Q4 : -1.67921811567e-07}
2019-04-14 14:15:55.81: SIM {TimeUS : 42835359, Roll : 0.0, Pitch : 0.0, Yaw : 359.99, Alt : 30.1000003815, Lat : 49.28357, Lng : -123.11502, Q1 : 1.0, Q2 : 0.0, Q3 : 0.0, Q4 : -3.51782261987e-07}
2019-04-14 14:15:55.91: SIM {TimeUS : 42935319, Roll : 0.0, Pitch : 0.0, Yaw : 359.99, Alt : 30.1000003815, Lat : 49.28357, Lng : -123.11502, Q1 : 1.0, Q2 : 0.0, Q3 : 0.0, Q4 : -5.30331021764e-07}
2019-04-14 14:15:56.01: SIM {TimeUS : 43035279, Roll : 0.0, Pitch : 0.0, Yaw : 359.99, Alt : 30.1000003815, Lat : 49.28357, Lng : -123.11502, Q1 : 1.0, Q2 : 0.0, Q3 : 0.0, Q4 : -7.43175519347e-07}
2019-04-14 14:15:56.11: SIM {TimeUS : 43135239, Roll : 0.0, Pitch : 0.0, Yaw : 359.99, Alt : 30.1000003815, Lat : 49.28357, Lng : -123.11502, Q1 : 1.0, Q2 : 0.0, Q3 : 0.0, Q4 : -9.28158272018e-07}
2019-04-14 14:15:56.21: SIM {TimeUS : 43235199, Roll : 0.0, Pitch : 0.0, Yaw : 359.99, Alt : 30.1000003815, Lat : 49.28357, Lng : -123.11502, Q1 : 1.0, Q2 : 0.0, Q3 : 0.0, Q4 : -1.12105726657e-06}
2019-04-14 14:15:56.31: SIM {TimeUS : 43335159, Roll : 0.0, Pitch : 0.0, Yaw : 359.99, Alt : 30.1000003815, Lat : 49.28357, Lng : -123.11502, Q1 : 1.0, Q2 : 0.0, Q3 : 0.0, Q4 : -1.33736989483e-06}
2019-04-14 14:15:56.41: SIM {TimeUS : 43435119, Roll : 0.0, Pitch : 0.0, Yaw : 359.99, Alt : 30.1200008392, Lat : 49.28357, Lng : -123.11502, Q1 : 1.0, Q2 : 0.0, Q3 : 0.0, Q4 : -1.54933411523e-06}
2019-04-14 14:15:56.51: SIM {TimeUS : 43535079, Roll : 0.0, Pitch : 0.0, Yaw : 359.99, Alt : 30.1399993896, Lat : 49.28357, Lng : -123.11502, Q1 : 1.0, Q2 : 0.0, Q3 : 0.0, Q4 : -1.81244638497e-06}
2019-04-14 14:15:56.61: SIM {TimeUS : 43635039, Roll : 0.0, Pitch : 0.0, Yaw : 359.99, Alt : 30.1700000763, Lat : 49.28357, Lng : -123.11502, Q1 : 1.0, Q2 : 0.0, Q3 : 0.0, Q4 : -2.0954255433e-06}
2019-04-14 14:15:56.71: SIM {TimeUS : 43734999, Roll : 0.0, Pitch : 0.0, Yaw : 359.99, Alt : 30.2000007629, Lat : 49.28357, Lng : -123.11502, Q1 : 1.0, Q2 : 0.0, Q3 : 0.0, Q4 : -2.31409126172e-06}
2019-04-14 14:15:56.81: SIM {TimeUS : 43834959, Roll : -0.1, Pitch : -0.08, Yaw : 359.99, Alt : 30.25, Lat : 49.28357, Lng : -123.11502, Q1 : 0.999999284744, Q2 : -0.000945437466726, Q3 : -0.000766454788391, Q4 : -1.19187507153e-05}
2019-04-14 14:15:56.91: SIM {TimeUS : 43934919, Roll : -0.41, Pitch : -0.33, Yaw : 359.99, Alt : 30.3500003815, Lat : 49.28357, Lng : -123.11502, Q1 : 0.999989211559, Q2 : -0.00359206041321, Q3 : -0.00295609165914, Q4 : -4.68557009299e-05}
2019-04-14 14:15:57.01: SIM {TimeUS : 44034879, Roll : -0.69, Pitch : -0.59, Yaw : 359.99, Alt : 30.4899997711, Lat : 49.28357, Lng : -123.11502, Q1 : 0.999968230724, Q2 : -0.00607196427882, Q3 : -0.00516450218856, Q4 : -0.000105500388599}
2019-04-14 14:15:57.11: SIM {TimeUS : 44134839, Roll : -0.84, Pitch : -0.73, Yaw : 359.98, Alt : 30.6499996185, Lat : 49.28357, Lng : -123.11502, Q1 : 0.999952435493, Q2 : -0.00734253134578, Q3 : -0.00641789799556, Q4 : -0.000178327100002}
2019-04-14 14:15:57.21: SIM {TimeUS : 44234799, Roll : -0.83, Pitch : -0.73, Yaw : 359.97, Alt : 30.8099994659, Lat : 49.28357, Lng : -123.11502, Q1 : 0.999952912331, Q2 : -0.00726256193593, Q3 : -0.00642843358219, Q4 : -0.000263477151748}
2019-04-14 14:15:57.31: SIM {TimeUS : 44334759, Roll : -0.69, Pitch : -0.62, Yaw : 359.96, Alt : 30.9599990845, Lat : 49.28357, Lng : -123.1150201, Q1 : 0.999966621399, Q2 : -0.00608982285485, Q3 : -0.00544091546908, Q4 : -0.000348289555404}
2019-04-14 14:15:57.41: SIM {TimeUS : 44435552, Roll : -0.46, Pitch : -0.45, Yaw : 359.95, Alt : 31.1200008392, Lat : 49.2835701, Lng : -123.1150202, Q1 : 0.999983727932, Q2 : -0.00408282270655, Q3 : -0.00396300572902, Q4 : -0.000424457568442}
2019-04-14 14:15:57.51: SIM {TimeUS : 44535512, Roll : -0.23, Pitch : -0.26, Yaw : 359.94, Alt : 31.2800006866, Lat : 49.2835701, Lng : -123.1150203, Q1 : 0.999995112419, Q2 : -0.00207956368104, Q3 : -0.00228517828509, Q4 : -0.000488628982566}
2019-04-14 14:15:57.61: SIM {TimeUS : 44635472, Roll : -0.06, Pitch : -0.09, Yaw : 359.93, Alt : 31.4400005341, Lat : 49.2835702, Lng : -123.1150204, Q1 : 0.999999344349, Q2 : -0.000604263157584, Q3 : -0.000808307842817, Q4 : -0.000538562133443}
2019-04-14 14:15:57.71: SIM {TimeUS : 44735432, Roll : 0.02, Pitch : 0.01, Yaw : 359.93, Alt : 31.6200008392, Lat : 49.2835702, Lng : -123.1150204, Q1 : 0.999999821186, Q2 : 0.000252375320997, Q3 : 0.000123890815303, Q4 : -0.000572712044232}
2019-04-14 14:15:57.81: SIM {TimeUS : 44835392, Roll : 0.06, Pitch : 0.05, Yaw : 359.93, Alt : 31.7999992371, Lat : 49.2835703, Lng : -123.1150205, Q1 : 0.999999523163, Q2 : 0.000573613273446, Q3 : 0.000515347055625, Q4 : -0.000590317707974}
2019-04-14 14:15:57.91: SIM {TimeUS : 44935352, Roll : 0.06, Pitch : 0.05, Yaw : 359.93, Alt : 31.9799995422, Lat : 49.2835703, Lng : -123.1150206, Q1 : 0.999999523163, Q2 : 0.000590133073274, Q3 : 0.000487007724587, Q4 : -0.000595670659095}
2019-04-14 14:15:58.01: SIM {TimeUS : 45035312, Roll : 0.06, Pitch : 0.04, Yaw : 359.93, Alt : 32.1699981689, Lat : 49.2835703, Lng : -123.1150206, Q1 : 0.999999582767, Q2 : 0.000586743815802, Q3 : 0.000349145673681, Q4 : -0.00058823172003}
2019-04-14 14:15:58.11: SIM {TimeUS : 45135272, Roll : 0.08, Pitch : 0.03, Yaw : 359.93, Alt : 32.3600006104, Lat : 49.2835703, Lng : -123.1150207, Q1 : 0.999999523163, Q2 : 0.000708041421603, Q3 : 0.000313758704579, Q4 : -0.000574973935727}
2019-04-14 14:15:58.21: SIM {TimeUS : 45235232, Roll : 0.09, Pitch : 0.05, Yaw : 359.93, Alt : 32.5499992371, Lat : 49.2835703, Lng : -123.1150207, Q1 : 0.999999344349, Q2 : 0.000862592482008, Q3 : 0.00051024009008, Q4 : -0.000550245982595}
2019-04-14 14:15:58.31: SIM {TimeUS : 45335192, Roll : 0.11, Pitch : 0.09, Yaw : 359.94, Alt : 32.75, Lat : 49.2835703, Lng : -123.1150208, Q1 : 0.999999046326, Q2 : 0.000961161451414, Q3 : 0.000853644567542, Q4 : -0.00051438761875}
2019-04-14 14:15:58.41: SIM {TimeUS : 45435152, Roll : 0.11, Pitch : 0.13, Yaw : 359.94, Alt : 32.9500007629, Lat : 49.2835704, Lng : -123.1150208, Q1 : 0.999998629093, Q2 : 0.000993328168988, Q3 : 0.00121311889961, Q4 : -0.000482092174934}
2019-04-14 14:15:58.51: SIM {TimeUS : 45535112, Roll : 0.13, Pitch : 0.18, Yaw : 359.94, Alt : 33.1500015259, Lat : 49.2835704, Lng : -123.1150208, Q1 : 0.999997973442, Q2 : 0.00116932368837, Q3 : 0.00158319703769, Q4 : -0.000466207507998}
2019-04-14 14:15:58.61: SIM {TimeUS : 45635072, Roll : 0.16, Pitch : 0.2, Yaw : 359.94, Alt : 33.3499984741, Lat : 49.2835704, Lng : -123.1150209, Q1 : 0.999997258186, Q2 : 0.00144184636883, Q3 : 0.0017941033002, Q4 : -0.000467907084385}
2019-04-14 14:15:58.71: SIM {TimeUS : 45735032, Roll : 0.18, Pitch : 0.21, Yaw : 359.94, Alt : 33.5600013733, Lat : 49.2835704, Lng : -123.1150209, Q1 : 0.999996781349, Q2 : 0.00164570182096, Q3 : 0.00188084086403, Q4 : -0.000477015360957}
2019-04-14 14:15:58.81: SIM {TimeUS : 45834992, Roll : 0.19, Pitch : 0.21, Yaw : 359.94, Alt : 33.7599983215, Lat : 49.2835704, Lng : -123.1150209, Q1 : 0.999996721745, Q2 : 0.00166303536389, Q3 : 0.0018753327895, Q4 : -0.000492609338835}
2019-04-14 14:15:58.91: SIM {TimeUS : 45934952, Roll : 0.17, Pitch : 0.18, Yaw : 359.94, Alt : 33.9700012207, Lat : 49.2835704, Lng : -123.1150209, Q1 : 0.999997377396, Q2 : 0.00157095992472, Q3 : 0.00159115088172, Q4 : -0.000514337152708}
2019-04-14 14:15:59.01: SIM {TimeUS : 46034912, Roll : 0.15, Pitch : 0.13, Yaw : 359.93, Alt : 34.1800003052, Lat : 49.2835704, Lng : -123.1150209, Q1 : 0.999998271465, Q2 : 0.00138589169364, Q3 : 0.00114347424824, Q4 : -0.000525390962139}
2019-04-14 14:15:59.11: SIM {TimeUS : 46134872, Roll : 0.13, Pitch : 0.08, Yaw : 359.93, Alt : 34.3899993896, Lat : 49.2835704, Lng : -123.1150209, Q1 : 0.999998867512, Q2 : 0.00115483172704, Q3 : 0.000761332048569, Q4 : -0.000536091276444}
2019-04-14 14:15:59.21: SIM {TimeUS : 46234832, Roll : 0.1, Pitch : 0.05, Yaw : 359.93, Alt : 34.6100006104, Lat : 49.2835704, Lng : -123.1150209, Q1 : 0.999999284744, Q2 : 0.000944946776144, Q3 : 0.000510052544996, Q4 : -0.000555056671146}
2019-04-14 14:15:59.31: SIM {TimeUS : 46334792, Roll : 0.09, Pitch : 0.05, Yaw : 359.93, Alt : 34.8199996948, Lat : 49.2835704, Lng : -123.1150209, Q1 : 0.999999344349, Q2 : 0.000838698178995, Q3 : 0.000478740636026, Q4 : -0.000583947345149}
2019-04-14 14:15:59.41: SIM {TimeUS : 46434752, Roll : 0.08, Pitch : 0.04, Yaw : 359.92, Alt : 35.0400009155, Lat : 49.2835704, Lng : -123.1150208, Q1 : 0.999999403954, Q2 : 0.000779402675107, Q3 : 0.00042585018673, Q4 : -0.000614460906945}
2019-04-14 14:15:59.51: SIM {TimeUS : 46535545, Roll : 0.07, Pitch : 0.04, Yaw : 359.92, Alt : 35.2599983215, Lat : 49.2835704, Lng : -123.1150208, Q1 : 0.999999523163, Q2 : 0.000654086412396, Q3 : 0.000384838320315, Q4 : -0.000647134787869}
2019-04-14 14:15:59.61: SIM {TimeUS : 46635505, Roll : 0.05, Pitch : 0.03, Yaw : 359.92, Alt : 35.4700012207, Lat : 49.2835704, Lng : -123.1150208, Q1 : 0.999999582767, Q2 : 0.000457452930277, Q3 : 0.000337213423336, Q4 : -0.000682756362949}
2019-04-14 14:15:59.71: SIM {TimeUS : 46735465, Roll : 0.03, Pitch : 0.03, Yaw : 359.91, Alt : 35.6899986267, Lat : 49.2835704, Lng : -123.1150208, Q1 : 0.999999642372, Q2 : 0.000278335210169, Q3 : 0.000314589386107, Q4 : -0.000717032235116}
2019-04-14 14:15:59.81: SIM {TimeUS : 46835425, Roll : 0.01, Pitch : 0.01, Yaw : 359.91, Alt : 35.9099998474, Lat : 49.2835704, Lng : -123.1150208, Q1 : 0.999999701977, Q2 : 0.000160928539117, Q3 : 8.87128480827e-05, Q4 : -0.000741326017305}
2019-04-14 14:15:59.91: SIM {TimeUS : 46935385, Roll : 0.0, Pitch : -0.01, Yaw : 359.91, Alt : 36.1300010681, Lat : 49.2835704, Lng : -123.1150207, Q1 : 0.999999701977, Q2 : 7.43412383599e-05, Q3 : -9.63281854638e-05, Q4 : -0.000762920943089}
2019-04-14 14:16:00.01: SIM {TimeUS : 47035345, Roll : 0.0, Pitch : -0.02, Yaw : 359.9, Alt : 36.3499984741, Lat : 49.2835704, Lng : -123.1150207, Q1 : 0.999999642372, Q2 : -6.16195684415e-05, Q3 : -0.000213305509533, Q4 : -0.000789315556176}
2019-04-14 14:16:00.11: SIM {TimeUS : 47135305, Roll : -0.01, Pitch : -0.02, Yaw : 359.9, Alt : 36.5699996948, Lat : 49.2835704, Lng : -123.1150207, Q1 : 0.999999642372, Q2 : -0.000103031503386, Q3 : -0.000216698957956, Q4 : -0.000815965002403}
2019-04-14 14:16:00.21: SIM {TimeUS : 47235265, Roll : 0.0, Pitch : -0.02, Yaw : 359.9, Alt : 36.7999992371, Lat : 49.2835704, Lng : -123.1150207, Q1 : 0.999999642372, Q2 : 1.17278568723e-05, Q3 : -0.000200810885872, Q4 : -0.000839970831294}
2019-04-14 14:16:00.31: SIM {TimeUS : 47335225, Roll : 0.0, Pitch : -0.03, Yaw : 359.9, Alt : 37.0200004578, Lat : 49.2835704, Lng : -123.1150207, Q1 : 0.999999582767, Q2 : -4.08914711443e-05, Q3 : -0.000271420314675, Q4 : -0.00086249189917}
2019-04-14 14:16:00.41: SIM {TimeUS : 47435185, Roll : -0.03, Pitch : -0.05, Yaw : 359.89, Alt : 37.25, Lat : 49.2835704, Lng : -123.1150207, Q1 : 0.999999463558, Q2 : -0.000290030060569, Q3 : -0.000470371771371, Q4 : -0.000889642629772}
2019-04-14 14:16:00.51: SIM {TimeUS : 47535145, Roll : -0.07, Pitch : -0.07, Yaw : 359.89, Alt : 37.4700012207, Lat : 49.2835704, Lng : -123.1150207, Q1 : 0.999999165535, Q2 : -0.000651421316434, Q3 : -0.000663143116981, Q4 : -0.000913695723284}
2019-04-14 14:16:00.61: SIM {TimeUS : 47635105, Roll : -0.11, Pitch : -0.08, Yaw : 359.89, Alt : 37.7000007629, Lat : 49.2835704, Lng : -123.1150206, Q1 : 0.999998807907, Q2 : -0.0009755352512, Q3 : -0.000774588086642, Q4 : -0.000933208211791}
2019-04-14 14:16:00.71: SIM {TimeUS : 47735065, Roll : -0.12, Pitch : -0.09, Yaw : 359.89, Alt : 37.9199981689, Lat : 49.2835704, Lng : -123.1150206, Q1 : 0.999998569489, Q2 : -0.00113009987399, Q3 : -0.000810713972896, Q4 : -0.000949450070038}
2019-04-14 14:16:00.81: SIM {TimeUS : 47835025, Roll : -0.13, Pitch : -0.08, Yaw : 359.88, Alt : 38.1500015259, Lat : 49.2835704, Lng : -123.1150206, Q1 : 0.999998629093, Q2 : -0.00114092719741, Q3 : -0.000722164579201, Q4 : -0.000968322448898}
2019-04-14 14:16:00.91: SIM {TimeUS : 47934985, Roll : -0.11, Pitch : -0.05, Yaw : 359.88, Alt : 38.3800010681, Lat : 49.2835704, Lng : -123.1150206, Q1 : 0.999998927116, Q2 : -0.000981573131867, Q3 : -0.000463918724563, Q4 : -0.000985606457107}
2019-04-14 14:16:01.01: SIM {TimeUS : 48034945, Roll : -0.08, Pitch : -0.03, Yaw : 359.88, Alt : 38.6100006104, Lat : 49.2835704, Lng : -123.1150206, Q1 : 0.999999165535, Q2 : -0.000759547750931, Q3 : -0.000318023870932, Q4 : -0.00100514583755}
2019-04-14 14:16:01.11: SIM {TimeUS : 48134905, Roll : -0.07, Pitch : -0.03, Yaw : 359.88, Alt : 38.8300018311, Lat : 49.2835704, Lng : -123.1150206, Q1 : 0.999999165535, Q2 : -0.000670051260386, Q3 : -0.00031148045673, Q4 : -0.00103319913615}
2019-04-14 14:16:01.21: SIM {TimeUS : 48234865, Roll : -0.07, Pitch : -0.01, Yaw : 359.87, Alt : 39.0600013733, Lat : 49.2835704, Lng : -123.1150206, Q1 : 0.99999922514, Q2 : -0.000651563925203, Q3 : -0.000170932195033, Q4 : -0.00105357042048}
2019-04-14 14:16:01.31: SIM {TimeUS : 48334825, Roll : -0.08, Pitch : 0.0, Yaw : 359.87, Alt : 39.2900009155, Lat : 49.2835704, Lng : -123.1150206, Q1 : 0.99999910593, Q2 : -0.000763773685321, Q3 : 1.27375124066e-05, Q4 : -0.00107587105595}
2019-04-14 14:16:01.41: SIM {TimeUS : 48434785, Roll : -0.08, Pitch : 0.01, Yaw : 359.87, Alt : 39.5200004578, Lat : 49.2835706, Lng : -123.1150206, Q1 : 0.99999910593, Q2 : -0.00073415733641, Q3 : 0.000158329232363, Q4 : -0.00109792943113}
2019-04-14 14:16:01.51: SIM {TimeUS : 48534745, Roll : -0.06, Pitch : 0.04, Yaw : 359.87, Alt : 39.75, Lat : 49.2835706, Lng : -123.1150206, Q1 : 0.99999910593, Q2 : -0.000574309669901, Q3 : 0.00038194807712, Q4 : -0.00111653015483}
2019-04-14 14:16:01.61: SIM {TimeUS : 48635538, Roll : -0.04, Pitch : 0.04, Yaw : 359.87, Alt : 39.9900016785, Lat : 49.2835706, Lng : -123.1150206, Q1 : 0.99999922514, Q2 : -0.000360092701158, Q3 : 0.000382414087653, Q4 : -0.00112086918671}
2019-04-14 14:16:01.71: SIM {TimeUS : 48735498, Roll : 0.0, Pitch : 0.03, Yaw : 359.87, Alt : 40.2200012207, Lat : 49.2835706, Lng : -123.1150207, Q1 : 0.999999344349, Q2 : -8.08551776572e-05, Q3 : 0.00033001267002, Q4 : -0.00112449168228}
2019-04-14 14:16:01.81: SIM {TimeUS : 48835458, Roll : 0.02, Pitch : 0.05, Yaw : 359.87, Alt : 40.4500007629, Lat : 49.2835706, Lng : -123.1150207, Q1 : 0.99999922514, Q2 : 0.000238008360611, Q3 : 0.000520364788827, Q4 : -0.00112541590352}
2019-04-14 14:16:01.91: SIM {TimeUS : 48935418, Roll : 0.07, Pitch : 0.1, Yaw : 359.87, Alt : 40.6800003052, Lat : 49.2835706, Lng : -123.1150207, Q1 : 0.999998748302, Q2 : 0.000643597915769, Q3 : 0.000926631153561, Q4 : -0.00113342958502}
2019-04-14 14:16:02.01: SIM {TimeUS : 49035378, Roll : 0.1, Pitch : 0.15, Yaw : 359.86, Alt : 40.9099998474, Lat : 49.2835706, Lng : -123.1150207, Q1 : 0.999998033047, Q2 : 0.000902899249922, Q3 : 0.00135685072746, Q4 : -0.00115026289131}
2019-04-14 14:16:02.11: SIM {TimeUS : 49135338, Roll : 0.09, Pitch : 0.19, Yaw : 359.86, Alt : 41.1500015259, Lat : 49.2835706, Lng : -123.1150207, Q1 : 0.999997615814, Q2 : 0.000792127801105, Q3 : 0.00168778316583, Q4 : -0.00116207904648}
2019-04-14 14:16:02.21: SIM {TimeUS : 49235298, Roll : 0.03, Pitch : 0.21, Yaw : 359.86, Alt : 41.3800010681, Lat : 49.2835706, Lng : -123.1150207, Q1 : 0.999997437, Q2 : 0.000350038608303, Q3 : 0.00189918791875, Q4 : -0.00118393986486}
2019-04-14 14:16:02.31: SIM {TimeUS : 49335258, Roll : 0.0, Pitch : 0.22, Yaw : 359.86, Alt : 41.6100006104, Lat : 49.2835706, Lng : -123.1150207, Q1 : 0.999997377396, Q2 : -7.18234950909e-05, Q3 : 0.00193484034389, Q4 : -0.0012112793047}
2019-04-14 14:16:02.41: SIM {TimeUS : 49435218, Roll : -0.02, Pitch : 0.18, Yaw : 359.85, Alt : 41.8499984741, Lat : 49.2835706, Lng : -123.1150207, Q1 : 0.999997854233, Q2 : -0.000241278190515, Q3 : 0.00164642813616, Q4 : -0.0012402079301}
2019-04-14 14:16:02.51: SIM {TimeUS : 49535178, Roll : -0.02, Pitch : 0.14, Yaw : 359.85, Alt : 42.0800018311, Lat : 49.2835706, Lng : -123.1150207, Q1 : 0.999998390675, Q2 : -0.000233174214372, Q3 : 0.00125977536663, Q4 : -0.00127034098841}
2019-04-14 14:16:02.61: SIM {TimeUS : 49635138, Roll : -0.01, Pitch : 0.12, Yaw : 359.85, Alt : 42.3100013733, Lat : 49.2835706, Lng : -123.1150207, Q1 : 0.999998509884, Q2 : -8.69961659191e-05, Q3 : 0.00113267404959, Q4 : -0.00130625406746}
2019-04-14 14:16:02.71: SIM {TimeUS : 49735098, Roll : 0.02, Pitch : 0.13, Yaw : 359.84, Alt : 42.5499992371, Lat : 49.2835706, Lng : -123.1150207, Q1 : 0.99999833107, Q2 : 0.000240121531533, Q3 : 0.0011768998811, Q4 : -0.00134547462221}
2019-04-14 14:16:02.81: SIM {TimeUS : 49835058, Roll : 0.07, Pitch : 0.13, Yaw : 359.84, Alt : 42.7799987793, Lat : 49.2835706, Lng : -123.1150207, Q1 : 0.999998092651, Q2 : 0.000694792193826, Q3 : 0.00120989442803, Q4 : -0.00138207327109}
2019-04-14 14:16:02.91: SIM {TimeUS : 49935018, Roll : 0.11, Pitch : 0.12, Yaw : 359.83, Alt : 43.0200004578, Lat : 49.2835706, Lng : -123.1150207, Q1 : 0.999997913837, Q2 : 0.00103628635406, Q3 : 0.00105333980173, Q4 : -0.00142281572334}
2019-04-14 14:16:03.01: SIM {TimeUS : 50034978, Roll : 0.12, Pitch : 0.09, Yaw : 359.83, Alt : 43.25, Lat : 49.2835706, Lng : -123.1150207, Q1 : 0.999998033047, Q2 : 0.00105334143154, Q3 : 0.000822538509965, Q4 : -0.00146216677967}
2019-04-14 14:16:03.11: SIM {TimeUS : 50134938, Roll : 0.08, Pitch : 0.07, Yaw : 359.83, Alt : 43.4900016785, Lat : 49.2835704, Lng : -123.1150207, Q1 : 0.999998450279, Q2 : 0.000702252204064, Q3 : 0.00065651506884, Q4 : -0.00148303247988}
2019-04-14 14:16:03.21: SIM {TimeUS : 50234898, Roll : 0.01, Pitch : 0.06, Yaw : 359.82, Alt : 43.7200012207, Lat : 49.2835704, Lng : -123.1150207, Q1 : 0.999998688698, Q2 : 0.000166717218235, Q3 : 0.000601714476943, Q4 : -0.0014936075313}
2019-04-14 14:16:03.31: SIM {TimeUS : 50334858, Roll : -0.02, Pitch : 0.08, Yaw : 359.82, Alt : 43.9599990845, Lat : 49.2835704, Lng : -123.1150207, Q1 : 0.999998569489, Q2 : -0.000237003157963, Q3 : 0.000722092809156, Q4 : -0.00150150887202}
2019-04-14 14:16:03.41: SIM {TimeUS : 50434818, Roll : -0.05, Pitch : 0.08, Yaw : 359.82, Alt : 44.1899986267, Lat : 49.2835704, Lng : -123.1150207, Q1 : 0.999998450279, Q2 : -0.000437082489952, Q3 : 0.000772465544287, Q4 : -0.00150870671496}
2019-04-14 14:16:03.51: SIM {TimeUS : 50534778, Roll : -0.04, Pitch : 0.07, Yaw : 359.82, Alt : 44.4300003052, Lat : 49.2835704, Lng : -123.1150206, Q1 : 0.999998569489, Q2 : -0.000387846463127, Q3 : 0.00065948010888, Q4 : -0.00152018398512}
2019-04-14 14:16:03.61: SIM {TimeUS : 50634738, Roll : -0.04, Pitch : 0.05, Yaw : 359.82, Alt : 44.6699981689, Lat : 49.2835704, Lng : -123.1150206, Q1 : 0.999998629093, Q2 : -0.000359104044037, Q3 : 0.000497556407936, Q4 : -0.00154488452245}
2019-04-14 14:16:03.71: SIM {TimeUS : 50735531, Roll : -0.03, Pitch : 0.03, Yaw : 359.82, Alt : 44.9000015259, Lat : 49.2835704, Lng : -123.1150206, Q1 : 0.999998688698, Q2 : -0.000287737057079, Q3 : 0.000303152599372, Q4 : -0.00157022103667}
2019-04-14 14:16:03.81: SIM {TimeUS : 50835491, Roll : -0.01, Pitch : 0.01, Yaw : 359.81, Alt : 45.1399993896, Lat : 49.2835703, Lng : -123.1150206, Q1 : 0.999998688698, Q2 : -0.000150454550749, Q3 : 0.000136375660077, Q4 : -0.00160180183593}
2019-04-14 14:16:03.91: SIM {TimeUS : 50935451, Roll : -0.01, Pitch : 0.0, Yaw : 359.81, Alt : 45.3800010681, Lat : 49.2835703, Lng : -123.1150206, Q1 : 0.999998629093, Q2 : -0.000128835526993, Q3 : 4.72118845209e-05, Q4 : -0.00164014741313}
2019-04-14 14:16:04.01: SIM {TimeUS : 51035411, Roll : -0.02, Pitch : -0.01, Yaw : 359.8, Alt : 45.6100006104, Lat : 49.2835703, Lng : -123.1150206, Q1 : 0.999998569489, Q2 : -0.000200793292606, Q3 : -0.000104376005766, Q4 : -0.00168077123817}
2019-04-14 14:16:04.11: SIM {TimeUS : 51135371, Roll : -0.03, Pitch : -0.03, Yaw : 359.8, Alt : 45.8400001526, Lat : 49.2835703, Lng : -123.1150206, Q1 : 0.999998450279, Q2 : -0.000281741260551, Q3 : -0.000322515435982, Q4 : -0.00172229728196}
2019-04-14 14:16:04.21: SIM {TimeUS : 51235331, Roll : -0.03, Pitch : -0.04, Yaw : 359.79, Alt : 46.0800018311, Lat : 49.2835703, Lng : -123.1150206, Q1 : 0.99999833107, Q2 : -0.000289678078843, Q3 : -0.00041136861546, Q4 : -0.00176236953121}
2019-04-14 14:16:04.31: SIM {TimeUS : 51335291, Roll : -0.02, Pitch : -0.05, Yaw : 359.79, Alt : 46.2999992371, Lat : 49.2835703, Lng : -123.1150206, Q1 : 0.999998271465, Q2 : -0.000214976083953, Q3 : -0.000450273306342, Q4 : -0.0017973134527}
2019-04-14 14:16:04.41: SIM {TimeUS : 51435251, Roll : -0.02, Pitch : -0.05, Yaw : 359.79, Alt : 46.5299987793, Lat : 49.2835703, Lng : -123.1150206, Q1 : 0.999998211861, Q2 : -0.000250814977335, Q3 : -0.000477298424812, Q4 : -0.00182676478289}
2019-04-14 14:16:04.51: SIM {TimeUS : 51535211, Roll : -0.04, Pitch : -0.05, Yaw : 359.78, Alt : 46.7400016785, Lat : 49.2835703, Lng : -123.1150205, Q1 : 0.999998092651, Q2 : -0.000430397049058, Q3 : -0.000517350796144, Q4 : -0.00185163458809}
2019-04-14 14:16:04.61: SIM {TimeUS : 51635171, Roll : -0.08, Pitch : -0.06, Yaw : 359.78, Alt : 46.9599990845, Lat : 49.2835703, Lng : -123.1150205, Q1 : 0.999997854233, Q2 : -0.000740756571759, Q3 : -0.000535461353138, Q4 : -0.00187627819832}
2019-04-14 14:16:04.71: SIM {TimeUS : 51735131, Roll : -0.1, Pitch : -0.06, Yaw : 359.78, Alt : 47.1599998474, Lat : 49.2835703, Lng : -123.1150205, Q1 : 0.999997615814, Q2 : -0.000950491987169, Q3 : -0.000537241750862, Q4 : -0.00190222088713}
2019-04-14 14:16:04.81: SIM {TimeUS : 51835091, Roll : -0.11, Pitch : -0.04, Yaw : 359.77, Alt : 47.3600006104, Lat : 49.2835703, Lng : -123.1150205, Q1 : 0.99999755621, Q2 : -0.000993502908386, Q3 : -0.000413332047174, Q4 : -0.00192386540584}
2019-04-14 14:16:04.91: SIM {TimeUS : 51935051, Roll : -0.1, Pitch : -0.01, Yaw : 359.77, Alt : 47.5499992371, Lat : 49.2835703, Lng : -123.1150205, Q1 : 0.999997675419, Q2 : -0.000902375148144, Q3 : -0.000146724152728, Q4 : -0.00194281036966}
2019-04-14 14:16:05.01: SIM {TimeUS : 52035011, Roll : -0.1, Pitch : -0.01, Yaw : 359.77, Alt : 47.7299995422, Lat : 49.2835703, Lng : -123.1150205, Q1 : 0.999997615814, Q2 : -0.000957936339546, Q3 : -0.000125277452753, Q4 : -0.00196121167392}
2019-04-14 14:16:05.11: SIM {TimeUS : 52134971, Roll : -0.12, Pitch : -0.03, Yaw : 359.77, Alt : 47.8899993896, Lat : 49.2835703, Lng : -123.1150205, Q1 : 0.999997377396, Q2 : -0.00110847142059, Q3 : -0.0002646362409, Q4 : -0.00197896687314}
2019-04-14 14:16:05.21: SIM {TimeUS : 52234931, Roll : -0.13, Pitch : -0.04, Yaw : 359.77, Alt : 48.0499992371, Lat : 49.2835703, Lng : -123.1150205, Q1 : 0.999997258186, Q2 : -0.00117231812328, Q3 : -0.000416066061007, Q4 : -0.00199711509049}
2019-04-14 14:16:05.31: SIM {TimeUS : 52334891, Roll : -0.11, Pitch : -0.06, Yaw : 359.76, Alt : 48.1899986267, Lat : 49.2835703, Lng : -123.1150205, Q1 : 0.999997317791, Q2 : -0.00102215865627, Q3 : -0.000542311638128, Q4 : -0.00201378343627}
2019-04-14 14:16:05.41: SIM {TimeUS : 52434851, Roll : -0.08, Pitch : -0.07, Yaw : 359.76, Alt : 48.3300018311, Lat : 49.2835703, Lng : -123.1150206, Q1 : 0.999997496605, Q2 : -0.000703978585079, Q3 : -0.00064130773535, Q4 : -0.00203393329866}
2019-04-14 14:16:05.51: SIM {TimeUS : 52534811, Roll : -0.05, Pitch : -0.08, Yaw : 359.76, Alt : 48.4500007629, Lat : 49.2835703, Lng : -123.1150206, Q1 : 0.999997496605, Q2 : -0.000477944005979, Q3 : -0.000718429742847, Q4 : -0.0020569767803}
2019-04-14 14:16:05.61: SIM {TimeUS : 52634771, Roll : -0.04, Pitch : -0.08, Yaw : 359.76, Alt : 48.5499992371, Lat : 49.2835703, Lng : -123.1150206, Q1 : 0.999997437, Q2 : -0.000388543499867, Q3 : -0.000777394219767, Q4 : -0.00208105775528}
2019-04-14 14:16:05.71: SIM {TimeUS : 52735564, Roll : -0.01, Pitch : -0.07, Yaw : 359.75, Alt : 48.6500015259, Lat : 49.2835703, Lng : -123.1150206, Q1 : 0.99999755621, Q2 : -0.000128149433294, Q3 : -0.000685040547978, Q4 : -0.00210708659142}
2019-04-14 14:16:05.81: SIM {TimeUS : 52835524, Roll : 0.01, Pitch : -0.05, Yaw : 359.75, Alt : 48.7299995422, Lat : 49.2835703, Lng : -123.1150206, Q1 : 0.99999755621, Q2 : 0.000166072131833, Q3 : -0.000497747852933, Q4 : -0.0021403094288}
2019-04-14 14:16:05.91: SIM {TimeUS : 52935484, Roll : 0.04, Pitch : -0.03, Yaw : 359.75, Alt : 48.8100013733, Lat : 49.2835703, Lng : -123.1150206, Q1 : 0.999997496605, Q2 : 0.000414868496591, Q3 : -0.000274888880085, Q4 : -0.00217826268636}
2019-04-14 14:16:06.01: SIM {TimeUS : 53035444, Roll : 0.05, Pitch : -0.01, Yaw : 359.74, Alt : 48.8699989319, Lat : 49.2835703, Lng : -123.1150206, Q1 : 0.999997377396, Q2 : 0.00048156795674, Q3 : -0.000128555271658, Q4 : -0.00221935100853}
2019-04-14 14:16:06.11: SIM {TimeUS : 53135404, Roll : 0.06, Pitch : 0.0, Yaw : 359.74, Alt : 48.9300003052, Lat : 49.2835703, Lng : -123.1150206, Q1 : 0.999997317791, Q2 : 0.000532590958755, Q3 : -7.58692694944e-05, Q4 : -0.00226239021868}
2019-04-14 14:16:06.21: SIM {TimeUS : 53235364, Roll : 0.06, Pitch : -0.02, Yaw : 359.73, Alt : 48.9700012207, Lat : 49.2835703, Lng : -123.1150207, Q1 : 0.999997138977, Q2 : 0.000601554580498, Q3 : -0.000220252710278, Q4 : -0.00230450253002}
2019-04-14 14:16:06.31: SIM {TimeUS : 53335324, Roll : 0.16, Pitch : -0.07, Yaw : 359.73, Alt : 49.0099983215, Lat : 49.2835703, Lng : -123.1150207, Q1 : 0.999996006489, Q2 : 0.00145744998008, Q3 : -0.000620282546151, Q4 : -0.00234025204554}
2019-04-14 14:16:06.41: SIM {TimeUS : 53435284, Roll : 0.49, Pitch : -0.16, Yaw : 359.72, Alt : 49.0499992371, Lat : 49.2835703, Lng : -123.1150207, Q1 : 0.99998664856, Q2 : 0.00434794276953, Q3 : -0.00147966109216, Q4 : -0.00237447349355}
2019-04-14 14:16:06.51: SIM {TimeUS : 53535244, Roll : 1.09, Pitch : -0.33, Yaw : 359.72, Alt : 49.0800018311, Lat : 49.2835703, Lng : -123.1150207, Q1 : 0.999946832657, Q2 : 0.00957328639925, Q3 : -0.00298736011609, Q4 : -0.00240122526884}
2019-04-14 14:16:06.61: SIM {TimeUS : 53635204, Roll : 1.92, Pitch : -0.56, Yaw : 359.71, Alt : 49.0999984741, Lat : 49.2835703, Lng : -123.1150206, Q1 : 0.999843001366, Q2 : 0.016826974228, Q3 : -0.00500049069524, Q4 : -0.00241199391894}
2019-04-14 14:16:06.71: SIM {TimeUS : 53735164, Roll : 2.92, Pitch : -0.83, Yaw : 359.7, Alt : 49.1199989319, Lat : 49.2835704, Lng : -123.1150206, Q1 : 0.999644339085, Q2 : 0.025527972728, Q3 : -0.00733096851036, Q4 : -0.00239493092522}
2019-04-14 14:16:06.81: SIM {TimeUS : 53835124, Roll : 3.94, Pitch : -1.11, Yaw : 359.69, Alt : 49.1399993896, Lat : 49.2835704, Lng : -123.1150204, Q1 : 0.999357759953, Q2 : 0.0343935973942, Q3 : -0.00978218764067, Q4 : -0.00234254333191}
2019-04-14 14:16:06.91: SIM {TimeUS : 53935084, Roll : 4.8, Pitch : -1.38, Yaw : 359.68, Alt : 49.1599998474, Lat : 49.2835704, Lng : -123.1150202, Q1 : 0.999044537544, Q2 : 0.0419095493853, Q3 : -0.012189919129, Q4 : -0.0022533654701}
2019-04-14 14:16:07.01: SIM {TimeUS : 54035044, Roll : 5.44, Pitch : -1.6, Yaw : 359.67, Alt : 49.1699981689, Lat : 49.2835706, Lng : -123.11502, Q1 : 0.998773396015, Q2 : 0.0474131293595, Q3 : -0.0141107421368, Q4 : -0.00213408027776}
2019-04-14 14:16:07.11: SIM {TimeUS : 54135004, Roll : 5.88, Pitch : -1.78, Yaw : 359.67, Alt : 49.1800003052, Lat : 49.2835707, Lng : -123.1150196, Q1 : 0.998560965061, Q2 : 0.0512488521636, Q3 : -0.0156722664833, Q4 : -0.00200438383035}
2019-04-14 14:16:07.21: SIM {TimeUS : 54234964, Roll : 6.22, Pitch : -1.92, Yaw : 359.68, Alt : 49.2000007629, Lat : 49.2835708, Lng : -123.1150191, Q1 : 0.998380720615, Q2 : 0.0542718246579, Q3 : -0.0169425141066, Q4 : -0.00186194526032}
2019-04-14 14:16:07.31: SIM {TimeUS : 54334924, Roll : 6.56, Pitch : -2.03, Yaw : 359.68, Alt : 49.2099990845, Lat : 49.2835709, Lng : -123.1150184, Q1 : 0.998200833797, Q2 : 0.0572074130177, Q3 : -0.0178760159761, Q4 : -0.00169069040567}
2019-04-14 14:16:07.41: SIM {TimeUS : 54434884, Roll : 6.92, Pitch : -2.14, Yaw : 359.69, Alt : 49.2099990845, Lat : 49.283571, Lng : -123.1150177, Q1 : 0.998000442982, Q2 : 0.0603076517582, Q3 : -0.0188622567803, Q4 : -0.00152095512021}
2019-04-14 14:16:07.51: SIM {TimeUS : 54534844, Roll : 7.28, Pitch : -2.25, Yaw : 359.7, Alt : 49.2200012207, Lat : 49.2835712, Lng : -123.1150169, Q1 : 0.9977876544, Q2 : 0.0634413808584, Q3 : -0.0198297072202, Q4 : -0.00135781802237}
2019-04-14 14:16:07.61: SIM {TimeUS : 54634804, Roll : 7.58, Pitch : -2.33, Yaw : 359.7, Alt : 49.2299995422, Lat : 49.2835714, Lng : -123.1150159, Q1 : 0.997601866722, Q2 : 0.0660999417305, Q3 : -0.0204926412553, Q4 : -0.00119770597667}
2019-04-14 14:16:07.71: SIM {TimeUS : 54734764, Roll : 7.81, Pitch : -2.39, Yaw : 359.71, Alt : 49.2299995422, Lat : 49.2835716, Lng : -123.1150148, Q1 : 0.997458994389, Q2 : 0.0680529847741, Q3 : -0.0210530869663, Q4 : -0.00106999708805}
2019-04-14 14:16:07.81: SIM {TimeUS : 54835557, Roll : 7.98, Pitch : -2.45, Yaw : 359.71, Alt : 49.2400016785, Lat : 49.2835719, Lng : -123.1150136, Q1 : 0.997346401215, Q2 : 0.0695263817906, Q3 : -0.0215696115047, Q4 : -0.000979600008577}
2019-04-14 14:16:07.91: SIM {TimeUS : 54935517, Roll : 8.11, Pitch : -2.5, Yaw : 359.71, Alt : 49.2400016785, Lat : 49.2835721, Lng : -123.1150123, Q1 : 0.997253477573, Q2 : 0.0707188621163, Q3 : -0.0219892151654, Q4 : -0.000915858836379}
2019-04-14 14:16:08.01: SIM {TimeUS : 55035477, Roll : 8.23, Pitch : -2.53, Yaw : 359.71, Alt : 49.25, Lat : 49.2835724, Lng : -123.1150109, Q1 : 0.997172355652, Q2 : 0.071770824492, Q3 : -0.0222593154758, Q4 : -0.000881273590494}
2019-04-14 14:16:08.11: SIM {TimeUS : 55135437, Roll : 8.44, Pitch : -2.47, Yaw : 359.76, Alt : 49.25, Lat : 49.2835727, Lng : -123.1150094, Q1 : 0.997053802013, Q2 : 0.0735667049885, Q3 : -0.0217144247144, Q4 : -0.000426001264714}
2019-04-14 14:16:08.21: SIM {TimeUS : 55235397, Roll : 8.81, Pitch : -2.18, Yaw : 0.27, Alt : 49.2599983215, Lat : 49.2835731, Lng : -123.1150078, Q1 : 0.996854662895, Q2 : 0.0768850594759, Q3 : -0.0188314653933, Q4 : 0.00386640429497}
2019-04-14 14:16:08.31: SIM {TimeUS : 55335357, Roll : 9.35, Pitch : -1.8, Yaw : 1.91, Alt : 49.2599983215, Lat : 49.2835733, Lng : -123.115006, Q1 : 0.996388494968, Q2 : 0.0817582532763, Q3 : -0.0143239870667, Q4 : 0.0179006271064}
2019-04-14 14:16:08.41: SIM {TimeUS : 55435317, Roll : 9.89, Pitch : -1.77, Yaw : 5.08, Alt : 49.2599983215, Lat : 49.2835737, Lng : -123.1150043, Q1 : 0.995110273361, Q2 : 0.0868599712849, Q3 : -0.0116139324382, Q4 : 0.0455630235374}
2019-04-14 14:16:08.51: SIM {TimeUS : 55535277, Roll : 10.26, Pitch : -2.36, Yaw : 9.78, Alt : 49.2599983215, Lat : 49.2835739, Lng : -123.1150024, Q1 : 0.991989254951, Q2 : 0.0908903181553, Q3 : -0.0128190638497, Q4 : 0.0867867618799}
2019-04-14 14:16:08.61: SIM {TimeUS : 55635237, Roll : 10.3, Pitch : -3.57, Yaw : 15.79, Alt : 49.2599983215, Lat : 49.2835743, Lng : -123.1150003, Q1 : 0.985645592213, Q2 : 0.0931753590703, Q3 : -0.0184682868421, Q4 : 0.139570906758}
2019-04-14 14:16:08.71: SIM {TimeUS : 55735197, Roll : 9.89, Pitch : -5.29, Yaw : 22.86, Alt : 49.2700004578, Lat : 49.2835746, Lng : -123.1149981, Q1 : 0.974670350552, Q2 : 0.0936021655798, Q3 : -0.0280505660921, Q4 : 0.201170325279}
2019-04-14 14:16:08.81: SIM {TimeUS : 55835157, Roll : 8.98, Pitch : -7.29, Yaw : 30.74, Alt : 49.2700004578, Lat : 49.283575, Lng : -123.1149959, Q1 : 0.957980930805, Q2 : 0.0921888947487, Q3 : -0.0404324568808, Q4 : 0.268586993217}
2019-04-14 14:16:08.91: SIM {TimeUS : 55935117, Roll : 7.54, Pitch : -9.31, Yaw : 39.21, Alt : 49.2700004578, Lat : 49.2835752, Lng : -123.1149934, Q1 : 0.935064852238, Q2 : 0.08897395432, Q3 : -0.0543238595128, Q4 : 0.338801294565}
2019-04-14 14:16:09.01: SIM {TimeUS : 56035077, Roll : 5.64, Pitch : -11.11, Yaw : 48.02, Alt : 49.2700004578, Lat : 49.2835756, Lng : -123.1149909, Q1 : 0.906104803085, Q2 : 0.0841231793165, Q3 : -0.0684493482113, Q4 : 0.408915728331}
2019-04-14 14:16:09.11: SIM {TimeUS : 56135037, Roll : 3.4, Pitch : -12.53, Yaw : 56.9, Alt : 49.2700004578, Lat : 49.2835758, Lng : -123.1149883, Q1 : 0.872029423714, Q2 : 0.0779898688197, Q3 : -0.0818699747324, Q4 : 0.47621384263}
2019-04-14 14:16:09.21: SIM {TimeUS : 56234997, Roll : 1.01, Pitch : -13.47, Yaw : 65.53, Alt : 49.2700004578, Lat : 49.2835763, Lng : -123.1149855, Q1 : 0.834470570087, Q2 : 0.0708566457033, Q3 : -0.0939097255468, Q4 : 0.53834861517}
2019-04-14 14:16:09.31: SIM {TimeUS : 56334957, Roll : -1.64, Pitch : -13.92, Yaw : 73.51, Alt : 49.2799987793, Lat : 49.2835768, Lng : -123.1149826, Q1 : 0.796220839024, Q2 : 0.0611045882106, Q3 : -0.105627499521, Q4 : 0.592571914196}
2019-04-14 14:16:09.41: SIM {TimeUS : 56434917, Roll : -4.34, Pitch : -13.91, Yaw : 80.17, Alt : 49.2799987793, Lat : 49.2835771, Lng : -123.1149796, Q1 : 0.761863291264, Q2 : 0.0491844639182, Q3 : -0.116822987795, Q4 : 0.635214626789}
2019-04-14 14:16:09.51: SIM {TimeUS : 56534877, Roll : -6.55, Pitch : -13.64, Yaw : 84.95, Alt : 49.2799987793, Lat : 49.2835777, Lng : -123.1149765, Q1 : 0.735687971115, Q2 : 0.0382154919207, Q3 : -0.125832363963, Q4 : 0.664431333542}
2019-04-14 14:16:09.61: SIM {TimeUS : 56634837, Roll : -7.93, Pitch : -13.32, Yaw : 87.74, Alt : 49.2799987793, Lat : 49.2835783, Lng : -123.1149733, Q1 : 0.719842374325, Q2 : 0.0306905750185, Q3 : -0.131022170186, Q4 : 0.68096858263}
2019-04-14 14:16:09.71: SIM {TimeUS : 56734797, Roll : -8.31, Pitch : -13.12, Yaw : 88.71, Alt : 49.2799987793, Lat : 49.2835792, Lng : -123.1149699, Q1 : 0.714230120182, Q2 : 0.0281609855592, Q3 : -0.131855040789, Q4 : 0.686801731586}
2019-04-14 14:16:09.81: SIM {TimeUS : 56834757, Roll : -7.8, Pitch : -13.16, Yaw : 88.18, Alt : 49.2799987793, Lat : 49.28358, Lng : -123.1149665, Q1 : 0.717282176018, Q2 : 0.0310085434467, Q3 : -0.129192128778, Q4 : 0.683998644352}
2019-04-14 14:16:09.91: SIM {TimeUS : 56935550, Roll : -6.58, Pitch : -13.47, Yaw : 86.47, Alt : 49.2799987793, Lat : 49.2835808, Lng : -123.114963, Q1 : 0.726889193058, Q2 : 0.0386827476323, Q3 : -0.124423369765, Q4 : 0.674280822277}
2019-04-14 14:16:10.01: SIM {TimeUS : 57035510, Roll : -4.9, Pitch : -14.0, Yaw : 83.97, Alt : 49.2799987793, Lat : 49.2835818, Lng : -123.1149594, Q1 : 0.740572392941, Q2 : 0.0499117560685, Q3 : -0.118907719851, Q4 : 0.659486413002}
2019-04-14 14:16:10.11: SIM {TimeUS : 57135470, Roll : -2.97, Pitch : -14.64, Yaw : 80.96, Alt : 49.2799987793, Lat : 49.2835828, Lng : -123.1149558, Q1 : 0.75629222393, Q2 : 0.0631043538451, Q3 : -0.11364068836, Q4 : 0.641190826893}
2019-04-14 14:16:10.21: SIM {TimeUS : 57235430, Roll : -1.03, Pitch : -15.25, Yaw : 77.75, Alt : 49.2799987793, Lat : 49.2835837, Lng : -123.114952, Q1 : 0.772300124168, Q2 : 0.0763320326805, Q3 : -0.108983673155, Q4 : 0.621167063713}
2019-04-14 14:16:10.31: SIM {TimeUS : 57335390, Roll : 0.73, Pitch : -15.71, Yaw : 74.67, Alt : 49.2799987793, Lat : 49.2835848, Lng : -123.1149481, Q1 : 0.787063658237, Q2 : 0.087971188128, Q3 : -0.104863606393, Q4 : 0.601494431496}
2019-04-14 14:16:10.41: SIM {TimeUS : 57435350, Roll : 2.16, Pitch : -15.97, Yaw : 72.02, Alt : 49.2799987793, Lat : 49.2835858, Lng : -123.1149442, Q1 : 0.799347996712, Q2 : 0.0968302190304, Q3 : -0.101389333606, Q4 : 0.584283292294}
2019-04-14 14:16:10.51: SIM {TimeUS : 57535310, Roll : 3.15, Pitch : -16.04, Yaw : 70.04, Alt : 49.2799987793, Lat : 49.2835867, Lng : -123.11494, Q1 : 0.808410823345, Q2 : 0.102381885052, Q3 : -0.0986449196935, Q4 : 0.571190953255}
2019-04-14 14:16:10.61: SIM {TimeUS : 57635270, Roll : 3.64, Pitch : -16.0, Yaw : 68.83, Alt : 49.2900009155, Lat : 49.2835877, Lng : -123.1149358, Q1 : 0.813977241516, Q2 : 0.10466016829, Q3 : -0.0969765931368, Q4 : 0.563101112843}
2019-04-14 14:16:10.71: SIM {TimeUS : 57735230, Roll : 3.67, Pitch : -15.93, Yaw : 68.4, Alt : 49.2900009155, Lat : 49.2835886, Lng : -123.1149315, Q1 : 0.816130459309, Q2 : 0.104150772095, Q3 : -0.0967020317912, Q4 : 0.560118257999}
2019-04-14 14:16:10.81: SIM {TimeUS : 57835190, Roll : 3.32, Pitch : -15.9, Yaw : 68.67, Alt : 49.2900009155, Lat : 49.2835896, Lng : -123.114927, Q1 : 0.815200328827, Q2 : 0.101724825799, Q3 : -0.0979650169611, Q4 : 0.561696827412}
2019-04-14 14:16:10.91: SIM {TimeUS : 57935150, Roll : 2.68, Pitch : -15.95, Yaw : 69.47, Alt : 49.2900009155, Lat : 49.2835904, Lng : -123.1149225, Q1 : 0.811741650105, Q2 : 0.0981662422419, Q3 : -0.100796215236, Q4 : 0.566814780235}
2019-04-14 14:16:11.01: SIM {TimeUS : 58035110, Roll : 1.87, Pitch : -16.08, Yaw : 70.63, Alt : 49.2900009155, Lat : 49.2835913, Lng : -123.1149179, Q1 : 0.80648702383, Q2 : 0.0940627977252, Q3 : -0.104789026082, Q4 : 0.574238717556}
2019-04-14 14:16:11.11: SIM {TimeUS : 58135070, Roll : 0.97, Pitch : -16.25, Yaw : 71.98, Alt : 49.2900009155, Lat : 49.2835922, Lng : -123.1149132, Q1 : 0.800256788731, Q2 : 0.0898791849613, Q3 : -0.109402231872, Q4 : 0.582702338696}
2019-04-14 14:16:11.21: SIM {TimeUS : 58235030, Roll : 0.12, Pitch : -16.38, Yaw : 73.32, Alt : 49.2900009155, Lat : 49.2835931, Lng : -123.1149084, Q1 : 0.793892860413, Q2 : 0.0859614387155, Q3 : -0.113679885864, Q4 : 0.591118991375}
2019-04-14 14:16:11.31: SIM {TimeUS : 58334990, Roll : -0.57, Pitch : -16.47, Yaw : 74.51, Alt : 49.2900009155, Lat : 49.283594, Lng : -123.1149036, Q1 : 0.788112461567, Q2 : 0.0827741846442, Q3 : -0.117044262588, Q4 : 0.598604857922}
2019-04-14 14:16:11.41: SIM {TimeUS : 58434950, Roll : -1.1, Pitch : -16.52, Yaw : 75.46, Alt : 49.2900009155, Lat : 49.2835949, Lng : -123.1148987, Q1 : 0.783483505249, Q2 : 0.0804115533829, Q3 : -0.119459748268, Q4 : 0.604497313499}
2019-04-14 14:16:11.51: SIM {TimeUS : 58534910, Roll : -1.39, Pitch : -16.55, Yaw : 76.09, Alt : 49.2900009155, Lat : 49.2835958, Lng : -123.1148937, Q1 : 0.780319988728, Q2 : 0.0791969820857, Q3 : -0.120786160231, Q4 : 0.608472883701}
2019-04-14 14:16:11.61: SIM {TimeUS : 58634870, Roll : -1.45, Pitch : -16.54, Yaw : 76.4, Alt : 49.2900009155, Lat : 49.2835968, Lng : -123.1148887, Q1 : 0.778739988804, Q2 : 0.079111404717, Q3 : -0.120852693915, Q4 : 0.61049169302}
2019-04-14 14:16:11.71: SIM {TimeUS : 58734830, Roll : -1.34, Pitch : -16.53, Yaw : 76.4, Alt : 49.2900009155, Lat : 49.2835977, Lng : -123.1148836, Q1 : 0.77866089344, Q2 : 0.0798309892416, Q3 : -0.120196677744, Q4 : 0.61062836647}
2019-04-14 14:16:11.81: SIM {TimeUS : 58834790, Roll : -1.11, Pitch : -16.56, Yaw : 76.15, Alt : 49.2900009155, Lat : 49.2835988, Lng : -123.1148785, Q1 : 0.779810011387, Q2 : 0.0812069997191, Q3 : -0.119331784546, Q4 : 0.609148323536}
2019-04-14 14:16:11.91: SIM {TimeUS : 58934750, Roll : -0.82, Pitch : -16.61, Yaw : 75.72, Alt : 49.2900009155, Lat : 49.2835998, Lng : -123.1148733, Q1 : 0.781828045845, Q2 : 0.0830637142062, Q3 : -0.118461877108, Q4 : 0.606475174427}
2019-04-14 14:16:12.01: SIM {TimeUS : 59035543, Roll : -0.49, Pitch : -16.69, Yaw : 75.18, Alt : 49.2900009155, Lat : 49.2836007, Lng : -123.114868, Q1 : 0.784353077412, Q2 : 0.085204526782, Q3 : -0.117663577199, Q4 : 0.603063642979}
2019-04-14 14:16:12.11: SIM {TimeUS : 59135503, Roll : -0.16, Pitch : -16.76, Yaw : 74.61, Alt : 49.2900009155, Lat : 49.2836019, Lng : -123.1148628, Q1 : 0.787012159824, Q2 : 0.0871853679419, Q3 : -0.116830095649, Q4 : 0.59946757555}
2019-04-14 14:16:12.21: SIM {TimeUS : 59235463, Roll : 0.12, Pitch : -16.81, Yaw : 74.08, Alt : 49.2900009155, Lat : 49.2836029, Lng : -123.1148575, Q1 : 0.789499759674, Q2 : 0.0889438390732, Q3 : -0.116027630866, Q4 : 0.596084535122}
2019-04-14 14:16:12.31: SIM {TimeUS : 59335423, Roll : 0.37, Pitch : -16.85, Yaw : 73.64, Alt : 49.2900009155, Lat : 49.2836038, Lng : -123.1148521, Q1 : 0.791571319103, Q2 : 0.0904044434428, Q3 : -0.115357860923, Q4 : 0.59324067831}
2019-04-14 14:16:12.41: SIM {TimeUS : 59435383, Roll : 0.54, Pitch : -16.88, Yaw : 73.31, Alt : 49.2900009155, Lat : 49.2836049, Lng : -123.1148467, Q1 : 0.793088495731, Q2 : 0.0914385914803, Q3 : -0.114952780306, Q4 : 0.591130673885}
2019-04-14 14:16:12.51: SIM {TimeUS : 59535343, Roll : 0.64, Pitch : -16.9, Yaw : 73.12, Alt : 49.2900009155, Lat : 49.283606, Lng : -123.1148413, Q1 : 0.793993532658, Q2 : 0.0920463129878, Q3 : -0.114754229784, Q4 : 0.589858651161}
2019-04-14 14:16:12.61: SIM {TimeUS : 59635303, Roll : 0.67, Pitch : -16.93, Yaw : 73.05, Alt : 49.2999992371, Lat : 49.2836071, Lng : -123.1148358, Q1 : 0.794301867485, Q2 : 0.0922729596496, Q3 : -0.114847354591, Q4 : 0.58938986063}
2019-04-14 14:16:12.71: SIM {TimeUS : 59735263, Roll : 0.61, Pitch : -16.94, Yaw : 73.09, Alt : 49.2999992371, Lat : 49.283608, Lng : -123.1148303, Q1 : 0.794115960598, Q2 : 0.0919955894351, Q3 : -0.115236893296, Q4 : 0.589607596397}
2019-04-14 14:16:12.81: SIM {TimeUS : 59835223, Roll : 0.49, Pitch : -16.96, Yaw : 73.22, Alt : 49.2999992371, Lat : 49.2836091, Lng : -123.1148247, Q1 : 0.793538630009, Q2 : 0.0913854911923, Q3 : -0.115881368518, Q4 : 0.590353012085}
2019-04-14 14:16:12.91: SIM {TimeUS : 59935183, Roll : 0.33, Pitch : -17.0, Yaw : 73.4, Alt : 49.2999992371, Lat : 49.2836102, Lng : -123.1148191, Q1 : 0.792682826519, Q2 : 0.0907120481133, Q3 : -0.116786465049, Q4 : 0.591427266598}
2019-04-14 14:16:13.01: SIM {TimeUS : 60035143, Roll : 0.17, Pitch : -17.05, Yaw : 73.6, Alt : 49.2999992371, Lat : 49.2836111, Lng : -123.1148135, Q1 : 0.791697919369, Q2 : 0.0900387093425, Q3 : -0.117876604199, Q4 : 0.592631876469}
2019-04-14 14:16:13.11: SIM {TimeUS : 60135103, Roll : 0.0, Pitch : -17.1, Yaw : 73.8, Alt : 49.2999992371, Lat : 49.2836122, Lng : -123.1148079, Q1 : 0.790750205517, Q2 : 0.0892949774861, Q3 : -0.118929319084, Q4 : 0.593798220158}
2019-04-14 14:16:13.21: SIM {TimeUS : 60235063, Roll : -0.15, Pitch : -17.13, Yaw : 73.97, Alt : 49.2999992371, Lat : 49.2836133, Lng : -123.1148022, Q1 : 0.789956569672, Q2 : 0.0885706469417, Q3 : -0.119750976562, Q4 : 0.59479701519}
2019-04-14 14:16:13.31: SIM {TimeUS : 60335023, Roll : -0.26, Pitch : -17.15, Yaw : 74.1, Alt : 49.2999992371, Lat : 49.2836144, Lng : -123.1147965, Q1 : 0.789362251759, Q2 : 0.0880758017302, Q3 : -0.120387487113, Q4 : 0.595530688763}
2019-04-14 14:16:13.41: SIM {TimeUS : 60434983, Roll : -0.3, Pitch : -17.19, Yaw : 74.17, Alt : 49.2999992371, Lat : 49.2836154, Lng : -123.1147907, Q1 : 0.788987278938, Q2 : 0.0880363732576, Q3 : -0.120796456933, Q4 : 0.595950424671}
2019-04-14 14:16:13.51: SIM {TimeUS : 60534943, Roll : -0.29, Pitch : -17.23, Yaw : 74.19, Alt : 49.2999992371, Lat : 49.2836165, Lng : -123.114785, Q1 : 0.788855016232, Q2 : 0.0882927179337, Q3 : -0.121042788029, Q4 : 0.596037566662}
2019-04-14 14:16:13.61: SIM {TimeUS : 60634903, Roll : -0.25, Pitch : -17.27, Yaw : 74.16, Alt : 49.2999992371, Lat : 49.2836176, Lng : -123.1147792, Q1 : 0.788938701153, Q2 : 0.0888165161014, Q3 : -0.121118344367, Q4 : 0.595833599567}
2019-04-14 14:16:13.71: SIM {TimeUS : 60734863, Roll : -0.16, Pitch : -17.31, Yaw : 74.08, Alt : 49.3100013733, Lat : 49.2836187, Lng : -123.1147734, Q1 : 0.789197027683, Q2 : 0.0895490720868, Q3 : -0.121047645807, Q4 : 0.595396101475}
2019-04-14 14:16:13.81: SIM {TimeUS : 60834823, Roll : -0.08, Pitch : -17.35, Yaw : 73.99, Alt : 49.3100013733, Lat : 49.2836197, Lng : -123.1147676, Q1 : 0.789603292942, Q2 : 0.0902203768492, Q3 : -0.120895922184, Q4 : 0.594786643982}
2019-04-14 14:16:13.91: SIM {TimeUS : 60934783, Roll : 0.0, Pitch : -17.37, Yaw : 73.88, Alt : 49.3100013733, Lat : 49.2836208, Lng : -123.1147617, Q1 : 0.790092229843, Q2 : 0.090735308826, Q3 : -0.120808832347, Q4 : 0.59407633543}
2019-04-14 14:16:14.01: SIM {TimeUS : 61034743, Roll : 0.04, Pitch : -17.38, Yaw : 73.76, Alt : 49.3100013733, Lat : 49.283622, Lng : -123.1147558, Q1 : 0.790616810322, Q2 : 0.0910352990031, Q3 : -0.120686754584, Q4 : 0.593356907368}
2019-04-14 14:16:14.11: SIM {TimeUS : 61135536, Roll : 0.09, Pitch : -17.38, Yaw : 73.66, Alt : 49.3100013733, Lat : 49.2836232, Lng : -123.1147499, Q1 : 0.791118621826, Q2 : 0.0912218242884, Q3 : -0.120480597019, Q4 : 0.592700958252}
2019-04-14 14:16:14.21: SIM {TimeUS : 61235496, Roll : 0.12, Pitch : -17.37, Yaw : 73.57, Alt : 49.3100013733, Lat : 49.2836243, Lng : -123.1147439, Q1 : 0.791546821594, Q2 : 0.0913475006819, Q3 : -0.120305284858, Q4 : 0.592145204544}
2019-04-14 14:16:14.31: SIM {TimeUS : 61335456, Roll : 0.16, Pitch : -17.4, Yaw : 73.51, Alt : 49.3100013733, Lat : 49.2836254, Lng : -123.114738, Q1 : 0.79183280468, Q2 : 0.0916656404734, Q3 : -0.12033290416, Q4 : 0.591707885265}
2019-04-14 14:16:14.41: SIM {TimeUS : 61435416, Roll : 0.19, Pitch : -17.45, Yaw : 73.46, Alt : 49.3100013733, Lat : 49.2836264, Lng : -123.1147321, Q1 : 0.791975438595, Q2 : 0.0921180322766, Q3 : -0.120599493384, Q4 : 0.591392397881}
2019-04-14 14:16:14.51: SIM {TimeUS : 61535376, Roll : 0.2, Pitch : -17.49, Yaw : 73.44, Alt : 49.3100013733, Lat : 49.2836276, Lng : -123.1147261, Q1 : 0.792037785053, Q2 : 0.0923914685845, Q3 : -0.120821841061, Q4 : 0.591220796108}
2019-04-14 14:16:14.61: SIM {TimeUS : 61635336, Roll : 0.21, Pitch : -17.5, Yaw : 73.44, Alt : 49.3100013733, Lat : 49.2836287, Lng : -123.1147201, Q1 : 0.792043983936, Q2 : 0.0924579426646, Q3 : -0.120905831456, Q4 : 0.591184973717}
2019-04-14 14:16:14.71: SIM {TimeUS : 61735296, Roll : 0.18, Pitch : -17.52, Yaw : 73.45, Alt : 49.3199996948, Lat : 49.2836299, Lng : -123.1147141, Q1 : 0.792008817196, Q2 : 0.0923404246569, Q3 : -0.121118716896, Q4 : 0.591206848621}
2019-04-14 14:16:14.81: SIM {TimeUS : 61835256, Roll : 0.13, Pitch : -17.54, Yaw : 73.46, Alt : 49.3199996948, Lat : 49.2836311, Lng : -123.1147081, Q1 : 0.791934549809, Q2 : 0.0921704173088, Q3 : -0.12151786685, Q4 : 0.591250896454}
2019-04-14 14:16:14.91: SIM {TimeUS : 61935216, Roll : 0.1, Pitch : -17.56, Yaw : 73.48, Alt : 49.3199996948, Lat : 49.2836322, Lng : -123.114702, Q1 : 0.791851520538, Q2 : 0.0920278578997, Q3 : -0.121825776994, Q4 : 0.591320991516}
2019-04-14 14:16:15.01: SIM {TimeUS : 62035176, Roll : 0.07, Pitch : -17.58, Yaw : 73.5, Alt : 49.3199996948, Lat : 49.2836333, Lng : -123.114696, Q1 : 0.791758954525, Q2 : 0.0919807329774, Q3 : -0.122120529413, Q4 : 0.591391444206}
2019-04-14 14:16:15.11: SIM {TimeUS : 62135136, Roll : 0.06, Pitch : -17.6, Yaw : 73.51, Alt : 49.3199996948, Lat : 49.2836345, Lng : -123.1146898, Q1 : 0.791682302952, Q2 : 0.0920071154833, Q3 : -0.122292846441, Q4 : 0.591454446316}
2019-04-14 14:16:15.21: SIM {TimeUS : 62235096, Roll : 0.05, Pitch : -17.62, Yaw : 73.52, Alt : 49.3199996948, Lat : 49.2836355, Lng : -123.1146838, Q1 : 0.791641354561, Q2 : 0.0920839831233, Q3 : -0.122433975339, Q4 : 0.591468036175}
2019-04-14 14:16:15.31: SIM {TimeUS : 62335056, Roll : 0.06, Pitch : -17.63, Yaw : 73.51, Alt : 49.3199996948, Lat : 49.2836367, Lng : -123.1146777, Q1 : 0.791641175747, Q2 : 0.0922101214528, Q3 : -0.12247055769, Q4 : 0.591441035271}
2019-04-14 14:16:15.41: SIM {TimeUS : 62435016, Roll : 0.09, Pitch : -17.65, Yaw : 73.5, Alt : 49.3199996948, Lat : 49.2836378, Lng : -123.1146716, Q1 : 0.791660249233, Q2 : 0.0924435257912, Q3 : -0.122477546334, Q4 : 0.591377615929}
2019-04-14 14:16:15.51: SIM {TimeUS : 62534976, Roll : 0.11, Pitch : -17.67, Yaw : 73.48, Alt : 49.3199996948, Lat : 49.283639, Lng : -123.1146655, Q1 : 0.791703939438, Q2 : 0.0927212834358, Q3 : -0.122533164918, Q4 : 0.591264128685}
2019-04-14 14:16:15.61: SIM {TimeUS : 62634936, Roll : 0.12, Pitch : -17.71, Yaw : 73.46, Alt : 49.3199996948, Lat : 49.2836402, Lng : -123.1146594, Q1 : 0.791780352592, Q2 : 0.0929078534245, Q3 : -0.122756689787, Q4 : 0.591086089611}
2019-04-14 14:16:15.71: SIM {TimeUS : 62734896, Roll : 0.11, Pitch : -17.76, Yaw : 73.43, Alt : 49.3199996948, Lat : 49.2836414, Lng : -123.1146532, Q1 : 0.791867077351, Q2 : 0.0930862352252, Q3 : -0.123144887388, Q4 : 0.590861141682}
2019-04-14 14:16:15.81: SIM {TimeUS : 62834856, Roll : 0.1, Pitch : -17.81, Yaw : 73.41, Alt : 49.3199996948, Lat : 49.2836426, Lng : -123.1146471, Q1 : 0.79195946455, Q2 : 0.0932479947805, Q3 : -0.123569555581, Q4 : 0.59062308073}
2019-04-14 14:16:15.91: SIM {TimeUS : 62934816, Roll : 0.11, Pitch : -17.84, Yaw : 73.38, Alt : 49.3199996948, Lat : 49.2836438, Lng : -123.1146409, Q1 : 0.79206097126, Q2 : 0.0934347212315, Q3 : -0.123752385378, Q4 : 0.590419113636}
2019-04-14 14:16:16.01: SIM {TimeUS : 63034776, Roll : 0.13, Pitch : -17.83, Yaw : 73.35, Alt : 49.3199996948, Lat : 49.2836449, Lng : -123.1146347, Q1 : 0.792196571827, Q2 : 0.0935197621584, Q3 : -0.123641029, Q4 : 0.590246975422}
2019-04-14 14:16:16.11: SIM {TimeUS : 63134736, Roll : 0.15, Pitch : -17.79, Yaw : 73.33, Alt : 49.3199996948, Lat : 49.2836461, Lng : -123.1146285, Q1 : 0.792352199554, Q2 : 0.0934612900019, Q3 : -0.123296588659, Q4 : 0.590119421482}
2019-04-14 14:16:16.21: SIM {TimeUS : 63235529, Roll : 0.15, Pitch : -17.77, Yaw : 73.3, Alt : 49.3199996948, Lat : 49.2836473, Lng : -123.1146222, Q1 : 0.792483150959, Q2 : 0.0933418497443, Q3 : -0.123131111264, Q4 : 0.589997053146}
2019-04-14 14:16:16.31: SIM {TimeUS : 63335489, Roll : 0.15, Pitch : -17.75, Yaw : 73.29, Alt : 49.3300018311, Lat : 49.2836485, Lng : -123.114616, Q1 : 0.792598366737, Q2 : 0.0931812077761, Q3 : -0.123058050871, Q4 : 0.589882850647}
2019-04-14 14:16:16.41: SIM {TimeUS : 63435449, Roll : 0.14, Pitch : -17.75, Yaw : 73.27, Alt : 49.3300018311, Lat : 49.2836495, Lng : -123.1146098, Q1 : 0.792671501637, Q2 : 0.0930967926979, Q3 : -0.123104177415, Q4 : 0.589788377285}
2019-04-14 14:16:16.51: SIM {TimeUS : 63535409, Roll : 0.13, Pitch : -17.77, Yaw : 73.27, Alt : 49.3300018311, Lat : 49.2836507, Lng : -123.1146035, Q1 : 0.792703390121, Q2 : 0.093132942915, Q3 : -0.12329429388, Q4 : 0.589700043201}
2019-04-14 14:16:16.61: SIM {TimeUS : 63635369, Roll : 0.14, Pitch : -17.8, Yaw : 73.26, Alt : 49.3300018311, Lat : 49.2836519, Lng : -123.1145972, Q1 : 0.792717814445, Q2 : 0.0932850167155, Q3 : -0.12344071269, Q4 : 0.589626014233}
2019-04-14 14:16:16.71: SIM {TimeUS : 63735329, Roll : 0.13, Pitch : -17.84, Yaw : 73.25, Alt : 49.3300018311, Lat : 49.2836531, Lng : -123.114591, Q1 : 0.79271697998, Q2 : 0.0934626609087, Q3 : -0.123750843108, Q4 : 0.589533984661}
2019-04-14 14:16:16.81: SIM {TimeUS : 63835289, Roll : 0.13, Pitch : -17.89, Yaw : 73.24, Alt : 49.3300018311, Lat : 49.2836543, Lng : -123.1145847, Q1 : 0.792709708214, Q2 : 0.0936566516757, Q3 : -0.124123796821, Q4 : 0.589434623718}
2019-04-14 14:16:16.91: SIM {TimeUS : 63935249, Roll : 0.12, Pitch : -17.92, Yaw : 73.23, Alt : 49.3300018311, Lat : 49.2836555, Lng : -123.1145784, Q1 : 0.792715370655, Q2 : 0.0938055515289, Q3 : -0.124366432428, Q4 : 0.589352011681}
2019-04-14 14:16:17.01: SIM {TimeUS : 64035209, Roll : 0.12, Pitch : -17.95, Yaw : 73.22, Alt : 49.3300018311, Lat : 49.2836567, Lng : -123.1145722, Q1 : 0.792736291885, Q2 : 0.093885153532, Q3 : -0.124599300325, Q4 : 0.589262127876}
2019-04-14 14:16:17.11: SIM {TimeUS : 64135169, Roll : 0.11, Pitch : -17.96, Yaw : 73.21, Alt : 49.3300018311, Lat : 49.2836579, Lng : -123.1145659, Q1 : 0.792772829533, Q2 : 0.0939278081059, Q3 : -0.124762624502, Q4 : 0.589171588421}
2019-04-14 14:16:17.21: SIM {TimeUS : 64235129, Roll : 0.12, Pitch : -17.96, Yaw : 73.2, Alt : 49.3300018311, Lat : 49.2836591, Lng : -123.1145596, Q1 : 0.792828202248, Q2 : 0.0939754769206, Q3 : -0.124660618603, Q4 : 0.589111030102}
2019-04-14 14:16:17.31: SIM {TimeUS : 64335089, Roll : 0.15, Pitch : -17.96, Yaw : 73.19, Alt : 49.3300018311, Lat : 49.2836603, Lng : -123.1145532, Q1 : 0.792869925499, Q2 : 0.0941798388958, Q3 : -0.124561548233, Q4 : 0.589043200016}
2019-04-14 14:16:17.41: SIM {TimeUS : 64435049, Roll : 0.16, Pitch : -17.98, Yaw : 73.17, Alt : 49.3300018311, Lat : 49.2836615, Lng : -123.1145469, Q1 : 0.792917013168, Q2 : 0.094328507781, Q3 : -0.124633230269, Q4 : 0.588940858841}
2019-04-14 14:16:17.51: SIM {TimeUS : 64535009, Roll : 0.17, Pitch : -17.99, Yaw : 73.16, Alt : 49.3300018311, Lat : 49.2836627, Lng : -123.1145406, Q1 : 0.792983233929, Q2 : 0.0943844392896, Q3 : -0.124682068825, Q4 : 0.588832378387}
2019-04-14 14:16:17.61: SIM {TimeUS : 64634969, Roll : 0.17, Pitch : -17.99, Yaw : 73.14, Alt : 49.3300018311, Lat : 49.2836639, Lng : -123.1145343, Q1 : 0.793059825897, Q2 : 0.0943871513009, Q3 : -0.124658674002, Q4 : 0.5887337327}
2019-04-14 14:16:17.71: SIM {TimeUS : 64734929, Roll : 0.17, Pitch : -17.99, Yaw : 73.13, Alt : 49.3400001526, Lat : 49.2836651, Lng : -123.1145279, Q1 : 0.793136894703, Q2 : 0.0943602025509, Q3 : -0.124688692391, Q4 : 0.588627874851}
2019-04-14 14:16:17.81: SIM {TimeUS : 64834889, Roll : 0.15, Pitch : -18.0, Yaw : 73.12, Alt : 49.3400001526, Lat : 49.2836664, Lng : -123.1145216, Q1 : 0.793205201626, Q2 : 0.0943026468158, Q3 : -0.124913610518, Q4 : 0.588497340679}
2019-04-14 14:16:17.91: SIM {TimeUS : 64934849, Roll : 0.12, Pitch : -18.03, Yaw : 73.1, Alt : 49.3400001526, Lat : 49.2836676, Lng : -123.1145152, Q1 : 0.793263018131, Q2 : 0.0942476540804, Q3 : -0.125266939402, Q4 : 0.588353097439}
2019-04-14 14:16:18.01: SIM {TimeUS : 65034809, Roll : 0.11, Pitch : -18.04, Yaw : 73.09, Alt : 49.3400001526, Lat : 49.2836688, Lng : -123.1145089, Q1 : 0.793331444263, Q2 : 0.0941600576043, Q3 : -0.125392511487, Q4 : 0.588248133659}
2019-04-14 14:16:18.11: SIM {TimeUS : 65134769, Roll : 0.12, Pitch : -18.02, Yaw : 73.08, Alt : 49.3400001526, Lat : 49.28367, Lng : -123.1145025, Q1 : 0.793402194977, Q2 : 0.0941387489438, Q3 : -0.125224888325, Q4 : 0.58819180727}
2019-04-14 14:16:18.21: SIM {TimeUS : 65235562, Roll : 0.14, Pitch : -18.01, Yaw : 73.07, Alt : 49.3400001526, Lat : 49.2836712, Lng : -123.114496, Q1 : 0.793460249901, Q2 : 0.0942011028528, Q3 : -0.125051289797, Q4 : 0.588140428066}
2019-04-14 14:16:18.31: SIM {TimeUS : 65335522, Roll : 0.15, Pitch : -18.01, Yaw : 73.05, Alt : 49.3400001526, Lat : 49.2836724, Lng : -123.1144897, Q1 : 0.793505609035, Q2 : 0.0943056493998, Q3 : -0.125034481287, Q4 : 0.588066101074}
2019-04-14 14:16:18.41: SIM {TimeUS : 65435482, Roll : 0.14, Pitch : -18.03, Yaw : 73.04, Alt : 49.3400001526, Lat : 49.2836736, Lng : -123.1144833, Q1 : 0.793557822704, Q2 : 0.0942869260907, Q3 : -0.125200286508, Q4 : 0.587963342667}
2019-04-14 14:16:18.51: SIM {TimeUS : 65535442, Roll : 0.11, Pitch : -18.05, Yaw : 73.03, Alt : 49.3400001526, Lat : 49.2836749, Lng : -123.1144769, Q1 : 0.79361307621, Q2 : 0.0941783115268, Q3 : -0.125499203801, Q4 : 0.587842464447}
2019-04-14 14:16:18.61: SIM {TimeUS : 65635402, Roll : 0.1, Pitch : -18.07, Yaw : 73.02, Alt : 49.3400001526, Lat : 49.2836761, Lng : -123.1144705, Q1 : 0.793660342693, Q2 : 0.0941744744778, Q3 : -0.125740885735, Q4 : 0.587727546692}
2019-04-14 14:16:18.71: SIM {TimeUS : 65735362, Roll : 0.1, Pitch : -18.09, Yaw : 73.01, Alt : 49.3400001526, Lat : 49.2836773, Lng : -123.1144641, Q1 : 0.793698608875, Q2 : 0.0942805111408, Q3 : -0.125906869769, Q4 : 0.587623357773}
2019-04-14 14:16:18.81: SIM {TimeUS : 65835322, Roll : 0.11, Pitch : -18.12, Yaw : 73.0, Alt : 49.3400001526, Lat : 49.2836785, Lng : -123.1144577, Q1 : 0.793723762035, Q2 : 0.0944720059633, Q3 : -0.125989601016, Q4 : 0.587540864944}
2019-04-14 14:16:18.91: SIM {TimeUS : 65935282, Roll : 0.14, Pitch : -18.13, Yaw : 72.99, Alt : 49.3400001526, Lat : 49.2836797, Lng : -123.1144513, Q1 : 0.793741703033, Q2 : 0.0947385653853, Q3 : -0.125942796469, Q4 : 0.587483763695}
2019-04-14 14:16:19.01: SIM {TimeUS : 66035242, Roll : 0.16, Pitch : -18.14, Yaw : 72.98, Alt : 49.3400001526, Lat : 49.283681, Lng : -123.1144449, Q1 : 0.793759822845, Q2 : 0.0949524864554, Q3 : -0.125936150551, Q4 : 0.587426126003}
2019-04-14 14:16:19.11: SIM {TimeUS : 66135202, Roll : 0.18, Pitch : -18.16, Yaw : 72.97, Alt : 49.3499984741, Lat : 49.2836822, Lng : -123.1144385, Q1 : 0.793778538704, Q2 : 0.0951326340437, Q3 : -0.125961109996, Q4 : 0.587366342545}
