2019-04-14 14:40:45.20: SIM {TimeUS : 40216407, Roll : 0.0, Pitch : 0.0, Yaw : 0.0, Alt : 30.1000003815, Lat : 49.28357, Lng : -123.11502, Q1 : 1.0, Q2 : 0.0, Q3 : 0.0, Q4 : 0.0}
2019-04-14 14:40:45.31: SIM {TimeUS : 40335526, Roll : 0.0, Pitch : 0.0, Yaw : 0.0, Alt : 30.1000003815, Lat : 49.28357, Lng : -123.11502, Q1 : 1.0, Q2 : 0.0, Q3 : 0.0, Q4 : 0.0}
2019-04-14 14:40:45.41: SIM {TimeUS : 40435486, Roll : 0.0, Pitch : 0.0, Yaw : 0.0, Alt : 30.1000003815, Lat : 49.28357, Lng : -123.11502, Q1 : 1.0, Q2 : 0.0, Q3 : 0.0, Q4 : 0.0}
2019-04-14 14:40:45.51: SIM {TimeUS : 40535446, Roll : 0.0, Pitch : 0.0, Yaw : 0.0, Alt : 30.1000003815, Lat : 49.28357, Lng : -123.11502, Q1 : 1.0, Q2 : 0.0, Q3 : 0.0, Q4 : 0.0}
2019-04-14 14:40:45.61: SIM {TimeUS : 40635406, Roll : 0.0, Pitch : 0.0, Yaw : 0.0, Alt : 30.1000003815, Lat : 49.28357, Lng : -123.11502, Q1 : 1.0, Q2 : 0.0, Q3 : 0.0, Q4 : 0.0}
2019-04-14 14:40:45.71: SIM {TimeUS : 40735366, Roll : 0.0, Pitch : 0.0, Yaw : 0.0, Alt : 30.1000003815, Lat : 49.28357, Lng : -123.11502, Q1 : 1.0, Q2 : 0.0, Q3 : 0.0, Q4 : 0.0}
2019-04-14 14:40:45.81: SIM {TimeUS : 40835326, Roll : 0.0, Pitch : 0.0, Yaw : 0.0, Alt : 30.1000003815, Lat : 49.28357, Lng : -123.11502, Q1 : 1.0, Q2 : 0.0, Q3 : 0.0, Q4 : 0.0}
2019-04-14 14:40:45.91: SIM {TimeUS : 40935286, Roll : 0.0, Pitch : 0.0, Yaw : 0.0, Alt : 30.1000003815, Lat : 49.28357, Lng : -123.11502, Q1 : 1.0, Q2 : 0.0, Q3 : 0.0, Q4 : 0.0}
2019-04-14 14:40:46.01: SIM {TimeUS : 41035246, Roll : 0.0, Pitch : 0.0, Yaw : 0.0, Alt : 30.1000003815, Lat : 49.28357, Lng : -123.11502, Q1 : 1.0, Q2 : 0.0, Q3 : 0.0, Q4 : 0.0}
2019-04-14 14:40:46.11: SIM {TimeUS : 41135206, Roll : 0.0, Pitch : 0.0, Yaw : 0.0, Alt : 30.1000003815, Lat : 49.28357, Lng : -123.11502, Q1 : 1.0, Q2 : 0.0, Q3 : 0.0, Q4 : 0.0}
2019-04-14 14:40:46.21: SIM {TimeUS : 41235166, Roll : 0.0, Pitch : 0.0, Yaw : 0.0, Alt : 30.1000003815, Lat : 49.28357, Lng : -123.11502, Q1 : 1.0, Q2 : 0.0, Q3 : 0.0, Q4 : 0.0}
2019-04-14 14:40:46.31: SIM {TimeUS : 41335126, Roll : 0.0, Pitch : 0.0, Yaw : 0.0, Alt : 30.1000003815, Lat : 49.28357, Lng : -123.11502, Q1 : 1.0, Q2 : 0.0, Q3 : 0.0, Q4 : 0.0}
2019-04-14 14:40:46.41: SIM {TimeUS : 41435086, Roll : 0.0, Pitch : 0.0, Yaw : 0.0, Alt : 30.1000003815, Lat : 49.28357, Lng : -123.11502, Q1 : 1.0, Q2 : 0.0, Q3 : 0.0, Q4 : 0.0}
2019-04-14 14:40:46.51: SIM {TimeUS : 41535046, Roll : 0.0, Pitch : 0.0, Yaw : 0.0, Alt : 30.1000003815, Lat : 49.28357, Lng : -123.11502, Q1 : 1.0, Q2 : 0.0, Q3 : 0.0, Q4 : 0.0}
2019-04-14 14:40:46.61: SIM {TimeUS : 41635006, Roll : 0.0, Pitch : 0.0, Yaw : 0.0, Alt : 30.1000003815, Lat : 49.28357, Lng : -123.11502, Q1 : 1.0, Q2 : 0.0, Q3 : 0.0, Q4 : 0.0}
2019-04-14 14:40:46.71: SIM {TimeUS : 41734966, Roll : 0.0, Pitch : 0.0, Yaw : 0.0, Alt : 30.1000003815, Lat : 49.28357, Lng : -123.11502, Q1 : 1.0, Q2 : 0.0, Q3 : 0.0, Q4 : 0.0}
2019-04-14 14:40:46.81: SIM {TimeUS : 41834926, Roll : 0.0, Pitch : 0.0, Yaw : 0.0, Alt : 30.1000003815, Lat : 49.28357, Lng : -123.11502, Q1 : 1.0, Q2 : 0.0, Q3 : 0.0, Q4 : 0.0}
2019-04-14 14:40:46.91: SIM {TimeUS : 41934886, Roll : 0.0, Pitch : 0.0, Yaw : 0.0, Alt : 30.1000003815, Lat : 49.28357, Lng : -123.11502, Q1 : 1.0, Q2 : 0.0, Q3 : 0.0, Q4 : 0.0}
2019-04-14 14:40:47.01: SIM {TimeUS : 42034846, Roll : 0.0, Pitch : 0.0, Yaw : 0.0, Alt : 30.1000003815, Lat : 49.28357, Lng : -123.11502, Q1 : 1.0, Q2 : 0.0, Q3 : 0.0, Q4 : 0.0}
2019-04-14 14:40:47.11: SIM {TimeUS : 42134806, Roll : 0.0, Pitch : 0.0, Yaw : 0.0, Alt : 30.1000003815, Lat : 49.28357, Lng : -123.11502, Q1 : 1.0, Q2 : 0.0, Q3 : 0.0, Q4 : 0.0}
2019-04-14 14:40:47.21: SIM {TimeUS : 42234766, Roll : 0.0, Pitch : 0.0, Yaw : 0.0, Alt : 30.1000003815, Lat : 49.28357, Lng : -123.11502, Q1 : 1.0, Q2 : 0.0, Q3 : 0.0, Q4 : 0.0}
2019-04-14 14:40:47.31: SIM {TimeUS : 42335559, Roll : 0.0, Pitch : 0.0, Yaw : 0.0, Alt : 30.1000003815, Lat : 49.28357, Lng : -123.11502, Q1 : 1.0, Q2 : 0.0, Q3 : 0.0, Q4 : 0.0}
2019-04-14 14:40:47.41: SIM {TimeUS : 42435519, Roll : 0.0, Pitch : 0.0, Yaw : 0.0, Alt : 30.1000003815, Lat : 49.28357, Lng : -123.11502, Q1 : 1.0, Q2 : 0.0, Q3 : 0.0, Q4 : 0.0}
2019-04-14 14:40:47.51: SIM {TimeUS : 42535479, Roll : 0.0, Pitch : 0.0, Yaw : 360.0, Alt : 30.1000003815, Lat : 49.28357, Lng : -123.11502, Q1 : 1.0, Q2 : 0.0, Q3 : 0.0, Q4 : -2.81975723153e-12}
2019-04-14 14:40:47.61: SIM {TimeUS : 42635439, Roll : 0.0, Pitch : 0.0, Yaw : 0.0, Alt : 30.1000003815, Lat : 49.28357, Lng : -123.11502, Q1 : 1.0, Q2 : 0.0, Q3 : 0.0, Q4 : 2.10149987689e-11}
2019-04-14 14:40:47.71: SIM {TimeUS : 42735399, Roll : 0.0, Pitch : 0.0, Yaw : 360.0, Alt : 30.1000003815, Lat : 49.28357, Lng : -123.11502, Q1 : 1.0, Q2 : 0.0, Q3 : 0.0, Q4 : -1.12031898425e-07}
2019-04-14 14:40:47.81: SIM {TimeUS : 42835359, Roll : 0.0, Pitch : 0.0, Yaw : 359.99, Alt : 30.1000003815, Lat : 49.28357, Lng : -123.11502, Q1 : 1.0, Q2 : 0.0, Q3 : 0.0, Q4 : -2.63743800133e-07}
2019-04-14 14:40:47.91: SIM {TimeUS : 42935319, Roll : 0.0, Pitch : 0.0, Yaw : 359.99, Alt : 30.1000003815, Lat : 49.28357, Lng : -123.11502, Q1 : 1.0, Q2 : 0.0, Q3 : 0.0, Q4 : -4.74530423844e-07}
2019-04-14 14:40:48.01: SIM {TimeUS : 43035279, Roll : 0.0, Pitch : 0.0, Yaw : 359.99, Alt : 30.1000003815, Lat : 49.28357, Lng : -123.11502, Q1 : 1.0, Q2 : 0.0, Q3 : 0.0, Q4 : -6.54935774946e-07}
2019-04-14 14:40:48.11: SIM {TimeUS : 43135239, Roll : 0.0, Pitch : 0.0, Yaw : 359.99, Alt : 30.1000003815, Lat : 49.28357, Lng : -123.11502, Q1 : 1.0, Q2 : 0.0, Q3 : 0.0, Q4 : -8.64173273385e-07}
2019-04-14 14:40:48.21: SIM {TimeUS : 43235199, Roll : 0.0, Pitch : 0.0, Yaw : 359.99, Alt : 30.1000003815, Lat : 49.28357, Lng : -123.11502, Q1 : 1.0, Q2 : 0.0, Q3 : 0.0, Q4 : -1.08132974219e-06}
2019-04-14 14:40:48.31: SIM {TimeUS : 43335159, Roll : 0.0, Pitch : 0.0, Yaw : 359.99, Alt : 30.1000003815, Lat : 49.28357, Lng : -123.11502, Q1 : 1.0, Q2 : 0.0, Q3 : 0.0, Q4 : -1.26538884615e-06}
2019-04-14 14:40:48.41: SIM {TimeUS : 43435119, Roll : 0.0, Pitch : 0.0, Yaw : 359.99, Alt : 30.1100006104, Lat : 49.28357, Lng : -123.11502, Q1 : 1.0, Q2 : 0.0, Q3 : 0.0, Q4 : -1.46940237755e-06}
2019-04-14 14:40:48.51: SIM {TimeUS : 43535079, Roll : 0.0, Pitch : 0.0, Yaw : 359.99, Alt : 30.1299991608, Lat : 49.28357, Lng : -123.11502, Q1 : 1.0, Q2 : 0.0, Q3 : 0.0, Q4 : -1.67590940237e-06}
2019-04-14 14:40:48.61: SIM {TimeUS : 43635039, Roll : 0.0, Pitch : 0.0, Yaw : 359.99, Alt : 30.1599998474, Lat : 49.28357, Lng : -123.11502, Q1 : 1.0, Q2 : 0.0, Q3 : 0.0, Q4 : -1.93465120901e-06}
2019-04-14 14:40:48.71: SIM {TimeUS : 43734999, Roll : 0.0, Pitch : 0.0, Yaw : 359.99, Alt : 30.1900005341, Lat : 49.28357, Lng : -123.11502, Q1 : 1.0, Q2 : 0.0, Q3 : 0.0, Q4 : -2.12115537579e-06}
2019-04-14 14:40:48.81: SIM {TimeUS : 43834959, Roll : -0.04, Pitch : -0.03, Yaw : 359.99, Alt : 30.2299995422, Lat : 49.28357, Lng : -123.11502, Q1 : 0.999999880791, Q2 : -0.000349960318999, Q3 : -0.000275802332908, Q4 : -5.46154342373e-06}
2019-04-14 14:40:48.91: SIM {TimeUS : 43934919, Roll : -0.29, Pitch : -0.25, Yaw : 359.99, Alt : 30.3099994659, Lat : 49.28357, Lng : -123.11502, Q1 : 0.99999409914, Q2 : -0.00261233793572, Q3 : -0.00222410308197, Q4 : -2.68496060016e-05}
2019-04-14 14:40:49.01: SIM {TimeUS : 44034879, Roll : -0.59, Pitch : -0.53, Yaw : 359.99, Alt : 30.4400005341, Lat : 49.28357, Lng : -123.11502, Q1 : 0.999975442886, Q2 : -0.00521507160738, Q3 : -0.00468014506623, Q4 : -7.25496356608e-05}
2019-04-14 14:40:49.11: SIM {TimeUS : 44134839, Roll : -0.79, Pitch : -0.72, Yaw : 359.98, Alt : 30.6000003815, Lat : 49.28357, Lng : -123.11502, Q1 : 0.999955773354, Q2 : -0.00691894488409, Q3 : -0.00636898120865, Q4 : -0.000137020921102}
2019-04-14 14:40:49.21: SIM {TimeUS : 44234799, Roll : -0.84, Pitch : -0.77, Yaw : 359.98, Alt : 30.7600002289, Lat : 49.28357, Lng : -123.11502, Q1 : 0.999950110912, Q2 : -0.0073374658823, Q3 : -0.00676867319271, Q4 : -0.000214855608647}
2019-04-14 14:40:49.31: SIM {TimeUS : 44334759, Roll : -0.74, Pitch : -0.68, Yaw : 359.97, Alt : 30.9099998474, Lat : 49.28357, Lng : -123.1150201, Q1 : 0.999960839748, Q2 : -0.00650948705152, Q3 : -0.0059872684069, Q4 : -0.000295672332868}
2019-04-14 14:40:49.41: SIM {TimeUS : 44435552, Roll : -0.53, Pitch : -0.52, Yaw : 359.96, Alt : 31.0699996948, Lat : 49.2835701, Lng : -123.1150202, Q1 : 0.999978542328, Q2 : -0.00469820573926, Q3 : -0.00454987492412, Q4 : -0.000368409702787}
2019-04-14 14:40:49.51: SIM {TimeUS : 44535512, Roll : -0.29, Pitch : -0.31, Yaw : 359.95, Alt : 31.2199993134, Lat : 49.2835701, Lng : -123.1150202, Q1 : 0.999992609024, Q2 : -0.0026168350596, Q3 : -0.00278521771543, Q4 : -0.000430314481491}
2019-04-14 14:40:49.61: SIM {TimeUS : 44635472, Roll : -0.11, Pitch : -0.13, Yaw : 359.94, Alt : 31.3899993896, Lat : 49.2835702, Lng : -123.1150203, Q1 : 0.999998748302, Q2 : -0.000987570616417, Q3 : -0.00114124733955, Q4 : -0.00048532456276}
2019-04-14 14:40:49.71: SIM {TimeUS : 44735432, Roll : 0.0, Pitch : 0.0, Yaw : 359.93, Alt : 31.5599994659, Lat : 49.2835702, Lng : -123.1150204, Q1 : 0.999999880791, Q2 : 2.67407995125e-05, Q3 : -4.73815853184e-05, Q4 : -0.000528259610292}
2019-04-14 14:40:49.81: SIM {TimeUS : 44835392, Roll : 0.05, Pitch : 0.04, Yaw : 359.93, Alt : 31.7399997711, Lat : 49.2835703, Lng : -123.1150205, Q1 : 0.999999642372, Q2 : 0.000477682246128, Q3 : 0.000423891557148, Q4 : -0.000558927131351}
2019-04-14 14:40:49.91: SIM {TimeUS : 44935352, Roll : 0.06, Pitch : 0.05, Yaw : 359.93, Alt : 31.9200000763, Lat : 49.2835703, Lng : -123.1150206, Q1 : 0.999999582767, Q2 : 0.000531039724592, Q3 : 0.000459417467937, Q4 : -0.000584830413572}
2019-04-14 14:40:50.01: SIM {TimeUS : 45035312, Roll : 0.06, Pitch : 0.03, Yaw : 359.93, Alt : 32.0999984741, Lat : 49.2835703, Lng : -123.1150206, Q1 : 0.999999642372, Q2 : 0.000525643408764, Q3 : 0.000317105877912, Q4 : -0.000600078259595}
2019-04-14 14:40:50.11: SIM {TimeUS : 45135272, Roll : 0.06, Pitch : 0.02, Yaw : 359.93, Alt : 32.2900009155, Lat : 49.2835703, Lng : -123.1150207, Q1 : 0.999999642372, Q2 : 0.000588727882132, Q3 : 0.000191820246982, Q4 : -0.000605410023127}
2019-04-14 14:40:50.21: SIM {TimeUS : 45235232, Roll : 0.08, Pitch : 0.02, Yaw : 359.93, Alt : 32.4799995422, Lat : 49.2835703, Lng : -123.1150207, Q1 : 0.999999523163, Q2 : 0.000707825878635, Q3 : 0.000240892797592, Q4 : -0.000597091566306}
2019-04-14 14:40:50.31: SIM {TimeUS : 45335192, Roll : 0.09, Pitch : 0.05, Yaw : 359.93, Alt : 32.6800003052, Lat : 49.2835703, Lng : -123.1150208, Q1 : 0.999999403954, Q2 : 0.000811243546195, Q3 : 0.000447714672191, Q4 : -0.000582757464144}
2019-04-14 14:40:50.41: SIM {TimeUS : 45435152, Roll : 0.1, Pitch : 0.09, Yaw : 359.93, Alt : 32.8800010681, Lat : 49.2835704, Lng : -123.1150208, Q1 : 0.99999910593, Q2 : 0.000897760153748, Q3 : 0.000818995933514, Q4 : -0.000569787982386}
2019-04-14 14:40:50.51: SIM {TimeUS : 45535112, Roll : 0.12, Pitch : 0.14, Yaw : 359.93, Alt : 33.0800018311, Lat : 49.2835704, Lng : -123.1150208, Q1 : 0.999998390675, Q2 : 0.00112684792839, Q3 : 0.00128100148868, Q4 : -0.000553793797735}
2019-04-14 14:40:50.61: SIM {TimeUS : 45635072, Roll : 0.16, Pitch : 0.18, Yaw : 359.93, Alt : 33.2799987793, Lat : 49.2835704, Lng : -123.1150209, Q1 : 0.999997496605, Q2 : 0.00146763282828, Q3 : 0.00159666640684, Q4 : -0.000541858084034}
2019-04-14 14:40:50.71: SIM {TimeUS : 45735032, Roll : 0.18, Pitch : 0.2, Yaw : 359.93, Alt : 33.4799995422, Lat : 49.2835704, Lng : -123.1150209, Q1 : 0.999996960163, Q2 : 0.00164528924506, Q3 : 0.0017506229924, Q4 : -0.000534312217496}
2019-04-14 14:40:50.81: SIM {TimeUS : 45834992, Roll : 0.18, Pitch : 0.21, Yaw : 359.93, Alt : 33.6899986267, Lat : 49.2835704, Lng : -123.1150209, Q1 : 0.999996781349, Q2 : 0.00165761634707, Q3 : 0.00186017912347, Q4 : -0.000529014447238}
2019-04-14 14:40:50.91: SIM {TimeUS : 45934952, Roll : 0.18, Pitch : 0.18, Yaw : 359.93, Alt : 33.9000015259, Lat : 49.2835706, Lng : -123.1150209, Q1 : 0.999997198582, Q2 : 0.00161547691096, Q3 : 0.00165227719117, Q4 : -0.000538792810403}
2019-04-14 14:40:51.01: SIM {TimeUS : 46034912, Roll : 0.16, Pitch : 0.15, Yaw : 359.93, Alt : 34.1100006104, Lat : 49.2835706, Lng : -123.1150209, Q1 : 0.999997913837, Q2 : 0.0014606132172, Q3 : 0.00132319598924, Q4 : -0.000540983804967}
2019-04-14 14:40:51.11: SIM {TimeUS : 46134872, Roll : 0.13, Pitch : 0.12, Yaw : 359.93, Alt : 34.3199996948, Lat : 49.2835706, Lng : -123.1150209, Q1 : 0.999998569489, Q2 : 0.00120801280718, Q3 : 0.00104755035136, Q4 : -0.000542873458471}
2019-04-14 14:40:51.21: SIM {TimeUS : 46234832, Roll : 0.11, Pitch : 0.1, Yaw : 359.93, Alt : 34.5299987793, Lat : 49.2835706, Lng : -123.1150209, Q1 : 0.999998927116, Q2 : 0.00103454501368, Q3 : 0.000875761848874, Q4 : -0.000554312427994}
2019-04-14 14:40:51.31: SIM {TimeUS : 46334792, Roll : 0.11, Pitch : 0.09, Yaw : 359.93, Alt : 34.75, Lat : 49.2835706, Lng : -123.1150209, Q1 : 0.999999046326, Q2 : 0.000994877074845, Q3 : 0.000790115445852, Q4 : -0.000581629108638}
2019-04-14 14:40:51.41: SIM {TimeUS : 46434752, Roll : 0.1, Pitch : 0.07, Yaw : 359.93, Alt : 34.9599990845, Lat : 49.2835706, Lng : -123.1150209, Q1 : 0.99999922514, Q2 : 0.000901798892301, Q3 : 0.000622723309789, Q4 : -0.000609841139521}
2019-04-14 14:40:51.51: SIM {TimeUS : 46535545, Roll : 0.08, Pitch : 0.05, Yaw : 359.92, Alt : 35.1800003052, Lat : 49.2835706, Lng : -123.1150208, Q1 : 0.999999463558, Q2 : 0.00070084433537, Q3 : 0.000486158562126, Q4 : -0.000633689109236}
2019-04-14 14:40:51.61: SIM {TimeUS : 46635505, Roll : 0.05, Pitch : 0.05, Yaw : 359.92, Alt : 35.4000015259, Lat : 49.2835706, Lng : -123.1150208, Q1 : 0.999999582767, Q2 : 0.000464520417154, Q3 : 0.000451463478385, Q4 : -0.000660134770442}
2019-04-14 14:40:51.71: SIM {TimeUS : 46735465, Roll : 0.02, Pitch : 0.05, Yaw : 359.92, Alt : 35.6100006104, Lat : 49.2835706, Lng : -123.1150208, Q1 : 0.999999582767, Q2 : 0.000257520441664, Q3 : 0.000514233950526, Q4 : -0.00068566534901}
2019-04-14 14:40:51.81: SIM {TimeUS : 46835425, Roll : 0.01, Pitch : 0.04, Yaw : 359.91, Alt : 35.8300018311, Lat : 49.2835706, Lng : -123.1150208, Q1 : 0.999999642372, Q2 : 0.00016515913012, Q3 : 0.000416244060034, Q4 : -0.00070825725561}
2019-04-14 14:40:51.91: SIM {TimeUS : 46935385, Roll : 0.01, Pitch : 0.03, Yaw : 359.91, Alt : 36.0499992371, Lat : 49.2835706, Lng : -123.1150208, Q1 : 0.999999701977, Q2 : 0.000107009742351, Q3 : 0.000338294747053, Q4 : -0.000733704597224}
2019-04-14 14:40:52.01: SIM {TimeUS : 47035345, Roll : 0.0, Pitch : 0.03, Yaw : 359.91, Alt : 36.2799987793, Lat : 49.2835704, Lng : -123.1150207, Q1 : 0.999999642372, Q2 : 3.5137204577e-06, Q3 : 0.000308036920615, Q4 : -0.000763941323385}
2019-04-14 14:40:52.11: SIM {TimeUS : 47135305, Roll : 0.0, Pitch : 0.04, Yaw : 359.9, Alt : 36.5, Lat : 49.2835704, Lng : -123.1150207, Q1 : 0.999999582767, Q2 : -8.20930290502e-06, Q3 : 0.000366870051948, Q4 : -0.000799536996055}
2019-04-14 14:40:52.21: SIM {TimeUS : 47235265, Roll : 0.01, Pitch : 0.04, Yaw : 359.9, Alt : 36.7200012207, Lat : 49.2835704, Lng : -123.1150207, Q1 : 0.999999582767, Q2 : 0.000108881562483, Q3 : 0.000353456416633, Q4 : -0.00083436537534}
2019-04-14 14:40:52.31: SIM {TimeUS : 47335225, Roll : 0.0, Pitch : 0.02, Yaw : 359.9, Alt : 36.9399986267, Lat : 49.2835704, Lng : -123.1150207, Q1 : 0.999999582767, Q2 : 5.86898640904e-05, Q3 : 0.000231722558965, Q4 : -0.000868568546139}
2019-04-14 14:40:52.41: SIM {TimeUS : 47435185, Roll : -0.02, Pitch : 0.0, Yaw : 359.89, Alt : 37.1699981689, Lat : 49.2835704, Lng : -123.1150207, Q1 : 0.999999582767, Q2 : -0.000213795399759, Q3 : -7.8053715697e-05, Q4 : -0.000900987535715}
2019-04-14 14:40:52.51: SIM {TimeUS : 47535145, Roll : -0.06, Pitch : -0.04, Yaw : 359.89, Alt : 37.3899993896, Lat : 49.2835704, Lng : -123.1150207, Q1 : 0.999999284744, Q2 : -0.000606672663707, Q3 : -0.000388701620977, Q4 : -0.00093201326672}
2019-04-14 14:40:52.61: SIM {TimeUS : 47635105, Roll : -0.11, Pitch : -0.07, Yaw : 359.89, Alt : 37.6199989319, Lat : 49.2835704, Lng : -123.1150206, Q1 : 0.999998867512, Q2 : -0.000990414759144, Q3 : -0.000619612052105, Q4 : -0.000958580349106}
2019-04-14 14:40:52.71: SIM {TimeUS : 47735065, Roll : -0.14, Pitch : -0.09, Yaw : 359.88, Alt : 37.8400001526, Lat : 49.2835704, Lng : -123.1150206, Q1 : 0.999998450279, Q2 : -0.00123093090951, Q3 : -0.00079057586845, Q4 : -0.000985320308246}
2019-04-14 14:40:52.81: SIM {TimeUS : 47835025, Roll : -0.14, Pitch : -0.09, Yaw : 359.88, Alt : 38.0699996948, Lat : 49.2835704, Lng : -123.1150206, Q1 : 0.99999833107, Q2 : -0.00127543439157, Q3 : -0.000818863685708, Q4 : -0.00101300620008}
2019-04-14 14:40:52.91: SIM {TimeUS : 47934985, Roll : -0.12, Pitch : -0.06, Yaw : 359.88, Alt : 38.2999992371, Lat : 49.2835704, Lng : -123.1150206, Q1 : 0.999998688698, Q2 : -0.00109826307744, Q3 : -0.000607824709732, Q4 : -0.00103546341415}
2019-04-14 14:40:53.01: SIM {TimeUS : 48034945, Roll : -0.09, Pitch : -0.05, Yaw : 359.87, Alt : 38.5299987793, Lat : 49.2835704, Lng : -123.1150206, Q1 : 0.999998986721, Q2 : -0.000808644515928, Q3 : -0.000470539933303, Q4 : -0.00105215620715}
2019-04-14 14:40:53.11: SIM {TimeUS : 48134905, Roll : -0.07, Pitch : -0.04, Yaw : 359.87, Alt : 38.75, Lat : 49.2835704, Lng : -123.1150206, Q1 : 0.99999910593, Q2 : -0.000648595450912, Q3 : -0.000431905791629, Q4 : -0.00107308092993}
2019-04-14 14:40:53.21: SIM {TimeUS : 48234865, Roll : -0.06, Pitch : -0.02, Yaw : 359.87, Alt : 38.9799995422, Lat : 49.2835704, Lng : -123.1150206, Q1 : 0.99999922514, Q2 : -0.000588659546338, Q3 : -0.000255014252616, Q4 : -0.00108957290649}
2019-04-14 14:40:53.31: SIM {TimeUS : 48334825, Roll : -0.08, Pitch : 0.0, Yaw : 359.87, Alt : 39.2099990845, Lat : 49.2835704, Lng : -123.1150206, Q1 : 0.99999910593, Q2 : -0.000715510046575, Q3 : -3.93423324567e-05, Q4 : -0.00110008521006}
2019-04-14 14:40:53.41: SIM {TimeUS : 48434785, Roll : -0.08, Pitch : 0.01, Yaw : 359.87, Alt : 39.4399986267, Lat : 49.2835704, Lng : -123.1150206, Q1 : 0.99999910593, Q2 : -0.000729410501663, Q3 : 0.000114137685159, Q4 : -0.00110632379074}
2019-04-14 14:40:53.51: SIM {TimeUS : 48534745, Roll : -0.06, Pitch : 0.03, Yaw : 359.87, Alt : 39.6699981689, Lat : 49.2835704, Lng : -123.1150206, Q1 : 0.999999165535, Q2 : -0.000585004338063, Q3 : 0.00033451829222, Q4 : -0.00111121905502}
2019-04-14 14:40:53.61: SIM {TimeUS : 48635538, Roll : -0.04, Pitch : 0.03, Yaw : 359.87, Alt : 39.9099998474, Lat : 49.2835704, Lng : -123.1150206, Q1 : 0.999999284744, Q2 : -0.000374051131075, Q3 : 0.000313219585223, Q4 : -0.00110414752271}
2019-04-14 14:40:53.71: SIM {TimeUS : 48735498, Roll : 0.0, Pitch : 0.02, Yaw : 359.87, Alt : 40.1399993896, Lat : 49.2835704, Lng : -123.1150207, Q1 : 0.999999403954, Q2 : -8.25527895358e-05, Q3 : 0.000225761265028, Q4 : -0.00109677156433}
2019-04-14 14:40:53.81: SIM {TimeUS : 48835458, Roll : 0.02, Pitch : 0.04, Yaw : 359.87, Alt : 40.3699989319, Lat : 49.2835704, Lng : -123.1150207, Q1 : 0.999999284744, Q2 : 0.000238732784055, Q3 : 0.000372061069356, Q4 : -0.00109036487993}
2019-04-14 14:40:53.91: SIM {TimeUS : 48935418, Roll : 0.07, Pitch : 0.08, Yaw : 359.87, Alt : 40.5999984741, Lat : 49.2835704, Lng : -123.1150207, Q1 : 0.999998927116, Q2 : 0.000644205254503, Q3 : 0.000730386876967, Q4 : -0.00109143415466}
2019-04-14 14:40:54.01: SIM {TimeUS : 49035378, Roll : 0.1, Pitch : 0.12, Yaw : 359.87, Alt : 40.8300018311, Lat : 49.2835704, Lng : -123.1150207, Q1 : 0.999998390675, Q2 : 0.000904158805497, Q3 : 0.00106137013063, Q4 : -0.00110825197771}
2019-04-14 14:40:54.11: SIM {TimeUS : 49135338, Roll : 0.09, Pitch : 0.14, Yaw : 359.87, Alt : 41.0699996948, Lat : 49.2835704, Lng : -123.1150207, Q1 : 0.999998211861, Q2 : 0.000798150140326, Q3 : 0.00127792870626, Q4 : -0.00112572917715}
2019-04-14 14:40:54.21: SIM {TimeUS : 49235298, Roll : 0.03, Pitch : 0.15, Yaw : 359.86, Alt : 41.2999992371, Lat : 49.2835706, Lng : -123.1150207, Q1 : 0.99999833107, Q2 : 0.00032974302303, Q3 : 0.00138266175054, Q4 : -0.00115510204341}
2019-04-14 14:40:54.31: SIM {TimeUS : 49335258, Roll : -0.01, Pitch : 0.15, Yaw : 359.86, Alt : 41.5299987793, Lat : 49.2835706, Lng : -123.1150207, Q1 : 0.999998390675, Q2 : -0.000105572202301, Q3 : 0.00135588750709, Q4 : -0.00119120639283}
2019-04-14 14:40:54.41: SIM {TimeUS : 49435218, Roll : -0.02, Pitch : 0.11, Yaw : 359.85, Alt : 41.7700004578, Lat : 49.2835706, Lng : -123.1150207, Q1 : 0.999998688698, Q2 : -0.000251238991041, Q3 : 0.00104650296271, Q4 : -0.00123248412274}
2019-04-14 14:40:54.51: SIM {TimeUS : 49535178, Roll : -0.02, Pitch : 0.07, Yaw : 359.85, Alt : 42.0, Lat : 49.2835704, Lng : -123.1150207, Q1 : 0.999998986721, Q2 : -0.000243663322181, Q3 : 0.00064463581657, Q4 : -0.0012742447434}
2019-04-14 14:40:54.61: SIM {TimeUS : 49635138, Roll : -0.01, Pitch : 0.06, Yaw : 359.84, Alt : 42.2299995422, Lat : 49.2835704, Lng : -123.1150207, Q1 : 0.999998986721, Q2 : -9.60365359788e-05, Q3 : 0.000565829104744, Q4 : -0.00131284503732}
2019-04-14 14:40:54.71: SIM {TimeUS : 49735098, Roll : 0.02, Pitch : 0.08, Yaw : 359.84, Alt : 42.4700012207, Lat : 49.2835704, Lng : -123.1150207, Q1 : 0.999998807907, Q2 : 0.000226641728659, Q3 : 0.00074228370795, Q4 : -0.00135178479832}
2019-04-14 14:40:54.81: SIM {TimeUS : 49835058, Roll : 0.07, Pitch : 0.1, Yaw : 359.84, Alt : 42.7000007629, Lat : 49.2835704, Lng : -123.1150207, Q1 : 0.999998390675, Q2 : 0.000685398408677, Q3 : 0.000921452068724, Q4 : -0.00138827704359}
2019-04-14 14:40:54.91: SIM {TimeUS : 49935018, Roll : 0.11, Pitch : 0.1, Yaw : 359.83, Alt : 42.9399986267, Lat : 49.2835704, Lng : -123.1150207, Q1 : 0.999998033047, Q2 : 0.00102207693271, Q3 : 0.000910332542844, Q4 : -0.00142540666275}
2019-04-14 14:40:55.01: SIM {TimeUS : 50034978, Roll : 0.11, Pitch : 0.09, Yaw : 359.83, Alt : 43.1699981689, Lat : 49.2835704, Lng : -123.1150207, Q1 : 0.999998092651, Q2 : 0.00103016127832, Q3 : 0.00080311531201, Q4 : -0.001459137653}
2019-04-14 14:40:55.11: SIM {TimeUS : 50134938, Roll : 0.07, Pitch : 0.07, Yaw : 359.83, Alt : 43.4099998474, Lat : 49.2835704, Lng : -123.1150207, Q1 : 0.999998450279, Q2 : 0.000643266190309, Q3 : 0.000694087822922, Q4 : -0.00147023797035}
2019-04-14 14:40:55.21: SIM {TimeUS : 50234898, Roll : 0.01, Pitch : 0.06, Yaw : 359.83, Alt : 43.6399993896, Lat : 49.2835704, Lng : -123.1150207, Q1 : 0.999998748302, Q2 : 9.93252106127e-05, Q3 : 0.000570328789763, Q4 : -0.00147463625763}
2019-04-14 14:40:55.31: SIM {TimeUS : 50334858, Roll : -0.02, Pitch : 0.06, Yaw : 359.83, Alt : 43.8800010681, Lat : 49.2835704, Lng : -123.1150207, Q1 : 0.999998748302, Q2 : -0.000251861318247, Q3 : 0.000528857053723, Q4 : -0.00148268230259}
2019-04-14 14:40:55.41: SIM {TimeUS : 50434818, Roll : -0.04, Pitch : 0.04, Yaw : 359.82, Alt : 44.1100006104, Lat : 49.2835704, Lng : -123.1150207, Q1 : 0.999998748302, Q2 : -0.000402033154387, Q3 : 0.00041275145486, Q4 : -0.0014927071752}
2019-04-14 14:40:55.51: SIM {TimeUS : 50534778, Roll : -0.04, Pitch : 0.02, Yaw : 359.82, Alt : 44.3499984741, Lat : 49.2835704, Lng : -123.1150206, Q1 : 0.999998807907, Q2 : -0.000349463371094, Q3 : 0.000193982559722, Q4 : -0.00150729471352}
2019-04-14 14:40:55.61: SIM {TimeUS : 50634738, Roll : -0.04, Pitch : 0.0, Yaw : 359.82, Alt : 44.5900001526, Lat : 49.2835704, Lng : -123.1150206, Q1 : 0.999998748302, Q2 : -0.00036199297756, Q3 : -6.55023086438e-06, Q4 : -0.0015353806084}
2019-04-14 14:40:55.71: SIM {TimeUS : 50735531, Roll : -0.03, Pitch : -0.01, Yaw : 359.82, Alt : 44.8199996948, Lat : 49.2835704, Lng : -123.1150206, Q1 : 0.999998688698, Q2 : -0.000320501363603, Q3 : -0.000160573632456, Q4 : -0.00156764243729}
2019-04-14 14:40:55.81: SIM {TimeUS : 50835491, Roll : -0.02, Pitch : -0.02, Yaw : 359.81, Alt : 45.0600013733, Lat : 49.2835704, Lng : -123.1150206, Q1 : 0.999998688698, Q2 : -0.00021003933216, Q3 : -0.000220572910621, Q4 : -0.00159824290313}
2019-04-14 14:40:55.91: SIM {TimeUS : 50935451, Roll : -0.01, Pitch : -0.01, Yaw : 359.81, Alt : 45.2999992371, Lat : 49.2835704, Lng : -123.1150206, Q1 : 0.999998629093, Q2 : -0.000163512930158, Q3 : -0.000125753635075, Q4 : -0.00163115968462}
2019-04-14 14:40:56.01: SIM {TimeUS : 51035411, Roll : -0.02, Pitch : 0.0, Yaw : 359.8, Alt : 45.5299987793, Lat : 49.2835704, Lng : -123.1150206, Q1 : 0.999998629093, Q2 : -0.000199868329219, Q3 : -7.40014511393e-05, Q4 : -0.00166445295326}
2019-04-14 14:40:56.11: SIM {TimeUS : 51135371, Roll : -0.02, Pitch : -0.01, Yaw : 359.8, Alt : 45.7700004578, Lat : 49.2835704, Lng : -123.1150206, Q1 : 0.999998509884, Q2 : -0.000242918802542, Q3 : -0.000154585111886, Q4 : -0.00169809628278}
2019-04-14 14:40:56.21: SIM {TimeUS : 51235331, Roll : -0.02, Pitch : -0.02, Yaw : 359.8, Alt : 46.0, Lat : 49.2835704, Lng : -123.1150206, Q1 : 0.999998450279, Q2 : -0.000254520447925, Q3 : -0.00019757168775, Q4 : -0.00173354300205}
2019-04-14 14:40:56.31: SIM {TimeUS : 51335291, Roll : -0.02, Pitch : -0.02, Yaw : 359.79, Alt : 46.2299995422, Lat : 49.2835703, Lng : -123.1150206, Q1 : 0.999998390675, Q2 : -0.000213389779674, Q3 : -0.000183636962902, Q4 : -0.00176503125113}
2019-04-14 14:40:56.41: SIM {TimeUS : 51435251, Roll : -0.02, Pitch : -0.01, Yaw : 359.79, Alt : 46.4500007629, Lat : 49.2835703, Lng : -123.1150206, Q1 : 0.999998390675, Q2 : -0.000260000117123, Q3 : -0.00011652115063, Q4 : -0.00179372832645}
2019-04-14 14:40:56.51: SIM {TimeUS : 51535211, Roll : -0.05, Pitch : 0.0, Yaw : 359.79, Alt : 46.6699981689, Lat : 49.2835703, Lng : -123.1150206, Q1 : 0.999998271465, Q2 : -0.000446606922196, Q3 : -2.61326458713e-05, Q4 : -0.00181922491174}
2019-04-14 14:40:56.61: SIM {TimeUS : 51635171, Roll : -0.08, Pitch : 0.0, Yaw : 359.78, Alt : 46.8800010681, Lat : 49.2835703, Lng : -123.1150205, Q1 : 0.999998033047, Q2 : -0.0007372716791, Q3 : 2.2732967409e-05, Q4 : -0.00184611405712}
2019-04-14 14:40:56.71: SIM {TimeUS : 51735131, Roll : -0.1, Pitch : 0.0, Yaw : 359.78, Alt : 47.0900001526, Lat : 49.2835703, Lng : -123.1150205, Q1 : 0.999997794628, Q2 : -0.000936265743803, Q3 : 4.72210849694e-05, Q4 : -0.00187459914014}
2019-04-14 14:40:56.81: SIM {TimeUS : 51835091, Roll : -0.11, Pitch : 0.01, Yaw : 359.78, Alt : 47.2900009155, Lat : 49.2835703, Lng : -123.1150205, Q1 : 0.999997675419, Q2 : -0.000968843291048, Q3 : 0.000126569153508, Q4 : -0.00190199934877}
2019-04-14 14:40:56.91: SIM {TimeUS : 51935051, Roll : -0.09, Pitch : 0.03, Yaw : 359.77, Alt : 47.4799995422, Lat : 49.2835703, Lng : -123.1150205, Q1 : 0.999997735023, Q2 : -0.000867260736413, Q3 : 0.000269754877081, Q4 : -0.00192382687237}
2019-04-14 14:40:57.01: SIM {TimeUS : 52035011, Roll : -0.09, Pitch : 0.03, Yaw : 359.77, Alt : 47.6699981689, Lat : 49.2835703, Lng : -123.1150205, Q1 : 0.999997735023, Q2 : -0.000805961259175, Q3 : 0.0003207429545, Q4 : -0.00194347137585}
2019-04-14 14:40:57.11: SIM {TimeUS : 52134971, Roll : -0.1, Pitch : 0.02, Yaw : 359.77, Alt : 47.8400001526, Lat : 49.2835703, Lng : -123.1150205, Q1 : 0.999997615814, Q2 : -0.000920442922506, Q3 : 0.000249881588388, Q4 : -0.00196135416627}
2019-04-14 14:40:57.21: SIM {TimeUS : 52234931, Roll : -0.11, Pitch : 0.01, Yaw : 359.77, Alt : 48.0, Lat : 49.2835703, Lng : -123.1150205, Q1 : 0.999997496605, Q2 : -0.00103905180003, Q3 : 0.000109396220068, Q4 : -0.00198277388699}
2019-04-14 14:40:57.31: SIM {TimeUS : 52334891, Roll : -0.11, Pitch : -0.01, Yaw : 359.77, Alt : 48.1500015259, Lat : 49.2835703, Lng : -123.1150206, Q1 : 0.999997496605, Q2 : -0.000993035850115, Q3 : -0.000124715515994, Q4 : -0.0020052602049}
2019-04-14 14:40:57.41: SIM {TimeUS : 52434851, Roll : -0.08, Pitch : -0.04, Yaw : 359.76, Alt : 48.2799987793, Lat : 49.2835703, Lng : -123.1150206, Q1 : 0.99999755621, Q2 : -0.000759960268624, Q3 : -0.000399000186007, Q4 : -0.00203055981547}
2019-04-14 14:40:57.51: SIM {TimeUS : 52534811, Roll : -0.06, Pitch : -0.07, Yaw : 359.76, Alt : 48.4099998474, Lat : 49.2835703, Lng : -123.1150206, Q1 : 0.999997496605, Q2 : -0.000566385569982, Q3 : -0.000620382314082, Q4 : -0.0020592615474}
2019-04-14 14:40:57.61: SIM {TimeUS : 52634771, Roll : -0.05, Pitch : -0.08, Yaw : 359.76, Alt : 48.5200004578, Lat : 49.2835703, Lng : -123.1150206, Q1 : 0.999997437, Q2 : -0.000508567551151, Q3 : -0.000749265018385, Q4 : -0.00209136959165}
2019-04-14 14:40:57.71: SIM {TimeUS : 52735564, Roll : -0.02, Pitch : -0.08, Yaw : 359.75, Alt : 48.6199989319, Lat : 49.2835703, Lng : -123.1150206, Q1 : 0.999997437, Q2 : -0.000233021797612, Q3 : -0.000722526863683, Q4 : -0.00212343572639}
2019-04-14 14:40:57.81: SIM {TimeUS : 52835524, Roll : 0.01, Pitch : -0.06, Yaw : 359.75, Alt : 48.7099990845, Lat : 49.2835703, Lng : -123.1150206, Q1 : 0.999997496605, Q2 : 8.89026632649e-05, Q3 : -0.000565531430766, Q4 : -0.00215730117634}
2019-04-14 14:40:57.91: SIM {TimeUS : 52935484, Roll : 0.03, Pitch : -0.03, Yaw : 359.74, Alt : 48.7799987793, Lat : 49.2835703, Lng : -123.1150206, Q1 : 0.999997496605, Q2 : 0.000320489751175, Q3 : -0.000340145255905, Q4 : -0.0021926946938}
2019-04-14 14:40:58.01: SIM {TimeUS : 53035444, Roll : 0.05, Pitch : -0.01, Yaw : 359.74, Alt : 48.8499984741, Lat : 49.2835703, Lng : -123.1150206, Q1 : 0.999997437, Q2 : 0.000476986460853, Q3 : -0.000144292949699, Q4 : -0.00222451658919}
2019-04-14 14:40:58.11: SIM {TimeUS : 53135404, Roll : 0.06, Pitch : -0.01, Yaw : 359.74, Alt : 48.9099998474, Lat : 49.2835703, Lng : -123.1150206, Q1 : 0.999997317791, Q2 : 0.000565164606087, Q3 : -9.82267665677e-05, Q4 : -0.00225702812895}
2019-04-14 14:40:58.21: SIM {TimeUS : 53235364, Roll : 0.05, Pitch : -0.02, Yaw : 359.73, Alt : 48.9599990845, Lat : 49.2835703, Lng : -123.1150207, Q1 : 0.999997258186, Q2 : 0.000504518975504, Q3 : -0.000256057974184, Q4 : -0.00228975829668}
2019-04-14 14:40:58.31: SIM {TimeUS : 53335324, Roll : 0.06, Pitch : -0.05, Yaw : 359.73, Alt : 49.0, Lat : 49.2835703, Lng : -123.1150207, Q1 : 0.999997019768, Q2 : 0.000591127551161, Q3 : -0.000468161626486, Q4 : -0.00231663440354}
2019-04-14 14:40:58.41: SIM {TimeUS : 53435284, Roll : 0.23, Pitch : -0.1, Yaw : 359.73, Alt : 49.0400009155, Lat : 49.2835703, Lng : -123.1150207, Q1 : 0.999994635582, Q2 : 0.00209085131064, Q3 : -0.000918461882975, Q4 : -0.00233878102154}
2019-04-14 14:40:58.51: SIM {TimeUS : 53535244, Roll : 0.66, Pitch : -0.22, Yaw : 359.72, Alt : 49.0699996948, Lat : 49.2835703, Lng : -123.1150207, Q1 : 0.999978482723, Q2 : 0.0058004851453, Q3 : -0.00194992427714, Q4 : -0.00235654320568}
2019-04-14 14:40:58.61: SIM {TimeUS : 53635204, Roll : 1.35, Pitch : -0.41, Yaw : 359.72, Alt : 49.0900001526, Lat : 49.2835704, Lng : -123.1150207, Q1 : 0.999920964241, Q2 : 0.0118091311306, Q3 : -0.00361147429794, Q4 : -0.00236959848553}
2019-04-14 14:40:58.71: SIM {TimeUS : 53735164, Roll : 2.26, Pitch : -0.64, Yaw : 359.71, Alt : 49.1199989319, Lat : 49.2835704, Lng : -123.1150206, Q1 : 0.999785542488, Q2 : 0.0197684168816, Q3 : -0.00570858316496, Q4 : -0.0023680345621}
2019-04-14 14:40:58.81: SIM {TimeUS : 53835124, Roll : 3.29, Pitch : -0.93, Yaw : 359.7, Alt : 49.1399993896, Lat : 49.2835704, Lng : -123.1150205, Q1 : 0.999550819397, Q2 : 0.0287235639989, Q3 : -0.00822279974818, Q4 : -0.00234513916075}
2019-04-14 14:40:58.91: SIM {TimeUS : 53935084, Roll : 4.26, Pitch : -1.23, Yaw : 359.69, Alt : 49.1500015259, Lat : 49.2835704, Lng : -123.1150204, Q1 : 0.999248206615, Q2 : 0.0371381901205, Q3 : -0.0108825769275, Q4 : -0.00229981075972}
2019-04-14 14:40:59.01: SIM {TimeUS : 54035044, Roll : 5.02, Pitch : -1.49, Yaw : 359.67, Alt : 49.1699981689, Lat : 49.2835706, Lng : -123.1150201, Q1 : 0.998950183392, Q2 : 0.0438325218856, Q3 : -0.0131302857772, Q4 : -0.00221933028661}
2019-04-14 14:40:59.11: SIM {TimeUS : 54135004, Roll : 5.58, Pitch : -1.69, Yaw : 359.67, Alt : 49.1800003052, Lat : 49.2835706, Lng : -123.1150199, Q1 : 0.99870300293, Q2 : 0.0486393980682, Q3 : -0.0149051146582, Q4 : -0.00209926464595}
2019-04-14 14:40:59.21: SIM {TimeUS : 54234964, Roll : 5.98, Pitch : -1.84, Yaw : 359.67, Alt : 49.1899986267, Lat : 49.2835707, Lng : -123.1150194, Q1 : 0.998503446579, Q2 : 0.0521881319582, Q3 : -0.0162345357239, Q4 : -0.00194973126054}
2019-04-14 14:40:59.31: SIM {TimeUS : 54334924, Roll : 6.33, Pitch : -1.95, Yaw : 359.68, Alt : 49.2000007629, Lat : 49.2835709, Lng : -123.1150189, Q1 : 0.998327672482, Q2 : 0.0551700815558, Q3 : -0.0171776115894, Q4 : -0.00177433120552}
2019-04-14 14:40:59.41: SIM {TimeUS : 54434884, Roll : 6.67, Pitch : -2.05, Yaw : 359.69, Alt : 49.2099990845, Lat : 49.2835709, Lng : -123.1150182, Q1 : 0.998142361641, Q2 : 0.0581581033766, Q3 : -0.0180833600461, Q4 : -0.00159463204909}
2019-04-14 14:40:59.51: SIM {TimeUS : 54534844, Roll : 7.04, Pitch : -2.16, Yaw : 359.7, Alt : 49.2200012207, Lat : 49.283571, Lng : -123.1150174, Q1 : 0.997930586338, Q2 : 0.061420544982, Q3 : -0.0189742874354, Q4 : -0.00143252697308}
2019-04-14 14:40:59.61: SIM {TimeUS : 54634804, Roll : 7.39, Pitch : -2.25, Yaw : 359.7, Alt : 49.2299995422, Lat : 49.2835713, Lng : -123.1150166, Q1 : 0.997723042965, Q2 : 0.0644639655948, Q3 : -0.019787600264, Q4 : -0.00127819005866}
2019-04-14 14:40:59.71: SIM {TimeUS : 54734764, Roll : 7.67, Pitch : -2.34, Yaw : 359.71, Alt : 49.2299995422, Lat : 49.2835715, Lng : -123.1150155, Q1 : 0.997551262379, Q2 : 0.0668332576752, Q3 : -0.0205780006945, Q4 : -0.00114944332745}
2019-04-14 14:40:59.81: SIM {TimeUS : 54835557, Roll : 7.88, Pitch : -2.42, Yaw : 359.71, Alt : 49.2400016785, Lat : 49.2835716, Lng : -123.1150144, Q1 : 0.997412860394, Q2 : 0.0686584115028, Q3 : -0.0212718322873, Q4 : -0.00105044979136}
2019-04-14 14:40:59.91: SIM {TimeUS : 54935517, Roll : 8.03, Pitch : -2.48, Yaw : 359.71, Alt : 49.2400016785, Lat : 49.283572, Lng : -123.1150132, Q1 : 0.997307360172, Q2 : 0.070023290813, Q3 : -0.0217692069709, Q4 : -0.000969719025306}
2019-04-14 14:41:00.01: SIM {TimeUS : 55035477, Roll : 8.15, Pitch : -2.51, Yaw : 359.71, Alt : 49.25, Lat : 49.2835722, Lng : -123.1150119, Q1 : 0.997231304646, Q2 : 0.0710195675492, Q3 : -0.0220244452357, Q4 : -0.000920555496123}
2019-04-14 14:41:00.11: SIM {TimeUS : 55135437, Roll : 8.28, Pitch : -2.52, Yaw : 359.71, Alt : 49.25, Lat : 49.2835725, Lng : -123.1150104, Q1 : 0.997147321701, Q2 : 0.0721587538719, Q3 : -0.0221265759319, Q4 : -0.000887244765181}
2019-04-14 14:41:00.21: SIM {TimeUS : 55235397, Roll : 8.53, Pitch : -2.39, Yaw : 359.85, Alt : 49.25, Lat : 49.2835727, Lng : -123.1150089, Q1 : 0.997013390064, Q2 : 0.0743483528495, Q3 : -0.0208949297667, Q4 : 0.000248348078458}
2019-04-14 14:41:00.31: SIM {TimeUS : 55335357, Roll : 8.97, Pitch : -2.02, Yaw : 0.64, Alt : 49.2599983215, Lat : 49.2835732, Lng : -123.1150072, Q1 : 0.996752917767, Q2 : 0.078345105052, Q3 : -0.0172107852995, Q4 : 0.00703259836882}
2019-04-14 14:41:00.41: SIM {TimeUS : 55435317, Roll : 9.53, Pitch : -1.72, Yaw : 2.76, Alt : 49.2599983215, Lat : 49.2835734, Lng : -123.1150055, Q1 : 0.996105968952, Q2 : 0.0834556147456, Q3 : -0.012990818359, Q4 : 0.0252857413143}
2019-04-14 14:41:00.51: SIM {TimeUS : 55535277, Roll : 10.04, Pitch : -1.89, Yaw : 6.44, Alt : 49.2599983215, Lat : 49.2835738, Lng : -123.1150037, Q1 : 0.994365930557, Q2 : 0.0883177295327, Q3 : -0.0115222260356, Q4 : 0.0574770160019}
2019-04-14 14:41:00.61: SIM {TimeUS : 55635237, Roll : 10.32, Pitch : -2.69, Yaw : 11.6, Alt : 49.2599983215, Lat : 49.2835741, Lng : -123.1150017, Q1 : 0.99035269022, Q2 : 0.0918999314308, Q3 : -0.0141969434917, Q4 : 0.102734431624}
2019-04-14 14:41:00.71: SIM {TimeUS : 55735197, Roll : 10.24, Pitch : -4.09, Yaw : 17.98, Alt : 49.2700004578, Lat : 49.2835745, Lng : -123.1149996, Q1 : 0.982638657093, Q2 : 0.0937093123794, Q3 : -0.0212046019733, Q4 : 0.158714368939}
2019-04-14 14:41:00.81: SIM {TimeUS : 55835157, Roll : 9.68, Pitch : -5.92, Yaw : 25.34, Alt : 49.2700004578, Lat : 49.2835747, Lng : -123.1149974, Q1 : 0.969905138016, Q2 : 0.0935368090868, Q3 : -0.0317244380713, Q4 : 0.222549900413}
2019-04-14 14:41:00.91: SIM {TimeUS : 55935117, Roll : 8.58, Pitch : -7.93, Yaw : 33.44, Alt : 49.2700004578, Lat : 49.2835751, Lng : -123.114995, Q1 : 0.951237976551, Q2 : 0.0913656651974, Q3 : -0.0446323975921, Q4 : 0.291215658188}
2019-04-14 14:41:01.01: SIM {TimeUS : 56035077, Roll : 6.97, Pitch : -9.9, Yaw : 42.05, Alt : 49.2700004578, Lat : 49.2835753, Lng : -123.1149926, Q1 : 0.926321268082, Q2 : 0.0874477252364, Q3 : -0.0586856454611, Q4 : 0.361715108156}
2019-04-14 14:41:01.11: SIM {TimeUS : 56135037, Roll : 4.93, Pitch : -11.6, Yaw : 50.91, Alt : 49.2700004578, Lat : 49.2835757, Lng : -123.11499, Q1 : 0.895558536053, Q2 : 0.082133769989, Q3 : -0.0728131532669, Q4 : 0.431192755699}
2019-04-14 14:41:01.21: SIM {TimeUS : 56234997, Roll : 2.63, Pitch : -12.89, Yaw : 59.74, Alt : 49.2700004578, Lat : 49.2835761, Lng : -123.1149873, Q1 : 0.860127985477, Q2 : 0.0757635757327, Q3 : -0.0859921574593, Q4 : 0.49703630805}
2019-04-14 14:41:01.31: SIM {TimeUS : 56334957, Roll : 0.16, Pitch : -13.68, Yaw : 68.22, Alt : 49.2799987793, Lat : 49.2835764, Lng : -123.1149845, Q1 : 0.821926951408, Q2 : 0.068010315299, Q3 : -0.0978547930717, Q4 : 0.556987583637}
2019-04-14 14:41:01.41: SIM {TimeUS : 56434917, Roll : -2.54, Pitch : -13.97, Yaw : 75.85, Alt : 49.2799987793, Lat : 49.2835769, Lng : -123.1149816, Q1 : 0.784378886223, Q2 : 0.057354785502, Q3 : -0.109505094588, Q4 : 0.607839524746}
2019-04-14 14:41:01.51: SIM {TimeUS : 56534877, Roll : -5.13, Pitch : -13.85, Yaw : 81.94, Alt : 49.2799987793, Lat : 49.2835774, Lng : -123.1149786, Q1 : 0.752275049686, Q2 : 0.0454927422106, Q3 : -0.120132006705, Q4 : 0.646205127239}
2019-04-14 14:41:01.61: SIM {TimeUS : 56634837, Roll : -7.09, Pitch : -13.53, Yaw : 86.08, Alt : 49.2799987793, Lat : 49.283578, Lng : -123.1149754, Q1 : 0.7293446064, Q2 : 0.0353869497776, Q3 : -0.127937838435, Q4 : 0.671145439148}
2019-04-14 14:41:01.71: SIM {TimeUS : 56734797, Roll : -8.15, Pitch : -13.23, Yaw : 88.25, Alt : 49.2799987793, Lat : 49.2835787, Lng : -123.1149722, Q1 : 0.716935634613, Q2 : 0.0293407030404, Q3 : -0.131656065583, Q4 : 0.683965742588}
2019-04-14 14:41:01.81: SIM {TimeUS : 56834757, Roll : -8.24, Pitch : -13.1, Yaw : 88.68, Alt : 49.2799987793, Lat : 49.2835794, Lng : -123.1149688, Q1 : 0.714373230934, Q2 : 0.0284796450287, Q3 : -0.131273925304, Q4 : 0.686751067638}
2019-04-14 14:41:01.91: SIM {TimeUS : 56935550, Roll : -7.48, Pitch : -13.22, Yaw : 87.72, Alt : 49.2799987793, Lat : 49.2835802, Lng : -123.1149654, Q1 : 0.71988505125, Q2 : 0.0328186936677, Q3 : -0.127777799964, Q4 : 0.681440651417}
2019-04-14 14:41:02.01: SIM {TimeUS : 57035510, Roll : -6.1, Pitch : -13.59, Yaw : 85.73, Alt : 49.2799987793, Lat : 49.2835812, Lng : -123.1149618, Q1 : 0.731058716774, Q2 : 0.0416689105332, Q3 : -0.122570894659, Q4 : 0.669920325279}
2019-04-14 14:41:02.11: SIM {TimeUS : 57135470, Roll : -4.31, Pitch : -14.17, Yaw : 83.02, Alt : 49.2799987793, Lat : 49.2835822, Lng : -123.1149582, Q1 : 0.745630681515, Q2 : 0.0537635609508, Q3 : -0.117094017565, Q4 : 0.653783917427}
2019-04-14 14:41:02.21: SIM {TimeUS : 57235430, Roll : -2.36, Pitch : -14.83, Yaw : 79.91, Alt : 49.2799987793, Lat : 49.2835831, Lng : -123.1149545, Q1 : 0.761636912823, Q2 : 0.0672252476215, Q3 : -0.112115740776, Q4 : 0.634681046009}
2019-04-14 14:41:02.31: SIM {TimeUS : 57335390, Roll : -0.45, Pitch : -15.42, Yaw : 76.7, Alt : 49.2799987793, Lat : 49.2835842, Lng : -123.1149507, Q1 : 0.777413487434, Q2 : 0.0801825076342, Q3 : -0.107682175934, Q4 : 0.614494621754}
2019-04-14 14:41:02.41: SIM {TimeUS : 57435350, Roll : 1.22, Pitch : -15.83, Yaw : 73.73, Alt : 49.2799987793, Lat : 49.2835852, Lng : -123.1149468, Q1 : 0.791496217251, Q2 : 0.0910886228085, Q3 : -0.103856429458, Q4 : 0.59535741806}
2019-04-14 14:41:02.51: SIM {TimeUS : 57535310, Roll : 2.53, Pitch : -16.02, Yaw : 71.27, Alt : 49.2799987793, Lat : 49.2835861, Lng : -123.1149428, Q1 : 0.802803218365, Q2 : 0.0989837050438, Q3 : -0.1005455181, Q4 : 0.579309821129}
2019-04-14 14:41:02.61: SIM {TimeUS : 57635270, Roll : 3.37, Pitch : -16.05, Yaw : 69.53, Alt : 49.2900009155, Lat : 49.2835871, Lng : -123.1149387, Q1 : 0.810751318932, Q2 : 0.103497289121, Q3 : -0.0980302095413, Q4 : 0.567768156528}
2019-04-14 14:41:02.71: SIM {TimeUS : 57735230, Roll : 3.72, Pitch : -15.98, Yaw : 68.58, Alt : 49.2900009155, Lat : 49.2835879, Lng : -123.1149344, Q1 : 0.815185129642, Q2 : 0.104889310896, Q3 : -0.0966638550162, Q4 : 0.561362266541}
2019-04-14 14:41:02.81: SIM {TimeUS : 57835190, Roll : 3.63, Pitch : -15.91, Yaw : 68.39, Alt : 49.2900009155, Lat : 49.283589, Lng : -123.11493, Q1 : 0.816271781921, Q2 : 0.103795707226, Q3 : -0.0968010574579, Q4 : 0.559961140156}
2019-04-14 14:41:02.91: SIM {TimeUS : 57935150, Roll : 3.18, Pitch : -15.92, Yaw : 68.84, Alt : 49.2900009155, Lat : 49.2835898, Lng : -123.1149256, Q1 : 0.814431846142, Q2 : 0.101001963019, Q3 : -0.0986725464463, Q4 : 0.56281709671}
2019-04-14 14:41:03.01: SIM {TimeUS : 58035110, Roll : 2.46, Pitch : -16.01, Yaw : 69.78, Alt : 49.2900009155, Lat : 49.2835907, Lng : -123.114921, Q1 : 0.810303330421, Q2 : 0.0971539318562, Q3 : -0.101996704936, Q4 : 0.568828821182}
2019-04-14 14:41:03.11: SIM {TimeUS : 58135070, Roll : 1.59, Pitch : -16.15, Yaw : 71.03, Alt : 49.2900009155, Lat : 49.2835916, Lng : -123.1149163, Q1 : 0.804647505283, Q2 : 0.0928296595812, Q3 : -0.106339849532, Q4 : 0.576729536057}
2019-04-14 14:41:03.21: SIM {TimeUS : 58235030, Roll : 0.69, Pitch : -16.29, Yaw : 72.4, Alt : 49.2900009155, Lat : 49.2835925, Lng : -123.1149116, Q1 : 0.79829454422, Q2 : 0.0885330662131, Q3 : -0.110801629722, Q4 : 0.585329592228}
2019-04-14 14:41:03.31: SIM {TimeUS : 58334990, Roll : -0.11, Pitch : -16.4, Yaw : 73.71, Alt : 49.2900009155, Lat : 49.2835934, Lng : -123.1149068, Q1 : 0.792034566402, Q2 : 0.0847982317209, Q3 : -0.114722713828, Q4 : 0.593573272228}
2019-04-14 14:41:03.41: SIM {TimeUS : 58434950, Roll : -0.77, Pitch : -16.47, Yaw : 74.84, Alt : 49.2900009155, Lat : 49.2835943, Lng : -123.114902, Q1 : 0.786566436291, Q2 : 0.0817449167371, Q3 : -0.117896318436, Q4 : 0.600609242916}
2019-04-14 14:41:03.51: SIM {TimeUS : 58534910, Roll : -1.22, Pitch : -16.52, Yaw : 75.69, Alt : 49.2900009155, Lat : 49.2835952, Lng : -123.114897, Q1 : 0.782359778881, Q2 : 0.0798169896007, Q3 : -0.119986623526, Q4 : 0.605925440788}
2019-04-14 14:41:03.61: SIM {TimeUS : 58634870, Roll : -1.43, Pitch : -16.54, Yaw : 76.21, Alt : 49.2900009155, Lat : 49.2835962, Lng : -123.1148921, Q1 : 0.779703676701, Q2 : 0.0790077969432, Q3 : -0.120822139084, Q4 : 0.609279930592}
2019-04-14 14:41:03.71: SIM {TimeUS : 58734830, Roll : -1.44, Pitch : -16.53, Yaw : 76.41, Alt : 49.2900009155, Lat : 49.283597, Lng : -123.114887, Q1 : 0.778645277023, Q2 : 0.0791129469872, Q3 : -0.12073418498, Q4 : 0.610635638237}
2019-04-14 14:41:03.81: SIM {TimeUS : 58834790, Roll : -1.31, Pitch : -16.55, Yaw : 76.33, Alt : 49.2900009155, Lat : 49.2835981, Lng : -123.1148819, Q1 : 0.77901250124, Q2 : 0.0800051465631, Q3 : -0.120232366025, Q4 : 0.610149919987}
2019-04-14 14:41:03.91: SIM {TimeUS : 58934750, Roll : -1.06, Pitch : -16.6, Yaw : 76.01, Alt : 49.2900009155, Lat : 49.283599, Lng : -123.1148768, Q1 : 0.780490934849, Q2 : 0.0816187858582, Q3 : -0.119435600936, Q4 : 0.608200132847}
2019-04-14 14:41:04.01: SIM {TimeUS : 59035543, Roll : -0.74, Pitch : -16.67, Yaw : 75.53, Alt : 49.2900009155, Lat : 49.2836001, Lng : -123.1148716, Q1 : 0.782730162144, Q2 : 0.0837127491832, Q3 : -0.118525251746, Q4 : 0.60520863533}
2019-04-14 14:41:04.11: SIM {TimeUS : 59135503, Roll : -0.39, Pitch : -16.72, Yaw : 74.97, Alt : 49.2900009155, Lat : 49.2836012, Lng : -123.1148663, Q1 : 0.785340487957, Q2 : 0.0858156979084, Q3 : -0.117472670972, Q4 : 0.601727604866}
2019-04-14 14:41:04.21: SIM {TimeUS : 59235463, Roll : -0.05, Pitch : -16.77, Yaw : 74.41, Alt : 49.2900009155, Lat : 49.2836022, Lng : -123.114861, Q1 : 0.787966609001, Q2 : 0.0878521129489, Q3 : -0.116467639804, Q4 : 0.598185539246}
2019-04-14 14:41:04.31: SIM {TimeUS : 59335423, Roll : 0.24, Pitch : -16.82, Yaw : 73.9, Alt : 49.2900009155, Lat : 49.2836031, Lng : -123.1148557, Q1 : 0.790327608585, Q2 : 0.0896018221974, Q3 : -0.115618482232, Q4 : 0.594967365265}
2019-04-14 14:41:04.41: SIM {TimeUS : 59435383, Roll : 0.47, Pitch : -16.85, Yaw : 73.5, Alt : 49.2900009155, Lat : 49.2836043, Lng : -123.1148503, Q1 : 0.792213141918, Q2 : 0.0909872427583, Q3 : -0.115003801882, Q4 : 0.592362880707}
2019-04-14 14:41:04.51: SIM {TimeUS : 59535343, Roll : 0.62, Pitch : -16.88, Yaw : 73.22, Alt : 49.2900009155, Lat : 49.2836053, Lng : -123.1148449, Q1 : 0.793514370918, Q2 : 0.0918991416693, Q3 : -0.114621408284, Q4 : 0.59055185318}
2019-04-14 14:41:04.61: SIM {TimeUS : 59635303, Roll : 0.69, Pitch : -16.91, Yaw : 73.07, Alt : 49.2999992371, Lat : 49.2836063, Lng : -123.1148394, Q1 : 0.794182181358, Q2 : 0.0924042761326, Q3 : -0.114573344588, Q4 : 0.589583754539}
2019-04-14 14:41:04.71: SIM {TimeUS : 59735263, Roll : 0.67, Pitch : -16.94, Yaw : 73.05, Alt : 49.2999992371, Lat : 49.2836074, Lng : -123.1148339, Q1 : 0.794288098812, Q2 : 0.0923817455769, Q3 : -0.114881366491, Q4 : 0.589384734631}
2019-04-14 14:41:04.81: SIM {TimeUS : 59835223, Roll : 0.58, Pitch : -16.96, Yaw : 73.13, Alt : 49.2999992371, Lat : 49.2836085, Lng : -123.1148284, Q1 : 0.793923437595, Q2 : 0.0919488221407, Q3 : -0.11548640579, Q4 : 0.589825332165}
2019-04-14 14:41:04.91: SIM {TimeUS : 59935183, Roll : 0.44, Pitch : -17.0, Yaw : 73.28, Alt : 49.2999992371, Lat : 49.2836095, Lng : -123.1148229, Q1 : 0.793204069138, Q2 : 0.09133040905, Q3 : -0.116355471313, Q4 : 0.590717792511}
2019-04-14 14:41:05.01: SIM {TimeUS : 60035143, Roll : 0.27, Pitch : -17.05, Yaw : 73.48, Alt : 49.2999992371, Lat : 49.2836104, Lng : -123.1148173, Q1 : 0.792281031609, Q2 : 0.0905859768391, Q3 : -0.117424279451, Q4 : 0.591858506203}
2019-04-14 14:41:05.11: SIM {TimeUS : 60135103, Roll : 0.08, Pitch : -17.09, Yaw : 73.68, Alt : 49.2999992371, Lat : 49.2836116, Lng : -123.1148117, Q1 : 0.791309535503, Q2 : 0.0897416397929, Q3 : -0.118479259312, Q4 : 0.593075335026}
2019-04-14 14:41:05.21: SIM {TimeUS : 60235063, Roll : -0.07, Pitch : -17.12, Yaw : 73.88, Alt : 49.2999992371, Lat : 49.2836126, Lng : -123.114806, Q1 : 0.790411710739, Q2 : 0.0889357849956, Q3 : -0.119397506118, Q4 : 0.594208717346}
2019-04-14 14:41:05.31: SIM {TimeUS : 60335023, Roll : -0.2, Pitch : -17.14, Yaw : 74.03, Alt : 49.2999992371, Lat : 49.2836136, Lng : -123.1148003, Q1 : 0.789683461189, Q2 : 0.0883084759116, Q3 : -0.120112366974, Q4 : 0.595125794411}
2019-04-14 14:41:05.41: SIM {TimeUS : 60434983, Roll : -0.27, Pitch : -17.18, Yaw : 74.14, Alt : 49.2999992371, Lat : 49.2836147, Lng : -123.1147946, Q1 : 0.789148926735, Q2 : 0.0881206691265, Q3 : -0.120624475181, Q4 : 0.595758736134}
2019-04-14 14:41:05.51: SIM {TimeUS : 60534943, Roll : -0.29, Pitch : -17.21, Yaw : 74.19, Alt : 49.2999992371, Lat : 49.2836158, Lng : -123.1147888, Q1 : 0.78886526823, Q2 : 0.0882159247994, Q3 : -0.120916396379, Q4 : 0.596061050892}
2019-04-14 14:41:05.61: SIM {TimeUS : 60634903, Roll : -0.26, Pitch : -17.25, Yaw : 74.19, Alt : 49.2999992371, Lat : 49.2836169, Lng : -123.1147831, Q1 : 0.788816571236, Q2 : 0.0886204019189, Q3 : -0.121027611196, Q4 : 0.59604293108}
2019-04-14 14:41:05.71: SIM {TimeUS : 60734863, Roll : -0.2, Pitch : -17.28, Yaw : 74.14, Alt : 49.3100013733, Lat : 49.283618, Lng : -123.1147773, Q1 : 0.78898370266, Q2 : 0.0892006084323, Q3 : -0.120977431536, Q4 : 0.595745325089}
2019-04-14 14:41:05.81: SIM {TimeUS : 60834823, Roll : -0.12, Pitch : -17.31, Yaw : 74.05, Alt : 49.3100013733, Lat : 49.283619, Lng : -123.1147714, Q1 : 0.789334714413, Q2 : 0.0897814184427, Q3 : -0.12083466351, Q4 : 0.595221817493}
2019-04-14 14:41:05.91: SIM {TimeUS : 60934783, Roll : -0.06, Pitch : -17.32, Yaw : 73.95, Alt : 49.3100013733, Lat : 49.2836201, Lng : -123.1147656, Q1 : 0.789820551872, Q2 : 0.0901569128036, Q3 : -0.120697535574, Q4 : 0.594548046589}
2019-04-14 14:41:06.01: SIM {TimeUS : 61034743, Roll : -0.01, Pitch : -17.33, Yaw : 73.83, Alt : 49.3100013733, Lat : 49.2836213, Lng : -123.1147597, Q1 : 0.790358006954, Q2 : 0.0904120579362, Q3 : -0.120618209243, Q4 : 0.593810796738}
2019-04-14 14:41:06.11: SIM {TimeUS : 61135536, Roll : 0.03, Pitch : -17.34, Yaw : 73.72, Alt : 49.3100013733, Lat : 49.2836224, Lng : -123.1147538, Q1 : 0.790878593922, Q2 : 0.0907243266702, Q3 : -0.120468020439, Q4 : 0.593100011349}
2019-04-14 14:41:06.21: SIM {TimeUS : 61235496, Roll : 0.08, Pitch : -17.35, Yaw : 73.63, Alt : 49.3100013733, Lat : 49.2836235, Lng : -123.1147479, Q1 : 0.791335344315, Q2 : 0.0910349786282, Q3 : -0.120334051549, Q4 : 0.592470049858}
2019-04-14 14:41:06.31: SIM {TimeUS : 61335456, Roll : 0.15, Pitch : -17.38, Yaw : 73.54, Alt : 49.3100013733, Lat : 49.2836247, Lng : -123.114742, Q1 : 0.791667819023, Q2 : 0.0915464013815, Q3 : -0.120310291648, Q4 : 0.591951727867}
2019-04-14 14:41:06.41: SIM {TimeUS : 61435416, Roll : 0.19, Pitch : -17.45, Yaw : 73.49, Alt : 49.3100013733, Lat : 49.2836257, Lng : -123.114736, Q1 : 0.791867256165, Q2 : 0.0921195298433, Q3 : -0.120544053614, Q4 : 0.591548264027}
2019-04-14 14:41:06.51: SIM {TimeUS : 61535376, Roll : 0.22, Pitch : -17.49, Yaw : 73.45, Alt : 49.3100013733, Lat : 49.2836268, Lng : -123.1147301, Q1 : 0.791988193989, Q2 : 0.0924558416009, Q3 : -0.120723038912, Q4 : 0.591297328472}
2019-04-14 14:41:06.61: SIM {TimeUS : 61635336, Roll : 0.22, Pitch : -17.5, Yaw : 73.44, Alt : 49.3100013733, Lat : 49.283628, Lng : -123.1147241, Q1 : 0.792049825191, Q2 : 0.0925277099013, Q3 : -0.120790250599, Q4 : 0.591189861298}
2019-04-14 14:41:06.71: SIM {TimeUS : 61735296, Roll : 0.19, Pitch : -17.5, Yaw : 73.44, Alt : 49.3100013733, Lat : 49.2836292, Lng : -123.1147181, Q1 : 0.792064368725, Q2 : 0.0923577919602, Q3 : -0.120989769697, Q4 : 0.591156184673}
2019-04-14 14:41:06.81: SIM {TimeUS : 61835256, Roll : 0.15, Pitch : -17.53, Yaw : 73.45, Alt : 49.3199996948, Lat : 49.2836303, Lng : -123.1147121, Q1 : 0.792013585567, Q2 : 0.0921941772103, Q3 : -0.121361993253, Q4 : 0.591173410416}
2019-04-14 14:41:06.91: SIM {TimeUS : 61935216, Roll : 0.12, Pitch : -17.55, Yaw : 73.47, Alt : 49.3199996948, Lat : 49.2836314, Lng : -123.1147061, Q1 : 0.791924357414, Q2 : 0.0921326726675, Q3 : -0.121620707214, Q4 : 0.591249346733}
2019-04-14 14:41:07.01: SIM {TimeUS : 62035176, Roll : 0.1, Pitch : -17.57, Yaw : 73.48, Alt : 49.3199996948, Lat : 49.2836326, Lng : -123.1147, Q1 : 0.791814923286, Q2 : 0.0921248346567, Q3 : -0.121916055679, Q4 : 0.59133630991}
2019-04-14 14:41:07.11: SIM {TimeUS : 62135136, Roll : 0.08, Pitch : -17.59, Yaw : 73.5, Alt : 49.3199996948, Lat : 49.2836336, Lng : -123.114694, Q1 : 0.791722297668, Q2 : 0.0921011418104, Q3 : -0.122121043503, Q4 : 0.591421723366}
2019-04-14 14:41:07.21: SIM {TimeUS : 62235096, Roll : 0.06, Pitch : -17.61, Yaw : 73.51, Alt : 49.3199996948, Lat : 49.2836348, Lng : -123.1146879, Q1 : 0.791653037071, Q2 : 0.0921315401793, Q3 : -0.122329868376, Q4 : 0.591466546059}
2019-04-14 14:41:07.31: SIM {TimeUS : 62335056, Roll : 0.06, Pitch : -17.62, Yaw : 73.52, Alt : 49.3199996948, Lat : 49.2836359, Lng : -123.1146818, Q1 : 0.791627943516, Q2 : 0.0921723470092, Q3 : -0.122398048639, Q4 : 0.591479718685}
2019-04-14 14:41:07.41: SIM {TimeUS : 62435016, Roll : 0.08, Pitch : -17.64, Yaw : 73.51, Alt : 49.3199996948, Lat : 49.2836372, Lng : -123.1146757, Q1 : 0.791618525982, Q2 : 0.0923577025533, Q3 : -0.122440166771, Q4 : 0.591454684734}
2019-04-14 14:41:07.51: SIM {TimeUS : 62534976, Roll : 0.1, Pitch : -17.66, Yaw : 73.5, Alt : 49.3199996948, Lat : 49.2836383, Lng : -123.1146696, Q1 : 0.791642069817, Q2 : 0.0925892218947, Q3 : -0.122482277453, Q4 : 0.591378211975}
2019-04-14 14:41:07.61: SIM {TimeUS : 62634936, Roll : 0.1, Pitch : -17.69, Yaw : 73.48, Alt : 49.3199996948, Lat : 49.2836395, Lng : -123.1146635, Q1 : 0.791709184647, Q2 : 0.0927377417684, Q3 : -0.122662603855, Q4 : 0.591227710247}
2019-04-14 14:41:07.71: SIM {TimeUS : 62734896, Roll : 0.09, Pitch : -17.73, Yaw : 73.46, Alt : 49.3199996948, Lat : 49.2836406, Lng : -123.1146573, Q1 : 0.791798532009, Q2 : 0.0928707122803, Q3 : -0.123020164669, Q4 : 0.591012835503}
2019-04-14 14:41:07.81: SIM {TimeUS : 62834856, Roll : 0.08, Pitch : -17.78, Yaw : 73.43, Alt : 49.3199996948, Lat : 49.2836418, Lng : -123.1146512, Q1 : 0.791895568371, Q2 : 0.0930137485266, Q3 : -0.123415328562, Q4 : 0.590777933598}
2019-04-14 14:41:07.91: SIM {TimeUS : 62934816, Roll : 0.1, Pitch : -17.81, Yaw : 73.4, Alt : 49.3199996948, Lat : 49.283643, Lng : -123.114645, Q1 : 0.791998326778, Q2 : 0.0932200178504, Q3 : -0.123606331646, Q4 : 0.590567708015}
2019-04-14 14:41:08.01: SIM {TimeUS : 63034776, Roll : 0.11, Pitch : -17.81, Yaw : 73.37, Alt : 49.3199996948, Lat : 49.283644, Lng : -123.1146388, Q1 : 0.792130529881, Q2 : 0.0933256074786, Q3 : -0.123577743769, Q4 : 0.590379655361}
2019-04-14 14:41:08.11: SIM {TimeUS : 63134736, Roll : 0.13, Pitch : -17.79, Yaw : 73.34, Alt : 49.3199996948, Lat : 49.2836452, Lng : -123.1146326, Q1 : 0.79229092598, Q2 : 0.0933045223355, Q3 : -0.123314194381, Q4 : 0.590222835541}
2019-04-14 14:41:08.21: SIM {TimeUS : 63235529, Roll : 0.14, Pitch : -17.76, Yaw : 73.32, Alt : 49.3199996948, Lat : 49.2836464, Lng : -123.1146264, Q1 : 0.792441189289, Q2 : 0.0931829437613, Q3 : -0.12313529104, Q4 : 0.590077638626}
2019-04-14 14:41:08.31: SIM {TimeUS : 63335489, Roll : 0.14, Pitch : -17.74, Yaw : 73.3, Alt : 49.3300018311, Lat : 49.2836476, Lng : -123.1146201, Q1 : 0.79257017374, Q2 : 0.0930454432964, Q3 : -0.123013235629, Q4 : 0.589951515198}
2019-04-14 14:41:08.41: SIM {TimeUS : 63435449, Roll : 0.13, Pitch : -17.73, Yaw : 73.28, Alt : 49.3300018311, Lat : 49.2836488, Lng : -123.1146139, Q1 : 0.792657971382, Q2 : 0.0929925218225, Q3 : -0.122996382415, Q4 : 0.589845478535}
2019-04-14 14:41:08.51: SIM {TimeUS : 63535409, Roll : 0.13, Pitch : -17.75, Yaw : 73.27, Alt : 49.3300018311, Lat : 49.2836499, Lng : -123.1146077, Q1 : 0.79270106554, Q2 : 0.0930739417672, Q3 : -0.123139180243, Q4 : 0.589744925499}
2019-04-14 14:41:08.61: SIM {TimeUS : 63635369, Roll : 0.14, Pitch : -17.78, Yaw : 73.26, Alt : 49.3300018311, Lat : 49.2836511, Lng : -123.1146014, Q1 : 0.79272043705, Q2 : 0.0932668149471, Q3 : -0.123283959925, Q4 : 0.589658141136}
2019-04-14 14:41:08.71: SIM {TimeUS : 63735329, Roll : 0.14, Pitch : -17.83, Yaw : 73.25, Alt : 49.3300018311, Lat : 49.2836524, Lng : -123.1145952, Q1 : 0.792721390724, Q2 : 0.0934663042426, Q3 : -0.12361895293, Q4 : 0.589555084705}
2019-04-14 14:41:08.81: SIM {TimeUS : 63835289, Roll : 0.13, Pitch : -17.87, Yaw : 73.24, Alt : 49.3300018311, Lat : 49.2836536, Lng : -123.1145889, Q1 : 0.792717695236, Q2 : 0.0936584621668, Q3 : -0.123994253576, Q4 : 0.589450776577}
2019-04-14 14:41:08.91: SIM {TimeUS : 63935249, Roll : 0.13, Pitch : -17.91, Yaw : 73.23, Alt : 49.3300018311, Lat : 49.2836548, Lng : -123.1145826, Q1 : 0.792721986771, Q2 : 0.093800008297, Q3 : -0.124240674078, Q4 : 0.58937060833}
2019-04-14 14:41:09.01: SIM {TimeUS : 64035209, Roll : 0.12, Pitch : -17.94, Yaw : 73.23, Alt : 49.3300018311, Lat : 49.283656, Lng : -123.1145764, Q1 : 0.792734563351, Q2 : 0.0938744843006, Q3 : -0.124508820474, Q4 : 0.589285194874}
2019-04-14 14:41:09.11: SIM {TimeUS : 64135169, Roll : 0.11, Pitch : -17.96, Yaw : 73.22, Alt : 49.3300018311, Lat : 49.2836572, Lng : -123.1145701, Q1 : 0.792762637138, Q2 : 0.0938859581947, Q3 : -0.124714396894, Q4 : 0.589202225208}
2019-04-14 14:41:09.21: SIM {TimeUS : 64235129, Roll : 0.12, Pitch : -17.95, Yaw : 73.21, Alt : 49.3300018311, Lat : 49.2836584, Lng : -123.1145638, Q1 : 0.79280680418, Q2 : 0.0939151346684, Q3 : -0.124658852816, Q4 : 0.58914989233}
2019-04-14 14:41:09.31: SIM {TimeUS : 64335089, Roll : 0.14, Pitch : -17.96, Yaw : 73.2, Alt : 49.3300018311, Lat : 49.2836596, Lng : -123.1145575, Q1 : 0.792845547199, Q2 : 0.0940791890025, Q3 : -0.124606281519, Q4 : 0.589082598686}
2019-04-14 14:41:09.41: SIM {TimeUS : 64435049, Roll : 0.14, Pitch : -17.98, Yaw : 73.18, Alt : 49.3300018311, Lat : 49.2836608, Lng : -123.1145512, Q1 : 0.792893469334, Q2 : 0.0941903218627, Q3 : -0.124694295228, Q4 : 0.588981747627}
2019-04-14 14:41:09.51: SIM {TimeUS : 64535009, Roll : 0.15, Pitch : -17.98, Yaw : 73.17, Alt : 49.3300018311, Lat : 49.283662, Lng : -123.1145448, Q1 : 0.792958915234, Q2 : 0.0942551344633, Q3 : -0.124731078744, Q4 : 0.588875472546}
2019-04-14 14:41:09.61: SIM {TimeUS : 64634969, Roll : 0.16, Pitch : -17.98, Yaw : 73.15, Alt : 49.3300018311, Lat : 49.2836632, Lng : -123.1145385, Q1 : 0.793036818504, Q2 : 0.0942678228021, Q3 : -0.124683447182, Q4 : 0.588778614998}
2019-04-14 14:41:09.71: SIM {TimeUS : 64734929, Roll : 0.16, Pitch : -17.98, Yaw : 73.14, Alt : 49.3400001526, Lat : 49.2836644, Lng : -123.1145322, Q1 : 0.793112456799, Q2 : 0.0942826271057, Q3 : -0.1246387586, Q4 : 0.588683784008}
2019-04-14 14:41:09.81: SIM {TimeUS : 64834889, Roll : 0.15, Pitch : -17.99, Yaw : 73.12, Alt : 49.3400001526, Lat : 49.2836656, Lng : -123.1145258, Q1 : 0.793177008629, Q2 : 0.0942537710071, Q3 : -0.124818108976, Q4 : 0.588563501835}
2019-04-14 14:41:09.91: SIM {TimeUS : 64934849, Roll : 0.13, Pitch : -18.02, Yaw : 73.11, Alt : 49.3400001526, Lat : 49.2836668, Lng : -123.1145195, Q1 : 0.793221235275, Q2 : 0.094252243638, Q3 : -0.125180065632, Q4 : 0.588427186012}
2019-04-14 14:41:10.01: SIM {TimeUS : 65034809, Roll : 0.11, Pitch : -18.03, Yaw : 73.1, Alt : 49.3400001526, Lat : 49.283668, Lng : -123.1145131, Q1 : 0.793282449245, Q2 : 0.0941736027598, Q3 : -0.125313773751, Q4 : 0.588328778744}
2019-04-14 14:41:10.11: SIM {TimeUS : 65134769, Roll : 0.12, Pitch : -18.02, Yaw : 73.09, Alt : 49.3400001526, Lat : 49.2836692, Lng : -123.1145067, Q1 : 0.793347775936, Q2 : 0.0941552296281, Q3 : -0.125149428844, Q4 : 0.588278651237}
2019-04-14 14:41:10.21: SIM {TimeUS : 65235562, Roll : 0.14, Pitch : -18.0, Yaw : 73.08, Alt : 49.3400001526, Lat : 49.2836705, Lng : -123.1145003, Q1 : 0.793404400349, Q2 : 0.0942000299692, Q3 : -0.124965712428, Q4 : 0.588234186172}
2019-04-14 14:41:10.31: SIM {TimeUS : 65335522, Roll : 0.16, Pitch : -18.01, Yaw : 73.07, Alt : 49.3400001526, Lat : 49.2836717, Lng : -123.1144939, Q1 : 0.7934461236, Q2 : 0.0943075269461, Q3 : -0.124948054552, Q4 : 0.588164389133}
2019-04-14 14:41:10.41: SIM {TimeUS : 65435482, Roll : 0.14, Pitch : -18.02, Yaw : 73.06, Alt : 49.3400001526, Lat : 49.2836729, Lng : -123.1144876, Q1 : 0.793496549129, Q2 : 0.094285570085, Q3 : -0.125114187598, Q4 : 0.588064551353}
2019-04-14 14:41:10.51: SIM {TimeUS : 65535442, Roll : 0.12, Pitch : -18.04, Yaw : 73.05, Alt : 49.3400001526, Lat : 49.2836741, Lng : -123.1144812, Q1 : 0.793542087078, Q2 : 0.0942263975739, Q3 : -0.125386759639, Q4 : 0.587954580784}
2019-04-14 14:41:10.61: SIM {TimeUS : 65635402, Roll : 0.11, Pitch : -18.07, Yaw : 73.04, Alt : 49.3400001526, Lat : 49.2836753, Lng : -123.1144748, Q1 : 0.793566763401, Q2 : 0.0942744463682, Q3 : -0.125658378005, Q4 : 0.587855517864}
2019-04-14 14:41:10.71: SIM {TimeUS : 65735362, Roll : 0.11, Pitch : -18.1, Yaw : 73.03, Alt : 49.3400001526, Lat : 49.2836766, Lng : -123.1144684, Q1 : 0.793584644794, Q2 : 0.0944172590971, Q3 : -0.125826194882, Q4 : 0.587772607803}
2019-04-14 14:41:10.81: SIM {TimeUS : 65835322, Roll : 0.12, Pitch : -18.12, Yaw : 73.02, Alt : 49.3400001526, Lat : 49.2836778, Lng : -123.114462, Q1 : 0.793595254421, Q2 : 0.0946040153503, Q3 : -0.125916898251, Q4 : 0.587708771229}
2019-04-14 14:41:10.91: SIM {TimeUS : 65935282, Roll : 0.15, Pitch : -18.13, Yaw : 73.01, Alt : 49.3400001526, Lat : 49.283679, Lng : -123.1144556, Q1 : 0.793609082699, Q2 : 0.0948168858886, Q3 : -0.12586773932, Q4 : 0.587666332722}
2019-04-14 14:41:11.01: SIM {TimeUS : 66035242, Roll : 0.16, Pitch : -18.14, Yaw : 73.0, Alt : 49.3400001526, Lat : 49.2836802, Lng : -123.1144492, Q1 : 0.79362398386, Q2 : 0.0949733480811, Q3 : -0.12587608397, Q4 : 0.587619066238}
2019-04-14 14:41:11.11: SIM {TimeUS : 66135202, Roll : 0.18, Pitch : -18.15, Yaw : 72.99, Alt : 49.3499984741, Lat : 49.2836815, Lng : -123.1144428, Q1 : 0.79363900423, Q2 : 0.095108397305, Q3 : -0.125898212194, Q4 : 0.587572336197}
