2019-04-14 12:56:08.10: SIM {TimeUS : 40116447, Roll : 0.0, Pitch : 0.0, Yaw : 0.0, Alt : 30.1000003815, Lat : 49.28357, Lng : -123.11502, Q1 : 1.0, Q2 : 0.0, Q3 : 0.0, Q4 : 0.0}
2019-04-14 12:56:08.21: SIM {TimeUS : 40235566, Roll : 0.0, Pitch : 0.0, Yaw : 0.0, Alt : 30.1000003815, Lat : 49.28357, Lng : -123.11502, Q1 : 1.0, Q2 : 0.0, Q3 : 0.0, Q4 : 0.0}
2019-04-14 12:56:08.31: SIM {TimeUS : 40335526, Roll : 0.0, Pitch : 0.0, Yaw : 0.0, Alt : 30.1000003815, Lat : 49.28357, Lng : -123.11502, Q1 : 1.0, Q2 : 0.0, Q3 : 0.0, Q4 : 0.0}
2019-04-14 12:56:08.41: SIM {TimeUS : 40435486, Roll : 0.0, Pitch : 0.0, Yaw : 0.0, Alt : 30.1000003815, Lat : 49.28357, Lng : -123.11502, Q1 : 1.0, Q2 : 0.0, Q3 : 0.0, Q4 : 0.0}
2019-04-14 12:56:08.51: SIM {TimeUS : 40535446, Roll : 0.0, Pitch : 0.0, Yaw : 0.0, Alt : 30.1000003815, Lat : 49.28357, Lng : -123.11502, Q1 : 1.0, Q2 : 0.0, Q3 : 0.0, Q4 : 0.0}
2019-04-14 12:56:08.61: SIM {TimeUS : 40635406, Roll : 0.0, Pitch : 0.0, Yaw : 0.0, Alt : 30.1000003815, Lat : 49.28357, Lng : -123.11502, Q1 : 1.0, Q2 : 0.0, Q3 : 0.0, Q4 : 0.0}
2019-04-14 12:56:08.71: SIM {TimeUS : 40735366, Roll : 0.0, Pitch : 0.0, Yaw : 0.0, Alt : 30.1000003815, Lat : 49.28357, Lng : -123.11502, Q1 : 1.0, Q2 : 0.0, Q3 : 0.0, Q4 : 0.0}
2019-04-14 12:56:08.81: SIM {TimeUS : 40835326, Roll : 0.0, Pitch : 0.0, Yaw : 0.0, Alt : 30.1000003815, Lat : 49.28357, Lng : -123.11502, Q1 : 1.0, Q2 : 0.0, Q3 : 0.0, Q4 : 0.0}
2019-04-14 12:56:08.91: SIM {TimeUS : 40935286, Roll : 0.0, Pitch : 0.0, Yaw : 0.0, Alt : 30.1000003815, Lat : 49.28357, Lng : -123.11502, Q1 : 1.0, Q2 : 0.0, Q3 : 0.0, Q4 : 0.0}
2019-04-14 12:56:09.01: SIM {TimeUS : 41035246, Roll : 0.0, Pitch : 0.0, Yaw : 0.0, Alt : 30.1000003815, Lat : 49.28357, Lng : -123.11502, Q1 : 1.0, Q2 : 0.0, Q3 : 0.0, Q4 : 0.0}
2019-04-14 12:56:09.11: SIM {TimeUS : 41135206, Roll : 0.0, Pitch : 0.0, Yaw : 0.0, Alt : 30.1000003815, Lat : 49.28357, Lng : -123.11502, Q1 : 1.0, Q2 : 0.0, Q3 : 0.0, Q4 : 0.0}
2019-04-14 12:56:09.21: SIM {TimeUS : 41235166, Roll : 0.0, Pitch : 0.0, Yaw : 0.0, Alt : 30.1000003815, Lat : 49.28357, Lng : -123.11502, Q1 : 1.0, Q2 : 0.0, Q3 : 0.0, Q4 : 0.0}
2019-04-14 12:56:09.31: SIM {TimeUS : 41335126, Roll : 0.0, Pitch : 0.0, Yaw : 0.0, Alt : 30.1000003815, Lat : 49.28357, Lng : -123.11502, Q1 : 1.0, Q2 : 0.0, Q3 : 0.0, Q4 : 0.0}
2019-04-14 12:56:09.41: SIM {TimeUS : 41435086, Roll : 0.0, Pitch : 0.0, Yaw : 0.0, Alt : 30.1000003815, Lat : 49.28357, Lng : -123.11502, Q1 : 1.0, Q2 : 0.0, Q3 : 0.0, Q4 : 0.0}
2019-04-14 12:56:09.51: SIM {TimeUS : 41535046, Roll : 0.0, Pitch : 0.0, Yaw : 0.0, Alt : 30.1000003815, Lat : 49.28357, Lng : -123.11502, Q1 : 1.0, Q2 : 0.0, Q3 : 0.0, Q4 : 0.0}
2019-04-14 12:56:09.61: SIM {TimeUS : 41635006, Roll : 0.0, Pitch : 0.0, Yaw : 0.0, Alt : 30.1000003815, Lat : 49.28357, Lng : -123.11502, Q1 : 1.0, Q2 : 0.0, Q3 : 0.0, Q4 : 0.0}
2019-04-14 12:56:09.71: SIM {TimeUS : 41734966, Roll : 0.0, Pitch : 0.0, Yaw : 0.0, Alt : 30.1000003815, Lat : 49.28357, Lng : -123.11502, Q1 : 1.0, Q2 : 0.0, Q3 : 0.0, Q4 : 0.0}
2019-04-14 12:56:09.81: SIM {TimeUS : 41834926, Roll : 0.0, Pitch : 0.0, Yaw : 0.0, Alt : 30.1000003815, Lat : 49.28357, Lng : -123.11502, Q1 : 1.0, Q2 : 0.0, Q3 : 0.0, Q4 : 0.0}
2019-04-14 12:56:09.91: SIM {TimeUS : 41934886, Roll : 0.0, Pitch : 0.0, Yaw : 0.0, Alt : 30.1000003815, Lat : 49.28357, Lng : -123.11502, Q1 : 1.0, Q2 : 0.0, Q3 : 0.0, Q4 : 0.0}
2019-04-14 12:56:10.01: SIM {TimeUS : 42034846, Roll : 0.0, Pitch : 0.0, Yaw : 0.0, Alt : 30.1000003815, Lat : 49.28357, Lng : -123.11502, Q1 : 1.0, Q2 : 0.0, Q3 : 0.0, Q4 : 0.0}
2019-04-14 12:56:10.11: SIM {TimeUS : 42134806, Roll : 0.0, Pitch : 0.0, Yaw : 0.0, Alt : 30.1000003815, Lat : 49.28357, Lng : -123.11502, Q1 : 1.0, Q2 : 0.0, Q3 : 0.0, Q4 : 0.0}
2019-04-14 12:56:10.22: SIM {TimeUS : 42235599, Roll : 0.0, Pitch : 0.0, Yaw : 0.0, Alt : 30.1000003815, Lat : 49.28357, Lng : -123.11502, Q1 : 1.0, Q2 : 0.0, Q3 : 0.0, Q4 : 0.0}
2019-04-14 12:56:10.31: SIM {TimeUS : 42335559, Roll : 0.0, Pitch : 0.0, Yaw : 0.0, Alt : 30.1000003815, Lat : 49.28357, Lng : -123.11502, Q1 : 1.0, Q2 : 0.0, Q3 : 0.0, Q4 : 0.0}
2019-04-14 12:56:10.41: SIM {TimeUS : 42435519, Roll : 0.0, Pitch : 0.0, Yaw : 0.0, Alt : 30.1000003815, Lat : 49.28357, Lng : -123.11502, Q1 : 1.0, Q2 : 0.0, Q3 : 0.0, Q4 : 7.85094975142e-11}
2019-04-14 12:56:10.51: SIM {TimeUS : 42535479, Roll : 0.0, Pitch : 0.0, Yaw : 360.0, Alt : 30.1000003815, Lat : 49.28357, Lng : -123.11502, Q1 : 1.0, Q2 : 0.0, Q3 : 0.0, Q4 : -3.19978958885e-08}
2019-04-14 12:56:10.61: SIM {TimeUS : 42635439, Roll : 0.0, Pitch : 0.0, Yaw : 359.99, Alt : 30.1000003815, Lat : 49.28357, Lng : -123.11502, Q1 : 1.0, Q2 : 0.0, Q3 : 0.0, Q4 : -2.49814775088e-07}
2019-04-14 12:56:10.71: SIM {TimeUS : 42735399, Roll : 0.0, Pitch : 0.0, Yaw : 359.99, Alt : 30.1000003815, Lat : 49.28357, Lng : -123.11502, Q1 : 1.0, Q2 : 0.0, Q3 : 0.0, Q4 : -3.85381127899e-07}
2019-04-14 12:56:10.81: SIM {TimeUS : 42835359, Roll : 0.0, Pitch : 0.0, Yaw : 359.99, Alt : 30.1000003815, Lat : 49.28357, Lng : -123.11502, Q1 : 1.0, Q2 : 0.0, Q3 : 0.0, Q4 : -5.60650619263e-07}
2019-04-14 12:56:10.91: SIM {TimeUS : 42935319, Roll : 0.0, Pitch : 0.0, Yaw : 359.99, Alt : 30.1000003815, Lat : 49.28357, Lng : -123.11502, Q1 : 1.0, Q2 : 0.0, Q3 : 0.0, Q4 : -7.7980092783e-07}
2019-04-14 12:56:11.01: SIM {TimeUS : 43035279, Roll : 0.0, Pitch : 0.0, Yaw : 359.99, Alt : 30.1000003815, Lat : 49.28357, Lng : -123.11502, Q1 : 1.0, Q2 : 0.0, Q3 : 0.0, Q4 : -1.00131273939e-06}
2019-04-14 12:56:11.11: SIM {TimeUS : 43135239, Roll : 0.0, Pitch : 0.0, Yaw : 359.99, Alt : 30.1000003815, Lat : 49.28357, Lng : -123.11502, Q1 : 1.0, Q2 : 0.0, Q3 : 0.0, Q4 : -1.23459540191e-06}
2019-04-14 12:56:11.21: SIM {TimeUS : 43235199, Roll : 0.0, Pitch : 0.0, Yaw : 359.99, Alt : 30.1000003815, Lat : 49.28357, Lng : -123.11502, Q1 : 1.0, Q2 : 0.0, Q3 : 0.0, Q4 : -1.45161129694e-06}
2019-04-14 12:56:11.31: SIM {TimeUS : 43335159, Roll : 0.0, Pitch : 0.0, Yaw : 359.99, Alt : 30.1200008392, Lat : 49.28357, Lng : -123.11502, Q1 : 1.0, Q2 : 0.0, Q3 : 0.0, Q4 : -1.68392841715e-06}
2019-04-14 12:56:11.41: SIM {TimeUS : 43435119, Roll : 0.0, Pitch : 0.0, Yaw : 359.99, Alt : 30.1499996185, Lat : 49.28357, Lng : -123.11502, Q1 : 1.0, Q2 : 0.0, Q3 : 0.0, Q4 : -1.93574214791e-06}
2019-04-14 12:56:11.51: SIM {TimeUS : 43535079, Roll : 0.0, Pitch : 0.0, Yaw : 359.99, Alt : 30.1800003052, Lat : 49.28357, Lng : -123.11502, Q1 : 1.0, Q2 : 0.0, Q3 : 0.0, Q4 : -2.22348194256e-06}
2019-04-14 12:56:11.61: SIM {TimeUS : 43635039, Roll : 0.0, Pitch : 0.0, Yaw : 359.99, Alt : 30.2099990845, Lat : 49.28357, Lng : -123.11502, Q1 : 1.0, Q2 : -1.06922279883e-05, Q3 : -9.88890678855e-06, Q4 : -2.55947793448e-06}
2019-04-14 12:56:11.71: SIM {TimeUS : 43734999, Roll : -0.18, Pitch : -0.18, Yaw : 359.99, Alt : 30.2700004578, Lat : 49.28357, Lng : -123.11502, Q1 : 0.999997437, Q2 : -0.00161389703862, Q3 : -0.00159308698494, Q4 : -1.96916116693e-05}
2019-04-14 12:56:11.81: SIM {TimeUS : 43834959, Roll : -0.5, Pitch : -0.45, Yaw : 359.99, Alt : 30.3899993896, Lat : 49.28357, Lng : -123.11502, Q1 : 0.99998241663, Q2 : -0.00440223608166, Q3 : -0.00397507287562, Q4 : -6.75964038237e-05}
2019-04-14 12:56:11.91: SIM {TimeUS : 43934919, Roll : -0.76, Pitch : -0.63, Yaw : 359.98, Alt : 30.5400009155, Lat : 49.28357, Lng : -123.11502, Q1 : 0.999962747097, Q2 : -0.00664124032483, Q3 : -0.00551494024694, Q4 : -0.000133663081215}
2019-04-14 12:56:12.01: SIM {TimeUS : 44034879, Roll : -0.85, Pitch : -0.68, Yaw : 359.98, Alt : 30.7000007629, Lat : 49.28357, Lng : -123.11502, Q1 : 0.999954342842, Q2 : -0.00747071299702, Q3 : -0.00595342554152, Q4 : -0.000214340820094}
2019-04-14 12:56:12.11: SIM {TimeUS : 44134839, Roll : -0.79, Pitch : -0.62, Yaw : 359.97, Alt : 30.8600006104, Lat : 49.28357, Lng : -123.1150201, Q1 : 0.999960839748, Q2 : -0.00694704800844, Q3 : -0.00547121185809, Q4 : -0.000299343315419}
2019-04-14 12:56:12.21: SIM {TimeUS : 44234799, Roll : -0.63, Pitch : -0.49, Yaw : 359.95, Alt : 31.0100002289, Lat : 49.2835701, Lng : -123.1150201, Q1 : 0.999975085258, Q2 : -0.0055464534089, Q3 : -0.00435848766938, Q4 : -0.000378297350835}
2019-04-14 12:56:12.32: SIM {TimeUS : 44335592, Roll : -0.42, Pitch : -0.33, Yaw : 359.95, Alt : 31.1700000763, Lat : 49.2835701, Lng : -123.1150202, Q1 : 0.999988853931, Q2 : -0.00367465196177, Q3 : -0.00293327169493, Q4 : -0.000444899400463}
2019-04-14 12:56:12.41: SIM {TimeUS : 44435552, Roll : -0.19, Pitch : -0.19, Yaw : 359.94, Alt : 31.3299999237, Lat : 49.2835702, Lng : -123.1150203, Q1 : 0.999996960163, Q2 : -0.0017012199387, Q3 : -0.00171657127794, Q4 : -0.000494891661219}
2019-04-14 12:56:12.51: SIM {TimeUS : 44535512, Roll : -0.02, Pitch : -0.08, Yaw : 359.93, Alt : 31.4899997711, Lat : 49.2835702, Lng : -123.1150204, Q1 : 0.999999582767, Q2 : -0.000202107781661, Q3 : -0.000706894614268, Q4 : -0.000529878423549}
2019-04-14 12:56:12.61: SIM {TimeUS : 44635472, Roll : 0.06, Pitch : 0.0, Yaw : 359.93, Alt : 31.6700000763, Lat : 49.2835702, Lng : -123.1150205, Q1 : 0.999999701977, Q2 : 0.000528665550519, Q3 : 9.52349637373e-06, Q4 : -0.000552172830794}
2019-04-14 12:56:12.71: SIM {TimeUS : 44735432, Roll : 0.08, Pitch : 0.04, Yaw : 359.93, Alt : 31.8500003815, Lat : 49.2835703, Lng : -123.1150205, Q1 : 0.999999523163, Q2 : 0.000720101932529, Q3 : 0.000421496282797, Q4 : -0.000553490419406}
2019-04-14 12:56:12.81: SIM {TimeUS : 44835392, Roll : 0.07, Pitch : 0.07, Yaw : 359.93, Alt : 32.0299987793, Lat : 49.2835703, Lng : -123.1150206, Q1 : 0.999999403954, Q2 : 0.00069292797707, Q3 : 0.000612566829659, Q4 : -0.00055172923021}
2019-04-14 12:56:12.91: SIM {TimeUS : 44935352, Roll : 0.06, Pitch : 0.06, Yaw : 359.93, Alt : 32.2200012207, Lat : 49.2835703, Lng : -123.1150207, Q1 : 0.999999523163, Q2 : 0.000611080846284, Q3 : 0.000566699600313, Q4 : -0.000542887253687}
2019-04-14 12:56:13.01: SIM {TimeUS : 45035312, Roll : 0.07, Pitch : 0.05, Yaw : 359.93, Alt : 32.4099998474, Lat : 49.2835703, Lng : -123.1150207, Q1 : 0.999999523163, Q2 : 0.0006684269174, Q3 : 0.000450075167464, Q4 : -0.000529924640432}
2019-04-14 12:56:13.11: SIM {TimeUS : 45135272, Roll : 0.1, Pitch : 0.04, Yaw : 359.94, Alt : 32.5999984741, Lat : 49.2835703, Lng : -123.1150208, Q1 : 0.999999403954, Q2 : 0.000884869659785, Q3 : 0.000386376283132, Q4 : -0.000515930878464}
2019-04-14 12:56:13.21: SIM {TimeUS : 45235232, Roll : 0.12, Pitch : 0.05, Yaw : 359.94, Alt : 32.7999992371, Lat : 49.2835703, Lng : -123.1150208, Q1 : 0.999999165535, Q2 : 0.00106742652133, Q3 : 0.000501701666508, Q4 : -0.000508809869643}
2019-04-14 12:56:13.31: SIM {TimeUS : 45335192, Roll : 0.13, Pitch : 0.08, Yaw : 359.94, Alt : 33.0, Lat : 49.2835704, Lng : -123.1150208, Q1 : 0.999998867512, Q2 : 0.00121098197997, Q3 : 0.000708935316652, Q4 : -0.000510876649059}
2019-04-14 12:56:13.41: SIM {TimeUS : 45435152, Roll : 0.13, Pitch : 0.12, Yaw : 359.93, Alt : 33.2000007629, Lat : 49.2835704, Lng : -123.1150209, Q1 : 0.999998569489, Q2 : 0.00118403194938, Q3 : 0.00105766335037, Q4 : -0.000529772194568}
2019-04-14 12:56:13.51: SIM {TimeUS : 45535112, Roll : 0.14, Pitch : 0.16, Yaw : 359.93, Alt : 33.4000015259, Lat : 49.2835704, Lng : -123.1150209, Q1 : 0.999997973442, Q2 : 0.00130854302552, Q3 : 0.00142534938641, Q4 : -0.000557010585908}
2019-04-14 12:56:13.61: SIM {TimeUS : 45635072, Roll : 0.16, Pitch : 0.19, Yaw : 359.93, Alt : 33.6100006104, Lat : 49.2835704, Lng : -123.1150209, Q1 : 0.999997317791, Q2 : 0.00147444149479, Q3 : 0.00168082956225, Q4 : -0.000583721732255}
2019-04-14 12:56:13.71: SIM {TimeUS : 45735032, Roll : 0.18, Pitch : 0.2, Yaw : 359.93, Alt : 33.8199996948, Lat : 49.2835704, Lng : -123.1150209, Q1 : 0.999997019768, Q2 : 0.00158181786537, Q3 : 0.00176516058855, Q4 : -0.000609466980677}
2019-04-14 12:56:13.81: SIM {TimeUS : 45834992, Roll : 0.17, Pitch : 0.19, Yaw : 359.92, Alt : 34.0299987793, Lat : 49.2835706, Lng : -123.1150209, Q1 : 0.999997138977, Q2 : 0.00153521518223, Q3 : 0.00173982919659, Q4 : -0.000634779047687}
2019-04-14 12:56:13.91: SIM {TimeUS : 45934952, Roll : 0.16, Pitch : 0.15, Yaw : 359.92, Alt : 34.2400016785, Lat : 49.2835706, Lng : -123.1150209, Q1 : 0.999997794628, Q2 : 0.0014134789817, Q3 : 0.00138738192618, Q4 : -0.000665368454065}
2019-04-14 12:56:14.01: SIM {TimeUS : 46034912, Roll : 0.13, Pitch : 0.09, Yaw : 359.92, Alt : 34.4500007629, Lat : 49.2835706, Lng : -123.1150209, Q1 : 0.999998688698, Q2 : 0.00118025147822, Q3 : 0.000867929076776, Q4 : -0.000683051359374}
2019-04-14 12:56:14.11: SIM {TimeUS : 46134872, Roll : 0.09, Pitch : 0.05, Yaw : 359.92, Alt : 34.6599998474, Lat : 49.2835706, Lng : -123.1150209, Q1 : 0.999999284744, Q2 : 0.000841397792101, Q3 : 0.000492778606713, Q4 : -0.000693945505191}
2019-04-14 12:56:14.21: SIM {TimeUS : 46234832, Roll : 0.07, Pitch : 0.04, Yaw : 359.91, Alt : 34.8800010681, Lat : 49.2835706, Lng : -123.1150209, Q1 : 0.999999463558, Q2 : 0.000618955702521, Q3 : 0.000357792159775, Q4 : -0.000702744117007}
2019-04-14 12:56:14.31: SIM {TimeUS : 46334792, Roll : 0.06, Pitch : 0.04, Yaw : 359.91, Alt : 35.0900001526, Lat : 49.2835706, Lng : -123.1150209, Q1 : 0.999999523163, Q2 : 0.000534907216206, Q3 : 0.000403894373449, Q4 : -0.000711993605364}
2019-04-14 12:56:14.42: SIM {TimeUS : 46435585, Roll : 0.05, Pitch : 0.04, Yaw : 359.91, Alt : 35.3100013733, Lat : 49.2835706, Lng : -123.1150208, Q1 : 0.999999523163, Q2 : 0.000460902985651, Q3 : 0.000413532281527, Q4 : -0.000720485462807}
2019-04-14 12:56:14.51: SIM {TimeUS : 46535545, Roll : 0.03, Pitch : 0.04, Yaw : 359.91, Alt : 35.5299987793, Lat : 49.2835706, Lng : -123.1150208, Q1 : 0.999999582767, Q2 : 0.000339845224516, Q3 : 0.000401410448831, Q4 : -0.000725949124899}
2019-04-14 12:56:14.61: SIM {TimeUS : 46635505, Roll : 0.02, Pitch : 0.05, Yaw : 359.91, Alt : 35.75, Lat : 49.2835706, Lng : -123.1150208, Q1 : 0.999999582767, Q2 : 0.000223831943003, Q3 : 0.000454661989352, Q4 : -0.000731941778213}
2019-04-14 12:56:14.71: SIM {TimeUS : 46735465, Roll : 0.01, Pitch : 0.06, Yaw : 359.91, Alt : 35.9700012207, Lat : 49.2835704, Lng : -123.1150208, Q1 : 0.999999523163, Q2 : 0.00013199474779, Q3 : 0.000596886500716, Q4 : -0.000741846044548}
2019-04-14 12:56:14.81: SIM {TimeUS : 46835425, Roll : 0.0, Pitch : 0.06, Yaw : 359.91, Alt : 36.1899986267, Lat : 49.2835704, Lng : -123.1150208, Q1 : 0.999999523163, Q2 : 4.30614600191e-05, Q3 : 0.000585782399867, Q4 : -0.000748030433897}
2019-04-14 12:56:14.91: SIM {TimeUS : 46935385, Roll : 0.0, Pitch : 0.05, Yaw : 359.91, Alt : 36.4099998474, Lat : 49.2835704, Lng : -123.1150207, Q1 : 0.999999582767, Q2 : -2.38691900449e-05, Q3 : 0.000493483967148, Q4 : -0.00075715460116}
2019-04-14 12:56:15.01: SIM {TimeUS : 47035345, Roll : -0.01, Pitch : 0.04, Yaw : 359.91, Alt : 36.6300010681, Lat : 49.2835704, Lng : -123.1150207, Q1 : 0.999999642372, Q2 : -0.000117923555081, Q3 : 0.000360593519872, Q4 : -0.000779222755227}
2019-04-14 12:56:15.11: SIM {TimeUS : 47135305, Roll : -0.02, Pitch : 0.02, Yaw : 359.9, Alt : 36.8600006104, Lat : 49.2835704, Lng : -123.1150207, Q1 : 0.999999642372, Q2 : -0.000188225370948, Q3 : 0.000212544444366, Q4 : -0.000817762280349}
2019-04-14 12:56:15.21: SIM {TimeUS : 47235265, Roll : -0.01, Pitch : 0.0, Yaw : 359.9, Alt : 37.0800018311, Lat : 49.2835704, Lng : -123.1150207, Q1 : 0.999999642372, Q2 : -0.000125738311908, Q3 : 4.19669304392e-05, Q4 : -0.00085530790966}
2019-04-14 12:56:15.31: SIM {TimeUS : 47335225, Roll : -0.01, Pitch : -0.02, Yaw : 359.89, Alt : 37.2999992371, Lat : 49.2835704, Lng : -123.1150207, Q1 : 0.999999582767, Q2 : -0.00013906879758, Q3 : -0.000177438603714, Q4 : -0.000891098810825}
2019-04-14 12:56:15.41: SIM {TimeUS : 47435185, Roll : -0.03, Pitch : -0.05, Yaw : 359.89, Alt : 37.5299987793, Lat : 49.2835704, Lng : -123.1150207, Q1 : 0.999999403954, Q2 : -0.000282281136606, Q3 : -0.000468804326374, Q4 : -0.000922258070204}
2019-04-14 12:56:15.51: SIM {TimeUS : 47535145, Roll : -0.06, Pitch : -0.08, Yaw : 359.89, Alt : 37.7599983215, Lat : 49.2835704, Lng : -123.1150207, Q1 : 0.999999165535, Q2 : -0.000534072867595, Q3 : -0.000699277676176, Q4 : -0.000954716175329}
2019-04-14 12:56:15.61: SIM {TimeUS : 47635105, Roll : -0.09, Pitch : -0.09, Yaw : 359.88, Alt : 37.9799995422, Lat : 49.2835704, Lng : -123.1150207, Q1 : 0.999998807907, Q2 : -0.000841888191644, Q3 : -0.000816704181489, Q4 : -0.000983558245935}
2019-04-14 12:56:15.71: SIM {TimeUS : 47735065, Roll : -0.11, Pitch : -0.09, Yaw : 359.88, Alt : 38.2099990845, Lat : 49.2835704, Lng : -123.1150207, Q1 : 0.999998569489, Q2 : -0.0010469147237, Q3 : -0.000856991333421, Q4 : -0.00101288442966}
2019-04-14 12:56:15.81: SIM {TimeUS : 47835025, Roll : -0.12, Pitch : -0.09, Yaw : 359.88, Alt : 38.4399986267, Lat : 49.2835704, Lng : -123.1150206, Q1 : 0.999998569489, Q2 : -0.00108436786104, Q3 : -0.000817353080492, Q4 : -0.00103343231604}
2019-04-14 12:56:15.91: SIM {TimeUS : 47934985, Roll : -0.11, Pitch : -0.07, Yaw : 359.88, Alt : 38.6699981689, Lat : 49.2835704, Lng : -123.1150206, Q1 : 0.999998748302, Q2 : -0.000981496297754, Q3 : -0.00062329164939, Q4 : -0.00104432308581}
2019-04-14 12:56:16.01: SIM {TimeUS : 48034945, Roll : -0.08, Pitch : -0.06, Yaw : 359.87, Alt : 38.9000015259, Lat : 49.2835704, Lng : -123.1150206, Q1 : 0.999999046326, Q2 : -0.000747181358747, Q3 : -0.000549073971342, Q4 : -0.00105201173574}
2019-04-14 12:56:16.11: SIM {TimeUS : 48134905, Roll : -0.06, Pitch : -0.06, Yaw : 359.87, Alt : 39.1199989319, Lat : 49.2835704, Lng : -123.1150206, Q1 : 0.99999910593, Q2 : -0.000575031794142, Q3 : -0.000523528491613, Q4 : -0.00106447713915}
2019-04-14 12:56:16.21: SIM {TimeUS : 48234865, Roll : -0.05, Pitch : -0.03, Yaw : 359.87, Alt : 39.3499984741, Lat : 49.2835704, Lng : -123.1150206, Q1 : 0.99999922514, Q2 : -0.000499577319715, Q3 : -0.000332364696078, Q4 : -0.00107122876216}
2019-04-14 12:56:16.31: SIM {TimeUS : 48334825, Roll : -0.07, Pitch : 0.0, Yaw : 359.87, Alt : 39.5800018311, Lat : 49.2835704, Lng : -123.1150206, Q1 : 0.99999922514, Q2 : -0.000620210310444, Q3 : -3.92894726247e-05, Q4 : -0.00107777875382}
2019-04-14 12:56:16.41: SIM {TimeUS : 48434785, Roll : -0.07, Pitch : 0.02, Yaw : 359.87, Alt : 39.8199996948, Lat : 49.2835704, Lng : -123.1150206, Q1 : 0.999999165535, Q2 : -0.000658468925394, Q3 : 0.000205131276743, Q4 : -0.00109232100658}
2019-04-14 12:56:16.52: SIM {TimeUS : 48535578, Roll : -0.06, Pitch : 0.05, Yaw : 359.87, Alt : 40.0499992371, Lat : 49.2835704, Lng : -123.1150207, Q1 : 0.99999910593, Q2 : -0.000530265097041, Q3 : 0.000502992188558, Q4 : -0.00111962773371}
2019-04-14 12:56:16.61: SIM {TimeUS : 48635538, Roll : -0.03, Pitch : 0.06, Yaw : 359.86, Alt : 40.2799987793, Lat : 49.2835704, Lng : -123.1150207, Q1 : 0.999999165535, Q2 : -0.000335655757226, Q3 : 0.00054596964037, Q4 : -0.0011425941484}
2019-04-14 12:56:16.71: SIM {TimeUS : 48735498, Roll : 0.0, Pitch : 0.05, Yaw : 359.86, Alt : 40.5099983215, Lat : 49.2835704, Lng : -123.1150207, Q1 : 0.99999922514, Q2 : -8.51705190144e-05, Q3 : 0.000513579405379, Q4 : -0.00116019439884}
2019-04-14 12:56:16.81: SIM {TimeUS : 48835458, Roll : 0.02, Pitch : 0.06, Yaw : 359.86, Alt : 40.7400016785, Lat : 49.2835704, Lng : -123.1150207, Q1 : 0.99999910593, Q2 : 0.000241945017478, Q3 : 0.000604606757406, Q4 : -0.00117952853907}
2019-04-14 12:56:16.91: SIM {TimeUS : 48935418, Roll : 0.07, Pitch : 0.09, Yaw : 359.86, Alt : 40.9799995422, Lat : 49.2835706, Lng : -123.1150207, Q1 : 0.999998688698, Q2 : 0.000659756769892, Q3 : 0.000838697131258, Q4 : -0.00120453140698}
2019-04-14 12:56:17.01: SIM {TimeUS : 49035378, Roll : 0.1, Pitch : 0.12, Yaw : 359.85, Alt : 41.2099990845, Lat : 49.2835706, Lng : -123.1150207, Q1 : 0.999998271465, Q2 : 0.000905027147382, Q3 : 0.00107730017044, Q4 : -0.00123007094953}
2019-04-14 12:56:17.11: SIM {TimeUS : 49135338, Roll : 0.08, Pitch : 0.14, Yaw : 359.85, Alt : 41.4399986267, Lat : 49.2835706, Lng : -123.1150207, Q1 : 0.999998152256, Q2 : 0.000776894798037, Q3 : 0.00124198803678, Q4 : -0.00124347978272}
2019-04-14 12:56:17.21: SIM {TimeUS : 49235298, Roll : 0.04, Pitch : 0.15, Yaw : 359.85, Alt : 41.6800003052, Lat : 49.2835706, Lng : -123.1150207, Q1 : 0.999998271465, Q2 : 0.000363652943633, Q3 : 0.00132920744363, Q4 : -0.00125513214152}
2019-04-14 12:56:17.31: SIM {TimeUS : 49335258, Roll : 0.0, Pitch : 0.15, Yaw : 359.85, Alt : 41.9099998474, Lat : 49.2835706, Lng : -123.1150207, Q1 : 0.99999833107, Q2 : -4.98843473906e-05, Q3 : 0.00133600796107, Q4 : -0.00127253634855}
2019-04-14 12:56:17.41: SIM {TimeUS : 49435218, Roll : -0.02, Pitch : 0.12, Yaw : 359.85, Alt : 42.1399993896, Lat : 49.2835706, Lng : -123.1150207, Q1 : 0.999998569489, Q2 : -0.000176011730218, Q3 : 0.00109275325667, Q4 : -0.00129122845829}
2019-04-14 12:56:17.51: SIM {TimeUS : 49535178, Roll : -0.01, Pitch : 0.08, Yaw : 359.84, Alt : 42.3800010681, Lat : 49.2835706, Lng : -123.1150207, Q1 : 0.999998807907, Q2 : -0.000168110462255, Q3 : 0.000783419585787, Q4 : -0.00131122826133}
2019-04-14 12:56:17.61: SIM {TimeUS : 49635138, Roll : 0.0, Pitch : 0.09, Yaw : 359.84, Alt : 42.6100006104, Lat : 49.2835706, Lng : -123.1150207, Q1 : 0.999998807907, Q2 : -6.46442713332e-05, Q3 : 0.000788169854786, Q4 : -0.00133843859658}
2019-04-14 12:56:17.71: SIM {TimeUS : 49735098, Roll : 0.02, Pitch : 0.11, Yaw : 359.84, Alt : 42.8499984741, Lat : 49.2835706, Lng : -123.1150207, Q1 : 0.999998509884, Q2 : 0.00022411410464, Q3 : 0.00100073113572, Q4 : -0.00137863098644}
2019-04-14 12:56:17.81: SIM {TimeUS : 49835058, Roll : 0.07, Pitch : 0.14, Yaw : 359.83, Alt : 43.0800018311, Lat : 49.2835706, Lng : -123.1150207, Q1 : 0.999998033047, Q2 : 0.000689968699589, Q3 : 0.00123411987443, Q4 : -0.00141194474418}
2019-04-14 12:56:17.91: SIM {TimeUS : 49935018, Roll : 0.11, Pitch : 0.13, Yaw : 359.83, Alt : 43.3199996948, Lat : 49.2835706, Lng : -123.1150207, Q1 : 0.999997675419, Q2 : 0.0010456253076, Q3 : 0.00120797962882, Q4 : -0.00144351879135}
2019-04-14 12:56:18.01: SIM {TimeUS : 50034978, Roll : 0.11, Pitch : 0.11, Yaw : 359.83, Alt : 43.5499992371, Lat : 49.2835704, Lng : -123.1150207, Q1 : 0.999997854233, Q2 : 0.00103973096702, Q3 : 0.0010336068226, Q4 : -0.00146955356468}
2019-04-14 12:56:18.11: SIM {TimeUS : 50134938, Roll : 0.07, Pitch : 0.09, Yaw : 359.83, Alt : 43.7900009155, Lat : 49.2835704, Lng : -123.1150207, Q1 : 0.99999833107, Q2 : 0.000657653959934, Q3 : 0.000868794275448, Q4 : -0.00147610192653}
2019-04-14 12:56:18.21: SIM {TimeUS : 50234898, Roll : 0.01, Pitch : 0.08, Yaw : 359.82, Alt : 44.0299987793, Lat : 49.2835704, Lng : -123.1150207, Q1 : 0.999998569489, Q2 : 0.000149964529555, Q3 : 0.000758885114919, Q4 : -0.0014838273637}
2019-04-14 12:56:18.31: SIM {TimeUS : 50334858, Roll : -0.02, Pitch : 0.08, Yaw : 359.82, Alt : 44.2599983215, Lat : 49.2835704, Lng : -123.1150207, Q1 : 0.999998569489, Q2 : -0.00019472137501, Q3 : 0.000766600016505, Q4 : -0.00149898859672}
2019-04-14 12:56:18.41: SIM {TimeUS : 50434818, Roll : -0.04, Pitch : 0.07, Yaw : 359.82, Alt : 44.5, Lat : 49.2835704, Lng : -123.1150207, Q1 : 0.999998569489, Q2 : -0.000360822043149, Q3 : 0.000689385691658, Q4 : -0.00151729013305}
2019-04-14 12:56:18.51: SIM {TimeUS : 50534778, Roll : -0.03, Pitch : 0.05, Yaw : 359.82, Alt : 44.7299995422, Lat : 49.2835704, Lng : -123.1150206, Q1 : 0.999998629093, Q2 : -0.000320400955388, Q3 : 0.000494784209877, Q4 : -0.00154089857824}
2019-04-14 12:56:18.61: SIM {TimeUS : 50635571, Roll : -0.04, Pitch : 0.03, Yaw : 359.81, Alt : 44.9700012207, Lat : 49.2835704, Lng : -123.1150206, Q1 : 0.999998629093, Q2 : -0.000376047799364, Q3 : 0.000282985769445, Q4 : -0.00157498696353}
2019-04-14 12:56:18.71: SIM {TimeUS : 50735531, Roll : -0.04, Pitch : 0.0, Yaw : 359.81, Alt : 45.2099990845, Lat : 49.2835704, Lng : -123.1150206, Q1 : 0.999998629093, Q2 : -0.000362052785931, Q3 : 8.31868237583e-05, Q4 : -0.00161280599423}
2019-04-14 12:56:18.81: SIM {TimeUS : 50835491, Roll : -0.02, Pitch : 0.0, Yaw : 359.81, Alt : 45.4399986267, Lat : 49.2835704, Lng : -123.1150206, Q1 : 0.999998629093, Q2 : -0.000240632987698, Q3 : -1.93690520973e-05, Q4 : -0.00165398733225}
2019-04-14 12:56:18.91: SIM {TimeUS : 50935451, Roll : -0.02, Pitch : 0.0, Yaw : 359.8, Alt : 45.6800003052, Lat : 49.2835703, Lng : -123.1150206, Q1 : 0.999998569489, Q2 : -0.000187464611372, Q3 : -1.98968500627e-05, Q4 : -0.00169490801636}
2019-04-14 12:56:19.01: SIM {TimeUS : 51035411, Roll : -0.02, Pitch : 0.0, Yaw : 359.8, Alt : 45.9099998474, Lat : 49.2835703, Lng : -123.1150206, Q1 : 0.999998509884, Q2 : -0.000195017521037, Q3 : -4.11872206314e-05, Q4 : -0.00173322763294}
2019-04-14 12:56:19.11: SIM {TimeUS : 51135371, Roll : -0.02, Pitch : -0.02, Yaw : 359.79, Alt : 46.1399993896, Lat : 49.2835703, Lng : -123.1150206, Q1 : 0.999998390675, Q2 : -0.00022187527793, Q3 : -0.000198346126126, Q4 : -0.00177360395901}
2019-04-14 12:56:19.21: SIM {TimeUS : 51235331, Roll : -0.02, Pitch : -0.03, Yaw : 359.79, Alt : 46.3699989319, Lat : 49.2835703, Lng : -123.1150206, Q1 : 0.99999833107, Q2 : -0.000220688540139, Q3 : -0.000282440334558, Q4 : -0.00180883333087}
2019-04-14 12:56:19.31: SIM {TimeUS : 51335291, Roll : -0.01, Pitch : -0.03, Yaw : 359.78, Alt : 46.5900001526, Lat : 49.2835703, Lng : -123.1150206, Q1 : 0.999998211861, Q2 : -0.000162893004017, Q3 : -0.000314905220876, Q4 : -0.00184285943396}
2019-04-14 12:56:19.41: SIM {TimeUS : 51435251, Roll : -0.02, Pitch : -0.03, Yaw : 359.78, Alt : 46.7999992371, Lat : 49.2835703, Lng : -123.1150206, Q1 : 0.999998152256, Q2 : -0.000191605067812, Q3 : -0.000298637896776, Q4 : -0.00187543034554}
2019-04-14 12:56:19.51: SIM {TimeUS : 51535211, Roll : -0.04, Pitch : -0.02, Yaw : 359.78, Alt : 47.0200004578, Lat : 49.2835703, Lng : -123.1150206, Q1 : 0.999998092651, Q2 : -0.000383391976357, Q3 : -0.000218930756091, Q4 : -0.00190375139937}
2019-04-14 12:56:19.61: SIM {TimeUS : 51635171, Roll : -0.07, Pitch : -0.02, Yaw : 359.77, Alt : 47.2200012207, Lat : 49.2835703, Lng : -123.1150205, Q1 : 0.999997913837, Q2 : -0.000683888967615, Q3 : -0.000182153569767, Q4 : -0.00193073984701}
2019-04-14 12:56:19.71: SIM {TimeUS : 51735131, Roll : -0.1, Pitch : -0.02, Yaw : 359.77, Alt : 47.4099998474, Lat : 49.2835703, Lng : -123.1150205, Q1 : 0.999997675419, Q2 : -0.000892857147846, Q3 : -0.000178806876647, Q4 : -0.00195522722788}
2019-04-14 12:56:19.81: SIM {TimeUS : 51835091, Roll : -0.11, Pitch : -0.01, Yaw : 359.77, Alt : 47.5999984741, Lat : 49.2835703, Lng : -123.1150205, Q1 : 0.99999755621, Q2 : -0.000964206410572, Q3 : -0.000126475133584, Q4 : -0.00197719782591}
2019-04-14 12:56:19.91: SIM {TimeUS : 51935051, Roll : -0.13, Pitch : -0.02, Yaw : 359.77, Alt : 47.7700004578, Lat : 49.2835703, Lng : -123.1150205, Q1 : 0.999997258186, Q2 : -0.00120898499154, Q3 : -0.00022921198979, Q4 : -0.0019963090308}
2019-04-14 12:56:20.01: SIM {TimeUS : 52035011, Roll : -0.15, Pitch : -0.04, Yaw : 359.76, Alt : 47.9399986267, Lat : 49.2835703, Lng : -123.1150205, Q1 : 0.999997019768, Q2 : -0.00133957597427, Q3 : -0.000350401707692, Q4 : -0.00201675854623}
2019-04-14 12:56:20.11: SIM {TimeUS : 52134971, Roll : -0.14, Pitch : -0.05, Yaw : 359.76, Alt : 48.0900001526, Lat : 49.2835703, Lng : -123.1150205, Q1 : 0.999997019768, Q2 : -0.00129923026543, Q3 : -0.00044194117072, Q4 : -0.00203623343259}
2019-04-14 12:56:20.21: SIM {TimeUS : 52234931, Roll : -0.13, Pitch : -0.05, Yaw : 359.76, Alt : 48.2299995422, Lat : 49.2835703, Lng : -123.1150205, Q1 : 0.999997079372, Q2 : -0.00116038403939, Q3 : -0.000486068573082, Q4 : -0.00205791881308}
2019-04-14 12:56:20.31: SIM {TimeUS : 52334891, Roll : -0.1, Pitch : -0.06, Yaw : 359.76, Alt : 48.3600006104, Lat : 49.2835703, Lng : -123.1150206, Q1 : 0.999997258186, Q2 : -0.000909093476366, Q3 : -0.000547717791051, Q4 : -0.00208316952921}
2019-04-14 12:56:20.41: SIM {TimeUS : 52434851, Roll : -0.06, Pitch : -0.06, Yaw : 359.75, Alt : 48.4799995422, Lat : 49.2835703, Lng : -123.1150206, Q1 : 0.999997437, Q2 : -0.000572970951907, Q3 : -0.000578574603423, Q4 : -0.00210871384479}
2019-04-14 12:56:20.51: SIM {TimeUS : 52534811, Roll : -0.04, Pitch : -0.06, Yaw : 359.75, Alt : 48.5800018311, Lat : 49.2835703, Lng : -123.1150206, Q1 : 0.999997496605, Q2 : -0.000369905668776, Q3 : -0.000601252540946, Q4 : -0.0021326392889}
2019-04-14 12:56:20.62: SIM {TimeUS : 52635604, Roll : -0.04, Pitch : -0.07, Yaw : 359.75, Alt : 48.6699981689, Lat : 49.2835703, Lng : -123.1150206, Q1 : 0.999997437, Q2 : -0.000365540676285, Q3 : -0.000622633087914, Q4 : -0.00214559701271}
2019-04-14 12:56:20.71: SIM {TimeUS : 52735564, Roll : -0.01, Pitch : -0.06, Yaw : 359.75, Alt : 48.75, Lat : 49.2835703, Lng : -123.1150206, Q1 : 0.99999755621, Q2 : -0.000154974724865, Q3 : -0.000549203890841, Q4 : -0.0021506624762}
2019-04-14 12:56:20.81: SIM {TimeUS : 52835524, Roll : 0.01, Pitch : -0.04, Yaw : 359.75, Alt : 48.8199996948, Lat : 49.2835703, Lng : -123.1150206, Q1 : 0.99999755621, Q2 : 0.000133863213705, Q3 : -0.000431365537224, Q4 : -0.00215974310413}
2019-04-14 12:56:20.91: SIM {TimeUS : 52935484, Roll : 0.04, Pitch : -0.03, Yaw : 359.75, Alt : 48.8800010681, Lat : 49.2835703, Lng : -123.1150206, Q1 : 0.999997496605, Q2 : 0.000376394076739, Q3 : -0.00027478649281, Q4 : -0.00218070368282}
2019-04-14 12:56:21.01: SIM {TimeUS : 53035444, Roll : 0.05, Pitch : -0.01, Yaw : 359.74, Alt : 48.9399986267, Lat : 49.2835703, Lng : -123.1150206, Q1 : 0.999997437, Q2 : 0.000509640667588, Q3 : -0.00014644608018, Q4 : -0.00221231719479}
2019-04-14 12:56:21.11: SIM {TimeUS : 53135404, Roll : 0.08, Pitch : -0.01, Yaw : 359.74, Alt : 48.9799995422, Lat : 49.2835703, Lng : -123.1150206, Q1 : 0.999997198582, Q2 : 0.000717862567399, Q3 : -0.000139905474498, Q4 : -0.00224712747149}
2019-04-14 12:56:21.21: SIM {TimeUS : 53235364, Roll : 0.2, Pitch : -0.06, Yaw : 359.73, Alt : 49.0200004578, Lat : 49.2835703, Lng : -123.1150207, Q1 : 0.999995708466, Q2 : 0.00174780003726, Q3 : -0.000563487701584, Q4 : -0.00228295614943}
2019-04-14 12:56:21.31: SIM {TimeUS : 53335324, Roll : 0.52, Pitch : -0.17, Yaw : 359.73, Alt : 49.0499992371, Lat : 49.2835703, Lng : -123.1150207, Q1 : 0.999985694885, Q2 : 0.00457671983168, Q3 : -0.00149976881221, Q4 : -0.00232032430358}
2019-04-14 12:56:21.41: SIM {TimeUS : 53435284, Roll : 1.11, Pitch : -0.34, Yaw : 359.72, Alt : 49.0800018311, Lat : 49.2835703, Lng : -123.1150207, Q1 : 0.999945521355, Q2 : 0.00971429236233, Q3 : -0.00300113065168, Q4 : -0.00235568056814}
2019-04-14 12:56:21.51: SIM {TimeUS : 53535244, Roll : 1.92, Pitch : -0.58, Yaw : 359.71, Alt : 49.1100006104, Lat : 49.2835703, Lng : -123.1150206, Q1 : 0.999842405319, Q2 : 0.0168276559561, Q3 : -0.00512820109725, Q4 : -0.00238050590269}
2019-04-14 12:56:21.61: SIM {TimeUS : 53635204, Roll : 2.89, Pitch : -0.85, Yaw : 359.7, Alt : 49.1300010681, Lat : 49.2835704, Lng : -123.1150205, Q1 : 0.999649345875, Q2 : 0.0252724587917, Q3 : -0.00753867486492, Q4 : -0.00238041044213}
2019-04-14 12:56:21.71: SIM {TimeUS : 53735164, Roll : 3.9, Pitch : -1.12, Yaw : 359.69, Alt : 49.1399993896, Lat : 49.2835704, Lng : -123.1150204, Q1 : 0.999368607998, Q2 : 0.0340399555862, Q3 : -0.00991171132773, Q4 : -0.00234575290233}
2019-04-14 12:56:21.81: SIM {TimeUS : 53835124, Roll : 4.78, Pitch : -1.36, Yaw : 359.68, Alt : 49.1599998474, Lat : 49.2835704, Lng : -123.1150202, Q1 : 0.99905616045, Q2 : 0.0416825227439, Q3 : -0.0120101403445, Q4 : -0.00227620522492}
2019-04-14 12:56:21.91: SIM {TimeUS : 53935084, Roll : 5.44, Pitch : -1.57, Yaw : 359.67, Alt : 49.1699981689, Lat : 49.2835706, Lng : -123.11502, Q1 : 0.998777091503, Q2 : 0.0474147386849, Q3 : -0.0138320764527, Q4 : -0.00218842434697}
2019-04-14 12:56:22.01: SIM {TimeUS : 54035044, Roll : 5.9, Pitch : -1.73, Yaw : 359.67, Alt : 49.1899986267, Lat : 49.2835707, Lng : -123.1150196, Q1 : 0.998557448387, Q2 : 0.0514325611293, Q3 : -0.0152801051736, Q4 : -0.00207157339901}
2019-04-14 12:56:22.11: SIM {TimeUS : 54135004, Roll : 6.24, Pitch : -1.88, Yaw : 359.67, Alt : 49.2000007629, Lat : 49.2835708, Lng : -123.1150191, Q1 : 0.998381018639, Q2 : 0.0543828010559, Q3 : -0.0165575481951, Q4 : -0.00194608734455}
2019-04-14 12:56:22.21: SIM {TimeUS : 54234964, Roll : 6.55, Pitch : -2.02, Yaw : 359.67, Alt : 49.2099990845, Lat : 49.2835709, Lng : -123.1150184, Q1 : 0.998206138611, Q2 : 0.0571475885808, Q3 : -0.0177603978664, Q4 : -0.00179737084545}
2019-04-14 12:56:22.31: SIM {TimeUS : 54334924, Roll : 6.91, Pitch : -2.13, Yaw : 359.68, Alt : 49.2099990845, Lat : 49.283571, Lng : -123.1150177, Q1 : 0.998004257679, Q2 : 0.0602657645941, Q3 : -0.018787080422, Q4 : -0.00162144284695}
2019-04-14 12:56:22.41: SIM {TimeUS : 54434884, Roll : 7.28, Pitch : -2.25, Yaw : 359.69, Alt : 49.2200012207, Lat : 49.2835712, Lng : -123.1150169, Q1 : 0.997788071632, Q2 : 0.0634434744716, Q3 : -0.0197933744639, Q4 : -0.00144642987289}
2019-04-14 12:56:22.51: SIM {TimeUS : 54534844, Roll : 7.59, Pitch : -2.34, Yaw : 359.69, Alt : 49.2299995422, Lat : 49.2835714, Lng : -123.1150159, Q1 : 0.997592926025, Q2 : 0.0661983862519, Q3 : -0.0206019356847, Q4 : -0.00128112593666}
2019-04-14 12:56:22.61: SIM {TimeUS : 54634804, Roll : 7.82, Pitch : -2.4, Yaw : 359.7, Alt : 49.2299995422, Lat : 49.2835716, Lng : -123.1150148, Q1 : 0.997450828552, Q2 : 0.068162932992, Q3 : -0.0210808534175, Q4 : -0.00113130512182}
2019-04-14 12:56:22.72: SIM {TimeUS : 54735597, Roll : 7.98, Pitch : -2.45, Yaw : 359.71, Alt : 49.2400016785, Lat : 49.2835719, Lng : -123.1150136, Q1 : 0.997348308563, Q2 : 0.0695129856467, Q3 : -0.0215246509761, Q4 : -0.00101833359804}
2019-04-14 12:56:22.81: SIM {TimeUS : 54835557, Roll : 8.11, Pitch : -2.49, Yaw : 359.71, Alt : 49.2400016785, Lat : 49.2835721, Lng : -123.1150123, Q1 : 0.997260928154, Q2 : 0.0706448853016, Q3 : -0.0218875221908, Q4 : -0.000940005178563}
2019-04-14 12:56:22.91: SIM {TimeUS : 54935517, Roll : 8.24, Pitch : -2.53, Yaw : 359.71, Alt : 49.25, Lat : 49.2835724, Lng : -123.1150109, Q1 : 0.997169137001, Q2 : 0.0718227252364, Q3 : -0.0222376938909, Q4 : -0.000893364835065}
2019-04-14 12:56:23.01: SIM {TimeUS : 55035477, Roll : 8.44, Pitch : -2.47, Yaw : 359.76, Alt : 49.25, Lat : 49.2835727, Lng : -123.1150094, Q1 : 0.997054278851, Q2 : 0.0735597833991, Q3 : -0.0217164754868, Q4 : -0.000454898923635}
2019-04-14 12:56:23.11: SIM {TimeUS : 55135437, Roll : 8.81, Pitch : -2.19, Yaw : 0.25, Alt : 49.25, Lat : 49.2835729, Lng : -123.1150078, Q1 : 0.996854782104, Q2 : 0.0768754407763, Q3 : -0.018900455907, Q4 : 0.00368461664766}
2019-04-14 12:56:23.21: SIM {TimeUS : 55235397, Roll : 9.33, Pitch : -1.82, Yaw : 1.85, Alt : 49.2599983215, Lat : 49.2835733, Lng : -123.115006, Q1 : 0.99640339613, Q2 : 0.0816444456577, Q3 : -0.014536710456, Q4 : 0.0174098815769}
2019-04-14 12:56:23.31: SIM {TimeUS : 55335357, Roll : 9.88, Pitch : -1.79, Yaw : 4.99, Alt : 49.2599983215, Lat : 49.2835737, Lng : -123.1150043, Q1 : 0.995157182217, Q2 : 0.0867349430919, Q3 : -0.0118177961558, Q4 : 0.0447160601616}
2019-04-14 12:56:23.41: SIM {TimeUS : 55435317, Roll : 10.26, Pitch : -2.34, Yaw : 9.65, Alt : 49.2599983215, Lat : 49.2835739, Lng : -123.1150024, Q1 : 0.992094695568, Q2 : 0.0908385440707, Q3 : -0.0128161953762, Q4 : 0.0856284350157}
2019-04-14 12:56:23.51: SIM {TimeUS : 55535277, Roll : 10.3, Pitch : -3.53, Yaw : 15.63, Alt : 49.2599983215, Lat : 49.2835743, Lng : -123.1150003, Q1 : 0.985854268074, Q2 : 0.0931297168136, Q3 : -0.018224818632, Q4 : 0.138152316213}
2019-04-14 12:56:23.61: SIM {TimeUS : 55635237, Roll : 9.89, Pitch : -5.23, Yaw : 22.68, Alt : 49.2599983215, Lat : 49.2835745, Lng : -123.1149981, Q1 : 0.975028693676, Q2 : 0.0934492349625, Q3 : -0.0276200473309, Q4 : 0.199558123946}
2019-04-14 12:56:23.71: SIM {TimeUS : 55735197, Roll : 8.99, Pitch : -7.21, Yaw : 30.54, Alt : 49.2700004578, Lat : 49.2835749, Lng : -123.1149959, Q1 : 0.958499610424, Q2 : 0.0920444056392, Q3 : -0.0399240031838, Q4 : 0.266856402159}
2019-04-14 12:56:23.81: SIM {TimeUS : 55835157, Roll : 7.58, Pitch : -9.24, Yaw : 39.0, Alt : 49.2700004578, Lat : 49.2835751, Lng : -123.1149935, Q1 : 0.935730278492, Q2 : 0.0890075936913, Q3 : -0.0537846423686, Q4 : 0.337036758661}
2019-04-14 12:56:23.91: SIM {TimeUS : 55935117, Roll : 5.71, Pitch : -11.06, Yaw : 47.8, Alt : 49.2700004578, Lat : 49.2835756, Lng : -123.1149909, Q1 : 0.906900823116, Q2 : 0.0843361914158, Q3 : -0.0679241195321, Q4 : 0.407191127539}
2019-04-14 12:56:24.01: SIM {TimeUS : 56035077, Roll : 3.49, Pitch : -12.48, Yaw : 56.68, Alt : 49.2700004578, Lat : 49.2835758, Lng : -123.1149883, Q1 : 0.872941911221, Q2 : 0.0782205462456, Q3 : -0.0812512487173, Q4 : 0.474607378244}
2019-04-14 12:56:24.11: SIM {TimeUS : 56135037, Roll : 1.09, Pitch : -13.41, Yaw : 65.32, Alt : 49.2700004578, Lat : 49.2835763, Lng : -123.1149855, Q1 : 0.835455000401, Q2 : 0.0710520520806, Q3 : -0.0932023301721, Q4 : 0.536917030811}
2019-04-14 12:56:24.21: SIM {TimeUS : 56234997, Roll : -1.53, Pitch : -13.87, Yaw : 73.33, Alt : 49.2799987793, Lat : 49.2835767, Lng : -123.1149826, Q1 : 0.797149062157, Q2 : 0.0614835172892, Q3 : -0.104844115674, Q4 : 0.591422736645}
2019-04-14 12:56:24.31: SIM {TimeUS : 56334957, Roll : -4.23, Pitch : -13.9, Yaw : 80.03, Alt : 49.2799987793, Lat : 49.2835771, Lng : -123.1149796, Q1 : 0.762583911419, Q2 : 0.0497085154057, Q3 : -0.116188392043, Q4 : 0.63442504406}
2019-04-14 12:56:24.41: SIM {TimeUS : 56434917, Roll : -6.48, Pitch : -13.64, Yaw : 84.87, Alt : 49.2799987793, Lat : 49.2835777, Lng : -123.1149765, Q1 : 0.736138343811, Q2 : 0.0385288335383, Q3 : -0.125423282385, Q4 : 0.663991630077}
2019-04-14 12:56:24.51: SIM {TimeUS : 56534877, Roll : -7.9, Pitch : -13.31, Yaw : 87.72, Alt : 49.2799987793, Lat : 49.2835783, Lng : -123.1149733, Q1 : 0.719997882843, Q2 : 0.0307771358639, Q3 : -0.130845487118, Q4 : 0.680834233761}
2019-04-14 12:56:24.61: SIM {TimeUS : 56634837, Roll : -8.33, Pitch : -13.1, Yaw : 88.73, Alt : 49.2799987793, Lat : 49.2835791, Lng : -123.11497, Q1 : 0.714120030403, Q2 : 0.0279530882835, Q3 : -0.131883665919, Q4 : 0.686919152737}
2019-04-14 12:56:24.71: SIM {TimeUS : 56734797, Roll : -7.85, Pitch : -13.13, Yaw : 88.23, Alt : 49.2799987793, Lat : 49.2835799, Lng : -123.1149666, Q1 : 0.716971993446, Q2 : 0.0305835828185, Q3 : -0.129281789064, Q4 : 0.684326052666}
2019-04-14 12:56:24.82: SIM {TimeUS : 56835590, Roll : -6.63, Pitch : -13.45, Yaw : 86.56, Alt : 49.2799987793, Lat : 49.2835807, Lng : -123.1149631, Q1 : 0.726428091526, Q2 : 0.0383179932833, Q3 : -0.124549083412, Q4 : 0.674775123596}
2019-04-14 12:56:24.91: SIM {TimeUS : 56935550, Roll : -4.95, Pitch : -13.99, Yaw : 84.07, Alt : 49.2799987793, Lat : 49.2835818, Lng : -123.1149595, Q1 : 0.740034997463, Q2 : 0.04959981516, Q3 : -0.11910071969, Q4 : 0.660078167915}
2019-04-14 12:56:25.01: SIM {TimeUS : 57035510, Roll : -3.03, Pitch : -14.63, Yaw : 81.06, Alt : 49.2799987793, Lat : 49.2835828, Lng : -123.1149558, Q1 : 0.755748748779, Q2 : 0.0628153979778, Q3 : -0.113826654851, Q4 : 0.641826808453}
2019-04-14 12:56:25.11: SIM {TimeUS : 57135470, Roll : -1.08, Pitch : -15.25, Yaw : 77.85, Alt : 49.2799987793, Lat : 49.2835837, Lng : -123.1149521, Q1 : 0.771790623665, Q2 : 0.0761289671063, Q3 : -0.109161540866, Q4 : 0.621793687344}
2019-04-14 12:56:25.21: SIM {TimeUS : 57235430, Roll : 0.68, Pitch : -15.72, Yaw : 74.76, Alt : 49.2799987793, Lat : 49.2835848, Lng : -123.1149482, Q1 : 0.786639988422, Q2 : 0.0877900868654, Q3 : -0.105092681944, Q4 : 0.60203486681}
2019-04-14 12:56:25.31: SIM {TimeUS : 57335390, Roll : 2.13, Pitch : -15.97, Yaw : 72.09, Alt : 49.2799987793, Lat : 49.2835858, Lng : -123.1149442, Q1 : 0.799051761627, Q2 : 0.0966408625245, Q3 : -0.101484850049, Q4 : 0.584703028202}
2019-04-14 12:56:25.41: SIM {TimeUS : 57435350, Roll : 3.12, Pitch : -16.04, Yaw : 70.08, Alt : 49.2799987793, Lat : 49.2835867, Lng : -123.1149401, Q1 : 0.808248579502, Q2 : 0.102219723165, Q3 : -0.0986884757876, Q4 : 0.571442008018}
2019-04-14 12:56:25.51: SIM {TimeUS : 57535310, Roll : 3.64, Pitch : -16.0, Yaw : 68.84, Alt : 49.2799987793, Lat : 49.2835877, Lng : -123.1149359, Q1 : 0.813934862614, Q2 : 0.104590408504, Q3 : -0.0969741120934, Q4 : 0.563175737858}
2019-04-14 12:56:25.61: SIM {TimeUS : 57635270, Roll : 3.67, Pitch : -15.93, Yaw : 68.39, Alt : 49.2900009155, Lat : 49.2835885, Lng : -123.1149316, Q1 : 0.816197693348, Q2 : 0.104158975184, Q3 : -0.0967151373625, Q4 : 0.560016512871}
2019-04-14 12:56:25.71: SIM {TimeUS : 57735230, Roll : 3.31, Pitch : -15.9, Yaw : 68.63, Alt : 49.2900009155, Lat : 49.2835895, Lng : -123.1149271, Q1 : 0.815377116203, Q2 : 0.101662918925, Q3 : -0.0980549156666, Q4 : 0.561435699463}
2019-04-14 12:56:25.81: SIM {TimeUS : 57835190, Roll : 2.67, Pitch : -15.94, Yaw : 69.42, Alt : 49.2900009155, Lat : 49.2835903, Lng : -123.1149226, Q1 : 0.812010645866, Q2 : 0.0980102047324, Q3 : -0.100819446146, Q4 : 0.566452264786}
2019-04-14 12:56:25.91: SIM {TimeUS : 57935150, Roll : 1.86, Pitch : -16.07, Yaw : 70.57, Alt : 49.2900009155, Lat : 49.2835913, Lng : -123.114918, Q1 : 0.806802332401, Q2 : 0.0939253345132, Q3 : -0.104746580124, Q4 : 0.573825955391}
2019-04-14 12:56:26.01: SIM {TimeUS : 58035110, Roll : 0.99, Pitch : -16.23, Yaw : 71.91, Alt : 49.2900009155, Lat : 49.2835921, Lng : -123.1149133, Q1 : 0.800577640533, Q2 : 0.0898744165897, Q3 : -0.109193198383, Q4 : 0.58230137825}
2019-04-14 12:56:26.11: SIM {TimeUS : 58135070, Roll : 0.15, Pitch : -16.39, Yaw : 73.26, Alt : 49.2900009155, Lat : 49.2835929, Lng : -123.1149085, Q1 : 0.794173955917, Q2 : 0.0861357599497, Q3 : -0.113598607481, Q4 : 0.590731561184}
2019-04-14 12:56:26.21: SIM {TimeUS : 58235030, Roll : -0.56, Pitch : -16.49, Yaw : 74.46, Alt : 49.2900009155, Lat : 49.2835939, Lng : -123.1149037, Q1 : 0.788353562355, Q2 : 0.0829286202788, Q3 : -0.117177262902, Q4 : 0.598239898682}
2019-04-14 12:56:26.31: SIM {TimeUS : 58334990, Roll : -1.07, Pitch : -16.54, Yaw : 75.42, Alt : 49.2900009155, Lat : 49.2835947, Lng : -123.1148988, Q1 : 0.783666670322, Q2 : 0.0806371420622, Q3 : -0.119535081089, Q4 : 0.604214847088}
2019-04-14 12:56:26.41: SIM {TimeUS : 58434950, Roll : -1.39, Pitch : -16.55, Yaw : 76.06, Alt : 49.2900009155, Lat : 49.2835958, Lng : -123.1148938, Q1 : 0.780477941036, Q2 : 0.0792127847672, Q3 : -0.120852611959, Q4 : 0.608255088329}
2019-04-14 12:56:26.51: SIM {TimeUS : 58534910, Roll : -1.49, Pitch : -16.56, Yaw : 76.37, Alt : 49.2900009155, Lat : 49.2835966, Lng : -123.1148888, Q1 : 0.778870880604, Q2 : 0.0788898319006, Q3 : -0.121190473437, Q4 : 0.610286355019}
2019-04-14 12:56:26.61: SIM {TimeUS : 58634870, Roll : -1.38, Pitch : -16.55, Yaw : 76.38, Alt : 49.2900009155, Lat : 49.2835976, Lng : -123.1148837, Q1 : 0.778754532337, Q2 : 0.0795949175954, Q3 : -0.120558530092, Q4 : 0.610468387604}
2019-04-14 12:56:26.71: SIM {TimeUS : 58734830, Roll : -1.14, Pitch : -16.55, Yaw : 76.14, Alt : 49.2900009155, Lat : 49.2835987, Lng : -123.1148786, Q1 : 0.779881894588, Q2 : 0.0810045003891, Q3 : -0.11945515126, Q4 : 0.609059095383}
2019-04-14 12:56:26.81: SIM {TimeUS : 58834790, Roll : -0.83, Pitch : -16.59, Yaw : 75.71, Alt : 49.2900009155, Lat : 49.2835996, Lng : -123.1148734, Q1 : 0.781895160675, Q2 : 0.0828677415848, Q3 : -0.118378221989, Q4 : 0.606431782246}
2019-04-14 12:56:26.92: SIM {TimeUS : 58935583, Roll : -0.49, Pitch : -16.66, Yaw : 75.17, Alt : 49.2900009155, Lat : 49.2836007, Lng : -123.1148682, Q1 : 0.784428358078, Q2 : 0.0849970877171, Q3 : -0.11744119972, Q4 : 0.603038370609}
2019-04-14 12:56:27.01: SIM {TimeUS : 59035543, Roll : -0.16, Pitch : -16.74, Yaw : 74.6, Alt : 49.2900009155, Lat : 49.2836018, Lng : -123.1148629, Q1 : 0.787081062794, Q2 : 0.0870925039053, Q3 : -0.116683423519, Q4 : 0.599419116974}
2019-04-14 12:56:27.11: SIM {TimeUS : 59135503, Roll : 0.12, Pitch : -16.8, Yaw : 74.07, Alt : 49.2900009155, Lat : 49.2836028, Lng : -123.1148576, Q1 : 0.789573431015, Q2 : 0.0888919383287, Q3 : -0.116018876433, Q4 : 0.595996379852}
2019-04-14 12:56:27.21: SIM {TimeUS : 59235463, Roll : 0.36, Pitch : -16.85, Yaw : 73.62, Alt : 49.2900009155, Lat : 49.2836038, Lng : -123.1148522, Q1 : 0.791659832001, Q2 : 0.0903470814228, Q3 : -0.115480616689, Q4 : 0.593107402325}
2019-04-14 12:56:27.31: SIM {TimeUS : 59335423, Roll : 0.53, Pitch : -16.9, Yaw : 73.29, Alt : 49.2900009155, Lat : 49.2836049, Lng : -123.1148468, Q1 : 0.793187975883, Q2 : 0.0914259180427, Q3 : -0.115138143301, Q4 : 0.590963065624}
2019-04-14 12:56:27.41: SIM {TimeUS : 59435383, Roll : 0.63, Pitch : -16.92, Yaw : 73.09, Alt : 49.2900009155, Lat : 49.283606, Lng : -123.1148414, Q1 : 0.794108211994, Q2 : 0.0920381844044, Q3 : -0.114992253482, Q4 : 0.589659154415}
2019-04-14 12:56:27.51: SIM {TimeUS : 59535343, Roll : 0.65, Pitch : -16.94, Yaw : 73.02, Alt : 49.2900009155, Lat : 49.2836069, Lng : -123.1148359, Q1 : 0.7944419384, Q2 : 0.0922017246485, Q3 : -0.115047849715, Q4 : 0.589173018932}
2019-04-14 12:56:27.61: SIM {TimeUS : 59635303, Roll : 0.6, Pitch : -16.96, Yaw : 73.06, Alt : 49.2999992371, Lat : 49.283608, Lng : -123.1148304, Q1 : 0.794255495071, Q2 : 0.0919893831015, Q3 : -0.115418955684, Q4 : 0.589385032654}
2019-04-14 12:56:27.71: SIM {TimeUS : 59735263, Roll : 0.49, Pitch : -16.98, Yaw : 73.19, Alt : 49.2999992371, Lat : 49.2836091, Lng : -123.1148248, Q1 : 0.793664515018, Q2 : 0.0914979279041, Q3 : -0.116008110344, Q4 : 0.590141415596}
2019-04-14 12:56:27.81: SIM {TimeUS : 59835223, Roll : 0.35, Pitch : -17.01, Yaw : 73.37, Alt : 49.2999992371, Lat : 49.2836101, Lng : -123.1148193, Q1 : 0.792806506157, Q2 : 0.0908532738686, Q3 : -0.116815909743, Q4 : 0.591233968735}
2019-04-14 12:56:27.91: SIM {TimeUS : 59935183, Roll : 0.19, Pitch : -17.05, Yaw : 73.58, Alt : 49.2999992371, Lat : 49.2836111, Lng : -123.1148136, Q1 : 0.791828095913, Q2 : 0.0901388078928, Q3 : -0.117773793638, Q4 : 0.592463135719}
2019-04-14 12:56:28.01: SIM {TimeUS : 60035143, Roll : 0.03, Pitch : -17.09, Yaw : 73.78, Alt : 49.2999992371, Lat : 49.2836122, Lng : -123.114808, Q1 : 0.790864408016, Q2 : 0.0894875973463, Q3 : -0.118720881641, Q4 : 0.593658924103}
2019-04-14 12:56:28.11: SIM {TimeUS : 60135103, Roll : -0.1, Pitch : -17.13, Yaw : 73.95, Alt : 49.2999992371, Lat : 49.2836133, Lng : -123.1148023, Q1 : 0.790032207966, Q2 : 0.0888829231262, Q3 : -0.119574390352, Q4 : 0.594685554504}
2019-04-14 12:56:28.21: SIM {TimeUS : 60235063, Roll : -0.21, Pitch : -17.16, Yaw : 74.08, Alt : 49.2999992371, Lat : 49.2836144, Lng : -123.1147966, Q1 : 0.789416253567, Q2 : 0.0884066820145, Q3 : -0.12019970268, Q4 : 0.59544801712}
2019-04-14 12:56:28.31: SIM {TimeUS : 60335023, Roll : -0.28, Pitch : -17.18, Yaw : 74.16, Alt : 49.2999992371, Lat : 49.2836153, Lng : -123.1147909, Q1 : 0.789047598839, Q2 : 0.0881347507238, Q3 : -0.12071672827, Q4 : 0.595872163773}
2019-04-14 12:56:28.41: SIM {TimeUS : 60434983, Roll : -0.29, Pitch : -17.22, Yaw : 74.18, Alt : 49.2999992371, Lat : 49.2836165, Lng : -123.1147851, Q1 : 0.788908183575, Q2 : 0.0882561579347, Q3 : -0.121006697416, Q4 : 0.595979988575}
2019-04-14 12:56:28.51: SIM {TimeUS : 60534943, Roll : -0.26, Pitch : -17.26, Yaw : 74.15, Alt : 49.2999992371, Lat : 49.2836176, Lng : -123.1147793, Q1 : 0.788990139961, Q2 : 0.0886738747358, Q3 : -0.12109990418, Q4 : 0.595790565014}
2019-04-14 12:56:28.61: SIM {TimeUS : 60634903, Roll : -0.19, Pitch : -17.3, Yaw : 74.08, Alt : 49.3100013733, Lat : 49.2836187, Lng : -123.1147735, Q1 : 0.789248049259, Q2 : 0.0893207713962, Q3 : -0.121078051627, Q4 : 0.595356583595}
2019-04-14 12:56:28.71: SIM {TimeUS : 60734863, Roll : -0.1, Pitch : -17.34, Yaw : 73.98, Alt : 49.3100013733, Lat : 49.2836197, Lng : -123.1147676, Q1 : 0.789634883404, Q2 : 0.0900320410728, Q3 : -0.12100572139, Q4 : 0.5947509408}
2019-04-14 12:56:28.81: SIM {TimeUS : 60834823, Roll : -0.02, Pitch : -17.37, Yaw : 73.87, Alt : 49.3100013733, Lat : 49.2836208, Lng : -123.1147618, Q1 : 0.790112555027, Q2 : 0.0906318947673, Q3 : -0.120877511799, Q4 : 0.594051003456}
2019-04-14 12:56:28.91: SIM {TimeUS : 60934783, Roll : 0.03, Pitch : -17.38, Yaw : 73.76, Alt : 49.3100013733, Lat : 49.283622, Lng : -123.1147559, Q1 : 0.790638744831, Q2 : 0.0909702628851, Q3 : -0.120699249208, Q4 : 0.593335092068}
2019-04-14 12:56:29.02: SIM {TimeUS : 61035576, Roll : 0.07, Pitch : -17.38, Yaw : 73.66, Alt : 49.3100013733, Lat : 49.2836231, Lng : -123.11475, Q1 : 0.791146636009, Q2 : 0.0911267772317, Q3 : -0.120608061552, Q4 : 0.592652201653}
2019-04-14 12:56:29.11: SIM {TimeUS : 61135536, Roll : 0.11, Pitch : -17.38, Yaw : 73.57, Alt : 49.3100013733, Lat : 49.2836243, Lng : -123.1147441, Q1 : 0.791569888592, Q2 : 0.0912935435772, Q3 : -0.120436646044, Q4 : 0.592095971107}
2019-04-14 12:56:29.21: SIM {TimeUS : 61235496, Roll : 0.15, Pitch : -17.39, Yaw : 73.5, Alt : 49.3100013733, Lat : 49.2836254, Lng : -123.1147381, Q1 : 0.791867792606, Q2 : 0.0915475860238, Q3 : -0.120375990868, Q4 : 0.591670572758}
2019-04-14 12:56:29.31: SIM {TimeUS : 61335456, Roll : 0.18, Pitch : -17.43, Yaw : 73.46, Alt : 49.3100013733, Lat : 49.2836264, Lng : -123.1147322, Q1 : 0.792013704777, Q2 : 0.0919715613127, Q3 : -0.120530605316, Q4 : 0.591378033161}
2019-04-14 12:56:29.41: SIM {TimeUS : 61435416, Roll : 0.21, Pitch : -17.5, Yaw : 73.44, Alt : 49.3100013733, Lat : 49.2836275, Lng : -123.1147262, Q1 : 0.792029500008, Q2 : 0.0924546122551, Q3 : -0.12089266628, Q4 : 0.591207563877}
2019-04-14 12:56:29.51: SIM {TimeUS : 61535376, Roll : 0.21, Pitch : -17.54, Yaw : 73.44, Alt : 49.3100013733, Lat : 49.2836287, Lng : -123.1147202, Q1 : 0.792003154755, Q2 : 0.0926452428102, Q3 : -0.121147945523, Q4 : 0.591160774231}
2019-04-14 12:56:29.61: SIM {TimeUS : 61635336, Roll : 0.2, Pitch : -17.54, Yaw : 73.45, Alt : 49.3199996948, Lat : 49.2836299, Lng : -123.1147142, Q1 : 0.791956365108, Q2 : 0.0925748646259, Q3 : -0.121186248958, Q4 : 0.591226637363}
2019-04-14 12:56:29.71: SIM {TimeUS : 61735296, Roll : 0.17, Pitch : -17.54, Yaw : 73.47, Alt : 49.3199996948, Lat : 49.283631, Lng : -123.1147082, Q1 : 0.791878521442, Q2 : 0.0924054458737, Q3 : -0.121300645173, Q4 : 0.591333925724}
2019-04-14 12:56:29.81: SIM {TimeUS : 61835256, Roll : 0.12, Pitch : -17.55, Yaw : 73.49, Alt : 49.3199996948, Lat : 49.2836322, Lng : -123.1147022, Q1 : 0.791787087917, Q2 : 0.0921361297369, Q3 : -0.121653288603, Q4 : 0.591425955296}
2019-04-14 12:56:29.91: SIM {TimeUS : 61935216, Roll : 0.07, Pitch : -17.57, Yaw : 73.51, Alt : 49.3199996948, Lat : 49.2836333, Lng : -123.1146961, Q1 : 0.791688859463, Q2 : 0.0919665172696, Q3 : -0.121986247599, Q4 : 0.591515243053}
2019-04-14 12:56:30.01: SIM {TimeUS : 62035176, Roll : 0.04, Pitch : -17.59, Yaw : 73.53, Alt : 49.3199996948, Lat : 49.2836345, Lng : -123.11469, Q1 : 0.791607618332, Q2 : 0.0918925479054, Q3 : -0.122267127037, Q4 : 0.591577470303}
2019-04-14 12:56:30.11: SIM {TimeUS : 62135136, Roll : 0.03, Pitch : -17.61, Yaw : 73.54, Alt : 49.3199996948, Lat : 49.2836355, Lng : -123.1146839, Q1 : 0.791562318802, Q2 : 0.0918846428394, Q3 : -0.122447423637, Q4 : 0.591602087021}
2019-04-14 12:56:30.21: SIM {TimeUS : 62235096, Roll : 0.03, Pitch : -17.62, Yaw : 73.54, Alt : 49.3199996948, Lat : 49.2836367, Lng : -123.1146778, Q1 : 0.791558027267, Q2 : 0.0919522196054, Q3 : -0.122571073472, Q4 : 0.591571629047}
2019-04-14 12:56:30.31: SIM {TimeUS : 62335056, Roll : 0.05, Pitch : -17.64, Yaw : 73.52, Alt : 49.3199996948, Lat : 49.2836378, Lng : -123.1146717, Q1 : 0.791585147381, Q2 : 0.092163272202, Q3 : -0.12262904644, Q4 : 0.591490507126}
2019-04-14 12:56:30.41: SIM {TimeUS : 62435016, Roll : 0.08, Pitch : -17.68, Yaw : 73.5, Alt : 49.3199996948, Lat : 49.283639, Lng : -123.1146656, Q1 : 0.791636884212, Q2 : 0.0925508365035, Q3 : -0.122696891427, Q4 : 0.591346621513}
2019-04-14 12:56:30.51: SIM {TimeUS : 62534976, Roll : 0.11, Pitch : -17.71, Yaw : 73.47, Alt : 49.3199996948, Lat : 49.2836402, Lng : -123.1146594, Q1 : 0.791725456715, Q2 : 0.0929082334042, Q3 : -0.122776523232, Q4 : 0.591155469418}
2019-04-14 12:56:30.61: SIM {TimeUS : 62634936, Roll : 0.13, Pitch : -17.74, Yaw : 73.44, Alt : 49.3199996948, Lat : 49.2836414, Lng : -123.1146533, Q1 : 0.791846632957, Q2 : 0.0931425988674, Q3 : -0.122972398996, Q4 : 0.590915501118}
2019-04-14 12:56:30.71: SIM {TimeUS : 62734896, Roll : 0.12, Pitch : -17.78, Yaw : 73.41, Alt : 49.3199996948, Lat : 49.2836426, Lng : -123.1146472, Q1 : 0.791984081268, Q2 : 0.0932736694813, Q3 : -0.123261041939, Q4 : 0.590650498867}
2019-04-14 12:56:30.81: SIM {TimeUS : 62834856, Roll : 0.12, Pitch : -17.81, Yaw : 73.37, Alt : 49.3199996948, Lat : 49.2836437, Lng : -123.114641, Q1 : 0.792114377022, Q2 : 0.0933885723352, Q3 : -0.123563468456, Q4 : 0.590394377708}
2019-04-14 12:56:30.91: SIM {TimeUS : 62934816, Roll : 0.13, Pitch : -17.84, Yaw : 73.34, Alt : 49.3199996948, Lat : 49.2836449, Lng : -123.1146348, Q1 : 0.792227625847, Q2 : 0.0935947820544, Q3 : -0.123694941401, Q4 : 0.590182185173}
2019-04-14 12:56:31.01: SIM {TimeUS : 63034776, Roll : 0.16, Pitch : -17.84, Yaw : 73.32, Alt : 49.3199996948, Lat : 49.2836461, Lng : -123.1146286, Q1 : 0.792341530323, Q2 : 0.0937709733844, Q3 : -0.123573660851, Q4 : 0.590026676655}
2019-04-14 12:56:31.11: SIM {TimeUS : 63135569, Roll : 0.18, Pitch : -17.81, Yaw : 73.29, Alt : 49.3199996948, Lat : 49.2836473, Lng : -123.1146223, Q1 : 0.792467653751, Q2 : 0.0937519520521, Q3 : -0.123276755214, Q4 : 0.589922368526}
2019-04-14 12:56:31.21: SIM {TimeUS : 63235529, Roll : 0.18, Pitch : -17.79, Yaw : 73.28, Alt : 49.3300018311, Lat : 49.2836484, Lng : -123.1146161, Q1 : 0.792580783367, Q2 : 0.0935906171799, Q3 : -0.123097293079, Q4 : 0.589833557606}
2019-04-14 12:56:31.31: SIM {TimeUS : 63335489, Roll : 0.16, Pitch : -17.76, Yaw : 73.27, Alt : 49.3300018311, Lat : 49.2836495, Lng : -123.1146099, Q1 : 0.792678117752, Q2 : 0.0933240130544, Q3 : -0.123070627451, Q4 : 0.589750528336}
2019-04-14 12:56:31.41: SIM {TimeUS : 63435449, Roll : 0.14, Pitch : -17.76, Yaw : 73.26, Alt : 49.3300018311, Lat : 49.2836507, Lng : -123.1146036, Q1 : 0.792733490467, Q2 : 0.0931572020054, Q3 : -0.123162202537, Q4 : 0.589683353901}
2019-04-14 12:56:31.51: SIM {TimeUS : 63535409, Roll : 0.12, Pitch : -17.78, Yaw : 73.26, Alt : 49.3300018311, Lat : 49.2836519, Lng : -123.1145974, Q1 : 0.792755842209, Q2 : 0.0931074172258, Q3 : -0.123379297554, Q4 : 0.589615821838}
2019-04-14 12:56:31.61: SIM {TimeUS : 63635369, Roll : 0.12, Pitch : -17.8, Yaw : 73.25, Alt : 49.3300018311, Lat : 49.2836531, Lng : -123.1145911, Q1 : 0.792761921883, Q2 : 0.0931859761477, Q3 : -0.123581402004, Q4 : 0.589552819729}
2019-04-14 12:56:31.71: SIM {TimeUS : 63735329, Roll : 0.11, Pitch : -17.84, Yaw : 73.24, Alt : 49.3300018311, Lat : 49.2836543, Lng : -123.1145848, Q1 : 0.792758405209, Q2 : 0.0933262631297, Q3 : -0.123888380826, Q4 : 0.589470982552}
2019-04-14 12:56:31.81: SIM {TimeUS : 63835289, Roll : 0.11, Pitch : -17.89, Yaw : 73.24, Alt : 49.3300018311, Lat : 49.2836555, Lng : -123.1145786, Q1 : 0.792746186256, Q2 : 0.0935509428382, Q3 : -0.124233819544, Q4 : 0.589379072189}
2019-04-14 12:56:31.91: SIM {TimeUS : 63935249, Roll : 0.12, Pitch : -17.93, Yaw : 73.23, Alt : 49.3300018311, Lat : 49.2836566, Lng : -123.1145723, Q1 : 0.792743444443, Q2 : 0.0937878042459, Q3 : -0.124453686178, Q4 : 0.589298725128}
2019-04-14 12:56:32.01: SIM {TimeUS : 64035209, Roll : 0.11, Pitch : -17.96, Yaw : 73.22, Alt : 49.3300018311, Lat : 49.2836578, Lng : -123.114566, Q1 : 0.79276651144, Q2 : 0.0939169228077, Q3 : -0.124688573182, Q4 : 0.589197456837}
2019-04-14 12:56:32.11: SIM {TimeUS : 64135169, Roll : 0.11, Pitch : -17.98, Yaw : 73.2, Alt : 49.3300018311, Lat : 49.2836591, Lng : -123.1145597, Q1 : 0.792809069157, Q2 : 0.0939899235964, Q3 : -0.124868139625, Q4 : 0.589090526104}
2019-04-14 12:56:32.21: SIM {TimeUS : 64235129, Roll : 0.13, Pitch : -17.97, Yaw : 73.19, Alt : 49.3300018311, Lat : 49.2836603, Lng : -123.1145534, Q1 : 0.792867898941, Q2 : 0.0940838977695, Q3 : -0.124757245183, Q4 : 0.589019834995}
2019-04-14 12:56:32.31: SIM {TimeUS : 64335089, Roll : 0.16, Pitch : -17.98, Yaw : 73.18, Alt : 49.3300018311, Lat : 49.2836615, Lng : -123.1145471, Q1 : 0.792917191982, Q2 : 0.0942791625857, Q3 : -0.124664790928, Q4 : 0.58894187212}
2019-04-14 12:56:32.41: SIM {TimeUS : 64435049, Roll : 0.17, Pitch : -17.99, Yaw : 73.16, Alt : 49.3300018311, Lat : 49.2836627, Lng : -123.1145407, Q1 : 0.792971372604, Q2 : 0.0944092646241, Q3 : -0.124704256654, Q4 : 0.588839590549}
2019-04-14 12:56:32.51: SIM {TimeUS : 64535009, Roll : 0.17, Pitch : -18.0, Yaw : 73.15, Alt : 49.3300018311, Lat : 49.2836639, Lng : -123.1145344, Q1 : 0.793040513992, Q2 : 0.0944519340992, Q3 : -0.124720089138, Q4 : 0.588736355305}
2019-04-14 12:56:32.61: SIM {TimeUS : 64634969, Roll : 0.18, Pitch : -17.99, Yaw : 73.13, Alt : 49.3400001526, Lat : 49.2836651, Lng : -123.1145281, Q1 : 0.793116271496, Q2 : 0.0944413244724, Q3 : -0.124675527215, Q4 : 0.588645398617}
2019-04-14 12:56:32.71: SIM {TimeUS : 64734929, Roll : 0.17, Pitch : -17.99, Yaw : 73.12, Alt : 49.3400001526, Lat : 49.2836664, Lng : -123.1145217, Q1 : 0.793187975883, Q2 : 0.0944084003568, Q3 : -0.124703250825, Q4 : 0.588548183441}
2019-04-14 12:56:32.81: SIM {TimeUS : 64834889, Roll : 0.15, Pitch : -18.01, Yaw : 73.1, Alt : 49.3400001526, Lat : 49.2836676, Lng : -123.1145153, Q1 : 0.793251097202, Q2 : 0.0943406298757, Q3 : -0.124946400523, Q4 : 0.588422417641}
2019-04-14 12:56:32.91: SIM {TimeUS : 64934849, Roll : 0.13, Pitch : -18.04, Yaw : 73.09, Alt : 49.3400001526, Lat : 49.2836688, Lng : -123.114509, Q1 : 0.793300449848, Q2 : 0.0943032577634, Q3 : -0.12532119453, Q4 : 0.588282167912}
2019-04-14 12:56:33.01: SIM {TimeUS : 65034809, Roll : 0.11, Pitch : -18.05, Yaw : 73.08, Alt : 49.3400001526, Lat : 49.28367, Lng : -123.1145026, Q1 : 0.79336220026, Q2 : 0.0942139327526, Q3 : -0.125442788005, Q4 : 0.588187277317}
2019-04-14 12:56:33.12: SIM {TimeUS : 65135602, Roll : 0.12, Pitch : -18.03, Yaw : 73.07, Alt : 49.3400001526, Lat : 49.2836712, Lng : -123.1144962, Q1 : 0.793429672718, Q2 : 0.0941706225276, Q3 : -0.125284343958, Q4 : 0.588137030602}
2019-04-14 12:56:33.21: SIM {TimeUS : 65235562, Roll : 0.14, Pitch : -18.01, Yaw : 73.06, Alt : 49.3400001526, Lat : 49.2836724, Lng : -123.1144898, Q1 : 0.793482899666, Q2 : 0.0942385867238, Q3 : -0.125073373318, Q4 : 0.588099241257}
2019-04-14 12:56:33.31: SIM {TimeUS : 65335522, Roll : 0.16, Pitch : -18.02, Yaw : 73.05, Alt : 49.3400001526, Lat : 49.2836736, Lng : -123.1144834, Q1 : 0.793524265289, Q2 : 0.0943482220173, Q3 : -0.125029087067, Q4 : 0.588035225868}
2019-04-14 12:56:33.41: SIM {TimeUS : 65435482, Roll : 0.15, Pitch : -18.04, Yaw : 73.04, Alt : 49.3400001526, Lat : 49.2836749, Lng : -123.114477, Q1 : 0.793561637402, Q2 : 0.0943871587515, Q3 : -0.125198975205, Q4 : 0.587942421436}
2019-04-14 12:56:33.51: SIM {TimeUS : 65535442, Roll : 0.12, Pitch : -18.06, Yaw : 73.03, Alt : 49.3400001526, Lat : 49.2836761, Lng : -123.1144706, Q1 : 0.79360216856, Q2 : 0.0943223834038, Q3 : -0.125549033284, Q4 : 0.587823450565}
2019-04-14 12:56:33.61: SIM {TimeUS : 65635402, Roll : 0.1, Pitch : -18.09, Yaw : 73.02, Alt : 49.3400001526, Lat : 49.2836773, Lng : -123.1144642, Q1 : 0.793645679951, Q2 : 0.0942955613136, Q3 : -0.125854447484, Q4 : 0.587703645229}
2019-04-14 12:56:33.71: SIM {TimeUS : 65735362, Roll : 0.1, Pitch : -18.12, Yaw : 73.01, Alt : 49.3400001526, Lat : 49.2836785, Lng : -123.1144578, Q1 : 0.793681323528, Q2 : 0.0943856835365, Q3 : -0.126063942909, Q4 : 0.58759611845}
2019-04-14 12:56:33.81: SIM {TimeUS : 65835322, Roll : 0.11, Pitch : -18.13, Yaw : 73.0, Alt : 49.3400001526, Lat : 49.2836797, Lng : -123.1144514, Q1 : 0.793712615967, Q2 : 0.094537474215, Q3 : -0.126110196114, Q4 : 0.587519526482}
2019-04-14 12:56:33.91: SIM {TimeUS : 65935282, Roll : 0.14, Pitch : -18.14, Yaw : 72.98, Alt : 49.3400001526, Lat : 49.2836809, Lng : -123.114445, Q1 : 0.793740153313, Q2 : 0.0947737917304, Q3 : -0.12603084743, Q4 : 0.587461292744}
2019-04-14 12:56:34.01: SIM {TimeUS : 66035242, Roll : 0.16, Pitch : -18.15, Yaw : 72.97, Alt : 49.3499984741, Lat : 49.2836822, Lng : -123.1144386, Q1 : 0.793767273426, Q2 : 0.0949686542153, Q3 : -0.126009002328, Q4 : 0.587397873402}
