2019-04-14 13:09:58.40: SIM {TimeUS : 40216407, Roll : 0.0, Pitch : 0.0, Yaw : 0.0, Alt : 30.1000003815, Lat : 49.28357, Lng : -123.11502, Q1 : 1.0, Q2 : 0.0, Q3 : 0.0, Q4 : 0.0}
2019-04-14 13:09:58.51: SIM {TimeUS : 40335526, Roll : 0.0, Pitch : 0.0, Yaw : 0.0, Alt : 30.1000003815, Lat : 49.28357, Lng : -123.11502, Q1 : 1.0, Q2 : 0.0, Q3 : 0.0, Q4 : 0.0}
2019-04-14 13:09:58.61: SIM {TimeUS : 40435486, Roll : 0.0, Pitch : 0.0, Yaw : 0.0, Alt : 30.1000003815, Lat : 49.28357, Lng : -123.11502, Q1 : 1.0, Q2 : 0.0, Q3 : 0.0, Q4 : 0.0}
2019-04-14 13:09:58.71: SIM {TimeUS : 40535446, Roll : 0.0, Pitch : 0.0, Yaw : 0.0, Alt : 30.1000003815, Lat : 49.28357, Lng : -123.11502, Q1 : 1.0, Q2 : 0.0, Q3 : 0.0, Q4 : 0.0}
2019-04-14 13:09:58.81: SIM {TimeUS : 40635406, Roll : 0.0, Pitch : 0.0, Yaw : 0.0, Alt : 30.1000003815, Lat : 49.28357, Lng : -123.11502, Q1 : 1.0, Q2 : 0.0, Q3 : 0.0, Q4 : 0.0}
2019-04-14 13:09:58.91: SIM {TimeUS : 40735366, Roll : 0.0, Pitch : 0.0, Yaw : 0.0, Alt : 30.1000003815, Lat : 49.28357, Lng : -123.11502, Q1 : 1.0, Q2 : 0.0, Q3 : 0.0, Q4 : 0.0}
2019-04-14 13:09:59.01: SIM {TimeUS : 40835326, Roll : 0.0, Pitch : 0.0, Yaw : 0.0, Alt : 30.1000003815, Lat : 49.28357, Lng : -123.11502, Q1 : 1.0, Q2 : 0.0, Q3 : 0.0, Q4 : 0.0}
2019-04-14 13:09:59.11: SIM {TimeUS : 40935286, Roll : 0.0, Pitch : 0.0, Yaw : 0.0, Alt : 30.1000003815, Lat : 49.28357, Lng : -123.11502, Q1 : 1.0, Q2 : 0.0, Q3 : 0.0, Q4 : 0.0}
2019-04-14 13:09:59.21: SIM {TimeUS : 41035246, Roll : 0.0, Pitch : 0.0, Yaw : 0.0, Alt : 30.1000003815, Lat : 49.28357, Lng : -123.11502, Q1 : 1.0, Q2 : 0.0, Q3 : 0.0, Q4 : 0.0}
2019-04-14 13:09:59.31: SIM {TimeUS : 41135206, Roll : 0.0, Pitch : 0.0, Yaw : 0.0, Alt : 30.1000003815, Lat : 49.28357, Lng : -123.11502, Q1 : 1.0, Q2 : 0.0, Q3 : 0.0, Q4 : 0.0}
2019-04-14 13:09:59.41: SIM {TimeUS : 41235166, Roll : 0.0, Pitch : 0.0, Yaw : 0.0, Alt : 30.1000003815, Lat : 49.28357, Lng : -123.11502, Q1 : 1.0, Q2 : 0.0, Q3 : 0.0, Q4 : 0.0}
2019-04-14 13:09:59.51: SIM {TimeUS : 41335126, Roll : 0.0, Pitch : 0.0, Yaw : 0.0, Alt : 30.1000003815, Lat : 49.28357, Lng : -123.11502, Q1 : 1.0, Q2 : 0.0, Q3 : 0.0, Q4 : 0.0}
2019-04-14 13:09:59.61: SIM {TimeUS : 41435086, Roll : 0.0, Pitch : 0.0, Yaw : 0.0, Alt : 30.1000003815, Lat : 49.28357, Lng : -123.11502, Q1 : 1.0, Q2 : 0.0, Q3 : 0.0, Q4 : 0.0}
2019-04-14 13:09:59.71: SIM {TimeUS : 41535046, Roll : 0.0, Pitch : 0.0, Yaw : 0.0, Alt : 30.1000003815, Lat : 49.28357, Lng : -123.11502, Q1 : 1.0, Q2 : 0.0, Q3 : 0.0, Q4 : 0.0}
2019-04-14 13:09:59.81: SIM {TimeUS : 41635006, Roll : 0.0, Pitch : 0.0, Yaw : 0.0, Alt : 30.1000003815, Lat : 49.28357, Lng : -123.11502, Q1 : 1.0, Q2 : 0.0, Q3 : 0.0, Q4 : 0.0}
2019-04-14 13:09:59.91: SIM {TimeUS : 41734966, Roll : 0.0, Pitch : 0.0, Yaw : 0.0, Alt : 30.1000003815, Lat : 49.28357, Lng : -123.11502, Q1 : 1.0, Q2 : 0.0, Q3 : 0.0, Q4 : 0.0}
2019-04-14 13:10:00.01: SIM {TimeUS : 41834926, Roll : 0.0, Pitch : 0.0, Yaw : 0.0, Alt : 30.1000003815, Lat : 49.28357, Lng : -123.11502, Q1 : 1.0, Q2 : 0.0, Q3 : 0.0, Q4 : 0.0}
2019-04-14 13:10:00.11: SIM {TimeUS : 41934886, Roll : 0.0, Pitch : 0.0, Yaw : 0.0, Alt : 30.1000003815, Lat : 49.28357, Lng : -123.11502, Q1 : 1.0, Q2 : 0.0, Q3 : 0.0, Q4 : 0.0}
2019-04-14 13:10:00.21: SIM {TimeUS : 42034846, Roll : 0.0, Pitch : 0.0, Yaw : 0.0, Alt : 30.1000003815, Lat : 49.28357, Lng : -123.11502, Q1 : 1.0, Q2 : 0.0, Q3 : 0.0, Q4 : 0.0}
2019-04-14 13:10:00.31: SIM {TimeUS : 42134806, Roll : 0.0, Pitch : 0.0, Yaw : 0.0, Alt : 30.1000003815, Lat : 49.28357, Lng : -123.11502, Q1 : 1.0, Q2 : 0.0, Q3 : 0.0, Q4 : 0.0}
2019-04-14 13:10:00.41: SIM {TimeUS : 42234766, Roll : 0.0, Pitch : 0.0, Yaw : 0.0, Alt : 30.1000003815, Lat : 49.28357, Lng : -123.11502, Q1 : 1.0, Q2 : 0.0, Q3 : 0.0, Q4 : 0.0}
2019-04-14 13:10:00.51: SIM {TimeUS : 42335559, Roll : 0.0, Pitch : 0.0, Yaw : 0.0, Alt : 30.1000003815, Lat : 49.28357, Lng : -123.11502, Q1 : 1.0, Q2 : 0.0, Q3 : 0.0, Q4 : 0.0}
2019-04-14 13:10:00.61: SIM {TimeUS : 42435519, Roll : 0.0, Pitch : 0.0, Yaw : 0.0, Alt : 30.1000003815, Lat : 49.28357, Lng : -123.11502, Q1 : 1.0, Q2 : 0.0, Q3 : 0.0, Q4 : 0.0}
2019-04-14 13:10:00.71: SIM {TimeUS : 42535479, Roll : 0.0, Pitch : 0.0, Yaw : 360.0, Alt : 30.1000003815, Lat : 49.28357, Lng : -123.11502, Q1 : 1.0, Q2 : 0.0, Q3 : 0.0, Q4 : -1.1336584449e-11}
2019-04-14 13:10:00.81: SIM {TimeUS : 42635439, Roll : 0.0, Pitch : 0.0, Yaw : 360.0, Alt : 30.1000003815, Lat : 49.28357, Lng : -123.11502, Q1 : 1.0, Q2 : 0.0, Q3 : 0.0, Q4 : -1.61812430122e-08}
2019-04-14 13:10:00.91: SIM {TimeUS : 42735399, Roll : 0.0, Pitch : 0.0, Yaw : 359.99, Alt : 30.1000003815, Lat : 49.28357, Lng : -123.11502, Q1 : 1.0, Q2 : 0.0, Q3 : 0.0, Q4 : -2.0833104486e-07}
2019-04-14 13:10:01.01: SIM {TimeUS : 42835359, Roll : 0.0, Pitch : 0.0, Yaw : 359.99, Alt : 30.1000003815, Lat : 49.28357, Lng : -123.11502, Q1 : 1.0, Q2 : 0.0, Q3 : 0.0, Q4 : -3.83993352671e-07}
2019-04-14 13:10:01.11: SIM {TimeUS : 42935319, Roll : 0.0, Pitch : 0.0, Yaw : 359.99, Alt : 30.1000003815, Lat : 49.28357, Lng : -123.11502, Q1 : 1.0, Q2 : 0.0, Q3 : 0.0, Q4 : -5.54523751362e-07}
2019-04-14 13:10:01.21: SIM {TimeUS : 43035279, Roll : 0.0, Pitch : 0.0, Yaw : 359.99, Alt : 30.1000003815, Lat : 49.28357, Lng : -123.11502, Q1 : 1.0, Q2 : 0.0, Q3 : 0.0, Q4 : -7.67509618527e-07}
2019-04-14 13:10:01.31: SIM {TimeUS : 43135239, Roll : 0.0, Pitch : 0.0, Yaw : 359.99, Alt : 30.1000003815, Lat : 49.28357, Lng : -123.11502, Q1 : 1.0, Q2 : 0.0, Q3 : 0.0, Q4 : -1.00090335309e-06}
2019-04-14 13:10:01.41: SIM {TimeUS : 43235199, Roll : 0.0, Pitch : 0.0, Yaw : 359.99, Alt : 30.1000003815, Lat : 49.28357, Lng : -123.11502, Q1 : 1.0, Q2 : 0.0, Q3 : 0.0, Q4 : -1.21798609598e-06}
2019-04-14 13:10:01.51: SIM {TimeUS : 43335159, Roll : 0.0, Pitch : 0.0, Yaw : 359.99, Alt : 30.1000003815, Lat : 49.28357, Lng : -123.11502, Q1 : 1.0, Q2 : 0.0, Q3 : 0.0, Q4 : -1.40197062137e-06}
2019-04-14 13:10:01.61: SIM {TimeUS : 43435119, Roll : 0.0, Pitch : 0.0, Yaw : 359.99, Alt : 30.1200008392, Lat : 49.28357, Lng : -123.11502, Q1 : 1.0, Q2 : 0.0, Q3 : 0.0, Q4 : -1.62996343533e-06}
2019-04-14 13:10:01.71: SIM {TimeUS : 43535079, Roll : 0.0, Pitch : 0.0, Yaw : 359.99, Alt : 30.1499996185, Lat : 49.28357, Lng : -123.11502, Q1 : 1.0, Q2 : 0.0, Q3 : 0.0, Q4 : -1.85279986908e-06}
2019-04-14 13:10:01.81: SIM {TimeUS : 43635039, Roll : 0.0, Pitch : 0.0, Yaw : 359.99, Alt : 30.1800003052, Lat : 49.28357, Lng : -123.11502, Q1 : 1.0, Q2 : 0.0, Q3 : 0.0, Q4 : -2.1438636395e-06}
2019-04-14 13:10:01.91: SIM {TimeUS : 43734999, Roll : 0.0, Pitch : 0.0, Yaw : 359.99, Alt : 30.2099990845, Lat : 49.28357, Lng : -123.11502, Q1 : 1.0, Q2 : -8.46819239086e-06, Q3 : -7.51760944695e-06, Q4 : -2.45109094976e-06}
2019-04-14 13:10:02.01: SIM {TimeUS : 43834959, Roll : -0.19, Pitch : -0.15, Yaw : 359.99, Alt : 30.2700004578, Lat : 49.28357, Lng : -123.11502, Q1 : 0.999997675419, Q2 : -0.00167101190891, Q3 : -0.00137585296761, Q4 : -2.00961876544e-05}
2019-04-14 13:10:02.11: SIM {TimeUS : 43934919, Roll : -0.5, Pitch : -0.41, Yaw : 359.99, Alt : 30.3899993896, Lat : 49.28357, Lng : -123.11502, Q1 : 0.999983847141, Q2 : -0.00440517207608, Q3 : -0.00359801435843, Q4 : -6.65653133183e-05}
2019-04-14 13:10:02.21: SIM {TimeUS : 44034879, Roll : -0.74, Pitch : -0.62, Yaw : 359.98, Alt : 30.5400009155, Lat : 49.28357, Lng : -123.11502, Q1 : 0.99996393919, Q2 : -0.00649300636724, Q3 : -0.00547290593386, Q4 : -0.000139768671943}
2019-04-14 13:10:02.31: SIM {TimeUS : 44134839, Roll : -0.83, Pitch : -0.72, Yaw : 359.97, Alt : 30.7000007629, Lat : 49.28357, Lng : -123.11502, Q1 : 0.999953329563, Q2 : -0.00729702552781, Q3 : -0.00632407190278, Q4 : -0.000230735662626}
2019-04-14 13:10:02.41: SIM {TimeUS : 44234799, Roll : -0.78, Pitch : -0.68, Yaw : 359.96, Alt : 30.8600006104, Lat : 49.28357, Lng : -123.1150201, Q1 : 0.999958336353, Q2 : -0.0068569984287, Q3 : -0.00601721880957, Q4 : -0.000326332432451}
2019-04-14 13:10:02.51: SIM {TimeUS : 44334759, Roll : -0.63, Pitch : -0.55, Yaw : 359.95, Alt : 31.0100002289, Lat : 49.2835701, Lng : -123.1150201, Q1 : 0.999972999096, Q2 : -0.00550363352522, Q3 : -0.00485469261184, Q4 : -0.000416010792833}
2019-04-14 13:10:02.61: SIM {TimeUS : 44435552, Roll : -0.4, Pitch : -0.38, Yaw : 359.94, Alt : 31.1700000763, Lat : 49.2835701, Lng : -123.1150202, Q1 : 0.999988019466, Q2 : -0.00350323645398, Q3 : -0.00339137553237, Q4 : -0.000487147917738}
2019-04-14 13:10:02.71: SIM {TimeUS : 44535512, Roll : -0.18, Pitch : -0.21, Yaw : 359.93, Alt : 31.3299999237, Lat : 49.2835701, Lng : -123.1150203, Q1 : 0.999996840954, Q2 : -0.00159927259665, Q3 : -0.00184645154513, Q4 : -0.000534750812221}
2019-04-14 13:10:02.81: SIM {TimeUS : 44635472, Roll : -0.03, Pitch : -0.06, Yaw : 359.93, Alt : 31.5, Lat : 49.2835702, Lng : -123.1150204, Q1 : 0.999999642372, Q2 : -0.000310633622576, Q3 : -0.000557219202165, Q4 : -0.000566785340197}
2019-04-14 13:10:02.91: SIM {TimeUS : 44735432, Roll : 0.04, Pitch : 0.02, Yaw : 359.93, Alt : 31.6700000763, Lat : 49.2835702, Lng : -123.1150205, Q1 : 0.999999761581, Q2 : 0.000373057177057, Q3 : 0.000206632437767, Q4 : -0.000581493019126}
2019-04-14 13:10:03.01: SIM {TimeUS : 44835392, Roll : 0.06, Pitch : 0.05, Yaw : 359.93, Alt : 31.8500003815, Lat : 49.2835703, Lng : -123.1150205, Q1 : 0.999999523163, Q2 : 0.000561374414247, Q3 : 0.00049436732661, Q4 : -0.000588287017308}
2019-04-14 13:10:03.11: SIM {TimeUS : 44935352, Roll : 0.06, Pitch : 0.04, Yaw : 359.93, Alt : 32.0400009155, Lat : 49.2835703, Lng : -123.1150206, Q1 : 0.999999582767, Q2 : 0.000560019398108, Q3 : 0.000426279730164, Q4 : -0.000577949918807}
2019-04-14 13:10:03.21: SIM {TimeUS : 45035312, Roll : 0.06, Pitch : 0.02, Yaw : 359.93, Alt : 32.2299995422, Lat : 49.2835703, Lng : -123.1150207, Q1 : 0.999999642372, Q2 : 0.000583822838962, Q3 : 0.000258095125901, Q4 : -0.000559397216421}
2019-04-14 13:10:03.31: SIM {TimeUS : 45135272, Roll : 0.08, Pitch : 0.02, Yaw : 359.93, Alt : 32.4199981689, Lat : 49.2835703, Lng : -123.1150207, Q1 : 0.999999582767, Q2 : 0.00072258914588, Q3 : 0.000197584595298, Q4 : -0.000543137430213}
2019-04-14 13:10:03.41: SIM {TimeUS : 45235232, Roll : 0.1, Pitch : 0.05, Yaw : 359.93, Alt : 32.6100006104, Lat : 49.2835703, Lng : -123.1150208, Q1 : 0.999999403954, Q2 : 0.000887456699274, Q3 : 0.000451491476269, Q4 : -0.000524225702975}
2019-04-14 13:10:03.51: SIM {TimeUS : 45335192, Roll : 0.12, Pitch : 0.1, Yaw : 359.94, Alt : 32.8100013733, Lat : 49.2835704, Lng : -123.1150208, Q1 : 0.999998867512, Q2 : 0.0010690841591, Q3 : 0.000915789918508, Q4 : -0.000496449065395}
2019-04-14 13:10:03.61: SIM {TimeUS : 45435152, Roll : 0.13, Pitch : 0.15, Yaw : 359.94, Alt : 33.0099983215, Lat : 49.2835704, Lng : -123.1150208, Q1 : 0.999998271465, Q2 : 0.0012100210879, Q3 : 0.00135116861202, Q4 : -0.00047102040844}
2019-04-14 13:10:03.71: SIM {TimeUS : 45535112, Roll : 0.16, Pitch : 0.19, Yaw : 359.94, Alt : 33.2099990845, Lat : 49.2835704, Lng : -123.1150209, Q1 : 0.999997437, Q2 : 0.00140942784492, Q3 : 0.00171606300864, Q4 : -0.000455644621979}
2019-04-14 13:10:03.81: SIM {TimeUS : 45635072, Roll : 0.18, Pitch : 0.21, Yaw : 359.94, Alt : 33.4199981689, Lat : 49.2835704, Lng : -123.1150209, Q1 : 0.999996781349, Q2 : 0.00162454310339, Q3 : 0.00188351352699, Q4 : -0.000455861270893}
2019-04-14 13:10:03.91: SIM {TimeUS : 45735032, Roll : 0.19, Pitch : 0.21, Yaw : 359.94, Alt : 33.6199989319, Lat : 49.2835704, Lng : -123.1150209, Q1 : 0.999996602535, Q2 : 0.00171736977063, Q3 : 0.00189659616444, Q4 : -0.000466235214844}
2019-04-14 13:10:04.01: SIM {TimeUS : 45834992, Roll : 0.18, Pitch : 0.2, Yaw : 359.94, Alt : 33.8300018311, Lat : 49.2835704, Lng : -123.1150209, Q1 : 0.999997019768, Q2 : 0.00157288834453, Q3 : 0.0018048689235, Q4 : -0.000486955686938}
2019-04-14 13:10:04.11: SIM {TimeUS : 45934952, Roll : 0.15, Pitch : 0.16, Yaw : 359.94, Alt : 34.0400009155, Lat : 49.2835704, Lng : -123.1150209, Q1 : 0.999997913837, Q2 : 0.00135350064375, Q3 : 0.00146572035737, Q4 : -0.000507451710291}
2019-04-14 13:10:04.21: SIM {TimeUS : 46034912, Roll : 0.12, Pitch : 0.1, Yaw : 359.94, Alt : 34.25, Lat : 49.2835706, Lng : -123.1150209, Q1 : 0.999998807907, Q2 : 0.00108615506906, Q3 : 0.00095471390523, Q4 : -0.000517821346875}
2019-04-14 13:10:04.31: SIM {TimeUS : 46134872, Roll : 0.09, Pitch : 0.06, Yaw : 359.93, Alt : 34.4599990845, Lat : 49.2835706, Lng : -123.1150209, Q1 : 0.999999344349, Q2 : 0.000820251007099, Q3 : 0.000572949706111, Q4 : -0.000536615494639}
2019-04-14 13:10:04.41: SIM {TimeUS : 46234832, Roll : 0.06, Pitch : 0.04, Yaw : 359.93, Alt : 34.6699981689, Lat : 49.2835706, Lng : -123.1150209, Q1 : 0.999999582767, Q2 : 0.000604306696914, Q3 : 0.000359428377124, Q4 : -0.000564586021937}
2019-04-14 13:10:04.51: SIM {TimeUS : 46334792, Roll : 0.07, Pitch : 0.04, Yaw : 359.93, Alt : 34.8899993896, Lat : 49.2835704, Lng : -123.1150209, Q1 : 0.999999523163, Q2 : 0.000618348713033, Q3 : 0.000372066919226, Q4 : -0.000596047437284}
2019-04-14 13:10:04.61: SIM {TimeUS : 46434752, Roll : 0.08, Pitch : 0.04, Yaw : 359.92, Alt : 35.0999984741, Lat : 49.2835704, Lng : -123.1150208, Q1 : 0.999999463558, Q2 : 0.000733189459424, Q3 : 0.000388464017306, Q4 : -0.000633650575764}
2019-04-14 13:10:04.71: SIM {TimeUS : 46535545, Roll : 0.08, Pitch : 0.05, Yaw : 359.92, Alt : 35.3199996948, Lat : 49.2835704, Lng : -123.1150208, Q1 : 0.999999403954, Q2 : 0.0007429337129, Q3 : 0.0004459732736, Q4 : -0.000671328569297}
2019-04-14 13:10:04.81: SIM {TimeUS : 46635505, Roll : 0.06, Pitch : 0.06, Yaw : 359.91, Alt : 35.5400009155, Lat : 49.2835704, Lng : -123.1150208, Q1 : 0.999999463558, Q2 : 0.000582347915042, Q3 : 0.000532150908839, Q4 : -0.000709626125172}
2019-04-14 13:10:04.91: SIM {TimeUS : 46735465, Roll : 0.04, Pitch : 0.07, Yaw : 359.91, Alt : 35.7599983215, Lat : 49.2835704, Lng : -123.1150208, Q1 : 0.999999463558, Q2 : 0.00038810246042, Q3 : 0.000617821118794, Q4 : -0.000745268829633}
2019-04-14 13:10:05.01: SIM {TimeUS : 46835425, Roll : 0.02, Pitch : 0.05, Yaw : 359.91, Alt : 35.9799995422, Lat : 49.2835704, Lng : -123.1150208, Q1 : 0.999999582767, Q2 : 0.00025500782067, Q3 : 0.000462917494588, Q4 : -0.000768619705923}
2019-04-14 13:10:05.11: SIM {TimeUS : 46935385, Roll : 0.01, Pitch : 0.03, Yaw : 359.9, Alt : 36.2000007629, Lat : 49.2835704, Lng : -123.1150208, Q1 : 0.999999642372, Q2 : 0.000148268227349, Q3 : 0.000278089981293, Q4 : -0.000788545352407}
2019-04-14 13:10:05.21: SIM {TimeUS : 47035345, Roll : 0.0, Pitch : 0.01, Yaw : 359.9, Alt : 36.4199981689, Lat : 49.2835704, Lng : -123.1150207, Q1 : 0.999999701977, Q2 : 1.34330257424e-05, Q3 : 0.000124986472656, Q4 : -0.00080881989561}
2019-04-14 13:10:05.31: SIM {TimeUS : 47135305, Roll : 0.0, Pitch : 0.0, Yaw : 359.9, Alt : 36.6399993896, Lat : 49.2835704, Lng : -123.1150207, Q1 : 0.999999642372, Q2 : -7.20317184459e-05, Q3 : 1.87826699403e-05, Q4 : -0.000828794611152}
2019-04-14 13:10:05.41: SIM {TimeUS : 47235265, Roll : 0.0, Pitch : -0.01, Yaw : 359.9, Alt : 36.8699989319, Lat : 49.2835704, Lng : -123.1150207, Q1 : 0.999999642372, Q2 : 1.11741301225e-05, Q3 : -0.000101137760794, Q4 : -0.00084741867613}
2019-04-14 13:10:05.51: SIM {TimeUS : 47335225, Roll : 0.0, Pitch : -0.03, Yaw : 359.9, Alt : 37.0900001526, Lat : 49.2835704, Lng : -123.1150207, Q1 : 0.999999582767, Q2 : -3.70068228221e-05, Q3 : -0.000272394274361, Q4 : -0.000862162967678}
2019-04-14 13:10:05.61: SIM {TimeUS : 47435185, Roll : -0.03, Pitch : -0.05, Yaw : 359.89, Alt : 37.3199996948, Lat : 49.2835704, Lng : -123.1150207, Q1 : 0.999999463558, Q2 : -0.000290483090794, Q3 : -0.000511004996952, Q4 : -0.000875218189321}
2019-04-14 13:10:05.71: SIM {TimeUS : 47535145, Roll : -0.07, Pitch : -0.07, Yaw : 359.89, Alt : 37.5400009155, Lat : 49.2835704, Lng : -123.1150207, Q1 : 0.999999165535, Q2 : -0.000643564446364, Q3 : -0.000696453033015, Q4 : -0.000895032077096}
2019-04-14 13:10:05.81: SIM {TimeUS : 47635105, Roll : -0.1, Pitch : -0.08, Yaw : 359.89, Alt : 37.7700004578, Lat : 49.2835704, Lng : -123.1150206, Q1 : 0.999998867512, Q2 : -0.00094815925695, Q3 : -0.000770654238295, Q4 : -0.000919263984542}
2019-04-14 13:10:05.91: SIM {TimeUS : 47735065, Roll : -0.13, Pitch : -0.09, Yaw : 359.89, Alt : 37.9900016785, Lat : 49.2835704, Lng : -123.1150206, Q1 : 0.999998569489, Q2 : -0.00113651575521, Q3 : -0.000788584642578, Q4 : -0.000946111686062}
2019-04-14 13:10:06.01: SIM {TimeUS : 47835025, Roll : -0.13, Pitch : -0.08, Yaw : 359.88, Alt : 38.2200012207, Lat : 49.2835704, Lng : -123.1150206, Q1 : 0.999998569489, Q2 : -0.00120120274369, Q3 : -0.00072334962897, Q4 : -0.000972279638518}
2019-04-14 13:10:06.11: SIM {TimeUS : 47934985, Roll : -0.12, Pitch : -0.05, Yaw : 359.88, Alt : 38.4500007629, Lat : 49.2835704, Lng : -123.1150206, Q1 : 0.999998748302, Q2 : -0.0010964027606, Q3 : -0.000508043973241, Q4 : -0.000995742389932}
2019-04-14 13:10:06.21: SIM {TimeUS : 48034945, Roll : -0.1, Pitch : -0.04, Yaw : 359.88, Alt : 38.6800003052, Lat : 49.2835704, Lng : -123.1150206, Q1 : 0.999998986721, Q2 : -0.000880098843481, Q3 : -0.000413555360865, Q4 : -0.00102179578971}
2019-04-14 13:10:06.31: SIM {TimeUS : 48134905, Roll : -0.08, Pitch : -0.04, Yaw : 359.87, Alt : 38.9099998474, Lat : 49.2835704, Lng : -123.1150206, Q1 : 0.99999910593, Q2 : -0.000706355145667, Q3 : -0.000404852966312, Q4 : -0.00105315563269}
2019-04-14 13:10:06.41: SIM {TimeUS : 48234865, Roll : -0.07, Pitch : -0.03, Yaw : 359.87, Alt : 39.1300010681, Lat : 49.2835704, Lng : -123.1150206, Q1 : 0.99999922514, Q2 : -0.000619233353063, Q3 : -0.000263512221863, Q4 : -0.00107677059714}
2019-04-14 13:10:06.51: SIM {TimeUS : 48334825, Roll : -0.07, Pitch : 0.0, Yaw : 359.87, Alt : 39.3600006104, Lat : 49.2835704, Lng : -123.1150206, Q1 : 0.999999165535, Q2 : -0.000692892703228, Q3 : -5.59295258427e-05, Q4 : -0.00109513173811}
2019-04-14 13:10:06.61: SIM {TimeUS : 48434785, Roll : -0.07, Pitch : 0.01, Yaw : 359.87, Alt : 39.5900001526, Lat : 49.2835704, Lng : -123.1150206, Q1 : 0.999999165535, Q2 : -0.00063294818392, Q3 : 0.000122022196592, Q4 : -0.00110743031837}
2019-04-14 13:10:06.71: SIM {TimeUS : 48534745, Roll : -0.05, Pitch : 0.04, Yaw : 359.87, Alt : 39.8300018311, Lat : 49.2835704, Lng : -123.1150206, Q1 : 0.99999922514, Q2 : -0.000487795419758, Q3 : 0.000364344305126, Q4 : -0.00111825275235}
2019-04-14 13:10:06.81: SIM {TimeUS : 48635538, Roll : -0.03, Pitch : 0.04, Yaw : 359.87, Alt : 40.0600013733, Lat : 49.2835704, Lng : -123.1150206, Q1 : 0.99999922514, Q2 : -0.000296001380775, Q3 : 0.000350818358129, Q4 : -0.0011252091499}
2019-04-14 13:10:06.91: SIM {TimeUS : 48735498, Roll : 0.0, Pitch : 0.03, Yaw : 359.87, Alt : 40.2900009155, Lat : 49.2835706, Lng : -123.1150207, Q1 : 0.999999344349, Q2 : -5.05040334247e-05, Q3 : 0.000273793179076, Q4 : -0.00113451620564}
2019-04-14 13:10:07.01: SIM {TimeUS : 48835458, Roll : 0.02, Pitch : 0.05, Yaw : 359.86, Alt : 40.5200004578, Lat : 49.2835706, Lng : -123.1150207, Q1 : 0.99999922514, Q2 : 0.000231028418057, Q3 : 0.000450592953712, Q4 : -0.0011397843482}
2019-04-14 13:10:07.11: SIM {TimeUS : 48935418, Roll : 0.06, Pitch : 0.09, Yaw : 359.86, Alt : 40.75, Lat : 49.2835706, Lng : -123.1150207, Q1 : 0.999998867512, Q2 : 0.000585424539167, Q3 : 0.000785774027463, Q4 : -0.00115021981765}
2019-04-14 13:10:07.21: SIM {TimeUS : 49035378, Roll : 0.09, Pitch : 0.12, Yaw : 359.86, Alt : 40.9900016785, Lat : 49.2835706, Lng : -123.1150207, Q1 : 0.999998390675, Q2 : 0.000837207597215, Q3 : 0.00110245717224, Q4 : -0.00116587965749}
2019-04-14 13:10:07.31: SIM {TimeUS : 49135338, Roll : 0.08, Pitch : 0.15, Yaw : 359.86, Alt : 41.2200012207, Lat : 49.2835706, Lng : -123.1150207, Q1 : 0.999998092651, Q2 : 0.000764566066209, Q3 : 0.00134050787892, Q4 : -0.00117515586317}
2019-04-14 13:10:07.41: SIM {TimeUS : 49235298, Roll : 0.04, Pitch : 0.17, Yaw : 359.86, Alt : 41.4500007629, Lat : 49.2835706, Lng : -123.1150207, Q1 : 0.999998152256, Q2 : 0.000369202898582, Q3 : 0.00148947816342, Q4 : -0.00119533634279}
2019-04-14 13:10:07.51: SIM {TimeUS : 49335258, Roll : 0.0, Pitch : 0.17, Yaw : 359.86, Alt : 41.6800003052, Lat : 49.2835706, Lng : -123.1150207, Q1 : 0.999998092651, Q2 : -3.36689618052e-06, Q3 : 0.00154691119678, Q4 : -0.00121797644533}
2019-04-14 13:10:07.61: SIM {TimeUS : 49435218, Roll : -0.02, Pitch : 0.15, Yaw : 359.85, Alt : 41.9199981689, Lat : 49.2835706, Lng : -123.1150207, Q1 : 0.99999833107, Q2 : -0.000185887955013, Q3 : 0.00134731212165, Q4 : -0.00123900431208}
2019-04-14 13:10:07.71: SIM {TimeUS : 49535178, Roll : -0.02, Pitch : 0.12, Yaw : 359.85, Alt : 42.1500015259, Lat : 49.2835706, Lng : -123.1150207, Q1 : 0.999998629093, Q2 : -0.0002406888525, Q3 : 0.00105141126551, Q4 : -0.00126533897128}
2019-04-14 13:10:07.81: SIM {TimeUS : 49635138, Roll : -0.01, Pitch : 0.11, Yaw : 359.85, Alt : 42.3899993896, Lat : 49.2835706, Lng : -123.1150207, Q1 : 0.999998629093, Q2 : -0.000148820006871, Q3 : 0.00102798361331, Q4 : -0.00130083539989}
2019-04-14 13:10:07.91: SIM {TimeUS : 49735098, Roll : 0.02, Pitch : 0.13, Yaw : 359.84, Alt : 42.6199989319, Lat : 49.2835706, Lng : -123.1150207, Q1 : 0.999998390675, Q2 : 0.000177675392479, Q3 : 0.00115492613986, Q4 : -0.00134890887421}
2019-04-14 13:10:08.01: SIM {TimeUS : 49835058, Roll : 0.07, Pitch : 0.14, Yaw : 359.84, Alt : 42.8600006104, Lat : 49.2835706, Lng : -123.1150207, Q1 : 0.999998033047, Q2 : 0.00066405365942, Q3 : 0.00126542430371, Q4 : -0.00139192305505}
2019-04-14 13:10:08.11: SIM {TimeUS : 49935018, Roll : 0.12, Pitch : 0.13, Yaw : 359.83, Alt : 43.0900001526, Lat : 49.2835706, Lng : -123.1150207, Q1 : 0.999997794628, Q2 : 0.00105654471554, Q3 : 0.00113618024625, Q4 : -0.00143421592657}
2019-04-14 13:10:08.21: SIM {TimeUS : 50034978, Roll : 0.12, Pitch : 0.1, Yaw : 359.83, Alt : 43.3300018311, Lat : 49.2835706, Lng : -123.1150207, Q1 : 0.999997913837, Q2 : 0.0010856037261, Q3 : 0.000890025519766, Q4 : -0.00146736716852}
2019-04-14 13:10:08.31: SIM {TimeUS : 50134938, Roll : 0.08, Pitch : 0.08, Yaw : 359.83, Alt : 43.5600013733, Lat : 49.2835704, Lng : -123.1150207, Q1 : 0.999998390675, Q2 : 0.000717962451745, Q3 : 0.000723279081285, Q4 : -0.00148161780089}
2019-04-14 13:10:08.41: SIM {TimeUS : 50234898, Roll : 0.01, Pitch : 0.07, Yaw : 359.82, Alt : 43.7999992371, Lat : 49.2835704, Lng : -123.1150207, Q1 : 0.999998629093, Q2 : 0.000168889440829, Q3 : 0.000675872899592, Q4 : -0.00149059761316}
2019-04-14 13:10:08.51: SIM {TimeUS : 50334858, Roll : -0.02, Pitch : 0.08, Yaw : 359.82, Alt : 44.0299987793, Lat : 49.2835704, Lng : -123.1150207, Q1 : 0.999998569489, Q2 : -0.000243096830673, Q3 : 0.000777022331022, Q4 : -0.00150338001549}
2019-04-14 13:10:08.61: SIM {TimeUS : 50434818, Roll : -0.05, Pitch : 0.09, Yaw : 359.82, Alt : 44.2700004578, Lat : 49.2835704, Lng : -123.1150207, Q1 : 0.999998450279, Q2 : -0.00044696877012, Q3 : 0.000812672777101, Q4 : -0.00151683040895}
2019-04-14 13:10:08.71: SIM {TimeUS : 50534778, Roll : -0.04, Pitch : 0.08, Yaw : 359.82, Alt : 44.5, Lat : 49.2835704, Lng : -123.1150206, Q1 : 0.999998509884, Q2 : -0.000402633362683, Q3 : 0.000727742852177, Q4 : -0.0015296426136}
2019-04-14 13:10:08.81: SIM {TimeUS : 50634738, Roll : -0.04, Pitch : 0.07, Yaw : 359.82, Alt : 44.7400016785, Lat : 49.2835704, Lng : -123.1150206, Q1 : 0.999998509884, Q2 : -0.000401234457968, Q3 : 0.000612341624219, Q4 : -0.00154636462685}
2019-04-14 13:10:08.91: SIM {TimeUS : 50735531, Roll : -0.04, Pitch : 0.05, Yaw : 359.82, Alt : 44.9799995422, Lat : 49.2835704, Lng : -123.1150206, Q1 : 0.999998629093, Q2 : -0.000349222274963, Q3 : 0.00045820948435, Q4 : -0.00156375323422}
2019-04-14 13:10:09.01: SIM {TimeUS : 50835491, Roll : -0.02, Pitch : 0.03, Yaw : 359.81, Alt : 45.2099990845, Lat : 49.2835704, Lng : -123.1150206, Q1 : 0.999998688698, Q2 : -0.000190874110558, Q3 : 0.000302806554828, Q4 : -0.001588104642}
2019-04-14 13:10:09.11: SIM {TimeUS : 50935451, Roll : -0.01, Pitch : 0.01, Yaw : 359.81, Alt : 45.4500007629, Lat : 49.2835703, Lng : -123.1150206, Q1 : 0.999998688698, Q2 : -0.000125083330204, Q3 : 0.000172078056494, Q4 : -0.00162105425261}
2019-04-14 13:10:09.21: SIM {TimeUS : 51035411, Roll : -0.01, Pitch : 0.0, Yaw : 359.8, Alt : 45.6800003052, Lat : 49.2835703, Lng : -123.1150206, Q1 : 0.999998629093, Q2 : -0.00016325681645, Q3 : -1.74205069925e-05, Q4 : -0.00165953056421}
2019-04-14 13:10:09.31: SIM {TimeUS : 51135371, Roll : -0.02, Pitch : -0.03, Yaw : 359.8, Alt : 45.9199981689, Lat : 49.2835703, Lng : -123.1150206, Q1 : 0.999998509884, Q2 : -0.000218202447286, Q3 : -0.000286776776193, Q4 : -0.00169977010228}
2019-04-14 13:10:09.41: SIM {TimeUS : 51235331, Roll : -0.02, Pitch : -0.05, Yaw : 359.8, Alt : 46.1500015259, Lat : 49.2835703, Lng : -123.1150206, Q1 : 0.99999833107, Q2 : -0.000240697918343, Q3 : -0.000460401410237, Q4 : -0.00173888227437}
2019-04-14 13:10:09.51: SIM {TimeUS : 51335291, Roll : -0.02, Pitch : -0.06, Yaw : 359.79, Alt : 46.3699989319, Lat : 49.2835703, Lng : -123.1150206, Q1 : 0.999998211861, Q2 : -0.00020981299167, Q3 : -0.000560924177989, Q4 : -0.00177712726872}
2019-04-14 13:10:09.61: SIM {TimeUS : 51435251, Roll : -0.03, Pitch : -0.06, Yaw : 359.79, Alt : 46.5900001526, Lat : 49.2835703, Lng : -123.1150206, Q1 : 0.999998152256, Q2 : -0.000270282005658, Q3 : -0.000567445880733, Q4 : -0.00181412033271}
2019-04-14 13:10:09.71: SIM {TimeUS : 51535211, Roll : -0.05, Pitch : -0.05, Yaw : 359.78, Alt : 46.8100013733, Lat : 49.2835703, Lng : -123.1150206, Q1 : 0.999998092651, Q2 : -0.00044678512495, Q3 : -0.000489728990942, Q4 : -0.00185155088548}
2019-04-14 13:10:09.81: SIM {TimeUS : 51635171, Roll : -0.08, Pitch : -0.04, Yaw : 359.78, Alt : 47.0200004578, Lat : 49.2835703, Lng : -123.1150205, Q1 : 0.999997854233, Q2 : -0.000739195442293, Q3 : -0.000394044502173, Q4 : -0.00188568921294}
2019-04-14 13:10:09.91: SIM {TimeUS : 51735131, Roll : -0.1, Pitch : -0.03, Yaw : 359.78, Alt : 47.2200012207, Lat : 49.2835703, Lng : -123.1150205, Q1 : 0.999997675419, Q2 : -0.000941576377954, Q3 : -0.000319590966683, Q4 : -0.0019180191448}
2019-04-14 13:10:10.01: SIM {TimeUS : 51835091, Roll : -0.11, Pitch : -0.02, Yaw : 359.77, Alt : 47.4199981689, Lat : 49.2835703, Lng : -123.1150205, Q1 : 0.999997615814, Q2 : -0.000985910883173, Q3 : -0.00021983977058, Q4 : -0.00194335146807}
2019-04-14 13:10:10.11: SIM {TimeUS : 51935051, Roll : -0.1, Pitch : 0.0, Yaw : 359.77, Alt : 47.5999984741, Lat : 49.2835703, Lng : -123.1150205, Q1 : 0.999997675419, Q2 : -0.00089115567971, Q3 : -4.37830458395e-05, Q4 : -0.00196356885135}
2019-04-14 13:10:10.21: SIM {TimeUS : 52035011, Roll : -0.11, Pitch : -0.01, Yaw : 359.77, Alt : 47.7799987793, Lat : 49.2835703, Lng : -123.1150205, Q1 : 0.99999755621, Q2 : -0.000973148213234, Q3 : -0.000119023388834, Q4 : -0.00198266166262}
2019-04-14 13:10:10.31: SIM {TimeUS : 52134971, Roll : -0.12, Pitch : -0.02, Yaw : 359.77, Alt : 47.9399986267, Lat : 49.2835703, Lng : -123.1150205, Q1 : 0.999997377396, Q2 : -0.00107731670141, Q3 : -0.000256970553892, Q4 : -0.00200377847068}
2019-04-14 13:10:10.41: SIM {TimeUS : 52234931, Roll : -0.12, Pitch : -0.04, Yaw : 359.76, Alt : 48.0999984741, Lat : 49.2835703, Lng : -123.1150205, Q1 : 0.999997258186, Q2 : -0.00111750001088, Q3 : -0.000405760220019, Q4 : -0.00202376977541}
2019-04-14 13:10:10.51: SIM {TimeUS : 52334891, Roll : -0.11, Pitch : -0.06, Yaw : 359.76, Alt : 48.2400016785, Lat : 49.2835703, Lng : -123.1150205, Q1 : 0.999997258186, Q2 : -0.000998937874101, Q3 : -0.000578987237532, Q4 : -0.00204583164304}
2019-04-14 13:10:10.61: SIM {TimeUS : 52434851, Roll : -0.07, Pitch : -0.08, Yaw : 359.76, Alt : 48.3600006104, Lat : 49.2835703, Lng : -123.1150206, Q1 : 0.999997377396, Q2 : -0.000698442745488, Q3 : -0.000697692157701, Q4 : -0.00206888723187}
2019-04-14 13:10:10.71: SIM {TimeUS : 52534811, Roll : -0.05, Pitch : -0.08, Yaw : 359.76, Alt : 48.4799995422, Lat : 49.2835703, Lng : -123.1150206, Q1 : 0.999997437, Q2 : -0.000474828964798, Q3 : -0.000752618070692, Q4 : -0.00209006085061}
2019-04-14 13:10:10.81: SIM {TimeUS : 52634771, Roll : -0.04, Pitch : -0.08, Yaw : 359.75, Alt : 48.5800018311, Lat : 49.2835703, Lng : -123.1150206, Q1 : 0.999997377396, Q2 : -0.000394862319808, Q3 : -0.000784003874287, Q4 : -0.00211354158819}
2019-04-14 13:10:10.91: SIM {TimeUS : 52735564, Roll : -0.01, Pitch : -0.07, Yaw : 359.75, Alt : 48.6800003052, Lat : 49.2835703, Lng : -123.1150206, Q1 : 0.999997496605, Q2 : -0.000138258183142, Q3 : -0.000670950510539, Q4 : -0.00214077485725}
2019-04-14 13:10:11.01: SIM {TimeUS : 52835524, Roll : 0.01, Pitch : -0.05, Yaw : 359.75, Alt : 48.7599983215, Lat : 49.2835703, Lng : -123.1150206, Q1 : 0.99999755621, Q2 : 0.000135620997753, Q3 : -0.000508894037921, Q4 : -0.00216373079456}
2019-04-14 13:10:11.11: SIM {TimeUS : 52935484, Roll : 0.03, Pitch : -0.03, Yaw : 359.74, Alt : 48.8300018311, Lat : 49.2835703, Lng : -123.1150206, Q1 : 0.999997496605, Q2 : 0.000345535110682, Q3 : -0.000328325433657, Q4 : -0.00219532870688}
2019-04-14 13:10:11.21: SIM {TimeUS : 53035444, Roll : 0.05, Pitch : -0.01, Yaw : 359.74, Alt : 48.8899993896, Lat : 49.2835703, Lng : -123.1150206, Q1 : 0.999997377396, Q2 : 0.000477304478409, Q3 : -0.000147304221173, Q4 : -0.00222791894339}
2019-04-14 13:10:11.31: SIM {TimeUS : 53135404, Roll : 0.06, Pitch : 0.0, Yaw : 359.74, Alt : 48.9399986267, Lat : 49.2835703, Lng : -123.1150206, Q1 : 0.999997258186, Q2 : 0.000564892834518, Q3 : -7.94228981249e-05, Q4 : -0.00226209498942}
2019-04-14 13:10:11.41: SIM {TimeUS : 53235364, Roll : 0.07, Pitch : -0.02, Yaw : 359.73, Alt : 48.9799995422, Lat : 49.2835703, Lng : -123.1150207, Q1 : 0.999997138977, Q2 : 0.000621593673714, Q3 : -0.00023060622334, Q4 : -0.00229668943211}
2019-04-14 13:10:11.51: SIM {TimeUS : 53335324, Roll : 0.17, Pitch : -0.06, Yaw : 359.73, Alt : 49.0200004578, Lat : 49.2835703, Lng : -123.1150207, Q1 : 0.999996006489, Q2 : 0.00148483843077, Q3 : -0.000588559545577, Q4 : -0.00232830457389}
2019-04-14 13:10:11.61: SIM {TimeUS : 53435284, Roll : 0.5, Pitch : -0.16, Yaw : 359.72, Alt : 49.0600013733, Lat : 49.2835703, Lng : -123.1150207, Q1 : 0.99998664856, Q2 : 0.00436042435467, Q3 : -0.00142876897007, Q4 : -0.00236242613755}
2019-04-14 13:10:11.71: SIM {TimeUS : 53535244, Roll : 1.09, Pitch : -0.33, Yaw : 359.72, Alt : 49.0800018311, Lat : 49.2835703, Lng : -123.1150207, Q1 : 0.999946951866, Q2 : 0.00957002025098, Q3 : -0.00297229737043, Q4 : -0.00239253672771}
2019-04-14 13:10:11.81: SIM {TimeUS : 53635204, Roll : 1.92, Pitch : -0.57, Yaw : 359.71, Alt : 49.1100006104, Lat : 49.2835703, Lng : -123.1150206, Q1 : 0.999843001366, Q2 : 0.0168174132705, Q3 : -0.00503382924944, Q4 : -0.00241059600376}
2019-04-14 13:10:11.91: SIM {TimeUS : 53735164, Roll : 2.92, Pitch : -0.83, Yaw : 359.7, Alt : 49.1300010681, Lat : 49.2835704, Lng : -123.1150206, Q1 : 0.999644398689, Q2 : 0.0255150217563, Q3 : -0.00736740231514, Q4 : -0.00240335357375}
2019-04-14 13:10:12.01: SIM {TimeUS : 53835124, Roll : 3.93, Pitch : -1.11, Yaw : 359.69, Alt : 49.1500015259, Lat : 49.2835704, Lng : -123.1150204, Q1 : 0.999359607697, Q2 : 0.0343278199434, Q3 : -0.00982116255909, Q4 : -0.00236730999313}
2019-04-14 13:10:12.11: SIM {TimeUS : 53935084, Roll : 4.79, Pitch : -1.38, Yaw : 359.67, Alt : 49.1599998474, Lat : 49.2835704, Lng : -123.1150202, Q1 : 0.999048531055, Q2 : 0.0418067798018, Q3 : -0.0122037474066, Q4 : -0.00230675027706}
2019-04-14 13:10:12.21: SIM {TimeUS : 54035044, Roll : 5.43, Pitch : -1.6, Yaw : 359.67, Alt : 49.1800003052, Lat : 49.2835706, Lng : -123.11502, Q1 : 0.998777091503, Q2 : 0.0473276972771, Q3 : -0.0141252353787, Q4 : -0.00220710271969}
2019-04-14 13:10:12.31: SIM {TimeUS : 54135004, Roll : 5.87, Pitch : -1.77, Yaw : 359.67, Alt : 49.1899986267, Lat : 49.2835707, Lng : -123.1150196, Q1 : 0.99856364727, Q2 : 0.0512042529881, Q3 : -0.0156374387443, Q4 : -0.00207456061617}
2019-04-14 13:10:12.41: SIM {TimeUS : 54234964, Roll : 6.22, Pitch : -1.92, Yaw : 359.67, Alt : 49.2000007629, Lat : 49.2835708, Lng : -123.1150191, Q1 : 0.998383939266, Q2 : 0.0542240552604, Q3 : -0.0169003847986, Q4 : -0.00191240757704}
2019-04-14 13:10:12.51: SIM {TimeUS : 54334924, Roll : 6.55, Pitch : -2.03, Yaw : 359.68, Alt : 49.2099990845, Lat : 49.2835709, Lng : -123.1150184, Q1 : 0.998207509518, Q2 : 0.0570976734161, Q3 : -0.0178510099649, Q4 : -0.00172003684565}
2019-04-14 13:10:12.61: SIM {TimeUS : 54434884, Roll : 6.91, Pitch : -2.14, Yaw : 359.69, Alt : 49.2200012207, Lat : 49.283571, Lng : -123.1150177, Q1 : 0.998006880283, Q2 : 0.0602178201079, Q3 : -0.0188069399446, Q4 : -0.00154401210602}
2019-04-14 13:10:12.71: SIM {TimeUS : 54534844, Roll : 7.27, Pitch : -2.24, Yaw : 359.69, Alt : 49.2200012207, Lat : 49.2835712, Lng : -123.1150169, Q1 : 0.997792184353, Q2 : 0.0633939132094, Q3 : -0.0197512544692, Q4 : -0.0013776535634}
2019-04-14 13:10:12.81: SIM {TimeUS : 54634804, Roll : 7.58, Pitch : -2.32, Yaw : 359.7, Alt : 49.2299995422, Lat : 49.2835714, Lng : -123.1150159, Q1 : 0.997603833675, Q2 : 0.0660914331675, Q3 : -0.0204229000956, Q4 : -0.00121771590784}
2019-04-14 13:10:12.91: SIM {TimeUS : 54734764, Roll : 7.81, Pitch : -2.39, Yaw : 359.71, Alt : 49.2299995422, Lat : 49.2835716, Lng : -123.1150148, Q1 : 0.997457146645, Q2 : 0.0680912807584, Q3 : -0.0210153460503, Q4 : -0.00109081831761}
2019-04-14 13:10:13.01: SIM {TimeUS : 54835557, Roll : 7.99, Pitch : -2.45, Yaw : 359.71, Alt : 49.2400016785, Lat : 49.2835719, Lng : -123.1150136, Q1 : 0.99734044075, Q2 : 0.0696133673191, Q3 : -0.0215653311461, Q4 : -0.00100165815093}
2019-04-14 13:10:13.11: SIM {TimeUS : 54935517, Roll : 8.13, Pitch : -2.5, Yaw : 359.71, Alt : 49.2400016785, Lat : 49.2835721, Lng : -123.1150123, Q1 : 0.99724560976, Q2 : 0.0708321109414, Q3 : -0.0219802707434, Q4 : -0.00093919452047}
2019-04-14 13:10:13.21: SIM {TimeUS : 55035477, Roll : 8.25, Pitch : -2.53, Yaw : 359.71, Alt : 49.25, Lat : 49.2835724, Lng : -123.1150109, Q1 : 0.997165620327, Q2 : 0.0718714147806, Q3 : -0.0222362000495, Q4 : -0.00090670195641}
2019-04-14 13:10:13.31: SIM {TimeUS : 55135437, Roll : 8.45, Pitch : -2.47, Yaw : 359.76, Alt : 49.25, Lat : 49.2835727, Lng : -123.1150094, Q1 : 0.997049689293, Q2 : 0.0736317038536, Q3 : -0.0216809008271, Q4 : -0.000453826185549}
2019-04-14 13:10:13.41: SIM {TimeUS : 55235397, Roll : 8.81, Pitch : -2.18, Yaw : 0.27, Alt : 49.2599983215, Lat : 49.2835729, Lng : -123.1150078, Q1 : 0.996853590012, Q2 : 0.0769043564796, Q3 : -0.018814817071, Q4 : 0.00383123802021}
2019-04-14 13:10:13.51: SIM {TimeUS : 55335357, Roll : 9.34, Pitch : -1.8, Yaw : 1.9, Alt : 49.2599983215, Lat : 49.2835733, Lng : -123.115006, Q1 : 0.996391534805, Q2 : 0.0817297622561, Q3 : -0.0143261598423, Q4 : 0.0178591646254}
2019-04-14 13:10:13.61: SIM {TimeUS : 55435317, Roll : 9.89, Pitch : -1.77, Yaw : 5.08, Alt : 49.2599983215, Lat : 49.2835737, Lng : -123.1150043, Q1 : 0.995117008686, Q2 : 0.0868035629392, Q3 : -0.0116324722767, Q4 : 0.0455188788474}
2019-04-14 13:10:13.71: SIM {TimeUS : 55535277, Roll : 10.26, Pitch : -2.36, Yaw : 9.78, Alt : 49.2599983215, Lat : 49.2835739, Lng : -123.1150024, Q1 : 0.991996765137, Q2 : 0.0908418744802, Q3 : -0.0128497360274, Q4 : 0.086747199297}
2019-04-14 13:10:13.81: SIM {TimeUS : 55635237, Roll : 10.3, Pitch : -3.57, Yaw : 15.79, Alt : 49.2599983215, Lat : 49.2835743, Lng : -123.1150003, Q1 : 0.985652089119, Q2 : 0.0931452512741, Q3 : -0.01848526299, Q4 : 0.139542758465}
2019-04-14 13:10:13.91: SIM {TimeUS : 55735197, Roll : 9.89, Pitch : -5.3, Yaw : 22.86, Alt : 49.2599983215, Lat : 49.2835745, Lng : -123.1149981, Q1 : 0.974673807621, Q2 : 0.0936019569635, Q3 : -0.0280681103468, Q4 : 0.201151177287}
2019-04-14 13:10:14.01: SIM {TimeUS : 55835157, Roll : 8.98, Pitch : -7.29, Yaw : 30.74, Alt : 49.2700004578, Lat : 49.2835749, Lng : -123.1149959, Q1 : 0.957982420921, Q2 : 0.0922061800957, Q3 : -0.0404179990292, Q4 : 0.268578052521}
2019-04-14 13:10:14.11: SIM {TimeUS : 55935117, Roll : 7.55, Pitch : -9.31, Yaw : 39.21, Alt : 49.2700004578, Lat : 49.2835752, Lng : -123.1149934, Q1 : 0.935065627098, Q2 : 0.0889969095588, Q3 : -0.0542590394616, Q4 : 0.338803529739}
2019-04-14 13:10:14.21: SIM {TimeUS : 56035077, Roll : 5.64, Pitch : -11.11, Yaw : 48.02, Alt : 49.2700004578, Lat : 49.2835756, Lng : -123.1149909, Q1 : 0.906105041504, Q2 : 0.0841482058167, Q3 : -0.0683759003878, Q4 : 0.408922374249}
2019-04-14 13:10:14.31: SIM {TimeUS : 56135037, Roll : 3.41, Pitch : -12.53, Yaw : 56.9, Alt : 49.2700004578, Lat : 49.2835758, Lng : -123.1149883, Q1 : 0.87202745676, Q2 : 0.0780140906572, Q3 : -0.0818266123533, Q4 : 0.476220935583}
2019-04-14 13:10:14.41: SIM {TimeUS : 56234997, Roll : 1.01, Pitch : -13.47, Yaw : 65.53, Alt : 49.2700004578, Lat : 49.2835763, Lng : -123.1149855, Q1 : 0.834466636181, Q2 : 0.0708647593856, Q3 : -0.0939147472382, Q4 : 0.53835272789}
2019-04-14 13:10:14.51: SIM {TimeUS : 56334957, Roll : -1.64, Pitch : -13.92, Yaw : 73.51, Alt : 49.2799987793, Lat : 49.2835767, Lng : -123.1149826, Q1 : 0.796214818954, Q2 : 0.0611130297184, Q3 : -0.105640172958, Q4 : 0.592576801777}
2019-04-14 13:10:14.61: SIM {TimeUS : 56434917, Roll : -4.34, Pitch : -13.91, Yaw : 80.17, Alt : 49.2799987793, Lat : 49.2835771, Lng : -123.1149796, Q1 : 0.761863231659, Q2 : 0.0491679497063, Q3 : -0.11680880934, Q4 : 0.635218560696}
2019-04-14 13:10:14.71: SIM {TimeUS : 56534877, Roll : -6.56, Pitch : -13.63, Yaw : 84.95, Alt : 49.2799987793, Lat : 49.2835777, Lng : -123.1149765, Q1 : 0.735694646835, Q2 : 0.0381590761244, Q3 : -0.125800862908, Q4 : 0.664433240891}
2019-04-14 13:10:14.81: SIM {TimeUS : 56634837, Roll : -7.93, Pitch : -13.31, Yaw : 87.74, Alt : 49.2799987793, Lat : 49.2835783, Lng : -123.1149733, Q1 : 0.719850361347, Q2 : 0.0306150242686, Q3 : -0.130985990167, Q4 : 0.680970549583}
2019-04-14 13:10:14.91: SIM {TimeUS : 56734797, Roll : -8.31, Pitch : -13.11, Yaw : 88.71, Alt : 49.2799987793, Lat : 49.2835792, Lng : -123.1149699, Q1 : 0.714234411716, Q2 : 0.0280866157264, Q3 : -0.131804168224, Q4 : 0.686810016632}
2019-04-14 13:10:15.01: SIM {TimeUS : 56834757, Roll : -7.8, Pitch : -13.15, Yaw : 88.18, Alt : 49.2799987793, Lat : 49.28358, Lng : -123.1149665, Q1 : 0.717278122902, Q2 : 0.0309592392296, Q3 : -0.129138752818, Q4 : 0.684015214443}
2019-04-14 13:10:15.11: SIM {TimeUS : 56935550, Roll : -6.58, Pitch : -13.47, Yaw : 86.48, Alt : 49.2799987793, Lat : 49.2835808, Lng : -123.114963, Q1 : 0.726874828339, Q2 : 0.0386600755155, Q3 : -0.124376624823, Q4 : 0.674306213856}
2019-04-14 13:10:15.21: SIM {TimeUS : 57035510, Roll : -4.89, Pitch : -13.99, Yaw : 83.97, Alt : 49.2799987793, Lat : 49.2835818, Lng : -123.1149594, Q1 : 0.740549325943, Q2 : 0.0499162897468, Q3 : -0.118871755898, Q4 : 0.659518420696}
2019-04-14 13:10:15.31: SIM {TimeUS : 57135470, Roll : -2.97, Pitch : -14.64, Yaw : 80.97, Alt : 49.2799987793, Lat : 49.2835828, Lng : -123.1149558, Q1 : 0.756262302399, Q2 : 0.0631356984377, Q3 : -0.113649867475, Q4 : 0.64122146368}
2019-04-14 13:10:15.41: SIM {TimeUS : 57235430, Roll : -1.04, Pitch : -15.26, Yaw : 77.76, Alt : 49.2799987793, Lat : 49.2835837, Lng : -123.114952, Q1 : 0.77226793766, Q2 : 0.0763735622168, Q3 : -0.109061107039, Q4 : 0.621188402176}
2019-04-14 13:10:15.51: SIM {TimeUS : 57335390, Roll : 0.72, Pitch : -15.72, Yaw : 74.67, Alt : 49.2799987793, Lat : 49.2835848, Lng : -123.1149481, Q1 : 0.787040054798, Q2 : 0.0879811868072, Q3 : -0.104973755777, Q4 : 0.60150462389}
2019-04-14 13:10:15.61: SIM {TimeUS : 57435350, Roll : 2.15, Pitch : -15.98, Yaw : 72.02, Alt : 49.2799987793, Lat : 49.2835858, Lng : -123.1149442, Q1 : 0.799337267876, Q2 : 0.096815943718, Q3 : -0.101466618478, Q4 : 0.584286868572}
2019-04-14 13:10:15.71: SIM {TimeUS : 57535310, Roll : 3.14, Pitch : -16.04, Yaw : 70.04, Alt : 49.2799987793, Lat : 49.2835867, Lng : -123.1149401, Q1 : 0.808408021927, Q2 : 0.102367401123, Q3 : -0.0986547991633, Q4 : 0.571195781231}
2019-04-14 13:10:15.81: SIM {TimeUS : 57635270, Roll : 3.64, Pitch : -16.0, Yaw : 68.83, Alt : 49.2900009155, Lat : 49.2835877, Lng : -123.1149358, Q1 : 0.813980162144, Q2 : 0.104641713202, Q3 : -0.0969272181392, Q4 : 0.563108861446}
2019-04-14 13:10:15.91: SIM {TimeUS : 57735230, Roll : 3.68, Pitch : -15.92, Yaw : 68.4, Alt : 49.2900009155, Lat : 49.2835886, Lng : -123.1149315, Q1 : 0.816137552261, Q2 : 0.104144245386, Q3 : -0.0966155454516, Q4 : 0.56012403965}
2019-04-14 13:10:16.01: SIM {TimeUS : 57835190, Roll : 3.33, Pitch : -15.89, Yaw : 68.66, Alt : 49.2900009155, Lat : 49.2835896, Lng : -123.114927, Q1 : 0.815207362175, Q2 : 0.101736612618, Q3 : -0.0979118645191, Q4 : 0.561693847179}
2019-04-14 13:10:16.11: SIM {TimeUS : 57935150, Roll : 2.69, Pitch : -15.96, Yaw : 69.47, Alt : 49.2900009155, Lat : 49.2835903, Lng : -123.1149225, Q1 : 0.811742663383, Q2 : 0.0982124432921, Q3 : -0.100808613002, Q4 : 0.56680315733}
2019-04-14 13:10:16.21: SIM {TimeUS : 58035110, Roll : 1.87, Pitch : -16.09, Yaw : 70.63, Alt : 49.2900009155, Lat : 49.2835913, Lng : -123.1149179, Q1 : 0.806480944157, Q2 : 0.0941481590271, Q3 : -0.104811869562, Q4 : 0.574229121208}
2019-04-14 13:10:16.31: SIM {TimeUS : 58135070, Roll : 0.98, Pitch : -16.25, Yaw : 71.97, Alt : 49.2900009155, Lat : 49.2835922, Lng : -123.1149132, Q1 : 0.80024856329, Q2 : 0.0899744927883, Q3 : -0.109396077693, Q4 : 0.582700073719}
2019-04-14 13:10:16.41: SIM {TimeUS : 58235030, Roll : 0.13, Pitch : -16.39, Yaw : 73.32, Alt : 49.2900009155, Lat : 49.2835931, Lng : -123.1149084, Q1 : 0.793885409832, Q2 : 0.0860393047333, Q3 : -0.11365994066, Q4 : 0.59112149477}
2019-04-14 13:10:16.51: SIM {TimeUS : 58334990, Roll : -0.57, Pitch : -16.47, Yaw : 74.52, Alt : 49.2900009155, Lat : 49.283594, Lng : -123.1149036, Q1 : 0.78810852766, Q2 : 0.0828009992838, Q3 : -0.117039218545, Q4 : 0.598607361317}
2019-04-14 13:10:16.61: SIM {TimeUS : 58434950, Roll : -1.1, Pitch : -16.52, Yaw : 75.46, Alt : 49.2900009155, Lat : 49.2835949, Lng : -123.1148987, Q1 : 0.783486545086, Q2 : 0.0803701877594, Q3 : -0.11946234107, Q4 : 0.604498326778}
2019-04-14 13:10:16.71: SIM {TimeUS : 58534910, Roll : -1.4, Pitch : -16.54, Yaw : 76.09, Alt : 49.2900009155, Lat : 49.2835958, Lng : -123.1148937, Q1 : 0.780327141285, Q2 : 0.079123236239, Q3 : -0.120785742998, Q4 : 0.608473420143}
2019-04-14 13:10:16.81: SIM {TimeUS : 58634870, Roll : -1.46, Pitch : -16.54, Yaw : 76.4, Alt : 49.2900009155, Lat : 49.2835968, Lng : -123.1148887, Q1 : 0.778748273849, Q2 : 0.0790520459414, Q3 : -0.120895184577, Q4 : 0.610480427742}
2019-04-14 13:10:16.91: SIM {TimeUS : 58734830, Roll : -1.35, Pitch : -16.54, Yaw : 76.4, Alt : 49.2900009155, Lat : 49.2835977, Lng : -123.1148836, Q1 : 0.778675019741, Q2 : 0.0797765702009, Q3 : -0.120263874531, Q4 : 0.610604226589}
2019-04-14 13:10:17.01: SIM {TimeUS : 58834790, Roll : -1.12, Pitch : -16.56, Yaw : 76.15, Alt : 49.2900009155, Lat : 49.2835988, Lng : -123.1148785, Q1 : 0.77983134985, Q2 : 0.0811536610126, Q3 : -0.119409091771, Q4 : 0.609113037586}
2019-04-14 13:10:17.11: SIM {TimeUS : 58934750, Roll : -0.83, Pitch : -16.61, Yaw : 75.71, Alt : 49.2900009155, Lat : 49.2835998, Lng : -123.1148733, Q1 : 0.781859517097, Q2 : 0.0830204114318, Q3 : -0.118509471416, Q4 : 0.606431245804}
2019-04-14 13:10:17.21: SIM {TimeUS : 59035543, Roll : -0.49, Pitch : -16.69, Yaw : 75.17, Alt : 49.2900009155, Lat : 49.2836007, Lng : -123.1148681, Q1 : 0.784397065639, Q2 : 0.0851640552282, Q3 : -0.117655158043, Q4 : 0.603013813496}
2019-04-14 13:10:17.31: SIM {TimeUS : 59135503, Roll : -0.16, Pitch : -16.75, Yaw : 74.6, Alt : 49.2900009155, Lat : 49.2836019, Lng : -123.1148628, Q1 : 0.787061750889, Q2 : 0.0871565490961, Q3 : -0.116789065301, Q4 : 0.599414587021}
2019-04-14 13:10:17.41: SIM {TimeUS : 59235463, Roll : 0.13, Pitch : -16.81, Yaw : 74.07, Alt : 49.2900009155, Lat : 49.2836029, Lng : -123.1148575, Q1 : 0.78954398632, Q2 : 0.0889597162604, Q3 : -0.11599470675, Q4 : 0.596029937267}
2019-04-14 13:10:17.51: SIM {TimeUS : 59335423, Roll : 0.37, Pitch : -16.85, Yaw : 73.63, Alt : 49.2900009155, Lat : 49.2836038, Lng : -123.1148521, Q1 : 0.79161220789, Q2 : 0.0904341414571, Q3 : -0.115340515971, Q4 : 0.593185007572}
2019-04-14 13:10:17.61: SIM {TimeUS : 59435383, Roll : 0.55, Pitch : -16.88, Yaw : 73.3, Alt : 49.2900009155, Lat : 49.2836049, Lng : -123.1148467, Q1 : 0.793123006821, Q2 : 0.0914726704359, Q3 : -0.114949755371, Q4 : 0.591079711914}
2019-04-14 13:10:17.71: SIM {TimeUS : 59535343, Roll : 0.64, Pitch : -16.91, Yaw : 73.11, Alt : 49.2900009155, Lat : 49.283606, Lng : -123.1148413, Q1 : 0.794018089771, Q2 : 0.0920845270157, Q3 : -0.114780128002, Q4 : 0.589814603329}
2019-04-14 13:10:17.81: SIM {TimeUS : 59635303, Roll : 0.67, Pitch : -16.93, Yaw : 73.04, Alt : 49.2999992371, Lat : 49.2836071, Lng : -123.1148358, Q1 : 0.79431784153, Q2 : 0.0923035666347, Q3 : -0.11490149796, Q4 : 0.589352965355}
2019-04-14 13:10:17.91: SIM {TimeUS : 59735263, Roll : 0.6, Pitch : -16.95, Yaw : 73.09, Alt : 49.2999992371, Lat : 49.283608, Lng : -123.1148303, Q1 : 0.79412651062, Q2 : 0.0919965654612, Q3 : -0.115282893181, Q4 : 0.589584290981}
2019-04-14 13:10:18.01: SIM {TimeUS : 59835223, Roll : 0.48, Pitch : -16.97, Yaw : 73.22, Alt : 49.2999992371, Lat : 49.2836091, Lng : -123.1148247, Q1 : 0.793542802334, Q2 : 0.0913744866848, Q3 : -0.115928217769, Q4 : 0.590339958668}
2019-04-14 13:10:18.11: SIM {TimeUS : 59935183, Roll : 0.33, Pitch : -17.0, Yaw : 73.4, Alt : 49.2999992371, Lat : 49.2836102, Lng : -123.1148191, Q1 : 0.792683541775, Q2 : 0.090692050755, Q3 : -0.116823039949, Q4 : 0.591422140598}
2019-04-14 13:10:18.21: SIM {TimeUS : 60035143, Roll : 0.16, Pitch : -17.05, Yaw : 73.6, Alt : 49.2999992371, Lat : 49.2836111, Lng : -123.1148135, Q1 : 0.791697204113, Q2 : 0.0900015085936, Q3 : -0.117899805307, Q4 : 0.592633962631}
2019-04-14 13:10:18.31: SIM {TimeUS : 60135103, Roll : 0.0, Pitch : -17.1, Yaw : 73.81, Alt : 49.2999992371, Lat : 49.2836122, Lng : -123.1148079, Q1 : 0.790741086006, Q2 : 0.0892805978656, Q3 : -0.11893158406, Q4 : 0.59381210804}
2019-04-14 13:10:18.41: SIM {TimeUS : 60235063, Roll : -0.15, Pitch : -17.13, Yaw : 73.98, Alt : 49.2999992371, Lat : 49.2836133, Lng : -123.1148022, Q1 : 0.789941489697, Q2 : 0.0885760039091, Q3 : -0.119760036469, Q4 : 0.59481459856}
2019-04-14 13:10:18.51: SIM {TimeUS : 60335023, Roll : -0.26, Pitch : -17.15, Yaw : 74.1, Alt : 49.2999992371, Lat : 49.2836144, Lng : -123.1147965, Q1 : 0.789344072342, Q2 : 0.0880899429321, Q3 : -0.120400644839, Q4 : 0.595550060272}
2019-04-14 13:10:18.61: SIM {TimeUS : 60434983, Roll : -0.3, Pitch : -17.18, Yaw : 74.17, Alt : 49.2999992371, Lat : 49.2836154, Lng : -123.1147907, Q1 : 0.788968741894, Q2 : 0.0880382657051, Q3 : -0.120787382126, Q4 : 0.595976531506}
2019-04-14 13:10:18.71: SIM {TimeUS : 60534943, Roll : -0.29, Pitch : -17.22, Yaw : 74.19, Alt : 49.2999992371, Lat : 49.2836165, Lng : -123.114785, Q1 : 0.788838744164, Q2 : 0.088276296854, Q3 : -0.121005438268, Q4 : 0.596069216728}
2019-04-14 13:10:18.81: SIM {TimeUS : 60634903, Roll : -0.24, Pitch : -17.26, Yaw : 74.16, Alt : 49.2999992371, Lat : 49.2836176, Lng : -123.1147792, Q1 : 0.78892660141, Q2 : 0.0887893810868, Q3 : -0.121051996946, Q4 : 0.595867156982}
2019-04-14 13:10:18.91: SIM {TimeUS : 60734863, Roll : -0.16, Pitch : -17.31, Yaw : 74.09, Alt : 49.3100013733, Lat : 49.2836187, Lng : -123.1147734, Q1 : 0.789186477661, Q2 : 0.0895273312926, Q3 : -0.120996847749, Q4 : 0.595423698425}
2019-04-14 13:10:19.01: SIM {TimeUS : 60834823, Roll : -0.07, Pitch : -17.34, Yaw : 73.99, Alt : 49.3100013733, Lat : 49.2836197, Lng : -123.1147676, Q1 : 0.789592862129, Q2 : 0.0902095064521, Q3 : -0.120867080986, Q4 : 0.59480792284}
2019-04-14 13:10:19.11: SIM {TimeUS : 60934783, Roll : 0.0, Pitch : -17.37, Yaw : 73.88, Alt : 49.3100013733, Lat : 49.2836208, Lng : -123.1147617, Q1 : 0.790084719658, Q2 : 0.0907282307744, Q3 : -0.120773851871, Q4 : 0.594094455242}
2019-04-14 13:10:19.21: SIM {TimeUS : 61034743, Roll : 0.04, Pitch : -17.38, Yaw : 73.77, Alt : 49.3100013733, Lat : 49.283622, Lng : -123.1147558, Q1 : 0.790611207485, Q2 : 0.0910375863314, Q3 : -0.120647639036, Q4 : 0.593371987343}
2019-04-14 13:10:19.31: SIM {TimeUS : 61135536, Roll : 0.09, Pitch : -17.38, Yaw : 73.66, Alt : 49.3100013733, Lat : 49.2836232, Lng : -123.1147499, Q1 : 0.791113972664, Q2 : 0.0912217497826, Q3 : -0.120454117656, Q4 : 0.592712461948}
2019-04-14 13:10:19.41: SIM {TimeUS : 61235496, Roll : 0.12, Pitch : -17.37, Yaw : 73.58, Alt : 49.3100013733, Lat : 49.2836243, Lng : -123.1147439, Q1 : 0.791542589664, Q2 : 0.0913414433599, Q3 : -0.120271243155, Q4 : 0.592158675194}
2019-04-14 13:10:19.51: SIM {TimeUS : 61335456, Roll : 0.16, Pitch : -17.39, Yaw : 73.51, Alt : 49.3100013733, Lat : 49.2836254, Lng : -123.114738, Q1 : 0.791821718216, Q2 : 0.0916828364134, Q3 : -0.120300769806, Q4 : 0.591726601124}
2019-04-14 13:10:19.61: SIM {TimeUS : 61435416, Roll : 0.19, Pitch : -17.45, Yaw : 73.47, Alt : 49.3100013733, Lat : 49.2836264, Lng : -123.1147321, Q1 : 0.791958630085, Q2 : 0.0921292006969, Q3 : -0.120573550463, Q4 : 0.59141844511}
2019-04-14 13:10:19.71: SIM {TimeUS : 61535376, Roll : 0.21, Pitch : -17.49, Yaw : 73.45, Alt : 49.3100013733, Lat : 49.2836276, Lng : -123.1147261, Q1 : 0.792020738125, Q2 : 0.0923988372087, Q3 : -0.120779387653, Q4 : 0.591251254082}
2019-04-14 13:10:19.81: SIM {TimeUS : 61635336, Roll : 0.21, Pitch : -17.5, Yaw : 73.44, Alt : 49.3100013733, Lat : 49.2836287, Lng : -123.1147201, Q1 : 0.792030096054, Q2 : 0.0924507603049, Q3 : -0.12088791281, Q4 : 0.591208338737}
2019-04-14 13:10:19.91: SIM {TimeUS : 61735296, Roll : 0.18, Pitch : -17.52, Yaw : 73.45, Alt : 49.3199996948, Lat : 49.2836299, Lng : -123.1147141, Q1 : 0.791997373104, Q2 : 0.0923293381929, Q3 : -0.121140502393, Q4 : 0.591219425201}
2019-04-14 13:10:20.01: SIM {TimeUS : 61835256, Roll : 0.13, Pitch : -17.54, Yaw : 73.47, Alt : 49.3199996948, Lat : 49.2836311, Lng : -123.1147081, Q1 : 0.791925311089, Q2 : 0.0921411961317, Q3 : -0.121563494205, Q4 : 0.591258525848}
2019-04-14 13:10:20.11: SIM {TimeUS : 61935216, Roll : 0.08, Pitch : -17.56, Yaw : 73.48, Alt : 49.3199996948, Lat : 49.2836322, Lng : -123.114702, Q1 : 0.791844427586, Q2 : 0.0919687971473, Q3 : -0.121892951429, Q4 : 0.591325879097}
2019-04-14 13:10:20.21: SIM {TimeUS : 62035176, Roll : 0.06, Pitch : -17.58, Yaw : 73.5, Alt : 49.3199996948, Lat : 49.2836333, Lng : -123.114696, Q1 : 0.791753530502, Q2 : 0.0919262319803, Q3 : -0.122163981199, Q4 : 0.59139829874}
2019-04-14 13:10:20.31: SIM {TimeUS : 62135136, Roll : 0.05, Pitch : -17.6, Yaw : 73.51, Alt : 49.3199996948, Lat : 49.2836345, Lng : -123.1146898, Q1 : 0.79167675972, Q2 : 0.0919620022178, Q3 : -0.122310660779, Q4 : 0.591465115547}
2019-04-14 13:10:20.41: SIM {TimeUS : 62235096, Roll : 0.05, Pitch : -17.62, Yaw : 73.52, Alt : 49.3199996948, Lat : 49.2836355, Lng : -123.1146838, Q1 : 0.791630506516, Q2 : 0.0920546278358, Q3 : -0.122455708683, Q4 : 0.591482579708}
2019-04-14 13:10:20.51: SIM {TimeUS : 62335056, Roll : 0.06, Pitch : -17.63, Yaw : 73.52, Alt : 49.3199996948, Lat : 49.2836367, Lng : -123.1146777, Q1 : 0.791626095772, Q2 : 0.0921788290143, Q3 : -0.12246350944, Q4 : 0.591467618942}
2019-04-14 13:10:20.61: SIM {TimeUS : 62435016, Roll : 0.09, Pitch : -17.65, Yaw : 73.51, Alt : 49.3199996948, Lat : 49.2836378, Lng : -123.1146716, Q1 : 0.791638672352, Q2 : 0.0924336314201, Q3 : -0.122456207871, Q4 : 0.59141254425}
2019-04-14 13:10:20.71: SIM {TimeUS : 62534976, Roll : 0.12, Pitch : -17.67, Yaw : 73.49, Alt : 49.3199996948, Lat : 49.283639, Lng : -123.1146655, Q1 : 0.791679859161, Q2 : 0.0927429199219, Q3 : -0.122476316988, Q4 : 0.591304779053}
2019-04-14 13:10:20.81: SIM {TimeUS : 62634936, Roll : 0.12, Pitch : -17.7, Yaw : 73.46, Alt : 49.3199996948, Lat : 49.2836402, Lng : -123.1146594, Q1 : 0.791764974594, Q2 : 0.092905819416, Q3 : -0.122672900558, Q4 : 0.591124475002}
2019-04-14 13:10:20.91: SIM {TimeUS : 62734896, Roll : 0.11, Pitch : -17.74, Yaw : 73.44, Alt : 49.3199996948, Lat : 49.2836414, Lng : -123.1146532, Q1 : 0.791858375072, Q2 : 0.093060053885, Q3 : -0.123046450317, Q4 : 0.590897381306}
2019-04-14 13:10:21.01: SIM {TimeUS : 62834856, Roll : 0.1, Pitch : -17.79, Yaw : 73.41, Alt : 49.3199996948, Lat : 49.2836426, Lng : -123.1146471, Q1 : 0.791959762573, Q2 : 0.0931782126427, Q3 : -0.123491697013, Q4 : 0.590649962425}
2019-04-14 13:10:21.11: SIM {TimeUS : 62934816, Roll : 0.1, Pitch : -17.83, Yaw : 73.38, Alt : 49.3199996948, Lat : 49.2836437, Lng : -123.1146409, Q1 : 0.792064368725, Q2 : 0.093352176249, Q3 : -0.123709723353, Q4 : 0.590436577797}
2019-04-14 13:10:21.21: SIM {TimeUS : 63034776, Roll : 0.12, Pitch : -17.83, Yaw : 73.35, Alt : 49.3199996948, Lat : 49.2836449, Lng : -123.1146347, Q1 : 0.792192697525, Q2 : 0.0934682264924, Q3 : -0.123631380498, Q4 : 0.59026247263}
2019-04-14 13:10:21.31: SIM {TimeUS : 63134736, Roll : 0.15, Pitch : -17.8, Yaw : 73.33, Alt : 49.3199996948, Lat : 49.2836461, Lng : -123.1146285, Q1 : 0.792340457439, Q2 : 0.0934533849359, Q3 : -0.123327508569, Q4 : 0.590129971504}
2019-04-14 13:10:21.41: SIM {TimeUS : 63235529, Roll : 0.16, Pitch : -17.78, Yaw : 73.31, Alt : 49.3199996948, Lat : 49.2836473, Lng : -123.1146222, Q1 : 0.792465150356, Q2 : 0.0933769270778, Q3 : -0.123161479831, Q4 : 0.590009331703}
2019-04-14 13:10:21.51: SIM {TimeUS : 63335489, Roll : 0.15, Pitch : -17.76, Yaw : 73.29, Alt : 49.3300018311, Lat : 49.2836485, Lng : -123.114616, Q1 : 0.792577385902, Q2 : 0.093225158751, Q3 : -0.123095564544, Q4 : 0.589896321297}
2019-04-14 13:10:21.61: SIM {TimeUS : 63435449, Roll : 0.14, Pitch : -17.76, Yaw : 73.28, Alt : 49.3300018311, Lat : 49.2836495, Lng : -123.1146098, Q1 : 0.792655229568, Q2 : 0.0931263715029, Q3 : -0.123128421605, Q4 : 0.589800477028}
2019-04-14 13:10:21.71: SIM {TimeUS : 63535409, Roll : 0.13, Pitch : -17.77, Yaw : 73.27, Alt : 49.3300018311, Lat : 49.2836507, Lng : -123.1146035, Q1 : 0.792699158192, Q2 : 0.0931106880307, Q3 : -0.12330198288, Q4 : 0.589707612991}
2019-04-14 13:10:21.81: SIM {TimeUS : 63635369, Roll : 0.13, Pitch : -17.79, Yaw : 73.26, Alt : 49.3300018311, Lat : 49.2836519, Lng : -123.1145973, Q1 : 0.792714774609, Q2 : 0.0932320505381, Q3 : -0.123437352479, Q4 : 0.589639127254}
2019-04-14 13:10:21.91: SIM {TimeUS : 63735329, Roll : 0.13, Pitch : -17.83, Yaw : 73.25, Alt : 49.3300018311, Lat : 49.2836531, Lng : -123.114591, Q1 : 0.792710900307, Q2 : 0.0934132188559, Q3 : -0.123713180423, Q4 : 0.589557826519}
2019-04-14 13:10:22.01: SIM {TimeUS : 63835289, Roll : 0.13, Pitch : -17.88, Yaw : 73.25, Alt : 49.3300018311, Lat : 49.2836543, Lng : -123.1145847, Q1 : 0.792697548866, Q2 : 0.0936386361718, Q3 : -0.124030739069, Q4 : 0.589473366737}
2019-04-14 13:10:22.11: SIM {TimeUS : 63935249, Roll : 0.13, Pitch : -17.91, Yaw : 73.24, Alt : 49.3300018311, Lat : 49.2836555, Lng : -123.1145785, Q1 : 0.792689919472, Q2 : 0.0938585549593, Q3 : -0.124259315431, Q4 : 0.589400410652}
2019-04-14 13:10:22.21: SIM {TimeUS : 64035209, Roll : 0.13, Pitch : -17.95, Yaw : 73.23, Alt : 49.3300018311, Lat : 49.2836567, Lng : -123.1145722, Q1 : 0.792703986168, Q2 : 0.0939576104283, Q3 : -0.124541305006, Q4 : 0.589306235313}
2019-04-14 13:10:22.31: SIM {TimeUS : 64135169, Roll : 0.12, Pitch : -17.97, Yaw : 73.22, Alt : 49.3300018311, Lat : 49.2836579, Lng : -123.1145659, Q1 : 0.792733609676, Q2 : 0.0939994454384, Q3 : -0.124770142138, Q4 : 0.589211344719}
2019-04-14 13:10:22.41: SIM {TimeUS : 64235129, Roll : 0.13, Pitch : -17.97, Yaw : 73.21, Alt : 49.3300018311, Lat : 49.2836591, Lng : -123.1145596, Q1 : 0.792782008648, Q2 : 0.0940528735518, Q3 : -0.124719724059, Q4 : 0.589148342609}
2019-04-14 13:10:22.51: SIM {TimeUS : 64335089, Roll : 0.15, Pitch : -17.97, Yaw : 73.2, Alt : 49.3300018311, Lat : 49.2836603, Lng : -123.1145533, Q1 : 0.792831599712, Q2 : 0.094200566411, Q3 : -0.124646805227, Q4 : 0.589073419571}
2019-04-14 13:10:22.61: SIM {TimeUS : 64435049, Roll : 0.15, Pitch : -17.98, Yaw : 73.18, Alt : 49.3300018311, Lat : 49.2836615, Lng : -123.1145469, Q1 : 0.792889118195, Q2 : 0.094297170639, Q3 : -0.124718248844, Q4 : 0.588965415955}
2019-04-14 13:10:22.71: SIM {TimeUS : 64535009, Roll : 0.16, Pitch : -17.99, Yaw : 73.16, Alt : 49.3300018311, Lat : 49.2836627, Lng : -123.1145406, Q1 : 0.792956650257, Q2 : 0.0943667814136, Q3 : -0.124731548131, Q4 : 0.58886051178}
2019-04-14 13:10:22.81: SIM {TimeUS : 64634969, Roll : 0.17, Pitch : -17.99, Yaw : 73.15, Alt : 49.3400001526, Lat : 49.2836639, Lng : -123.1145343, Q1 : 0.793033480644, Q2 : 0.0943924635649, Q3 : -0.124660089612, Q4 : 0.588768064976}
2019-04-14 13:10:22.91: SIM {TimeUS : 64734929, Roll : 0.17, Pitch : -17.98, Yaw : 73.13, Alt : 49.3400001526, Lat : 49.2836651, Lng : -123.1145279, Q1 : 0.793115019798, Q2 : 0.0943599492311, Q3 : -0.124637596309, Q4 : 0.588668167591}
2019-04-14 13:10:23.01: SIM {TimeUS : 64834889, Roll : 0.15, Pitch : -18.0, Yaw : 73.12, Alt : 49.3400001526, Lat : 49.2836664, Lng : -123.1145216, Q1 : 0.793186128139, Q2 : 0.0942951589823, Q3 : -0.124878570437, Q4 : 0.588531672955}
2019-04-14 13:10:23.11: SIM {TimeUS : 64934849, Roll : 0.12, Pitch : -18.04, Yaw : 73.11, Alt : 49.3400001526, Lat : 49.2836676, Lng : -123.1145152, Q1 : 0.793243408203, Q2 : 0.0942445397377, Q3 : -0.125303447247, Q4 : 0.588372290134}
2019-04-14 13:10:23.21: SIM {TimeUS : 65034809, Roll : 0.1, Pitch : -18.04, Yaw : 73.09, Alt : 49.3400001526, Lat : 49.2836688, Lng : -123.1145089, Q1 : 0.793318092823, Q2 : 0.0941232964396, Q3 : -0.125455662608, Q4 : 0.588258504868}
2019-04-14 13:10:23.31: SIM {TimeUS : 65134769, Roll : 0.11, Pitch : -18.02, Yaw : 73.08, Alt : 49.3400001526, Lat : 49.28367, Lng : -123.1145025, Q1 : 0.793388426304, Q2 : 0.0941023752093, Q3 : -0.125291481614, Q4 : 0.588201999664}
2019-04-14 13:10:23.41: SIM {TimeUS : 65235562, Roll : 0.13, Pitch : -18.01, Yaw : 73.07, Alt : 49.3400001526, Lat : 49.2836712, Lng : -123.1144961, Q1 : 0.793447136879, Q2 : 0.0941717326641, Q3 : -0.125069379807, Q4 : 0.588159024715}
2019-04-14 13:10:23.51: SIM {TimeUS : 65335522, Roll : 0.15, Pitch : -18.02, Yaw : 73.06, Alt : 49.3400001526, Lat : 49.2836724, Lng : -123.1144897, Q1 : 0.793487250805, Q2 : 0.0943167209625, Q3 : -0.12503862381, Q4 : 0.588088154793}
2019-04-14 13:10:23.61: SIM {TimeUS : 65435482, Roll : 0.15, Pitch : -18.03, Yaw : 73.05, Alt : 49.3400001526, Lat : 49.2836736, Lng : -123.1144833, Q1 : 0.793528139591, Q2 : 0.0943532958627, Q3 : -0.125211715698, Q4 : 0.587990283966}
2019-04-14 13:10:23.71: SIM {TimeUS : 65535442, Roll : 0.12, Pitch : -18.06, Yaw : 73.04, Alt : 49.3400001526, Lat : 49.2836749, Lng : -123.1144769, Q1 : 0.793571293354, Q2 : 0.0942963734269, Q3 : -0.125522702932, Q4 : 0.587874829769}
2019-04-14 13:10:23.81: SIM {TimeUS : 65635402, Roll : 0.1, Pitch : -18.08, Yaw : 73.03, Alt : 49.3400001526, Lat : 49.2836761, Lng : -123.1144705, Q1 : 0.793611288071, Q2 : 0.094281218946, Q3 : -0.125784724951, Q4 : 0.58776730299}
2019-04-14 13:10:23.91: SIM {TimeUS : 65735362, Roll : 0.1, Pitch : -18.11, Yaw : 73.02, Alt : 49.3400001526, Lat : 49.2836773, Lng : -123.1144641, Q1 : 0.793640434742, Q2 : 0.0943867638707, Q3 : -0.125965893269, Q4 : 0.587672233582}
2019-04-14 13:10:24.01: SIM {TimeUS : 65835322, Roll : 0.11, Pitch : -18.13, Yaw : 73.01, Alt : 49.3400001526, Lat : 49.2836785, Lng : -123.1144577, Q1 : 0.793661773205, Q2 : 0.0945530980825, Q3 : -0.126046583056, Q4 : 0.587599337101}
2019-04-14 13:10:24.11: SIM {TimeUS : 65935282, Roll : 0.14, Pitch : -18.14, Yaw : 73.0, Alt : 49.3400001526, Lat : 49.2836797, Lng : -123.1144513, Q1 : 0.793682873249, Q2 : 0.094768948853, Q3 : -0.126000151038, Q4 : 0.587546050549}
2019-04-14 13:10:24.21: SIM {TimeUS : 66035242, Roll : 0.16, Pitch : -18.14, Yaw : 72.99, Alt : 49.3499984741, Lat : 49.2836809, Lng : -123.1144449, Q1 : 0.793707132339, Q2 : 0.0949141010642, Q3 : -0.125964954495, Q4 : 0.587497353554}
2019-04-14 13:10:24.31: SIM {TimeUS : 66135202, Roll : 0.17, Pitch : -18.15, Yaw : 72.98, Alt : 49.3499984741, Lat : 49.2836822, Lng : -123.1144385, Q1 : 0.793730080128, Q2 : 0.0950409024954, Q3 : -0.125943362713, Q4 : 0.587450504303}
