2019-04-14 14:46:15.20: SIM {TimeUS : 40216407, Roll : 0.0, Pitch : 0.0, Yaw : 0.0, Alt : 30.1000003815, Lat : 49.28357, Lng : -123.11502, Q1 : 1.0, Q2 : 0.0, Q3 : 0.0, Q4 : 0.0}
2019-04-14 14:46:15.31: SIM {TimeUS : 40335526, Roll : 0.0, Pitch : 0.0, Yaw : 0.0, Alt : 30.1000003815, Lat : 49.28357, Lng : -123.11502, Q1 : 1.0, Q2 : 0.0, Q3 : 0.0, Q4 : 0.0}
2019-04-14 14:46:15.41: SIM {TimeUS : 40435486, Roll : 0.0, Pitch : 0.0, Yaw : 0.0, Alt : 30.1000003815, Lat : 49.28357, Lng : -123.11502, Q1 : 1.0, Q2 : 0.0, Q3 : 0.0, Q4 : 0.0}
2019-04-14 14:46:15.51: SIM {TimeUS : 40535446, Roll : 0.0, Pitch : 0.0, Yaw : 0.0, Alt : 30.1000003815, Lat : 49.28357, Lng : -123.11502, Q1 : 1.0, Q2 : 0.0, Q3 : 0.0, Q4 : 0.0}
2019-04-14 14:46:15.61: SIM {TimeUS : 40635406, Roll : 0.0, Pitch : 0.0, Yaw : 0.0, Alt : 30.1000003815, Lat : 49.28357, Lng : -123.11502, Q1 : 1.0, Q2 : 0.0, Q3 : 0.0, Q4 : 0.0}
2019-04-14 14:46:15.71: SIM {TimeUS : 40735366, Roll : 0.0, Pitch : 0.0, Yaw : 0.0, Alt : 30.1000003815, Lat : 49.28357, Lng : -123.11502, Q1 : 1.0, Q2 : 0.0, Q3 : 0.0, Q4 : 0.0}
2019-04-14 14:46:15.81: SIM {TimeUS : 40835326, Roll : 0.0, Pitch : 0.0, Yaw : 0.0, Alt : 30.1000003815, Lat : 49.28357, Lng : -123.11502, Q1 : 1.0, Q2 : 0.0, Q3 : 0.0, Q4 : 0.0}
2019-04-14 14:46:15.91: SIM {TimeUS : 40935286, Roll : 0.0, Pitch : 0.0, Yaw : 0.0, Alt : 30.1000003815, Lat : 49.28357, Lng : -123.11502, Q1 : 1.0, Q2 : 0.0, Q3 : 0.0, Q4 : 0.0}
2019-04-14 14:46:16.01: SIM {TimeUS : 41035246, Roll : 0.0, Pitch : 0.0, Yaw : 0.0, Alt : 30.1000003815, Lat : 49.28357, Lng : -123.11502, Q1 : 1.0, Q2 : 0.0, Q3 : 0.0, Q4 : 0.0}
2019-04-14 14:46:16.11: SIM {TimeUS : 41135206, Roll : 0.0, Pitch : 0.0, Yaw : 0.0, Alt : 30.1000003815, Lat : 49.28357, Lng : -123.11502, Q1 : 1.0, Q2 : 0.0, Q3 : 0.0, Q4 : 0.0}
2019-04-14 14:46:16.21: SIM {TimeUS : 41235166, Roll : 0.0, Pitch : 0.0, Yaw : 0.0, Alt : 30.1000003815, Lat : 49.28357, Lng : -123.11502, Q1 : 1.0, Q2 : 0.0, Q3 : 0.0, Q4 : 0.0}
2019-04-14 14:46:16.31: SIM {TimeUS : 41335126, Roll : 0.0, Pitch : 0.0, Yaw : 0.0, Alt : 30.1000003815, Lat : 49.28357, Lng : -123.11502, Q1 : 1.0, Q2 : 0.0, Q3 : 0.0, Q4 : 0.0}
2019-04-14 14:46:16.41: SIM {TimeUS : 41435086, Roll : 0.0, Pitch : 0.0, Yaw : 0.0, Alt : 30.1000003815, Lat : 49.28357, Lng : -123.11502, Q1 : 1.0, Q2 : 0.0, Q3 : 0.0, Q4 : 0.0}
2019-04-14 14:46:16.51: SIM {TimeUS : 41535046, Roll : 0.0, Pitch : 0.0, Yaw : 0.0, Alt : 30.1000003815, Lat : 49.28357, Lng : -123.11502, Q1 : 1.0, Q2 : 0.0, Q3 : 0.0, Q4 : 0.0}
2019-04-14 14:46:16.61: SIM {TimeUS : 41635006, Roll : 0.0, Pitch : 0.0, Yaw : 0.0, Alt : 30.1000003815, Lat : 49.28357, Lng : -123.11502, Q1 : 1.0, Q2 : 0.0, Q3 : 0.0, Q4 : 0.0}
2019-04-14 14:46:16.71: SIM {TimeUS : 41734966, Roll : 0.0, Pitch : 0.0, Yaw : 0.0, Alt : 30.1000003815, Lat : 49.28357, Lng : -123.11502, Q1 : 1.0, Q2 : 0.0, Q3 : 0.0, Q4 : 0.0}
2019-04-14 14:46:16.81: SIM {TimeUS : 41834926, Roll : 0.0, Pitch : 0.0, Yaw : 0.0, Alt : 30.1000003815, Lat : 49.28357, Lng : -123.11502, Q1 : 1.0, Q2 : 0.0, Q3 : 0.0, Q4 : 0.0}
2019-04-14 14:46:16.91: SIM {TimeUS : 41934886, Roll : 0.0, Pitch : 0.0, Yaw : 0.0, Alt : 30.1000003815, Lat : 49.28357, Lng : -123.11502, Q1 : 1.0, Q2 : 0.0, Q3 : 0.0, Q4 : 0.0}
2019-04-14 14:46:17.01: SIM {TimeUS : 42034846, Roll : 0.0, Pitch : 0.0, Yaw : 0.0, Alt : 30.1000003815, Lat : 49.28357, Lng : -123.11502, Q1 : 1.0, Q2 : 0.0, Q3 : 0.0, Q4 : 0.0}
2019-04-14 14:46:17.11: SIM {TimeUS : 42134806, Roll : 0.0, Pitch : 0.0, Yaw : 0.0, Alt : 30.1000003815, Lat : 49.28357, Lng : -123.11502, Q1 : 1.0, Q2 : 0.0, Q3 : 0.0, Q4 : 0.0}
2019-04-14 14:46:17.21: SIM {TimeUS : 42234766, Roll : 0.0, Pitch : 0.0, Yaw : 0.0, Alt : 30.1000003815, Lat : 49.28357, Lng : -123.11502, Q1 : 1.0, Q2 : 0.0, Q3 : 0.0, Q4 : 0.0}
2019-04-14 14:46:17.31: SIM {TimeUS : 42335559, Roll : 0.0, Pitch : 0.0, Yaw : 0.0, Alt : 30.1000003815, Lat : 49.28357, Lng : -123.11502, Q1 : 1.0, Q2 : 0.0, Q3 : 0.0, Q4 : 0.0}
2019-04-14 14:46:17.41: SIM {TimeUS : 42435519, Roll : 0.0, Pitch : 0.0, Yaw : 0.0, Alt : 30.1000003815, Lat : 49.28357, Lng : -123.11502, Q1 : 1.0, Q2 : 0.0, Q3 : 0.0, Q4 : 0.0}
2019-04-14 14:46:17.51: SIM {TimeUS : 42535479, Roll : 0.0, Pitch : 0.0, Yaw : 360.0, Alt : 30.1000003815, Lat : 49.28357, Lng : -123.11502, Q1 : 1.0, Q2 : 0.0, Q3 : 0.0, Q4 : -1.1336584449e-11}
2019-04-14 14:46:17.61: SIM {TimeUS : 42635439, Roll : 0.0, Pitch : 0.0, Yaw : 360.0, Alt : 30.1000003815, Lat : 49.28357, Lng : -123.11502, Q1 : 1.0, Q2 : 0.0, Q3 : 0.0, Q4 : -1.61812430122e-08}
2019-04-14 14:46:17.71: SIM {TimeUS : 42735399, Roll : 0.0, Pitch : 0.0, Yaw : 359.99, Alt : 30.1000003815, Lat : 49.28357, Lng : -123.11502, Q1 : 1.0, Q2 : 0.0, Q3 : 0.0, Q4 : -2.16404146158e-07}
2019-04-14 14:46:17.81: SIM {TimeUS : 42835359, Roll : 0.0, Pitch : 0.0, Yaw : 359.99, Alt : 30.1000003815, Lat : 49.28357, Lng : -123.11502, Q1 : 1.0, Q2 : 0.0, Q3 : 0.0, Q4 : -4.00140066859e-07}
2019-04-14 14:46:17.91: SIM {TimeUS : 42935319, Roll : 0.0, Pitch : 0.0, Yaw : 359.99, Alt : 30.1000003815, Lat : 49.28357, Lng : -123.11502, Q1 : 1.0, Q2 : 0.0, Q3 : 0.0, Q4 : -5.78742856305e-07}
2019-04-14 14:46:18.01: SIM {TimeUS : 43035279, Roll : 0.0, Pitch : 0.0, Yaw : 359.99, Alt : 30.1000003815, Lat : 49.28357, Lng : -123.11502, Q1 : 1.0, Q2 : 0.0, Q3 : 0.0, Q4 : -7.99804467988e-07}
2019-04-14 14:46:18.11: SIM {TimeUS : 43135239, Roll : 0.0, Pitch : 0.0, Yaw : 359.99, Alt : 30.1000003815, Lat : 49.28357, Lng : -123.11502, Q1 : 1.0, Q2 : 0.0, Q3 : 0.0, Q4 : -1.00090221622e-06}
2019-04-14 14:46:18.21: SIM {TimeUS : 43235199, Roll : 0.0, Pitch : 0.0, Yaw : 359.99, Alt : 30.1000003815, Lat : 49.28357, Lng : -123.11502, Q1 : 1.0, Q2 : 0.0, Q3 : 0.0, Q4 : -1.18568971175e-06}
2019-04-14 14:46:18.31: SIM {TimeUS : 43335159, Roll : 0.0, Pitch : 0.0, Yaw : 359.99, Alt : 30.1000003815, Lat : 49.28357, Lng : -123.11502, Q1 : 1.0, Q2 : 0.0, Q3 : 0.0, Q4 : -1.36967435083e-06}
2019-04-14 14:46:18.41: SIM {TimeUS : 43435119, Roll : 0.0, Pitch : 0.0, Yaw : 359.99, Alt : 30.1200008392, Lat : 49.28357, Lng : -123.11502, Q1 : 1.0, Q2 : 0.0, Q3 : 0.0, Q4 : -1.59766761954e-06}
2019-04-14 14:46:18.51: SIM {TimeUS : 43535079, Roll : 0.0, Pitch : 0.0, Yaw : 359.99, Alt : 30.1499996185, Lat : 49.28357, Lng : -123.11502, Q1 : 1.0, Q2 : 0.0, Q3 : 0.0, Q4 : -1.82050450803e-06}
2019-04-14 14:46:18.61: SIM {TimeUS : 43635039, Roll : 0.0, Pitch : 0.0, Yaw : 359.99, Alt : 30.1800003052, Lat : 49.28357, Lng : -123.11502, Q1 : 1.0, Q2 : 0.0, Q3 : 0.0, Q4 : -2.07927223528e-06}
2019-04-14 14:46:18.71: SIM {TimeUS : 43734999, Roll : 0.0, Pitch : 0.0, Yaw : 359.99, Alt : 30.2099990845, Lat : 49.28357, Lng : -123.11502, Q1 : 1.0, Q2 : -8.46819239086e-06, Q3 : -7.5176099017e-06, Q4 : -2.36227833739e-06}
2019-04-14 14:46:18.81: SIM {TimeUS : 43834959, Roll : -0.19, Pitch : -0.15, Yaw : 359.99, Alt : 30.2700004578, Lat : 49.28357, Lng : -123.11502, Q1 : 0.999997675419, Q2 : -0.00167278957088, Q3 : -0.00137585261837, Q4 : -1.84880373126e-05}
2019-04-14 14:46:18.91: SIM {TimeUS : 43934919, Roll : -0.5, Pitch : -0.41, Yaw : 359.99, Alt : 30.3899993896, Lat : 49.28357, Lng : -123.11502, Q1 : 0.999983847141, Q2 : -0.00440711108968, Q3 : -0.00359473098069, Q4 : -6.1946666392e-05}
2019-04-14 14:46:19.01: SIM {TimeUS : 44034879, Roll : -0.74, Pitch : -0.62, Yaw : 359.98, Alt : 30.5400009155, Lat : 49.28357, Lng : -123.11502, Q1 : 0.99996393919, Q2 : -0.00649789581075, Q3 : -0.0054677138105, Q4 : -0.000132879096782}
2019-04-14 14:46:19.11: SIM {TimeUS : 44134839, Roll : -0.83, Pitch : -0.72, Yaw : 359.97, Alt : 30.7000007629, Lat : 49.28357, Lng : -123.11502, Q1 : 0.999953269958, Q2 : -0.0073137357831, Q3 : -0.00631409324706, Q4 : -0.000221245310968}
2019-04-14 14:46:19.21: SIM {TimeUS : 44234799, Roll : -0.78, Pitch : -0.68, Yaw : 359.96, Alt : 30.8600006104, Lat : 49.28357, Lng : -123.1150201, Q1 : 0.999958276749, Q2 : -0.00686680106446, Q3 : -0.00601511215791, Q4 : -0.00031673439662}
2019-04-14 14:46:19.31: SIM {TimeUS : 44334759, Roll : -0.63, Pitch : -0.55, Yaw : 359.95, Alt : 31.0100002289, Lat : 49.2835701, Lng : -123.1150201, Q1 : 0.999972939491, Q2 : -0.00550365634263, Q3 : -0.00486168963835, Q4 : -0.000405251776101}
2019-04-14 14:46:19.41: SIM {TimeUS : 44435552, Roll : -0.39, Pitch : -0.39, Yaw : 359.94, Alt : 31.1700000763, Lat : 49.2835701, Lng : -123.1150202, Q1 : 0.999988019466, Q2 : -0.00348017015494, Q3 : -0.00341044389643, Q4 : -0.000478640809888}
2019-04-14 14:46:19.51: SIM {TimeUS : 44535512, Roll : -0.17, Pitch : -0.21, Yaw : 359.93, Alt : 31.3299999237, Lat : 49.2835701, Lng : -123.1150203, Q1 : 0.999996840954, Q2 : -0.00156533368863, Q3 : -0.00187749473844, Q4 : -0.000532284786459}
2019-04-14 14:46:19.61: SIM {TimeUS : 44635472, Roll : -0.03, Pitch : -0.06, Yaw : 359.93, Alt : 31.5, Lat : 49.2835702, Lng : -123.1150204, Q1 : 0.999999642372, Q2 : -0.000292047334369, Q3 : -0.000579353771172, Q4 : -0.000570955337025}
2019-04-14 14:46:19.71: SIM {TimeUS : 44735432, Roll : 0.04, Pitch : 0.02, Yaw : 359.93, Alt : 31.6700000763, Lat : 49.2835702, Lng : -123.1150205, Q1 : 0.999999761581, Q2 : 0.000357945507858, Q3 : 0.00019999302458, Q4 : -0.000592533266172}
2019-04-14 14:46:19.81: SIM {TimeUS : 44835392, Roll : 0.05, Pitch : 0.05, Yaw : 359.93, Alt : 31.8500003815, Lat : 49.2835703, Lng : -123.1150205, Q1 : 0.999999582767, Q2 : 0.000513093429618, Q3 : 0.000510225072503, Q4 : -0.00060522207059}
2019-04-14 14:46:19.91: SIM {TimeUS : 44935352, Roll : 0.05, Pitch : 0.05, Yaw : 359.93, Alt : 32.0400009155, Lat : 49.2835703, Lng : -123.1150206, Q1 : 0.999999582767, Q2 : 0.000509266392328, Q3 : 0.000470737111755, Q4 : -0.000601345207542}
2019-04-14 14:46:20.01: SIM {TimeUS : 45035312, Roll : 0.06, Pitch : 0.03, Yaw : 359.93, Alt : 32.2299995422, Lat : 49.2835703, Lng : -123.1150207, Q1 : 0.999999642372, Q2 : 0.000547730305698, Q3 : 0.000282851193333, Q4 : -0.000583629589528}
2019-04-14 14:46:20.11: SIM {TimeUS : 45135272, Roll : 0.08, Pitch : 0.02, Yaw : 359.93, Alt : 32.4199981689, Lat : 49.2835703, Lng : -123.1150207, Q1 : 0.999999582767, Q2 : 0.000709730316885, Q3 : 0.000202494789846, Q4 : -0.000563593464904}
2019-04-14 14:46:20.21: SIM {TimeUS : 45235232, Roll : 0.1, Pitch : 0.05, Yaw : 359.93, Alt : 32.6100006104, Lat : 49.2835703, Lng : -123.1150208, Q1 : 0.999999344349, Q2 : 0.000904636981431, Q3 : 0.000439458934125, Q4 : -0.000534497783519}
2019-04-14 14:46:20.31: SIM {TimeUS : 45335192, Roll : 0.12, Pitch : 0.1, Yaw : 359.94, Alt : 32.8100013733, Lat : 49.2835704, Lng : -123.1150208, Q1 : 0.999998867512, Q2 : 0.00109488132875, Q3 : 0.000915264012292, Q4 : -0.000490647507831}
2019-04-14 14:46:20.41: SIM {TimeUS : 45435152, Roll : 0.14, Pitch : 0.15, Yaw : 359.94, Alt : 33.0099983215, Lat : 49.2835704, Lng : -123.1150208, Q1 : 0.999998211861, Q2 : 0.00122256088071, Q3 : 0.0013625966385, Q4 : -0.000451991683803}
2019-04-14 14:46:20.51: SIM {TimeUS : 45535112, Roll : 0.16, Pitch : 0.19, Yaw : 359.95, Alt : 33.2099990845, Lat : 49.2835704, Lng : -123.1150209, Q1 : 0.999997437, Q2 : 0.00141726608854, Q3 : 0.00171491398942, Q4 : -0.000424365978688}
2019-04-14 14:46:20.61: SIM {TimeUS : 45635072, Roll : 0.18, Pitch : 0.21, Yaw : 359.95, Alt : 33.4199981689, Lat : 49.2835704, Lng : -123.1150209, Q1 : 0.999996840954, Q2 : 0.00162826105952, Q3 : 0.00187048723456, Q4 : -0.000417141534854}
2019-04-14 14:46:20.71: SIM {TimeUS : 45735032, Roll : 0.19, Pitch : 0.21, Yaw : 359.95, Alt : 33.6199989319, Lat : 49.2835704, Lng : -123.1150209, Q1 : 0.99999666214, Q2 : 0.00169867835939, Q3 : 0.00188729981892, Q4 : -0.000423902733019}
2019-04-14 14:46:20.81: SIM {TimeUS : 45834992, Roll : 0.17, Pitch : 0.2, Yaw : 359.94, Alt : 33.8300018311, Lat : 49.2835704, Lng : -123.1150209, Q1 : 0.999997079372, Q2 : 0.00154137972277, Q3 : 0.00181268167216, Q4 : -0.000442456948804}
2019-04-14 14:46:20.91: SIM {TimeUS : 45934952, Roll : 0.15, Pitch : 0.16, Yaw : 359.94, Alt : 34.0400009155, Lat : 49.2835704, Lng : -123.1150209, Q1 : 0.999997913837, Q2 : 0.0013382465113, Q3 : 0.00147270946763, Q4 : -0.000465137389256}
2019-04-14 14:46:21.01: SIM {TimeUS : 46034912, Roll : 0.13, Pitch : 0.11, Yaw : 359.94, Alt : 34.25, Lat : 49.2835706, Lng : -123.1150209, Q1 : 0.999998807907, Q2 : 0.00113855313975, Q3 : 0.000961978221312, Q4 : -0.0004781257594}
2019-04-14 14:46:21.11: SIM {TimeUS : 46134872, Roll : 0.1, Pitch : 0.06, Yaw : 359.94, Alt : 34.4599990845, Lat : 49.2835706, Lng : -123.1150209, Q1 : 0.999999284744, Q2 : 0.000942898041103, Q3 : 0.000583055079915, Q4 : -0.000500228139572}
2019-04-14 14:46:21.21: SIM {TimeUS : 46234832, Roll : 0.08, Pitch : 0.04, Yaw : 359.93, Alt : 34.6699981689, Lat : 49.2835706, Lng : -123.1150209, Q1 : 0.999999523163, Q2 : 0.000763122108765, Q3 : 0.000374855473638, Q4 : -0.000534154241905}
2019-04-14 14:46:21.31: SIM {TimeUS : 46334792, Roll : 0.08, Pitch : 0.04, Yaw : 359.93, Alt : 34.8899993896, Lat : 49.2835704, Lng : -123.1150209, Q1 : 0.999999463558, Q2 : 0.000735110079404, Q3 : 0.000383343111025, Q4 : -0.000575324927922}
2019-04-14 14:46:21.41: SIM {TimeUS : 46434752, Roll : 0.08, Pitch : 0.04, Yaw : 359.92, Alt : 35.0999984741, Lat : 49.2835704, Lng : -123.1150208, Q1 : 0.999999463558, Q2 : 0.000753123429604, Q3 : 0.000395397102693, Q4 : -0.000622531224508}
2019-04-14 14:46:21.51: SIM {TimeUS : 46535545, Roll : 0.07, Pitch : 0.05, Yaw : 359.92, Alt : 35.3199996948, Lat : 49.2835704, Lng : -123.1150208, Q1 : 0.999999403954, Q2 : 0.000680749246385, Q3 : 0.000472223560791, Q4 : -0.000673130620271}
2019-04-14 14:46:21.61: SIM {TimeUS : 46635505, Roll : 0.05, Pitch : 0.06, Yaw : 359.91, Alt : 35.5400009155, Lat : 49.2835704, Lng : -123.1150208, Q1 : 0.999999463558, Q2 : 0.000508960161824, Q3 : 0.00055033393437, Q4 : -0.000721328135114}
2019-04-14 14:46:21.71: SIM {TimeUS : 46735465, Roll : 0.03, Pitch : 0.07, Yaw : 359.91, Alt : 35.7599983215, Lat : 49.2835704, Lng : -123.1150208, Q1 : 0.999999463558, Q2 : 0.000324832479237, Q3 : 0.000636060955003, Q4 : -0.000762493582442}
2019-04-14 14:46:21.81: SIM {TimeUS : 46835425, Roll : 0.02, Pitch : 0.05, Yaw : 359.9, Alt : 35.9799995422, Lat : 49.2835704, Lng : -123.1150208, Q1 : 0.999999582767, Q2 : 0.000190687351278, Q3 : 0.000461930438178, Q4 : -0.000787326076534}
2019-04-14 14:46:21.91: SIM {TimeUS : 46935385, Roll : 0.01, Pitch : 0.03, Yaw : 359.9, Alt : 36.2000007629, Lat : 49.2835704, Lng : -123.1150207, Q1 : 0.999999642372, Q2 : 9.62578633334e-05, Q3 : 0.000269022973953, Q4 : -0.000805006420705}
2019-04-14 14:46:22.01: SIM {TimeUS : 47035345, Roll : 0.0, Pitch : 0.01, Yaw : 359.9, Alt : 36.4199981689, Lat : 49.2835704, Lng : -123.1150207, Q1 : 0.999999642372, Q2 : -2.24829673243e-05, Q3 : 0.000103230202512, Q4 : -0.000825061928481}
2019-04-14 14:46:22.11: SIM {TimeUS : 47135305, Roll : 0.0, Pitch : 0.0, Yaw : 359.9, Alt : 36.6399993896, Lat : 49.2835704, Lng : -123.1150207, Q1 : 0.999999642372, Q2 : -8.20597051643e-05, Q3 : 4.93051811645e-06, Q4 : -0.000844070571475}
2019-04-14 14:46:22.21: SIM {TimeUS : 47235265, Roll : 0.0, Pitch : -0.01, Yaw : 359.9, Alt : 36.8699989319, Lat : 49.2835704, Lng : -123.1150207, Q1 : 0.999999642372, Q2 : 9.79964625003e-07, Q3 : -9.45847132243e-05, Q4 : -0.000861649692524}
2019-04-14 14:46:22.31: SIM {TimeUS : 47335225, Roll : 0.0, Pitch : -0.02, Yaw : 359.89, Alt : 37.0900001526, Lat : 49.2835704, Lng : -123.1150207, Q1 : 0.999999582767, Q2 : -5.01508548041e-05, Q3 : -0.000256084604189, Q4 : -0.000876492005773}
2019-04-14 14:46:22.41: SIM {TimeUS : 47435185, Roll : -0.03, Pitch : -0.05, Yaw : 359.89, Alt : 37.3199996948, Lat : 49.2835704, Lng : -123.1150207, Q1 : 0.999999403954, Q2 : -0.000291366130114, Q3 : -0.000513157167006, Q4 : -0.000895930512343}
2019-04-14 14:46:22.51: SIM {TimeUS : 47535145, Roll : -0.07, Pitch : -0.08, Yaw : 359.89, Alt : 37.5400009155, Lat : 49.2835704, Lng : -123.1150207, Q1 : 0.99999910593, Q2 : -0.000638543802779, Q3 : -0.000725310877897, Q4 : -0.000923671410419}
2019-04-14 14:46:22.61: SIM {TimeUS : 47635105, Roll : -0.1, Pitch : -0.09, Yaw : 359.89, Alt : 37.7700004578, Lat : 49.2835704, Lng : -123.1150206, Q1 : 0.999998748302, Q2 : -0.000953679380473, Q3 : -0.000840956519824, Q4 : -0.000952785951085}
2019-04-14 14:46:22.71: SIM {TimeUS : 47735065, Roll : -0.13, Pitch : -0.09, Yaw : 359.88, Alt : 37.9900016785, Lat : 49.2835704, Lng : -123.1150206, Q1 : 0.999998450279, Q2 : -0.0011611826485, Q3 : -0.000869572570082, Q4 : -0.00098391820211}
2019-04-14 14:46:22.81: SIM {TimeUS : 47835025, Roll : -0.14, Pitch : -0.09, Yaw : 359.88, Alt : 38.2200012207, Lat : 49.2835704, Lng : -123.1150206, Q1 : 0.999998390675, Q2 : -0.00122390943579, Q3 : -0.000800007721409, Q4 : -0.00101248524152}
2019-04-14 14:46:22.91: SIM {TimeUS : 47934985, Roll : -0.12, Pitch : -0.06, Yaw : 359.88, Alt : 38.4500007629, Lat : 49.2835704, Lng : -123.1150206, Q1 : 0.999998748302, Q2 : -0.00106720125768, Q3 : -0.000540392939001, Q4 : -0.00103632279206}
2019-04-14 14:46:23.01: SIM {TimeUS : 48034945, Roll : -0.09, Pitch : -0.04, Yaw : 359.87, Alt : 38.6800003052, Lat : 49.2835704, Lng : -123.1150206, Q1 : 0.999999046326, Q2 : -0.000794056395534, Q3 : -0.000406592240324, Q4 : -0.00105844810605}
2019-04-14 14:46:23.11: SIM {TimeUS : 48134905, Roll : -0.07, Pitch : -0.04, Yaw : 359.87, Alt : 38.9099998474, Lat : 49.2835704, Lng : -123.1150206, Q1 : 0.999999165535, Q2 : -0.000617874378804, Q3 : -0.000380908866646, Q4 : -0.00109067221638}
2019-04-14 14:46:23.21: SIM {TimeUS : 48234865, Roll : -0.06, Pitch : -0.02, Yaw : 359.87, Alt : 39.1399993896, Lat : 49.2835704, Lng : -123.1150206, Q1 : 0.999999165535, Q2 : -0.000556698767468, Q3 : -0.000215251231566, Q4 : -0.00111349252984}
2019-04-14 14:46:23.31: SIM {TimeUS : 48334825, Roll : -0.07, Pitch : 0.0, Yaw : 359.87, Alt : 39.3600006104, Lat : 49.2835704, Lng : -123.1150206, Q1 : 0.99999910593, Q2 : -0.000693572685122, Q3 : -2.36777304963e-05, Q4 : -0.00112403265666}
2019-04-14 14:46:23.41: SIM {TimeUS : 48434785, Roll : -0.08, Pitch : 0.01, Yaw : 359.87, Alt : 39.5900001526, Lat : 49.2835704, Lng : -123.1150206, Q1 : 0.99999910593, Q2 : -0.000713365734555, Q3 : 0.000122415745864, Q4 : -0.00112747808453}
2019-04-14 14:46:23.51: SIM {TimeUS : 48534745, Roll : -0.06, Pitch : 0.04, Yaw : 359.87, Alt : 39.8300018311, Lat : 49.2835704, Lng : -123.1150206, Q1 : 0.999999165535, Q2 : -0.000545183371287, Q3 : 0.000355512776878, Q4 : -0.00113087764475}
2019-04-14 14:46:23.61: SIM {TimeUS : 48635538, Roll : -0.03, Pitch : 0.04, Yaw : 359.87, Alt : 40.0600013733, Lat : 49.2835704, Lng : -123.1150206, Q1 : 0.999999284744, Q2 : -0.000311728799716, Q3 : 0.000349611946149, Q4 : -0.00112872978207}
2019-04-14 14:46:23.71: SIM {TimeUS : 48735498, Roll : 0.0, Pitch : 0.03, Yaw : 359.87, Alt : 40.2900009155, Lat : 49.2835706, Lng : -123.1150207, Q1 : 0.999999284744, Q2 : -1.95712345885e-05, Q3 : 0.000284518901026, Q4 : -0.00112921698019}
2019-04-14 14:46:23.81: SIM {TimeUS : 48835458, Roll : 0.03, Pitch : 0.05, Yaw : 359.87, Alt : 40.5200004578, Lat : 49.2835706, Lng : -123.1150207, Q1 : 0.99999922514, Q2 : 0.00029640464345, Q3 : 0.000451853848062, Q4 : -0.00112732150592}
2019-04-14 14:46:23.91: SIM {TimeUS : 48935418, Roll : 0.07, Pitch : 0.08, Yaw : 359.87, Alt : 40.75, Lat : 49.2835706, Lng : -123.1150207, Q1 : 0.999998867512, Q2 : 0.000637051358353, Q3 : 0.000775375461672, Q4 : -0.00113426102325}
2019-04-14 14:46:24.01: SIM {TimeUS : 49035378, Roll : 0.09, Pitch : 0.12, Yaw : 359.86, Alt : 40.9900016785, Lat : 49.2835706, Lng : -123.1150207, Q1 : 0.999998390675, Q2 : 0.000869365292601, Q3 : 0.00108663586434, Q4 : -0.00115090701729}
2019-04-14 14:46:24.11: SIM {TimeUS : 49135338, Roll : 0.08, Pitch : 0.15, Yaw : 359.86, Alt : 41.2200012207, Lat : 49.2835706, Lng : -123.1150207, Q1 : 0.999998152256, Q2 : 0.000765050877817, Q3 : 0.00132909405511, Q4 : -0.00116318464279}
2019-04-14 14:46:24.21: SIM {TimeUS : 49235298, Roll : 0.03, Pitch : 0.16, Yaw : 359.86, Alt : 41.4500007629, Lat : 49.2835706, Lng : -123.1150207, Q1 : 0.999998152256, Q2 : 0.000321147585055, Q3 : 0.00146649742965, Q4 : -0.00119066459592}
2019-04-14 14:46:24.31: SIM {TimeUS : 49335258, Roll : -0.01, Pitch : 0.17, Yaw : 359.86, Alt : 41.6800003052, Lat : 49.2835706, Lng : -123.1150207, Q1 : 0.999998092651, Q2 : -0.00010649242904, Q3 : 0.00151160766836, Q4 : -0.0012189418776}
2019-04-14 14:46:24.41: SIM {TimeUS : 49435218, Roll : -0.03, Pitch : 0.15, Yaw : 359.85, Alt : 41.9199981689, Lat : 49.2835706, Lng : -123.1150207, Q1 : 0.99999833107, Q2 : -0.000279453670373, Q3 : 0.00132714107167, Q4 : -0.00124783953652}
2019-04-14 14:46:24.51: SIM {TimeUS : 49535178, Roll : -0.03, Pitch : 0.12, Yaw : 359.85, Alt : 42.1500015259, Lat : 49.2835706, Lng : -123.1150207, Q1 : 0.999998569489, Q2 : -0.000265918875812, Q3 : 0.00105429592077, Q4 : -0.00128064223099}
2019-04-14 14:46:24.61: SIM {TimeUS : 49635138, Roll : -0.01, Pitch : 0.11, Yaw : 359.84, Alt : 42.3899993896, Lat : 49.2835706, Lng : -123.1150207, Q1 : 0.999998569489, Q2 : -0.000117365969345, Q3 : 0.00102389801759, Q4 : -0.00131956173573}
2019-04-14 14:46:24.71: SIM {TimeUS : 49735098, Roll : 0.02, Pitch : 0.13, Yaw : 359.84, Alt : 42.6199989319, Lat : 49.2835706, Lng : -123.1150207, Q1 : 0.999998390675, Q2 : 0.000222450165893, Q3 : 0.00115083926357, Q4 : -0.00136470503639}
2019-04-14 14:46:24.81: SIM {TimeUS : 49835058, Roll : 0.07, Pitch : 0.14, Yaw : 359.83, Alt : 42.8600006104, Lat : 49.2835706, Lng : -123.1150207, Q1 : 0.999997973442, Q2 : 0.000682762940414, Q3 : 0.00125908502378, Q4 : -0.00140700745396}
2019-04-14 14:46:24.91: SIM {TimeUS : 49935018, Roll : 0.11, Pitch : 0.13, Yaw : 359.83, Alt : 43.0900001526, Lat : 49.2835706, Lng : -123.1150207, Q1 : 0.999997794628, Q2 : 0.00102737487759, Q3 : 0.00113408116158, Q4 : -0.00145071570296}
2019-04-14 14:46:25.01: SIM {TimeUS : 50034978, Roll : 0.11, Pitch : 0.1, Yaw : 359.82, Alt : 43.3300018311, Lat : 49.2835706, Lng : -123.1150207, Q1 : 0.999997973442, Q2 : 0.00103267142549, Q3 : 0.000885870074853, Q4 : -0.00148952775635}
2019-04-14 14:46:25.11: SIM {TimeUS : 50134938, Roll : 0.07, Pitch : 0.08, Yaw : 359.82, Alt : 43.5600013733, Lat : 49.2835704, Lng : -123.1150207, Q1 : 0.999998390675, Q2 : 0.000654624367598, Q3 : 0.000721421965864, Q4 : -0.00150946748909}
2019-04-14 14:46:25.21: SIM {TimeUS : 50234898, Roll : 0.01, Pitch : 0.07, Yaw : 359.82, Alt : 43.7999992371, Lat : 49.2835704, Lng : -123.1150207, Q1 : 0.999998569489, Q2 : 0.000116901363072, Q3 : 0.000678480602801, Q4 : -0.00151860609185}
2019-04-14 14:46:25.31: SIM {TimeUS : 50334858, Roll : -0.03, Pitch : 0.09, Yaw : 359.82, Alt : 44.0299987793, Lat : 49.2835704, Lng : -123.1150207, Q1 : 0.999998450279, Q2 : -0.000260754022747, Q3 : 0.000799760629889, Q4 : -0.00152781303041}
2019-04-14 14:46:25.41: SIM {TimeUS : 50434818, Roll : -0.04, Pitch : 0.09, Yaw : 359.82, Alt : 44.2700004578, Lat : 49.2835704, Lng : -123.1150207, Q1 : 0.999998390675, Q2 : -0.00043019594159, Q3 : 0.000850882846862, Q4 : -0.00153844465967}
2019-04-14 14:46:25.51: SIM {TimeUS : 50534778, Roll : -0.04, Pitch : 0.08, Yaw : 359.82, Alt : 44.5, Lat : 49.2835704, Lng : -123.1150206, Q1 : 0.999998450279, Q2 : -0.000386475847336, Q3 : 0.000720746058505, Q4 : -0.0015519115841}
2019-04-14 14:46:25.61: SIM {TimeUS : 50634738, Roll : -0.04, Pitch : 0.06, Yaw : 359.81, Alt : 44.7400016785, Lat : 49.2835704, Lng : -123.1150206, Q1 : 0.999998509884, Q2 : -0.000409472879255, Q3 : 0.000569743860979, Q4 : -0.00157275120728}
2019-04-14 14:46:25.71: SIM {TimeUS : 50735531, Roll : -0.04, Pitch : 0.04, Yaw : 359.81, Alt : 44.9799995422, Lat : 49.2835704, Lng : -123.1150206, Q1 : 0.999998569489, Q2 : -0.00037017869181, Q3 : 0.000395791867049, Q4 : -0.00159208336845}
2019-04-14 14:46:25.81: SIM {TimeUS : 50835491, Roll : -0.02, Pitch : 0.02, Yaw : 359.81, Alt : 45.2099990845, Lat : 49.2835704, Lng : -123.1150206, Q1 : 0.999998629093, Q2 : -0.0002152735251, Q3 : 0.000250524783041, Q4 : -0.00161920522805}
2019-04-14 14:46:25.91: SIM {TimeUS : 50935451, Roll : -0.01, Pitch : 0.01, Yaw : 359.81, Alt : 45.4500007629, Lat : 49.2835703, Lng : -123.1150206, Q1 : 0.999998629093, Q2 : -0.000141805925523, Q3 : 0.000151380925672, Q4 : -0.00165029487107}
2019-04-14 14:46:26.01: SIM {TimeUS : 51035411, Roll : -0.01, Pitch : 0.0, Yaw : 359.8, Alt : 45.6800003052, Lat : 49.2835703, Lng : -123.1150206, Q1 : 0.999998569489, Q2 : -0.000157330578077, Q3 : -4.30321335898e-07, Q4 : -0.0016827477375}
2019-04-14 14:46:26.11: SIM {TimeUS : 51135371, Roll : -0.02, Pitch : -0.02, Yaw : 359.8, Alt : 45.9199981689, Lat : 49.2835703, Lng : -123.1150206, Q1 : 0.999998509884, Q2 : -0.000194875479792, Q3 : -0.000237602042034, Q4 : -0.00171237881295}
2019-04-14 14:46:26.21: SIM {TimeUS : 51235331, Roll : -0.02, Pitch : -0.04, Yaw : 359.8, Alt : 46.1500015259, Lat : 49.2835703, Lng : -123.1150206, Q1 : 0.999998390675, Q2 : -0.00019941937353, Q3 : -0.000369198591216, Q4 : -0.00174290197901}
2019-04-14 14:46:26.31: SIM {TimeUS : 51335291, Roll : -0.01, Pitch : -0.05, Yaw : 359.79, Alt : 46.3699989319, Lat : 49.2835703, Lng : -123.1150206, Q1 : 0.99999833107, Q2 : -0.000143087061588, Q3 : -0.000445353740361, Q4 : -0.00177438033279}
2019-04-14 14:46:26.41: SIM {TimeUS : 51435251, Roll : -0.01, Pitch : -0.05, Yaw : 359.79, Alt : 46.5900001526, Lat : 49.2835703, Lng : -123.1150206, Q1 : 0.999998271465, Q2 : -0.000170446379343, Q3 : -0.000444078556029, Q4 : -0.00180615042336}
2019-04-14 14:46:26.51: SIM {TimeUS : 51535211, Roll : -0.04, Pitch : -0.04, Yaw : 359.78, Alt : 46.8100013733, Lat : 49.2835703, Lng : -123.1150206, Q1 : 0.999998152256, Q2 : -0.000374390045181, Q3 : -0.000409673608374, Q4 : -0.00183873774949}
2019-04-14 14:46:26.61: SIM {TimeUS : 51635171, Roll : -0.08, Pitch : -0.04, Yaw : 359.78, Alt : 47.0200004578, Lat : 49.2835703, Lng : -123.1150205, Q1 : 0.999997913837, Q2 : -0.000709930958692, Q3 : -0.000386587111279, Q4 : -0.00186813261826}
2019-04-14 14:46:26.71: SIM {TimeUS : 51735131, Roll : -0.1, Pitch : -0.04, Yaw : 359.78, Alt : 47.2200012207, Lat : 49.2835703, Lng : -123.1150205, Q1 : 0.999997675419, Q2 : -0.00095760304248, Q3 : -0.000360985024599, Q4 : -0.00189934298396}
2019-04-14 14:46:26.81: SIM {TimeUS : 51835091, Roll : -0.11, Pitch : -0.03, Yaw : 359.77, Alt : 47.4199981689, Lat : 49.2835703, Lng : -123.1150205, Q1 : 0.999997615814, Q2 : -0.00100373860914, Q3 : -0.000274977152003, Q4 : -0.00192967290059}
2019-04-14 14:46:26.91: SIM {TimeUS : 51935051, Roll : -0.1, Pitch : 0.0, Yaw : 359.77, Alt : 47.5999984741, Lat : 49.2835703, Lng : -123.1150205, Q1 : 0.999997675419, Q2 : -0.000887068919837, Q3 : -6.86226994731e-05, Q4 : -0.00195661210455}
2019-04-14 14:46:27.01: SIM {TimeUS : 52035011, Roll : -0.11, Pitch : -0.01, Yaw : 359.77, Alt : 47.7799987793, Lat : 49.2835703, Lng : -123.1150205, Q1 : 0.99999755621, Q2 : -0.00100251857657, Q3 : -0.000145558209624, Q4 : -0.00198064604774}
2019-04-14 14:46:27.11: SIM {TimeUS : 52134971, Roll : -0.12, Pitch : -0.03, Yaw : 359.77, Alt : 47.9399986267, Lat : 49.2835703, Lng : -123.1150205, Q1 : 0.999997317791, Q2 : -0.00110969366506, Q3 : -0.000317889818689, Q4 : -0.00200435845181}
2019-04-14 14:46:27.21: SIM {TimeUS : 52234931, Roll : -0.12, Pitch : -0.05, Yaw : 359.76, Alt : 48.0999984741, Lat : 49.2835703, Lng : -123.1150205, Q1 : 0.999997198582, Q2 : -0.00112306547817, Q3 : -0.000456584733911, Q4 : -0.00202764407732}
2019-04-14 14:46:27.31: SIM {TimeUS : 52334891, Roll : -0.1, Pitch : -0.06, Yaw : 359.76, Alt : 48.2400016785, Lat : 49.2835703, Lng : -123.1150206, Q1 : 0.999997258186, Q2 : -0.00095236877678, Q3 : -0.00057762383949, Q4 : -0.00205687782727}
2019-04-14 14:46:27.41: SIM {TimeUS : 52434851, Roll : -0.07, Pitch : -0.07, Yaw : 359.76, Alt : 48.3600006104, Lat : 49.2835703, Lng : -123.1150206, Q1 : 0.999997377396, Q2 : -0.000669969944283, Q3 : -0.000671096902806, Q4 : -0.00208513531834}
2019-04-14 14:46:27.51: SIM {TimeUS : 52534811, Roll : -0.05, Pitch : -0.08, Yaw : 359.75, Alt : 48.4799995422, Lat : 49.2835703, Lng : -123.1150206, Q1 : 0.999997377396, Q2 : -0.000476464891108, Q3 : -0.00072281685425, Q4 : -0.00210954179056}
2019-04-14 14:46:27.61: SIM {TimeUS : 52634771, Roll : -0.04, Pitch : -0.08, Yaw : 359.75, Alt : 48.5800018311, Lat : 49.2835703, Lng : -123.1150206, Q1 : 0.999997377396, Q2 : -0.000392598682083, Q3 : -0.000755474553443, Q4 : -0.00213002460077}
2019-04-14 14:46:27.71: SIM {TimeUS : 52735564, Roll : -0.01, Pitch : -0.07, Yaw : 359.75, Alt : 48.6800003052, Lat : 49.2835703, Lng : -123.1150206, Q1 : 0.999997437, Q2 : -0.000139572963235, Q3 : -0.000678091077134, Q4 : -0.00215249229223}
2019-04-14 14:46:27.81: SIM {TimeUS : 52835524, Roll : 0.01, Pitch : -0.06, Yaw : 359.75, Alt : 48.7599983215, Lat : 49.2835703, Lng : -123.1150206, Q1 : 0.999997496605, Q2 : 0.000129734034999, Q3 : -0.000533455226105, Q4 : -0.0021738128271}
2019-04-14 14:46:27.91: SIM {TimeUS : 52935484, Roll : 0.03, Pitch : -0.03, Yaw : 359.74, Alt : 48.8300018311, Lat : 49.2835703, Lng : -123.1150206, Q1 : 0.999997437, Q2 : 0.00033656321466, Q3 : -0.000332585914293, Q4 : -0.00219660857692}
2019-04-14 14:46:28.01: SIM {TimeUS : 53035444, Roll : 0.05, Pitch : -0.01, Yaw : 359.74, Alt : 48.8899993896, Lat : 49.2835703, Lng : -123.1150206, Q1 : 0.999997437, Q2 : 0.00047330086818, Q3 : -0.000131809516461, Q4 : -0.00221923505887}
2019-04-14 14:46:28.11: SIM {TimeUS : 53135404, Roll : 0.06, Pitch : 0.0, Yaw : 359.74, Alt : 48.9399986267, Lat : 49.2835703, Lng : -123.1150206, Q1 : 0.999997317791, Q2 : 0.000566159724258, Q3 : -8.62718879944e-05, Q4 : -0.00224349368364}
2019-04-14 14:46:28.21: SIM {TimeUS : 53235364, Roll : 0.09, Pitch : -0.03, Yaw : 359.73, Alt : 48.9799995422, Lat : 49.2835703, Lng : -123.1150207, Q1 : 0.999997079372, Q2 : 0.00082298082998, Q3 : -0.000283131521428, Q4 : -0.00226908409968}
2019-04-14 14:46:28.31: SIM {TimeUS : 53335324, Roll : 0.25, Pitch : -0.09, Yaw : 359.73, Alt : 49.0200004578, Lat : 49.2835703, Lng : -123.1150207, Q1 : 0.999994456768, Q2 : 0.00226189754903, Q3 : -0.000815359991975, Q4 : -0.00230169785209}
2019-04-14 14:46:28.41: SIM {TimeUS : 53435284, Roll : 0.67, Pitch : -0.21, Yaw : 359.73, Alt : 49.0600013733, Lat : 49.2835703, Lng : -123.1150207, Q1 : 0.999978303909, Q2 : 0.00586431147531, Q3 : -0.00187568750698, Q4 : -0.00234116241336}
2019-04-14 14:46:28.51: SIM {TimeUS : 53535244, Roll : 1.34, Pitch : -0.4, Yaw : 359.72, Alt : 49.0800018311, Lat : 49.2835703, Lng : -123.1150206, Q1 : 0.999922096729, Q2 : 0.0117105524987, Q3 : -0.00360511057079, Q4 : -0.00237283669412}
2019-04-14 14:46:28.61: SIM {TimeUS : 53635204, Roll : 2.22, Pitch : -0.66, Yaw : 359.71, Alt : 49.1100006104, Lat : 49.2835703, Lng : -123.1150206, Q1 : 0.99979186058, Q2 : 0.0194091945887, Q3 : -0.00582171976566, Q4 : -0.00239521288313}
2019-04-14 14:46:28.71: SIM {TimeUS : 53735164, Roll : 3.24, Pitch : -0.93, Yaw : 359.7, Alt : 49.1300010681, Lat : 49.2835704, Lng : -123.1150205, Q1 : 0.99956291914, Q2 : 0.0282919313759, Q3 : -0.00823825411499, Q4 : -0.00238466775045}
2019-04-14 14:46:28.81: SIM {TimeUS : 53835124, Roll : 4.23, Pitch : -1.2, Yaw : 359.68, Alt : 49.1500015259, Lat : 49.2835704, Lng : -123.1150204, Q1 : 0.99926006794, Q2 : 0.0368967317045, Q3 : -0.0106107145548, Q4 : -0.00233354791999}
2019-04-14 14:46:28.91: SIM {TimeUS : 53935084, Roll : 5.03, Pitch : -1.45, Yaw : 359.67, Alt : 49.1599998474, Lat : 49.2835706, Lng : -123.1150201, Q1 : 0.998951077461, Q2 : 0.0439036153257, Q3 : -0.0128131685778, Q4 : -0.00225454033352}
2019-04-14 14:46:29.01: SIM {TimeUS : 54035044, Roll : 5.61, Pitch : -1.65, Yaw : 359.67, Alt : 49.1800003052, Lat : 49.2835706, Lng : -123.1150199, Q1 : 0.998695969582, Q2 : 0.0488961152732, Q3 : -0.0145257264376, Q4 : -0.00213896343485}
2019-04-14 14:46:29.11: SIM {TimeUS : 54135004, Roll : 6.01, Pitch : -1.81, Yaw : 359.67, Alt : 49.1899986267, Lat : 49.2835707, Lng : -123.1150194, Q1 : 0.998497664928, Q2 : 0.0523852556944, Q3 : -0.0159452836961, Q4 : -0.00200037588365}
2019-04-14 14:46:29.21: SIM {TimeUS : 54234964, Roll : 6.33, Pitch : -1.95, Yaw : 359.68, Alt : 49.2000007629, Lat : 49.2835708, Lng : -123.1150189, Q1 : 0.998324453831, Q2 : 0.0552244447172, Q3 : -0.0171813312918, Q4 : -0.00184235081542}
2019-04-14 14:46:29.31: SIM {TimeUS : 54334924, Roll : 6.66, Pitch : -2.07, Yaw : 359.68, Alt : 49.2099990845, Lat : 49.2835709, Lng : -123.1150182, Q1 : 0.998146653175, Q2 : 0.0580476783216, Q3 : -0.0181915555149, Q4 : -0.0016649364261}
2019-04-14 14:46:29.41: SIM {TimeUS : 54434884, Roll : 7.02, Pitch : -2.18, Yaw : 359.69, Alt : 49.2099990845, Lat : 49.283571, Lng : -123.1150174, Q1 : 0.997940659523, Q2 : 0.0611901879311, Q3 : -0.019183287397, Q4 : -0.00149759242777}
2019-04-14 14:46:29.51: SIM {TimeUS : 54534844, Roll : 7.38, Pitch : -2.28, Yaw : 359.69, Alt : 49.2200012207, Lat : 49.2835713, Lng : -123.1150166, Q1 : 0.997726082802, Q2 : 0.0643273442984, Q3 : -0.0200735367835, Q4 : -0.00133165391162}
2019-04-14 14:46:29.61: SIM {TimeUS : 54634804, Roll : 7.67, Pitch : -2.35, Yaw : 359.7, Alt : 49.2299995422, Lat : 49.2835715, Lng : -123.1150156, Q1 : 0.997546672821, Q2 : 0.0668621584773, Q3 : -0.0207062717527, Q4 : -0.0011776384199}
2019-04-14 14:46:29.71: SIM {TimeUS : 54734764, Roll : 7.88, Pitch : -2.41, Yaw : 359.71, Alt : 49.2299995422, Lat : 49.2835716, Lng : -123.1150145, Q1 : 0.997411429882, Q2 : 0.0686898753047, Q3 : -0.0212382897735, Q4 : -0.00106477423105}
2019-04-14 14:46:29.81: SIM {TimeUS : 54835557, Roll : 8.04, Pitch : -2.47, Yaw : 359.71, Alt : 49.2400016785, Lat : 49.283572, Lng : -123.1150132, Q1 : 0.997304618359, Q2 : 0.0700685158372, Q3 : -0.0217480305582, Q4 : -0.000992232817225}
2019-04-14 14:46:29.91: SIM {TimeUS : 54935517, Roll : 8.17, Pitch : -2.52, Yaw : 359.71, Alt : 49.2400016785, Lat : 49.2835721, Lng : -123.1150119, Q1 : 0.99721455574, Q2 : 0.0712159797549, Q3 : -0.0221468042582, Q4 : -0.000948219792917}
2019-04-14 14:46:30.01: SIM {TimeUS : 55035477, Roll : 8.3, Pitch : -2.54, Yaw : 359.71, Alt : 49.25, Lat : 49.2835725, Lng : -123.1150105, Q1 : 0.997130453587, Q2 : 0.0723290070891, Q3 : -0.0223282910883, Q4 : -0.000907494570129}
2019-04-14 14:46:30.11: SIM {TimeUS : 55135437, Roll : 8.54, Pitch : -2.41, Yaw : 359.83, Alt : 49.25, Lat : 49.2835727, Lng : -123.1150089, Q1 : 0.996999442577, Q2 : 0.0744632482529, Q3 : -0.0211497955024, Q4 : 0.000176269357326}
2019-04-14 14:46:30.21: SIM {TimeUS : 55235397, Roll : 8.96, Pitch : -2.07, Yaw : 0.61, Alt : 49.2599983215, Lat : 49.2835732, Lng : -123.1150072, Q1 : 0.99675732851, Q2 : 0.0782279074192, Q3 : -0.0175920091569, Q4 : 0.00676385173574}
2019-04-14 14:46:30.31: SIM {TimeUS : 55335357, Roll : 9.51, Pitch : -1.75, Yaw : 2.69, Alt : 49.2599983215, Lat : 49.2835734, Lng : -123.1150055, Q1 : 0.996132791042, Q2 : 0.0832536891103, Q3 : -0.0133388806134, Q4 : 0.0247067809105}
2019-04-14 14:46:30.41: SIM {TimeUS : 55435317, Roll : 10.02, Pitch : -1.89, Yaw : 6.34, Alt : 49.2599983215, Lat : 49.2835738, Lng : -123.1150037, Q1 : 0.994432449341, Q2 : 0.0881300717592, Q3 : -0.0116106271744, Q4 : 0.0565894730389}
2019-04-14 14:46:30.51: SIM {TimeUS : 55535277, Roll : 10.31, Pitch : -2.66, Yaw : 11.46, Alt : 49.2599983215, Lat : 49.283574, Lng : -123.1150017, Q1 : 0.990494728088, Q2 : 0.0916999429464, Q3 : -0.0140513787046, Q4 : 0.101557329297}
2019-04-14 14:46:30.61: SIM {TimeUS : 55635237, Roll : 10.22, Pitch : -4.03, Yaw : 17.82, Alt : 49.2599983215, Lat : 49.2835744, Lng : -123.1149996, Q1 : 0.982898414135, Q2 : 0.093429505825, Q3 : -0.0208758749068, Q4 : 0.157308325171}
2019-04-14 14:46:30.71: SIM {TimeUS : 55735197, Roll : 9.67, Pitch : -5.86, Yaw : 25.16, Alt : 49.2599983215, Lat : 49.2835747, Lng : -123.1149974, Q1 : 0.970295965672, Q2 : 0.0933166220784, Q3 : -0.0314274728298, Q4 : 0.220975071192}
2019-04-14 14:46:30.81: SIM {TimeUS : 55835157, Roll : 8.6, Pitch : -7.9, Yaw : 33.24, Alt : 49.2700004578, Lat : 49.2835751, Lng : -123.114995, Q1 : 0.95175409317, Q2 : 0.0914023220539, Q3 : -0.0444066673517, Q4 : 0.289547532797}
2019-04-14 14:46:30.91: SIM {TimeUS : 55935117, Roll : 7.02, Pitch : -9.88, Yaw : 41.84, Alt : 49.2700004578, Lat : 49.2835753, Lng : -123.1149926, Q1 : 0.926962912083, Q2 : 0.0877324938774, Q3 : -0.0584885105491, Q4 : 0.360030442476}
2019-04-14 14:46:31.01: SIM {TimeUS : 56035077, Roll : 5.01, Pitch : -11.58, Yaw : 50.7, Alt : 49.2700004578, Lat : 49.2835757, Lng : -123.1149901, Q1 : 0.896331787109, Q2 : 0.0824682936072, Q3 : -0.0724617615342, Q4 : 0.429578483105}
2019-04-14 14:46:31.11: SIM {TimeUS : 56135037, Roll : 2.71, Pitch : -12.85, Yaw : 59.53, Alt : 49.2700004578, Lat : 49.2835761, Lng : -123.1149874, Q1 : 0.861014962196, Q2 : 0.0760224536061, Q3 : -0.0854458957911, Q4 : 0.495553046465}
2019-04-14 14:46:31.21: SIM {TimeUS : 56234997, Roll : 0.26, Pitch : -13.64, Yaw : 68.03, Alt : 49.2700004578, Lat : 49.2835764, Lng : -123.1149846, Q1 : 0.82285708189, Q2 : 0.0683600232005, Q3 : -0.0971830040216, Q4 : 0.55568754673}
2019-04-14 14:46:31.31: SIM {TimeUS : 56334957, Roll : -2.44, Pitch : -13.95, Yaw : 75.69, Alt : 49.2799987793, Lat : 49.2835769, Lng : -123.1149816, Q1 : 0.78522580862, Q2 : 0.0578130595386, Q3 : -0.108905605972, Q4 : 0.60680937767}
2019-04-14 14:46:31.41: SIM {TimeUS : 56434917, Roll : -5.05, Pitch : -13.85, Yaw : 81.82, Alt : 49.2799987793, Lat : 49.2835774, Lng : -123.1149786, Q1 : 0.752920031548, Q2 : 0.0458410680294, Q3 : -0.119697026908, Q4 : 0.645509600639}
2019-04-14 14:46:31.51: SIM {TimeUS : 56534877, Roll : -7.05, Pitch : -13.54, Yaw : 86.02, Alt : 49.2799987793, Lat : 49.283578, Lng : -123.1149755, Q1 : 0.72970199585, Q2 : 0.0356074236333, Q3 : -0.127751260996, Q4 : 0.670780658722}
2019-04-14 14:46:31.61: SIM {TimeUS : 56634837, Roll : -8.14, Pitch : -13.23, Yaw : 88.24, Alt : 49.2799987793, Lat : 49.2835787, Lng : -123.1149722, Q1 : 0.716985583305, Q2 : 0.0293974485248, Q3 : -0.131672337651, Q4 : 0.683907806873}
2019-04-14 14:46:31.71: SIM {TimeUS : 56734797, Roll : -8.25, Pitch : -13.09, Yaw : 88.72, Alt : 49.2799987793, Lat : 49.2835794, Lng : -123.1149689, Q1 : 0.71415412426, Q2 : 0.0284059327096, Q3 : -0.131343126297, Q4 : 0.686968684196}
2019-04-14 14:46:31.81: SIM {TimeUS : 56834757, Roll : -7.51, Pitch : -13.22, Yaw : 87.81, Alt : 49.2799987793, Lat : 49.2835802, Lng : -123.1149654, Q1 : 0.719365715981, Q2 : 0.0327905677259, Q3 : -0.127898335457, Q4 : 0.681967556477}
2019-04-14 14:46:31.91: SIM {TimeUS : 56935550, Roll : -6.12, Pitch : -13.61, Yaw : 85.83, Alt : 49.2799987793, Lat : 49.2835812, Lng : -123.1149619, Q1 : 0.730451047421, Q2 : 0.0417263805866, Q3 : -0.122829444706, Q4 : 0.670531988144}
2019-04-14 14:46:32.01: SIM {TimeUS : 57035510, Roll : -4.35, Pitch : -14.19, Yaw : 83.14, Alt : 49.2799987793, Lat : 49.283582, Lng : -123.1149583, Q1 : 0.744956851006, Q2 : 0.0537294223905, Q3 : -0.117361262441, Q4 : 0.654506504536}
2019-04-14 14:46:32.11: SIM {TimeUS : 57135470, Roll : -2.4, Pitch : -14.84, Yaw : 80.04, Alt : 49.2799987793, Lat : 49.2835831, Lng : -123.1149546, Q1 : 0.760958731174, Q2 : 0.0671038776636, Q3 : -0.112302727997, Q4 : 0.635473847389}
2019-04-14 14:46:32.21: SIM {TimeUS : 57235430, Roll : -0.5, Pitch : -15.42, Yaw : 76.83, Alt : 49.2799987793, Lat : 49.2835841, Lng : -123.1149508, Q1 : 0.776780843735, Q2 : 0.079975374043, Q3 : -0.107867568731, Q4 : 0.615288615227}
2019-04-14 14:46:32.31: SIM {TimeUS : 57335390, Roll : 1.18, Pitch : -15.82, Yaw : 73.84, Alt : 49.2799987793, Lat : 49.283585, Lng : -123.1149469, Q1 : 0.790960013866, Q2 : 0.0908279567957, Q3 : -0.103882901371, Q4 : 0.596104741096}
2019-04-14 14:46:32.41: SIM {TimeUS : 57435350, Roll : 2.49, Pitch : -16.01, Yaw : 71.36, Alt : 49.2799987793, Lat : 49.2835861, Lng : -123.1149429, Q1 : 0.80238455534, Q2 : 0.0987120717764, Q3 : -0.100540712476, Q4 : 0.579936623573}
2019-04-14 14:46:32.51: SIM {TimeUS : 57535310, Roll : 3.34, Pitch : -16.03, Yaw : 69.6, Alt : 49.2799987793, Lat : 49.2835871, Lng : -123.1149387, Q1 : 0.81044626236, Q2 : 0.103317886591, Q3 : -0.0980210080743, Q4 : 0.568237781525}
2019-04-14 14:46:32.61: SIM {TimeUS : 57635270, Roll : 3.7, Pitch : -15.97, Yaw : 68.62, Alt : 49.2799987793, Lat : 49.2835879, Lng : -123.1149345, Q1 : 0.814996182919, Q2 : 0.104744024575, Q3 : -0.0966803282499, Q4 : 0.561660766602}
2019-04-14 14:46:32.71: SIM {TimeUS : 57735230, Roll : 3.61, Pitch : -15.91, Yaw : 68.41, Alt : 49.2900009155, Lat : 49.2835889, Lng : -123.1149301, Q1 : 0.816197872162, Q2 : 0.103615455329, Q3 : -0.0968483164907, Q4 : 0.560093998909}
2019-04-14 14:46:32.81: SIM {TimeUS : 57835190, Roll : 3.16, Pitch : -15.9, Yaw : 68.84, Alt : 49.2900009155, Lat : 49.2835897, Lng : -123.1149256, Q1 : 0.814464986324, Q2 : 0.100754640996, Q3 : -0.0986079648137, Q4 : 0.562824845314}
2019-04-14 14:46:32.91: SIM {TimeUS : 57935150, Roll : 2.46, Pitch : -15.98, Yaw : 69.77, Alt : 49.2900009155, Lat : 49.2835907, Lng : -123.1149211, Q1 : 0.810395717621, Q2 : 0.0969883278012, Q3 : -0.101854249835, Q4 : 0.568751037121}
2019-04-14 14:46:33.01: SIM {TimeUS : 58035110, Roll : 1.61, Pitch : -16.12, Yaw : 71.01, Alt : 49.2900009155, Lat : 49.2835916, Lng : -123.1149164, Q1 : 0.804763317108, Q2 : 0.0928348898888, Q3 : -0.106067202985, Q4 : 0.576617240906}
2019-04-14 14:46:33.11: SIM {TimeUS : 58135070, Roll : 0.72, Pitch : -16.29, Yaw : 72.37, Alt : 49.2900009155, Lat : 49.2835925, Lng : -123.1149117, Q1 : 0.798400402069, Q2 : 0.0887188613415, Q3 : -0.110668763518, Q4 : 0.585182189941}
2019-04-14 14:46:33.21: SIM {TimeUS : 58235030, Roll : -0.09, Pitch : -16.42, Yaw : 73.69, Alt : 49.2900009155, Lat : 49.2835933, Lng : -123.1149069, Q1 : 0.792122662067, Q2 : 0.0849888846278, Q3 : -0.114788390696, Q4 : 0.593415737152}
2019-04-14 14:46:33.31: SIM {TimeUS : 58334990, Roll : -0.74, Pitch : -16.5, Yaw : 74.82, Alt : 49.2900009155, Lat : 49.2835941, Lng : -123.114902, Q1 : 0.786609232426, Q2 : 0.0820641219616, Q3 : -0.117886140943, Q4 : 0.600511729717}
2019-04-14 14:46:33.41: SIM {TimeUS : 58434950, Roll : -1.2, Pitch : -16.53, Yaw : 75.68, Alt : 49.2900009155, Lat : 49.2835952, Lng : -123.1148971, Q1 : 0.782372295856, Q2 : 0.0799863040447, Q3 : -0.11997333914, Q4 : 0.605889558792}
2019-04-14 14:46:33.51: SIM {TimeUS : 58534910, Roll : -1.44, Pitch : -16.55, Yaw : 76.22, Alt : 49.2900009155, Lat : 49.283596, Lng : -123.1148921, Q1 : 0.779661953449, Q2 : 0.0790133848786, Q3 : -0.120946511626, Q4 : 0.609307825565}
2019-04-14 14:46:33.61: SIM {TimeUS : 58634870, Roll : -1.45, Pitch : -16.54, Yaw : 76.44, Alt : 49.2900009155, Lat : 49.283597, Lng : -123.1148871, Q1 : 0.778525114059, Q2 : 0.0791453123093, Q3 : -0.120847396553, Q4 : 0.610762298107}
2019-04-14 14:46:33.71: SIM {TimeUS : 58734830, Roll : -1.3, Pitch : -16.54, Yaw : 76.36, Alt : 49.2900009155, Lat : 49.2835981, Lng : -123.114882, Q1 : 0.77883130312, Q2 : 0.0800578147173, Q3 : -0.120089635253, Q4 : 0.610402405262}
2019-04-14 14:46:33.81: SIM {TimeUS : 58834790, Roll : -1.05, Pitch : -16.57, Yaw : 76.05, Alt : 49.2900009155, Lat : 49.283599, Lng : -123.1148769, Q1 : 0.780273914337, Q2 : 0.0816072896123, Q3 : -0.119166053832, Q4 : 0.608533024788}
2019-04-14 14:46:33.91: SIM {TimeUS : 58934750, Roll : -0.74, Pitch : -16.63, Yaw : 75.58, Alt : 49.2900009155, Lat : 49.2836001, Lng : -123.1148717, Q1 : 0.782485604286, Q2 : 0.0835811495781, Q3 : -0.118242554367, Q4 : 0.605598211288}
2019-04-14 14:46:34.01: SIM {TimeUS : 59035543, Roll : -0.39, Pitch : -16.71, Yaw : 75.02, Alt : 49.2900009155, Lat : 49.2836011, Lng : -123.1148664, Q1 : 0.785099565983, Q2 : 0.0857774987817, Q3 : -0.117381431162, Q4 : 0.602065205574}
2019-04-14 14:46:34.11: SIM {TimeUS : 59135503, Roll : -0.07, Pitch : -16.77, Yaw : 74.46, Alt : 49.2900009155, Lat : 49.2836022, Lng : -123.1148611, Q1 : 0.787752091885, Q2 : 0.0877402797341, Q3 : -0.116509512067, Q4 : 0.598476231098}
2019-04-14 14:46:34.21: SIM {TimeUS : 59235463, Roll : 0.21, Pitch : -16.81, Yaw : 73.94, Alt : 49.2900009155, Lat : 49.2836031, Lng : -123.1148558, Q1 : 0.790149390697, Q2 : 0.0894417092204, Q3 : -0.115732610226, Q4 : 0.595205962658}
2019-04-14 14:46:34.31: SIM {TimeUS : 59335423, Roll : 0.44, Pitch : -16.85, Yaw : 73.53, Alt : 49.2900009155, Lat : 49.2836042, Lng : -123.1148504, Q1 : 0.792081654072, Q2 : 0.0907899439335, Q3 : -0.115138784051, Q4 : 0.59254270792}
2019-04-14 14:46:34.41: SIM {TimeUS : 59435383, Roll : 0.59, Pitch : -16.88, Yaw : 73.24, Alt : 49.2900009155, Lat : 49.2836053, Lng : -123.114845, Q1 : 0.793442249298, Q2 : 0.0916674286127, Q3 : -0.114794410765, Q4 : 0.590651094913}
2019-04-14 14:46:34.51: SIM {TimeUS : 59535343, Roll : 0.66, Pitch : -16.91, Yaw : 73.08, Alt : 49.2900009155, Lat : 49.2836062, Lng : -123.1148396, Q1 : 0.794175446033, Q2 : 0.0921796858311, Q3 : -0.114708833396, Q4 : 0.589601695538}
2019-04-14 14:46:34.61: SIM {TimeUS : 59635303, Roll : 0.66, Pitch : -16.93, Yaw : 73.04, Alt : 49.2999992371, Lat : 49.2836074, Lng : -123.1148341, Q1 : 0.794329583645, Q2 : 0.0922735929489, Q3 : -0.114933907986, Q4 : 0.589335501194}
2019-04-14 14:46:34.71: SIM {TimeUS : 59735263, Roll : 0.58, Pitch : -16.96, Yaw : 73.11, Alt : 49.2999992371, Lat : 49.2836084, Lng : -123.1148286, Q1 : 0.794002890587, Q2 : 0.0919429436326, Q3 : -0.115478590131, Q4 : 0.589720785618}
2019-04-14 14:46:34.81: SIM {TimeUS : 59835223, Roll : 0.45, Pitch : -16.99, Yaw : 73.26, Alt : 49.2999992371, Lat : 49.2836093, Lng : -123.114823, Q1 : 0.793313026428, Q2 : 0.0913485512137, Q3 : -0.116264045238, Q4 : 0.590586662292}
2019-04-14 14:46:34.91: SIM {TimeUS : 59935183, Roll : 0.28, Pitch : -17.03, Yaw : 73.45, Alt : 49.2999992371, Lat : 49.2836104, Lng : -123.1148174, Q1 : 0.79241079092, Q2 : 0.0905908867717, Q3 : -0.117250785232, Q4 : 0.591718435287}
2019-04-14 14:46:35.01: SIM {TimeUS : 60035143, Roll : 0.11, Pitch : -17.08, Yaw : 73.66, Alt : 49.2999992371, Lat : 49.2836115, Lng : -123.1148118, Q1 : 0.79143589735, Q2 : 0.0898433476686, Q3 : -0.118263147771, Q4 : 0.59293448925}
2019-04-14 14:46:35.11: SIM {TimeUS : 60135103, Roll : -0.04, Pitch : -17.11, Yaw : 73.85, Alt : 49.2999992371, Lat : 49.2836126, Lng : -123.1148061, Q1 : 0.790517687798, Q2 : 0.0891140028834, Q3 : -0.119177035987, Q4 : 0.594085276127}
2019-04-14 14:46:35.21: SIM {TimeUS : 60235063, Roll : -0.18, Pitch : -17.14, Yaw : 74.01, Alt : 49.2999992371, Lat : 49.2836135, Lng : -123.1148004, Q1 : 0.789759576321, Q2 : 0.0884599164128, Q3 : -0.119957432151, Q4 : 0.595033586025}
2019-04-14 14:46:35.31: SIM {TimeUS : 60335023, Roll : -0.28, Pitch : -17.16, Yaw : 74.13, Alt : 49.2999992371, Lat : 49.2836147, Lng : -123.1147947, Q1 : 0.789218485355, Q2 : 0.0880055427551, Q3 : -0.120544798672, Q4 : 0.595699727535}
2019-04-14 14:46:35.41: SIM {TimeUS : 60434983, Roll : -0.31, Pitch : -17.19, Yaw : 74.19, Alt : 49.2999992371, Lat : 49.2836158, Lng : -123.1147889, Q1 : 0.788906097412, Q2 : 0.0879936590791, Q3 : -0.120887778699, Q4 : 0.596045672894}
2019-04-14 14:46:35.51: SIM {TimeUS : 60534943, Roll : -0.3, Pitch : -17.22, Yaw : 74.19, Alt : 49.2999992371, Lat : 49.2836169, Lng : -123.1147832, Q1 : 0.788844704628, Q2 : 0.0882579088211, Q3 : -0.121051035821, Q4 : 0.596054673195}
2019-04-14 14:46:35.61: SIM {TimeUS : 60634903, Roll : -0.24, Pitch : -17.26, Yaw : 74.15, Alt : 49.2999992371, Lat : 49.283618, Lng : -123.1147774, Q1 : 0.788995802402, Q2 : 0.0887950584292, Q3 : -0.121053501964, Q4 : 0.595774412155}
2019-04-14 14:46:35.71: SIM {TimeUS : 60734863, Roll : -0.15, Pitch : -17.31, Yaw : 74.06, Alt : 49.3100013733, Lat : 49.283619, Lng : -123.1147716, Q1 : 0.7893024683, Q2 : 0.0895853936672, Q3 : -0.120941184461, Q4 : 0.595272541046}
2019-04-14 14:46:35.81: SIM {TimeUS : 60834823, Roll : -0.06, Pitch : -17.34, Yaw : 73.96, Alt : 49.3100013733, Lat : 49.2836201, Lng : -123.1147657, Q1 : 0.78974545002, Q2 : 0.0902878493071, Q3 : -0.120789274573, Q4 : 0.594609260559}
2019-04-14 14:46:35.91: SIM {TimeUS : 60934783, Roll : 0.0, Pitch : -17.36, Yaw : 73.84, Alt : 49.3100013733, Lat : 49.2836213, Lng : -123.1147599, Q1 : 0.790270447731, Q2 : 0.0907528921962, Q3 : -0.120674796402, Q4 : 0.593863785267}
2019-04-14 14:46:36.01: SIM {TimeUS : 61034743, Roll : 0.04, Pitch : -17.38, Yaw : 73.73, Alt : 49.3100013733, Lat : 49.2836224, Lng : -123.114754, Q1 : 0.790813863277, Q2 : 0.0909832790494, Q3 : -0.120641134679, Q4 : 0.593111455441}
2019-04-14 14:46:36.11: SIM {TimeUS : 61135536, Roll : 0.08, Pitch : -17.38, Yaw : 73.62, Alt : 49.3100013733, Lat : 49.2836235, Lng : -123.114748, Q1 : 0.791307032108, Q2 : 0.0911869704723, Q3 : -0.120558172464, Q4 : 0.592438936234}
2019-04-14 14:46:36.21: SIM {TimeUS : 61235496, Roll : 0.12, Pitch : -17.38, Yaw : 73.54, Alt : 49.3100013733, Lat : 49.2836245, Lng : -123.1147421, Q1 : 0.791710019112, Q2 : 0.0913498699665, Q3 : -0.120432846248, Q4 : 0.591900646687}
2019-04-14 14:46:36.31: SIM {TimeUS : 61335456, Roll : 0.16, Pitch : -17.41, Yaw : 73.48, Alt : 49.3100013733, Lat : 49.2836256, Lng : -123.1147362, Q1 : 0.791964054108, Q2 : 0.0916979461908, Q3 : -0.120472431183, Q4 : 0.591498792171}
2019-04-14 14:46:36.41: SIM {TimeUS : 61435416, Roll : 0.18, Pitch : -17.47, Yaw : 73.44, Alt : 49.3100013733, Lat : 49.2836268, Lng : -123.1147302, Q1 : 0.792078971863, Q2 : 0.0921172648668, Q3 : -0.120755366981, Q4 : 0.591222047806}
2019-04-14 14:46:36.51: SIM {TimeUS : 61535376, Roll : 0.19, Pitch : -17.5, Yaw : 73.43, Alt : 49.3100013733, Lat : 49.283628, Lng : -123.1147242, Q1 : 0.792117476463, Q2 : 0.0923554748297, Q3 : -0.120961487293, Q4 : 0.591091156006}
2019-04-14 14:46:36.61: SIM {TimeUS : 61635336, Roll : 0.19, Pitch : -17.51, Yaw : 73.43, Alt : 49.3100013733, Lat : 49.2836291, Lng : -123.1147182, Q1 : 0.792107522488, Q2 : 0.0923803672194, Q3 : -0.121018663049, Q4 : 0.591088950634}
2019-04-14 14:46:36.71: SIM {TimeUS : 61735296, Roll : 0.17, Pitch : -17.52, Yaw : 73.44, Alt : 49.3199996948, Lat : 49.2836303, Lng : -123.1147122, Q1 : 0.792055547237, Q2 : 0.0922702848911, Q3 : -0.121199652553, Q4 : 0.591138601303}
2019-04-14 14:46:36.81: SIM {TimeUS : 61835256, Roll : 0.12, Pitch : -17.54, Yaw : 73.46, Alt : 49.3199996948, Lat : 49.2836314, Lng : -123.1147062, Q1 : 0.791969299316, Q2 : 0.0920960009098, Q3 : -0.121588170528, Q4 : 0.591201603413}
2019-04-14 14:46:36.91: SIM {TimeUS : 61935216, Roll : 0.08, Pitch : -17.56, Yaw : 73.48, Alt : 49.3199996948, Lat : 49.2836324, Lng : -123.1147002, Q1 : 0.791878402233, Q2 : 0.0919341295958, Q3 : -0.121923677623, Q4 : 0.591279447079}
2019-04-14 14:46:37.01: SIM {TimeUS : 62035176, Roll : 0.05, Pitch : -17.58, Yaw : 73.5, Alt : 49.3199996948, Lat : 49.2836336, Lng : -123.1146941, Q1 : 0.791788458824, Q2 : 0.0918657556176, Q3 : -0.122183434665, Q4 : 0.591356873512}
2019-04-14 14:46:37.11: SIM {TimeUS : 62135136, Roll : 0.04, Pitch : -17.6, Yaw : 73.51, Alt : 49.3199996948, Lat : 49.2836347, Lng : -123.114688, Q1 : 0.791713774204, Q2 : 0.0918942987919, Q3 : -0.122324436903, Q4 : 0.591423273087}
2019-04-14 14:46:37.21: SIM {TimeUS : 62235096, Roll : 0.04, Pitch : -17.62, Yaw : 73.51, Alt : 49.3199996948, Lat : 49.2836359, Lng : -123.1146819, Q1 : 0.791669547558, Q2 : 0.0919965133071, Q3 : -0.122454188764, Q4 : 0.591439723969}
2019-04-14 14:46:37.31: SIM {TimeUS : 62335056, Roll : 0.06, Pitch : -17.63, Yaw : 73.51, Alt : 49.3199996948, Lat : 49.2836371, Lng : -123.1146758, Q1 : 0.791664123535, Q2 : 0.0921693891287, Q3 : -0.122480817139, Q4 : 0.591414570808}
2019-04-14 14:46:37.41: SIM {TimeUS : 62435016, Roll : 0.09, Pitch : -17.65, Yaw : 73.5, Alt : 49.3199996948, Lat : 49.2836383, Lng : -123.1146697, Q1 : 0.791682124138, Q2 : 0.0924494117498, Q3 : -0.122496537864, Q4 : 0.591343522072}
2019-04-14 14:46:37.51: SIM {TimeUS : 62534976, Roll : 0.11, Pitch : -17.68, Yaw : 73.48, Alt : 49.3199996948, Lat : 49.2836395, Lng : -123.1146636, Q1 : 0.791729748249, Q2 : 0.0927557051182, Q3 : -0.122542358935, Q4 : 0.591222286224}
2019-04-14 14:46:37.61: SIM {TimeUS : 62634936, Roll : 0.12, Pitch : -17.71, Yaw : 73.45, Alt : 49.3199996948, Lat : 49.2836406, Lng : -123.1146575, Q1 : 0.791808187962, Q2 : 0.0929655432701, Q3 : -0.122780174017, Q4 : 0.591034889221}
2019-04-14 14:46:37.71: SIM {TimeUS : 62734896, Roll : 0.11, Pitch : -17.76, Yaw : 73.43, Alt : 49.3199996948, Lat : 49.2836418, Lng : -123.1146513, Q1 : 0.791902542114, Q2 : 0.0931239873171, Q3 : -0.123138584197, Q4 : 0.590808928013}
2019-04-14 14:46:37.81: SIM {TimeUS : 62834856, Roll : 0.1, Pitch : -17.8, Yaw : 73.4, Alt : 49.3199996948, Lat : 49.2836428, Lng : -123.1146452, Q1 : 0.79200553894, Q2 : 0.0932291969657, Q3 : -0.123534061015, Q4 : 0.590571701527}
2019-04-14 14:46:37.91: SIM {TimeUS : 62934816, Roll : 0.11, Pitch : -17.83, Yaw : 73.37, Alt : 49.3199996948, Lat : 49.283644, Lng : -123.114639, Q1 : 0.792107403278, Q2 : 0.0934149771929, Q3 : -0.12374304235, Q4 : 0.590361893177}
2019-04-14 14:46:38.01: SIM {TimeUS : 63034776, Roll : 0.13, Pitch : -17.83, Yaw : 73.34, Alt : 49.3199996948, Lat : 49.2836452, Lng : -123.1146328, Q1 : 0.792234838009, Q2 : 0.0935258939862, Q3 : -0.123676843941, Q4 : 0.590187191963}
2019-04-14 14:46:38.11: SIM {TimeUS : 63134736, Roll : 0.15, Pitch : -17.81, Yaw : 73.32, Alt : 49.3199996948, Lat : 49.2836464, Lng : -123.1146266, Q1 : 0.792382061481, Q2 : 0.0934794098139, Q3 : -0.123397678137, Q4 : 0.590055286884}
2019-04-14 14:46:38.21: SIM {TimeUS : 63235529, Roll : 0.15, Pitch : -17.78, Yaw : 73.3, Alt : 49.3199996948, Lat : 49.2836476, Lng : -123.1146203, Q1 : 0.792509555817, Q2 : 0.0933554694057, Q3 : -0.123238235712, Q4 : 0.589937031269}
2019-04-14 14:46:38.31: SIM {TimeUS : 63335489, Roll : 0.14, Pitch : -17.76, Yaw : 73.28, Alt : 49.3300018311, Lat : 49.2836487, Lng : -123.1146141, Q1 : 0.792623579502, Q2 : 0.0931582823396, Q3 : -0.123125977814, Q4 : 0.589838445187}
2019-04-14 14:46:38.41: SIM {TimeUS : 63435449, Roll : 0.13, Pitch : -17.75, Yaw : 73.27, Alt : 49.3300018311, Lat : 49.2836499, Lng : -123.1146079, Q1 : 0.792694926262, Q2 : 0.0930646508932, Q3 : -0.123143933713, Q4 : 0.589753627777}
2019-04-14 14:46:38.51: SIM {TimeUS : 63535409, Roll : 0.13, Pitch : -17.77, Yaw : 73.26, Alt : 49.3300018311, Lat : 49.2836511, Lng : -123.1146016, Q1 : 0.792721986771, Q2 : 0.093129016459, Q3 : -0.123302325606, Q4 : 0.589673995972}
2019-04-14 14:46:38.61: SIM {TimeUS : 63635369, Roll : 0.14, Pitch : -17.8, Yaw : 73.25, Alt : 49.3300018311, Lat : 49.2836524, Lng : -123.1145953, Q1 : 0.792726695538, Q2 : 0.0933143720031, Q3 : -0.123445168138, Q4 : 0.589608490467}
2019-04-14 14:46:38.71: SIM {TimeUS : 63735329, Roll : 0.14, Pitch : -17.84, Yaw : 73.25, Alt : 49.3300018311, Lat : 49.2836536, Lng : -123.1145891, Q1 : 0.792714715004, Q2 : 0.0935280919075, Q3 : -0.123759590089, Q4 : 0.589524805546}
2019-04-14 14:46:38.81: SIM {TimeUS : 63835289, Roll : 0.13, Pitch : -17.89, Yaw : 73.24, Alt : 49.3300018311, Lat : 49.2836548, Lng : -123.1145828, Q1 : 0.792696356773, Q2 : 0.0937443077564, Q3 : -0.124152734876, Q4 : 0.589432418346}
2019-04-14 14:46:38.91: SIM {TimeUS : 63935249, Roll : 0.13, Pitch : -17.93, Yaw : 73.23, Alt : 49.3300018311, Lat : 49.283656, Lng : -123.1145765, Q1 : 0.792696535587, Q2 : 0.093895368278, Q3 : -0.124424338341, Q4 : 0.589350879192}
2019-04-14 14:46:39.01: SIM {TimeUS : 64035209, Roll : 0.11, Pitch : -17.96, Yaw : 73.22, Alt : 49.3300018311, Lat : 49.2836571, Lng : -123.1145702, Q1 : 0.792725920677, Q2 : 0.0939339473844, Q3 : -0.124683596194, Q4 : 0.589250445366}
2019-04-14 14:46:39.11: SIM {TimeUS : 64135169, Roll : 0.1, Pitch : -17.97, Yaw : 73.21, Alt : 49.3300018311, Lat : 49.2836583, Lng : -123.1145639, Q1 : 0.792773902416, Q2 : 0.0939113274217, Q3 : -0.124874584377, Q4 : 0.58914899826}
2019-04-14 14:46:39.21: SIM {TimeUS : 64235129, Roll : 0.11, Pitch : -17.97, Yaw : 73.2, Alt : 49.3300018311, Lat : 49.2836595, Lng : -123.1145576, Q1 : 0.792837977409, Q2 : 0.0939164012671, Q3 : -0.124806702137, Q4 : 0.589076399803}
2019-04-14 14:46:39.31: SIM {TimeUS : 64335089, Roll : 0.13, Pitch : -17.97, Yaw : 73.19, Alt : 49.3300018311, Lat : 49.2836607, Lng : -123.1145512, Q1 : 0.792892932892, Q2 : 0.0940919965506, Q3 : -0.124716594815, Q4 : 0.588993489742}
2019-04-14 14:46:39.41: SIM {TimeUS : 64435049, Roll : 0.14, Pitch : -17.99, Yaw : 73.17, Alt : 49.3300018311, Lat : 49.283662, Lng : -123.114545, Q1 : 0.792952656746, Q2 : 0.0942314490676, Q3 : -0.124788217247, Q4 : 0.588875591755}
2019-04-14 14:46:39.51: SIM {TimeUS : 64535009, Roll : 0.15, Pitch : -17.99, Yaw : 73.15, Alt : 49.3300018311, Lat : 49.2836632, Lng : -123.1145387, Q1 : 0.793029308319, Q2 : 0.0942936092615, Q3 : -0.124800994992, Q4 : 0.588759660721}
2019-04-14 14:46:39.61: SIM {TimeUS : 64634969, Roll : 0.16, Pitch : -17.99, Yaw : 73.14, Alt : 49.3300018311, Lat : 49.2836644, Lng : -123.1145323, Q1 : 0.793111503124, Q2 : 0.094324439764, Q3 : -0.12473680824, Q4 : 0.588657617569}
2019-04-14 14:46:39.71: SIM {TimeUS : 64734929, Roll : 0.17, Pitch : -17.99, Yaw : 73.12, Alt : 49.3400001526, Lat : 49.2836656, Lng : -123.114526, Q1 : 0.79318434, Q2 : 0.0943508520722, Q3 : -0.124717250466, Q4 : 0.588559389114}
2019-04-14 14:46:39.81: SIM {TimeUS : 64834889, Roll : 0.16, Pitch : -18.01, Yaw : 73.11, Alt : 49.3400001526, Lat : 49.2836668, Lng : -123.1145197, Q1 : 0.79324901104, Q2 : 0.0943364351988, Q3 : -0.124907135963, Q4 : 0.58843421936}
2019-04-14 14:46:39.91: SIM {TimeUS : 64934849, Roll : 0.13, Pitch : -18.04, Yaw : 73.09, Alt : 49.3400001526, Lat : 49.283668, Lng : -123.1145133, Q1 : 0.793297290802, Q2 : 0.0943361520767, Q3 : -0.125245198607, Q4 : 0.588297307491}
2019-04-14 14:46:40.01: SIM {TimeUS : 65034809, Roll : 0.12, Pitch : -18.04, Yaw : 73.08, Alt : 49.3400001526, Lat : 49.2836692, Lng : -123.1145069, Q1 : 0.793359279633, Q2 : 0.0942445993423, Q3 : -0.125337526202, Q4 : 0.588208734989}
2019-04-14 14:46:40.11: SIM {TimeUS : 65134769, Roll : 0.13, Pitch : -18.02, Yaw : 73.07, Alt : 49.3400001526, Lat : 49.2836704, Lng : -123.1145006, Q1 : 0.793415188789, Q2 : 0.0942300111055, Q3 : -0.125155627728, Q4 : 0.588174402714}
2019-04-14 14:46:40.21: SIM {TimeUS : 65235562, Roll : 0.16, Pitch : -18.01, Yaw : 73.06, Alt : 49.3400001526, Lat : 49.2836717, Lng : -123.114494, Q1 : 0.79345625639, Q2 : 0.0943054184318, Q3 : -0.124945938587, Q4 : 0.58815151453}
2019-04-14 14:46:40.31: SIM {TimeUS : 65335522, Roll : 0.17, Pitch : -18.01, Yaw : 73.06, Alt : 49.3400001526, Lat : 49.2836729, Lng : -123.1144877, Q1 : 0.793483495712, Q2 : 0.0944163277745, Q3 : -0.124897107482, Q4 : 0.588107347488}
2019-04-14 14:46:40.41: SIM {TimeUS : 65435482, Roll : 0.16, Pitch : -18.02, Yaw : 73.05, Alt : 49.3400001526, Lat : 49.2836741, Lng : -123.1144814, Q1 : 0.793515145779, Q2 : 0.0944058299065, Q3 : -0.125047668815, Q4 : 0.588034331799}
2019-04-14 14:46:40.51: SIM {TimeUS : 65535442, Roll : 0.13, Pitch : -18.05, Yaw : 73.04, Alt : 49.3400001526, Lat : 49.2836753, Lng : -123.114475, Q1 : 0.793544054031, Q2 : 0.0943224728107, Q3 : -0.125355705619, Q4 : 0.587943077087}
2019-04-14 14:46:40.61: SIM {TimeUS : 65635402, Roll : 0.12, Pitch : -18.07, Yaw : 73.04, Alt : 49.3400001526, Lat : 49.2836765, Lng : -123.1144686, Q1 : 0.793558597565, Q2 : 0.0943600013852, Q3 : -0.125637441874, Q4 : 0.587857306004}
2019-04-14 14:46:40.71: SIM {TimeUS : 65735362, Roll : 0.12, Pitch : -18.1, Yaw : 73.03, Alt : 49.3400001526, Lat : 49.2836778, Lng : -123.1144622, Q1 : 0.79356533289, Q2 : 0.0945006906986, Q3 : -0.125838980079, Q4 : 0.58778244257}
2019-04-14 14:46:40.81: SIM {TimeUS : 65835322, Roll : 0.13, Pitch : -18.13, Yaw : 73.02, Alt : 49.3400001526, Lat : 49.283679, Lng : -123.1144557, Q1 : 0.793569743633, Q2 : 0.0946680232882, Q3 : -0.125958308578, Q4 : 0.587724030018}
2019-04-14 14:46:40.91: SIM {TimeUS : 65935282, Roll : 0.15, Pitch : -18.14, Yaw : 73.01, Alt : 49.3400001526, Lat : 49.2836802, Lng : -123.1144493, Q1 : 0.793577611446, Q2 : 0.0948796272278, Q3 : -0.125931531191, Q4 : 0.58768504858}
2019-04-14 14:46:41.01: SIM {TimeUS : 66035242, Roll : 0.17, Pitch : -18.15, Yaw : 73.01, Alt : 49.3400001526, Lat : 49.2836814, Lng : -123.1144429, Q1 : 0.793593943119, Q2 : 0.095039755106, Q3 : -0.125940665603, Q4 : 0.587635159492}
2019-04-14 14:46:41.11: SIM {TimeUS : 66135202, Roll : 0.18, Pitch : -18.16, Yaw : 73.0, Alt : 49.3499984741, Lat : 49.2836827, Lng : -123.1144365, Q1 : 0.793612658978, Q2 : 0.0951717272401, Q3 : -0.12596309185, Q4 : 0.587583720684}
