2019-04-14 14:21:24.50: SIM {TimeUS : 39915694, Roll : 0.0, Pitch : 0.0, Yaw : 0.0, Alt : 30.1000003815, Lat : 49.28357, Lng : -123.11502, Q1 : 1.0, Q2 : 0.0, Q3 : 0.0, Q4 : 0.0}
2019-04-14 14:21:24.61: SIM {TimeUS : 40034813, Roll : 0.0, Pitch : 0.0, Yaw : 0.0, Alt : 30.1000003815, Lat : 49.28357, Lng : -123.11502, Q1 : 1.0, Q2 : 0.0, Q3 : 0.0, Q4 : 0.0}
2019-04-14 14:21:24.71: SIM {TimeUS : 40134773, Roll : 0.0, Pitch : 0.0, Yaw : 0.0, Alt : 30.1000003815, Lat : 49.28357, Lng : -123.11502, Q1 : 1.0, Q2 : 0.0, Q3 : 0.0, Q4 : 0.0}
2019-04-14 14:21:24.81: SIM {TimeUS : 40234733, Roll : 0.0, Pitch : 0.0, Yaw : 0.0, Alt : 30.1000003815, Lat : 49.28357, Lng : -123.11502, Q1 : 1.0, Q2 : 0.0, Q3 : 0.0, Q4 : 0.0}
2019-04-14 14:21:24.91: SIM {TimeUS : 40334693, Roll : 0.0, Pitch : 0.0, Yaw : 0.0, Alt : 30.1000003815, Lat : 49.28357, Lng : -123.11502, Q1 : 1.0, Q2 : 0.0, Q3 : 0.0, Q4 : 0.0}
2019-04-14 14:21:25.01: SIM {TimeUS : 40434653, Roll : 0.0, Pitch : 0.0, Yaw : 0.0, Alt : 30.1000003815, Lat : 49.28357, Lng : -123.11502, Q1 : 1.0, Q2 : 0.0, Q3 : 0.0, Q4 : 0.0}
2019-04-14 14:21:25.11: SIM {TimeUS : 40534613, Roll : 0.0, Pitch : 0.0, Yaw : 0.0, Alt : 30.1000003815, Lat : 49.28357, Lng : -123.11502, Q1 : 1.0, Q2 : 0.0, Q3 : 0.0, Q4 : 0.0}
2019-04-14 14:21:25.21: SIM {TimeUS : 40634573, Roll : 0.0, Pitch : 0.0, Yaw : 0.0, Alt : 30.1000003815, Lat : 49.28357, Lng : -123.11502, Q1 : 1.0, Q2 : 0.0, Q3 : 0.0, Q4 : 0.0}
2019-04-14 14:21:25.31: SIM {TimeUS : 40734533, Roll : 0.0, Pitch : 0.0, Yaw : 0.0, Alt : 30.1000003815, Lat : 49.28357, Lng : -123.11502, Q1 : 1.0, Q2 : 0.0, Q3 : 0.0, Q4 : 0.0}
2019-04-14 14:21:25.41: SIM {TimeUS : 40834493, Roll : 0.0, Pitch : 0.0, Yaw : 0.0, Alt : 30.1000003815, Lat : 49.28357, Lng : -123.11502, Q1 : 1.0, Q2 : 0.0, Q3 : 0.0, Q4 : 0.0}
2019-04-14 14:21:25.51: SIM {TimeUS : 40934453, Roll : 0.0, Pitch : 0.0, Yaw : 0.0, Alt : 30.1000003815, Lat : 49.28357, Lng : -123.11502, Q1 : 1.0, Q2 : 0.0, Q3 : 0.0, Q4 : 0.0}
2019-04-14 14:21:25.61: SIM {TimeUS : 41034413, Roll : 0.0, Pitch : 0.0, Yaw : 0.0, Alt : 30.1000003815, Lat : 49.28357, Lng : -123.11502, Q1 : 1.0, Q2 : 0.0, Q3 : 0.0, Q4 : 0.0}
2019-04-14 14:21:25.71: SIM {TimeUS : 41134373, Roll : 0.0, Pitch : 0.0, Yaw : 0.0, Alt : 30.1000003815, Lat : 49.28357, Lng : -123.11502, Q1 : 1.0, Q2 : 0.0, Q3 : 0.0, Q4 : 0.0}
2019-04-14 14:21:25.81: SIM {TimeUS : 41234333, Roll : 0.0, Pitch : 0.0, Yaw : 0.0, Alt : 30.1000003815, Lat : 49.28357, Lng : -123.11502, Q1 : 1.0, Q2 : 0.0, Q3 : 0.0, Q4 : 0.0}
2019-04-14 14:21:25.91: SIM {TimeUS : 41334293, Roll : 0.0, Pitch : 0.0, Yaw : 0.0, Alt : 30.1000003815, Lat : 49.28357, Lng : -123.11502, Q1 : 1.0, Q2 : 0.0, Q3 : 0.0, Q4 : 0.0}
2019-04-14 14:21:26.01: SIM {TimeUS : 41434253, Roll : 0.0, Pitch : 0.0, Yaw : 0.0, Alt : 30.1000003815, Lat : 49.28357, Lng : -123.11502, Q1 : 1.0, Q2 : 0.0, Q3 : 0.0, Q4 : 0.0}
2019-04-14 14:21:26.11: SIM {TimeUS : 41534213, Roll : 0.0, Pitch : 0.0, Yaw : 0.0, Alt : 30.1000003815, Lat : 49.28357, Lng : -123.11502, Q1 : 1.0, Q2 : 0.0, Q3 : 0.0, Q4 : 0.0}
2019-04-14 14:21:26.21: SIM {TimeUS : 41634173, Roll : 0.0, Pitch : 0.0, Yaw : 0.0, Alt : 30.1000003815, Lat : 49.28357, Lng : -123.11502, Q1 : 1.0, Q2 : 0.0, Q3 : 0.0, Q4 : 0.0}
2019-04-14 14:21:26.31: SIM {TimeUS : 41734133, Roll : 0.0, Pitch : 0.0, Yaw : 0.0, Alt : 30.1000003815, Lat : 49.28357, Lng : -123.11502, Q1 : 1.0, Q2 : 0.0, Q3 : 0.0, Q4 : 0.0}
2019-04-14 14:21:26.41: SIM {TimeUS : 41834093, Roll : 0.0, Pitch : 0.0, Yaw : 0.0, Alt : 30.1000003815, Lat : 49.28357, Lng : -123.11502, Q1 : 1.0, Q2 : 0.0, Q3 : 0.0, Q4 : 0.0}
2019-04-14 14:21:26.51: SIM {TimeUS : 41934053, Roll : 0.0, Pitch : 0.0, Yaw : 0.0, Alt : 30.1000003815, Lat : 49.28357, Lng : -123.11502, Q1 : 1.0, Q2 : 0.0, Q3 : 0.0, Q4 : 0.0}
2019-04-14 14:21:26.62: SIM {TimeUS : 42034846, Roll : 0.0, Pitch : 0.0, Yaw : 0.0, Alt : 30.1000003815, Lat : 49.28357, Lng : -123.11502, Q1 : 1.0, Q2 : 0.0, Q3 : 0.0, Q4 : 0.0}
2019-04-14 14:21:26.71: SIM {TimeUS : 42134806, Roll : 0.0, Pitch : 0.0, Yaw : 0.0, Alt : 30.1000003815, Lat : 49.28357, Lng : -123.11502, Q1 : 1.0, Q2 : 0.0, Q3 : 0.0, Q4 : 0.0}
2019-04-14 14:21:26.81: SIM {TimeUS : 42234766, Roll : 0.0, Pitch : 0.0, Yaw : 0.0, Alt : 30.1000003815, Lat : 49.28357, Lng : -123.11502, Q1 : 1.0, Q2 : 0.0, Q3 : 0.0, Q4 : 2.32067349278e-13}
2019-04-14 14:21:26.91: SIM {TimeUS : 42334726, Roll : 0.0, Pitch : 0.0, Yaw : 0.0, Alt : 30.1000003815, Lat : 49.28357, Lng : -123.11502, Q1 : 1.0, Q2 : 0.0, Q3 : 0.0, Q4 : 2.44555417583e-12}
2019-04-14 14:21:27.01: SIM {TimeUS : 42434686, Roll : 0.0, Pitch : 0.0, Yaw : 360.0, Alt : 30.1000003815, Lat : 49.28357, Lng : -123.11502, Q1 : 1.0, Q2 : 0.0, Q3 : 0.0, Q4 : -8.00653268129e-08}
2019-04-14 14:21:27.11: SIM {TimeUS : 42534646, Roll : 0.0, Pitch : 0.0, Yaw : 359.99, Alt : 30.1000003815, Lat : 49.28357, Lng : -123.11502, Q1 : 1.0, Q2 : 0.0, Q3 : 0.0, Q4 : -2.56186098113e-07}
2019-04-14 14:21:27.21: SIM {TimeUS : 42634606, Roll : 0.0, Pitch : 0.0, Yaw : 359.99, Alt : 30.1000003815, Lat : 49.28357, Lng : -123.11502, Q1 : 1.0, Q2 : 0.0, Q3 : 0.0, Q4 : -4.65848245312e-07}
2019-04-14 14:21:27.31: SIM {TimeUS : 42734566, Roll : 0.0, Pitch : 0.0, Yaw : 359.99, Alt : 30.1000003815, Lat : 49.28357, Lng : -123.11502, Q1 : 1.0, Q2 : 0.0, Q3 : 0.0, Q4 : -6.65836921598e-07}
2019-04-14 14:21:27.41: SIM {TimeUS : 42834526, Roll : 0.0, Pitch : 0.0, Yaw : 359.99, Alt : 30.1000003815, Lat : 49.28357, Lng : -123.11502, Q1 : 1.0, Q2 : 0.0, Q3 : 0.0, Q4 : -8.80645018242e-07}
2019-04-14 14:21:27.51: SIM {TimeUS : 42934486, Roll : 0.0, Pitch : 0.0, Yaw : 359.99, Alt : 30.1000003815, Lat : 49.28357, Lng : -123.11502, Q1 : 1.0, Q2 : 0.0, Q3 : 0.0, Q4 : -1.07612061129e-06}
2019-04-14 14:21:27.61: SIM {TimeUS : 43034446, Roll : 0.0, Pitch : 0.0, Yaw : 359.99, Alt : 30.1000003815, Lat : 49.28357, Lng : -123.11502, Q1 : 1.0, Q2 : 0.0, Q3 : 0.0, Q4 : -1.33887465381e-06}
2019-04-14 14:21:27.71: SIM {TimeUS : 43134406, Roll : 0.0, Pitch : 0.0, Yaw : 359.99, Alt : 30.1100006104, Lat : 49.28357, Lng : -123.11502, Q1 : 1.0, Q2 : 0.0, Q3 : 0.0, Q4 : -1.58756370183e-06}
2019-04-14 14:21:27.81: SIM {TimeUS : 43234366, Roll : 0.0, Pitch : 0.0, Yaw : 359.99, Alt : 30.1299991608, Lat : 49.28357, Lng : -123.11502, Q1 : 1.0, Q2 : 0.0, Q3 : 0.0, Q4 : -1.80438223651e-06}
2019-04-14 14:21:27.91: SIM {TimeUS : 43334326, Roll : 0.0, Pitch : 0.0, Yaw : 359.99, Alt : 30.1499996185, Lat : 49.28357, Lng : -123.11502, Q1 : 1.0, Q2 : 0.0, Q3 : 0.0, Q4 : -1.98930229089e-06}
2019-04-14 14:21:28.01: SIM {TimeUS : 43434286, Roll : 0.0, Pitch : 0.0, Yaw : 359.99, Alt : 30.1900005341, Lat : 49.28357, Lng : -123.11502, Q1 : 1.0, Q2 : 0.0, Q3 : 0.0, Q4 : -2.26450174523e-06}
2019-04-14 14:21:28.11: SIM {TimeUS : 43534246, Roll : -0.03, Pitch : -0.02, Yaw : 359.99, Alt : 30.2299995422, Lat : 49.28357, Lng : -123.11502, Q1 : 0.999999940395, Q2 : -0.000268492934993, Q3 : -0.000245723844273, Q4 : -5.33952106707e-06}
2019-04-14 14:21:28.21: SIM {TimeUS : 43634206, Roll : -0.25, Pitch : -0.25, Yaw : 359.99, Alt : 30.2999992371, Lat : 49.28357, Lng : -123.11502, Q1 : 0.999994933605, Q2 : -0.00226028799079, Q3 : -0.0022392901592, Q4 : -3.38936770277e-05}
2019-04-14 14:21:28.31: SIM {TimeUS : 43734166, Roll : -0.55, Pitch : -0.56, Yaw : 359.99, Alt : 30.4300003052, Lat : 49.28357, Lng : -123.11502, Q1 : 0.999976158142, Q2 : -0.0048172599636, Q3 : -0.00494620995596, Q4 : -8.98278231034e-05}
2019-04-14 14:21:28.41: SIM {TimeUS : 43834126, Roll : -0.76, Pitch : -0.76, Yaw : 359.98, Alt : 30.5900001526, Lat : 49.28357, Lng : -123.11502, Q1 : 0.999955296516, Q2 : -0.00668965559453, Q3 : -0.00668406253681, Q4 : -0.000172500076587}
2019-04-14 14:21:28.51: SIM {TimeUS : 43934086, Roll : -0.82, Pitch : -0.77, Yaw : 359.97, Alt : 30.75, Lat : 49.28357, Lng : -123.11502, Q1 : 0.999951064587, Q2 : -0.00721868034452, Q3 : -0.0067593222484, Q4 : -0.000264191592578}
2019-04-14 14:21:28.61: SIM {TimeUS : 44034046, Roll : -0.73, Pitch : -0.64, Yaw : 359.96, Alt : 30.9099998474, Lat : 49.28357, Lng : -123.1150201, Q1 : 0.999963581562, Q2 : -0.00643062917516, Q3 : -0.00560160074383, Q4 : -0.000353149458533}
2019-04-14 14:21:28.72: SIM {TimeUS : 44134839, Roll : -0.55, Pitch : -0.44, Yaw : 359.95, Alt : 31.0599994659, Lat : 49.2835701, Lng : -123.1150202, Q1 : 0.999980807304, Q2 : -0.00483310734853, Q3 : -0.00384604814462, Q4 : -0.00043024122715}
2019-04-14 14:21:28.81: SIM {TimeUS : 44234799, Roll : -0.35, Pitch : -0.23, Yaw : 359.94, Alt : 31.2199993134, Lat : 49.2835701, Lng : -123.1150202, Q1 : 0.999993085861, Q2 : -0.0030605813954, Q3 : -0.00206933752634, Q4 : -0.000494380074088}
2019-04-14 14:21:28.91: SIM {TimeUS : 44334759, Roll : -0.16, Pitch : -0.07, Yaw : 359.93, Alt : 31.3799991608, Lat : 49.2835702, Lng : -123.1150203, Q1 : 0.999998509884, Q2 : -0.00147145299707, Q3 : -0.000696611881722, Q4 : -0.000544353970326}
2019-04-14 14:21:29.01: SIM {TimeUS : 44434719, Roll : -0.01, Pitch : 0.0, Yaw : 359.93, Alt : 31.5499992371, Lat : 49.2835702, Lng : -123.1150204, Q1 : 0.999999821186, Q2 : -0.000154514797032, Q3 : -5.22691807419e-05, Q4 : -0.000579338346142}
2019-04-14 14:21:29.11: SIM {TimeUS : 44534679, Roll : 0.06, Pitch : 0.02, Yaw : 359.93, Alt : 31.7299995422, Lat : 49.2835703, Lng : -123.1150205, Q1 : 0.999999642372, Q2 : 0.000542872818187, Q3 : 0.000196100343601, Q4 : -0.000598394777626}
2019-04-14 14:21:29.21: SIM {TimeUS : 44634639, Roll : 0.07, Pitch : 0.02, Yaw : 359.93, Alt : 31.9099998474, Lat : 49.2835703, Lng : -123.1150206, Q1 : 0.999999582767, Q2 : 0.00066159182461, Q3 : 0.000231580474065, Q4 : -0.00059522932861}
2019-04-14 14:21:29.31: SIM {TimeUS : 44734599, Roll : 0.06, Pitch : 0.01, Yaw : 359.93, Alt : 32.0999984741, Lat : 49.2835703, Lng : -123.1150206, Q1 : 0.999999701977, Q2 : 0.000543176720385, Q3 : 0.000130321699544, Q4 : -0.000569877156522}
2019-04-14 14:21:29.41: SIM {TimeUS : 44834559, Roll : 0.05, Pitch : 0.0, Yaw : 359.93, Alt : 32.2799987793, Lat : 49.2835703, Lng : -123.1150207, Q1 : 0.999999701977, Q2 : 0.000512290920597, Q3 : 8.6990003183e-05, Q4 : -0.000536228704732}
2019-04-14 14:21:29.51: SIM {TimeUS : 44934519, Roll : 0.06, Pitch : 0.02, Yaw : 359.94, Alt : 32.4799995422, Lat : 49.2835703, Lng : -123.1150207, Q1 : 0.999999642372, Q2 : 0.000604530679993, Q3 : 0.00018938035646, Q4 : -0.000498923065607}
2019-04-14 14:21:29.61: SIM {TimeUS : 45034479, Roll : 0.1, Pitch : 0.03, Yaw : 359.94, Alt : 32.6699981689, Lat : 49.2835703, Lng : -123.1150208, Q1 : 0.999999463558, Q2 : 0.000885075598489, Q3 : 0.000313161639497, Q4 : -0.000469478603918}
2019-04-14 14:21:29.71: SIM {TimeUS : 45134439, Roll : 0.13, Pitch : 0.05, Yaw : 359.94, Alt : 32.8699989319, Lat : 49.2835703, Lng : -123.1150208, Q1 : 0.999999046326, Q2 : 0.00120168318972, Q3 : 0.00048296363093, Q4 : -0.000450407707831}
2019-04-14 14:21:29.81: SIM {TimeUS : 45234399, Roll : 0.16, Pitch : 0.09, Yaw : 359.94, Alt : 33.0699996948, Lat : 49.2835704, Lng : -123.1150208, Q1 : 0.999998569489, Q2 : 0.00139901041985, Q3 : 0.000806873780675, Q4 : -0.000446030928288}
2019-04-14 14:21:29.91: SIM {TimeUS : 45334359, Roll : 0.16, Pitch : 0.13, Yaw : 359.94, Alt : 33.2700004578, Lat : 49.2835704, Lng : -123.1150209, Q1 : 0.999998152256, Q2 : 0.00146619731095, Q3 : 0.00117381161544, Q4 : -0.000456862995634}
2019-04-14 14:21:30.01: SIM {TimeUS : 45434319, Roll : 0.16, Pitch : 0.16, Yaw : 359.94, Alt : 33.4799995422, Lat : 49.2835704, Lng : -123.1150209, Q1 : 0.999997854233, Q2 : 0.00142608419992, Q3 : 0.00144003087189, Q4 : -0.000471856503282}
2019-04-14 14:21:30.11: SIM {TimeUS : 45534279, Roll : 0.15, Pitch : 0.18, Yaw : 359.94, Alt : 33.6800003052, Lat : 49.2835704, Lng : -123.1150209, Q1 : 0.99999755621, Q2 : 0.00137905334122, Q3 : 0.00164218433201, Q4 : -0.000489488476887}
2019-04-14 14:21:30.21: SIM {TimeUS : 45634239, Roll : 0.16, Pitch : 0.18, Yaw : 359.94, Alt : 33.8899993896, Lat : 49.2835704, Lng : -123.1150209, Q1 : 0.999997615814, Q2 : 0.00141598295886, Q3 : 0.00159258756321, Q4 : -0.000504949188326}
2019-04-14 14:21:30.31: SIM {TimeUS : 45734199, Roll : 0.15, Pitch : 0.17, Yaw : 359.93, Alt : 34.0999984741, Lat : 49.2835704, Lng : -123.1150209, Q1 : 0.999997794628, Q2 : 0.0013721017167, Q3 : 0.00149166176561, Q4 : -0.000531995669007}
2019-04-14 14:21:30.41: SIM {TimeUS : 45834159, Roll : 0.13, Pitch : 0.15, Yaw : 359.93, Alt : 34.3100013733, Lat : 49.2835706, Lng : -123.1150209, Q1 : 0.999998211861, Q2 : 0.00115526514128, Q3 : 0.00138902640902, Q4 : -0.000562965346035}
2019-04-14 14:21:30.51: SIM {TimeUS : 45934119, Roll : 0.1, Pitch : 0.11, Yaw : 359.93, Alt : 34.5299987793, Lat : 49.2835706, Lng : -123.1150209, Q1 : 0.999998927116, Q2 : 0.000946310989093, Q3 : 0.000978195923381, Q4 : -0.000585816393141}
2019-04-14 14:21:30.61: SIM {TimeUS : 46034079, Roll : 0.09, Pitch : 0.04, Yaw : 359.93, Alt : 34.7400016785, Lat : 49.2835706, Lng : -123.1150209, Q1 : 0.999999403954, Q2 : 0.000791747879703, Q3 : 0.000434692337876, Q4 : -0.000610764138401}
2019-04-14 14:21:30.71: SIM {TimeUS : 46134039, Roll : 0.07, Pitch : 0.01, Yaw : 359.92, Alt : 34.9500007629, Lat : 49.2835706, Lng : -123.1150209, Q1 : 0.999999582767, Q2 : 0.000641309539787, Q3 : 9.33360788622e-05, Q4 : -0.000649589172099}
2019-04-14 14:21:30.82: SIM {TimeUS : 46234832, Roll : 0.05, Pitch : 0.0, Yaw : 359.91, Alt : 35.1699981689, Lat : 49.2835706, Lng : -123.1150209, Q1 : 0.999999642372, Q2 : 0.000500076275785, Q3 : 1.1298557645e-08, Q4 : -0.000705815269612}
2019-04-14 14:21:30.91: SIM {TimeUS : 46334792, Roll : 0.05, Pitch : 0.02, Yaw : 359.91, Alt : 35.3899993896, Lat : 49.2835706, Lng : -123.1150208, Q1 : 0.999999582767, Q2 : 0.00045934660011, Q3 : 0.000175533074071, Q4 : -0.000764411641285}
2019-04-14 14:21:31.01: SIM {TimeUS : 46434752, Roll : 0.04, Pitch : 0.03, Yaw : 359.9, Alt : 35.6100006104, Lat : 49.2835706, Lng : -123.1150208, Q1 : 0.999999523163, Q2 : 0.000407084153267, Q3 : 0.00034424639307, Q4 : -0.000810006458778}
2019-04-14 14:21:31.11: SIM {TimeUS : 46534712, Roll : 0.03, Pitch : 0.05, Yaw : 359.9, Alt : 35.8300018311, Lat : 49.2835706, Lng : -123.1150208, Q1 : 0.999999523163, Q2 : 0.000276656413916, Q3 : 0.000508635188453, Q4 : -0.000846847717185}
2019-04-14 14:21:31.21: SIM {TimeUS : 46634672, Roll : 0.01, Pitch : 0.07, Yaw : 359.89, Alt : 36.0499992371, Lat : 49.2835706, Lng : -123.1150208, Q1 : 0.999999403954, Q2 : 0.000128113300889, Q3 : 0.000651800422929, Q4 : -0.000880590407178}
2019-04-14 14:21:31.31: SIM {TimeUS : 46734632, Roll : 0.0, Pitch : 0.08, Yaw : 359.89, Alt : 36.2700004578, Lat : 49.2835706, Lng : -123.1150208, Q1 : 0.999999284744, Q2 : 4.37122071162e-05, Q3 : 0.00077180628432, Q4 : -0.00090337387519}
2019-04-14 14:21:31.41: SIM {TimeUS : 46834592, Roll : 0.0, Pitch : 0.07, Yaw : 359.89, Alt : 36.4900016785, Lat : 49.2835704, Lng : -123.1150208, Q1 : 0.999999344349, Q2 : -3.52357819793e-05, Q3 : 0.000678480952047, Q4 : -0.000911773880944}
2019-04-14 14:21:31.51: SIM {TimeUS : 46934552, Roll : -0.01, Pitch : 0.05, Yaw : 359.89, Alt : 36.7099990845, Lat : 49.2835704, Lng : -123.1150207, Q1 : 0.999999463558, Q2 : -9.12528121262e-05, Q3 : 0.000499169051182, Q4 : -0.000917667755857}
2019-04-14 14:21:31.61: SIM {TimeUS : 47034512, Roll : -0.01, Pitch : 0.03, Yaw : 359.89, Alt : 36.9300003052, Lat : 49.2835704, Lng : -123.1150207, Q1 : 0.999999523163, Q2 : -0.000163222575793, Q3 : 0.000326615554513, Q4 : -0.00091907766182}
2019-04-14 14:21:31.71: SIM {TimeUS : 47134472, Roll : -0.02, Pitch : 0.01, Yaw : 359.89, Alt : 37.1599998474, Lat : 49.2835704, Lng : -123.1150207, Q1 : 0.999999523163, Q2 : -0.000210664831684, Q3 : 0.0001670926722, Q4 : -0.000913907017093}
2019-04-14 14:21:31.81: SIM {TimeUS : 47234432, Roll : -0.01, Pitch : 0.0, Yaw : 359.89, Alt : 37.3800010681, Lat : 49.2835704, Lng : -123.1150207, Q1 : 0.999999582767, Q2 : -0.000100102704891, Q3 : 3.65722880815e-05, Q4 : -0.000905716442503}
2019-04-14 14:21:31.91: SIM {TimeUS : 47334392, Roll : -0.01, Pitch : -0.01, Yaw : 359.89, Alt : 37.6100006104, Lat : 49.2835704, Lng : -123.1150207, Q1 : 0.999999582767, Q2 : -9.35452044359e-05, Q3 : -0.000166889687534, Q4 : -0.000897523132153}
2019-04-14 14:21:32.01: SIM {TimeUS : 47434352, Roll : -0.02, Pitch : -0.05, Yaw : 359.89, Alt : 37.8400001526, Lat : 49.2835704, Lng : -123.1150207, Q1 : 0.999999463558, Q2 : -0.000242950030952, Q3 : -0.000476518966025, Q4 : -0.000891677744221}
2019-04-14 14:21:32.11: SIM {TimeUS : 47534312, Roll : -0.06, Pitch : -0.08, Yaw : 359.89, Alt : 38.0600013733, Lat : 49.2835704, Lng : -123.1150207, Q1 : 0.99999922514, Q2 : -0.000525889801793, Q3 : -0.00069924723357, Q4 : -0.000893588119652}
2019-04-14 14:21:32.21: SIM {TimeUS : 47634272, Roll : -0.09, Pitch : -0.08, Yaw : 359.89, Alt : 38.2900009155, Lat : 49.2835704, Lng : -123.1150207, Q1 : 0.999998927116, Q2 : -0.000828130112495, Q3 : -0.00074374221731, Q4 : -0.000919555430301}
2019-04-14 14:21:32.31: SIM {TimeUS : 47734232, Roll : -0.11, Pitch : -0.08, Yaw : 359.89, Alt : 38.5200004578, Lat : 49.2835704, Lng : -123.1150206, Q1 : 0.999998748302, Q2 : -0.00102841609623, Q3 : -0.000709744461346, Q4 : -0.000955567404162}
2019-04-14 14:21:32.41: SIM {TimeUS : 47834192, Roll : -0.12, Pitch : -0.07, Yaw : 359.88, Alt : 38.75, Lat : 49.2835704, Lng : -123.1150206, Q1 : 0.999998748302, Q2 : -0.00106237235013, Q3 : -0.000641341612209, Q4 : -0.000986675499007}
2019-04-14 14:21:32.51: SIM {TimeUS : 47934152, Roll : -0.1, Pitch : -0.05, Yaw : 359.88, Alt : 38.9700012207, Lat : 49.2835704, Lng : -123.1150206, Q1 : 0.999998927116, Q2 : -0.000935762771405, Q3 : -0.000471152656246, Q4 : -0.0010168668814}
2019-04-14 14:21:32.61: SIM {TimeUS : 48034112, Roll : -0.08, Pitch : -0.04, Yaw : 359.87, Alt : 39.2000007629, Lat : 49.2835704, Lng : -123.1150206, Q1 : 0.99999910593, Q2 : -0.000727614329662, Q3 : -0.000423472200055, Q4 : -0.0010477534961}
2019-04-14 14:21:32.71: SIM {TimeUS : 48134072, Roll : -0.06, Pitch : -0.05, Yaw : 359.87, Alt : 39.4300003052, Lat : 49.2835704, Lng : -123.1150206, Q1 : 0.999999165535, Q2 : -0.000563283800147, Q3 : -0.000473630963825, Q4 : -0.00108333863318}
2019-04-14 14:21:32.81: SIM {TimeUS : 48234032, Roll : -0.05, Pitch : -0.03, Yaw : 359.87, Alt : 39.6599998474, Lat : 49.2835704, Lng : -123.1150206, Q1 : 0.99999922514, Q2 : -0.000438358256361, Q3 : -0.000337296602083, Q4 : -0.00110661995132}
2019-04-14 14:21:32.92: SIM {TimeUS : 48334825, Roll : -0.05, Pitch : -0.01, Yaw : 359.87, Alt : 39.9000015259, Lat : 49.2835704, Lng : -123.1150206, Q1 : 0.99999922514, Q2 : -0.000521097856108, Q3 : -9.78219759418e-05, Q4 : -0.00112857366912}
2019-04-14 14:21:33.01: SIM {TimeUS : 48434785, Roll : -0.05, Pitch : 0.01, Yaw : 359.86, Alt : 40.1300010681, Lat : 49.2835704, Lng : -123.1150206, Q1 : 0.999999165535, Q2 : -0.000521403737366, Q3 : 0.000137849478051, Q4 : -0.00115351285785}
2019-04-14 14:21:33.11: SIM {TimeUS : 48534745, Roll : -0.04, Pitch : 0.04, Yaw : 359.86, Alt : 40.3600006104, Lat : 49.2835704, Lng : -123.1150207, Q1 : 0.99999910593, Q2 : -0.00040355528472, Q3 : 0.000436375732534, Q4 : -0.00118120212574}
2019-04-14 14:21:33.21: SIM {TimeUS : 48634705, Roll : -0.03, Pitch : 0.06, Yaw : 359.86, Alt : 40.5900001526, Lat : 49.2835704, Lng : -123.1150207, Q1 : 0.99999910593, Q2 : -0.000263108522631, Q3 : 0.000529085285962, Q4 : -0.00120332359802}
2019-04-14 14:21:33.31: SIM {TimeUS : 48734665, Roll : 0.0, Pitch : 0.06, Yaw : 359.85, Alt : 40.8199996948, Lat : 49.2835704, Lng : -123.1150207, Q1 : 0.99999910593, Q2 : -2.58268464677e-05, Q3 : 0.000555859820452, Q4 : -0.00122358778026}
2019-04-14 14:21:33.41: SIM {TimeUS : 48834625, Roll : 0.03, Pitch : 0.08, Yaw : 359.85, Alt : 41.0600013733, Lat : 49.2835704, Lng : -123.1150207, Q1 : 0.999998927116, Q2 : 0.000329012400471, Q3 : 0.00069962098496, Q4 : -0.00123995530885}
2019-04-14 14:21:33.51: SIM {TimeUS : 48934585, Roll : 0.08, Pitch : 0.1, Yaw : 359.85, Alt : 41.2900009155, Lat : 49.2835706, Lng : -123.1150207, Q1 : 0.999998509884, Q2 : 0.000746474892367, Q3 : 0.000950218411162, Q4 : -0.00125905487221}
2019-04-14 14:21:33.61: SIM {TimeUS : 49034545, Roll : 0.11, Pitch : 0.13, Yaw : 359.85, Alt : 41.5200004578, Lat : 49.2835706, Lng : -123.1150207, Q1 : 0.999998033047, Q2 : 0.000967277388554, Q3 : 0.00116719934158, Q4 : -0.0012813678477}
2019-04-14 14:21:33.71: SIM {TimeUS : 49134505, Roll : 0.09, Pitch : 0.14, Yaw : 359.85, Alt : 41.7599983215, Lat : 49.2835706, Lng : -123.1150207, Q1 : 0.999997973442, Q2 : 0.000828973541502, Q3 : 0.00128328124993, Q4 : -0.0012973791454}
2019-04-14 14:21:33.81: SIM {TimeUS : 49234465, Roll : 0.04, Pitch : 0.15, Yaw : 359.84, Alt : 41.9900016785, Lat : 49.2835706, Lng : -123.1150207, Q1 : 0.999998152256, Q2 : 0.000398312549805, Q3 : 0.00134235457517, Q4 : -0.00131503771991}
2019-04-14 14:21:33.91: SIM {TimeUS : 49334425, Roll : 0.0, Pitch : 0.15, Yaw : 359.84, Alt : 42.2200012207, Lat : 49.2835706, Lng : -123.1150207, Q1 : 0.999998211861, Q2 : -2.77678700513e-05, Q3 : 0.00132770393975, Q4 : -0.00133942638058}
2019-04-14 14:21:34.01: SIM {TimeUS : 49434385, Roll : -0.02, Pitch : 0.12, Yaw : 359.84, Alt : 42.4599990845, Lat : 49.2835706, Lng : -123.1150207, Q1 : 0.999998450279, Q2 : -0.000174939181306, Q3 : 0.00109466607682, Q4 : -0.00136480946094}
2019-04-14 14:21:34.11: SIM {TimeUS : 49534345, Roll : -0.01, Pitch : 0.09, Yaw : 359.84, Alt : 42.6899986267, Lat : 49.2835706, Lng : -123.1150207, Q1 : 0.999998688698, Q2 : -0.000158370676218, Q3 : 0.000797766144387, Q4 : -0.00138820242137}
2019-04-14 14:21:34.21: SIM {TimeUS : 49634305, Roll : 0.0, Pitch : 0.09, Yaw : 359.83, Alt : 42.9300003052, Lat : 49.2835706, Lng : -123.1150207, Q1 : 0.999998688698, Q2 : -5.47267918591e-05, Q3 : 0.000823409878649, Q4 : -0.00141372275539}
2019-04-14 14:21:34.31: SIM {TimeUS : 49734265, Roll : 0.02, Pitch : 0.11, Yaw : 359.83, Alt : 43.1599998474, Lat : 49.2835706, Lng : -123.1150207, Q1 : 0.999998390675, Q2 : 0.000240014036535, Q3 : 0.00103243172634, Q4 : -0.00144705013372}
2019-04-14 14:21:34.41: SIM {TimeUS : 49834225, Roll : 0.08, Pitch : 0.14, Yaw : 359.83, Alt : 43.4000015259, Lat : 49.2835706, Lng : -123.1150207, Q1 : 0.999997854233, Q2 : 0.000708161795046, Q3 : 0.00125956546981, Q4 : -0.00147515465505}
2019-04-14 14:21:34.51: SIM {TimeUS : 49934185, Roll : 0.12, Pitch : 0.14, Yaw : 359.82, Alt : 43.6300010681, Lat : 49.2835704, Lng : -123.1150207, Q1 : 0.99999755621, Q2 : 0.00105667731259, Q3 : 0.00124351889826, Q4 : -0.00150526408106}
2019-04-14 14:21:34.61: SIM {TimeUS : 50034145, Roll : 0.12, Pitch : 0.12, Yaw : 359.82, Alt : 43.8699989319, Lat : 49.2835704, Lng : -123.1150207, Q1 : 0.999997615814, Q2 : 0.0010946711991, Q3 : 0.00109188398346, Q4 : -0.0015370727051}
2019-04-14 14:21:34.71: SIM {TimeUS : 50134105, Roll : 0.08, Pitch : 0.1, Yaw : 359.82, Alt : 44.0999984741, Lat : 49.2835704, Lng : -123.1150207, Q1 : 0.999998092651, Q2 : 0.000733185792342, Q3 : 0.000945645559113, Q4 : -0.0015550883254}
2019-04-14 14:21:34.81: SIM {TimeUS : 50234065, Roll : 0.02, Pitch : 0.09, Yaw : 359.82, Alt : 44.3400001526, Lat : 49.2835704, Lng : -123.1150207, Q1 : 0.999998450279, Q2 : 0.000189964441233, Q3 : 0.000809444929473, Q4 : -0.00156391586643}
2019-04-14 14:21:34.91: SIM {TimeUS : 50334025, Roll : -0.02, Pitch : 0.08, Yaw : 359.81, Alt : 44.5800018311, Lat : 49.2835704, Lng : -123.1150206, Q1 : 0.999998450279, Q2 : -0.000210767815588, Q3 : 0.000775281398091, Q4 : -0.00157449697144}
2019-04-14 14:21:35.01: SIM {TimeUS : 50434818, Roll : -0.05, Pitch : 0.08, Yaw : 359.81, Alt : 44.8100013733, Lat : 49.2835704, Lng : -123.1150206, Q1 : 0.999998390675, Q2 : -0.000452659762232, Q3 : 0.000707047991455, Q4 : -0.00158197293058}
2019-04-14 14:21:35.11: SIM {TimeUS : 50534778, Roll : -0.04, Pitch : 0.05, Yaw : 359.81, Alt : 45.0499992371, Lat : 49.2835704, Lng : -123.1150206, Q1 : 0.999998569489, Q2 : -0.000410030130297, Q3 : 0.000486716977321, Q4 : -0.00159210548736}
2019-04-14 14:21:35.21: SIM {TimeUS : 50634738, Roll : -0.04, Pitch : 0.03, Yaw : 359.81, Alt : 45.2900009155, Lat : 49.2835704, Lng : -123.1150206, Q1 : 0.999998569489, Q2 : -0.000371721514966, Q3 : 0.000274491525488, Q4 : -0.00161657761782}
2019-04-14 14:21:35.31: SIM {TimeUS : 50734698, Roll : -0.03, Pitch : 0.01, Yaw : 359.81, Alt : 45.5200004578, Lat : 49.2835703, Lng : -123.1150206, Q1 : 0.999998569489, Q2 : -0.000283495581243, Q3 : 0.000108029817056, Q4 : -0.00164963770658}
2019-04-14 14:21:35.41: SIM {TimeUS : 50834658, Roll : -0.01, Pitch : 0.0, Yaw : 359.8, Alt : 45.75, Lat : 49.2835703, Lng : -123.1150206, Q1 : 0.999998569489, Q2 : -0.000128190615214, Q3 : 4.55744302599e-05, Q4 : -0.00169376318809}
2019-04-14 14:21:35.51: SIM {TimeUS : 50934618, Roll : -0.01, Pitch : 0.0, Yaw : 359.8, Alt : 45.9900016785, Lat : 49.2835703, Lng : -123.1150206, Q1 : 0.999998509884, Q2 : -0.00012753190822, Q3 : 3.75972122129e-05, Q4 : -0.00174141593743}
2019-04-14 14:21:35.61: SIM {TimeUS : 51034578, Roll : -0.02, Pitch : 0.0, Yaw : 359.79, Alt : 46.2099990845, Lat : 49.2835703, Lng : -123.1150205, Q1 : 0.999998390675, Q2 : -0.000207717253943, Q3 : -4.10075008404e-05, Q4 : -0.00179402006324}
2019-04-14 14:21:35.71: SIM {TimeUS : 51134538, Roll : -0.03, Pitch : -0.02, Yaw : 359.78, Alt : 46.4399986267, Lat : 49.2835703, Lng : -123.1150205, Q1 : 0.999998271465, Q2 : -0.000280857260805, Q3 : -0.000222800241318, Q4 : -0.00184301461559}
2019-04-14 14:21:35.81: SIM {TimeUS : 51234498, Roll : -0.03, Pitch : -0.03, Yaw : 359.78, Alt : 46.6599998474, Lat : 49.2835703, Lng : -123.1150205, Q1 : 0.999998152256, Q2 : -0.000319221784594, Q3 : -0.000333778181812, Q4 : -0.00188375264406}
2019-04-14 14:21:35.91: SIM {TimeUS : 51334458, Roll : -0.03, Pitch : -0.04, Yaw : 359.78, Alt : 46.8699989319, Lat : 49.2835703, Lng : -123.1150205, Q1 : 0.999998033047, Q2 : -0.000281182146864, Q3 : -0.000409701751778, Q4 : -0.00191565509886}
2019-04-14 14:21:36.01: SIM {TimeUS : 51434418, Roll : -0.03, Pitch : -0.04, Yaw : 359.77, Alt : 47.0800018311, Lat : 49.2835703, Lng : -123.1150205, Q1 : 0.999997973442, Q2 : -0.000313092314173, Q3 : -0.000424304278567, Q4 : -0.00194491981529}
2019-04-14 14:21:36.11: SIM {TimeUS : 51534378, Roll : -0.05, Pitch : -0.04, Yaw : 359.77, Alt : 47.2799987793, Lat : 49.2835703, Lng : -123.1150205, Q1 : 0.999997854233, Q2 : -0.000461643969174, Q3 : -0.000384527957067, Q4 : -0.0019736844115}
2019-04-14 14:21:36.21: SIM {TimeUS : 51634338, Roll : -0.08, Pitch : -0.03, Yaw : 359.77, Alt : 47.4700012207, Lat : 49.2835703, Lng : -123.1150205, Q1 : 0.999997675419, Q2 : -0.000737899390515, Q3 : -0.000328805472236, Q4 : -0.00199926737696}
2019-04-14 14:21:36.31: SIM {TimeUS : 51734298, Roll : -0.12, Pitch : -0.04, Yaw : 359.76, Alt : 47.6599998474, Lat : 49.2835703, Lng : -123.1150205, Q1 : 0.999997377396, Q2 : -0.00104844907764, Q3 : -0.000362325430615, Q4 : -0.00202100374736}
2019-04-14 14:21:36.41: SIM {TimeUS : 51834258, Roll : -0.15, Pitch : -0.05, Yaw : 359.76, Alt : 47.8300018311, Lat : 49.2835703, Lng : -123.1150205, Q1 : 0.999996900558, Q2 : -0.00136044598185, Q3 : -0.00050706055481, Q4 : -0.0020409449935}
2019-04-14 14:21:36.51: SIM {TimeUS : 51934218, Roll : -0.16, Pitch : -0.06, Yaw : 359.76, Alt : 47.9900016785, Lat : 49.2835703, Lng : -123.1150205, Q1 : 0.99999666214, Q2 : -0.00147303403355, Q3 : -0.000533888174687, Q4 : -0.00206314655952}
2019-04-14 14:21:36.61: SIM {TimeUS : 52034178, Roll : -0.15, Pitch : -0.05, Yaw : 359.76, Alt : 48.1399993896, Lat : 49.2835703, Lng : -123.1150205, Q1 : 0.999996781349, Q2 : -0.00137005187571, Q3 : -0.00048656805302, Q4 : -0.00208483100869}
2019-04-14 14:21:36.71: SIM {TimeUS : 52134138, Roll : -0.13, Pitch : -0.04, Yaw : 359.75, Alt : 48.2700004578, Lat : 49.2835703, Lng : -123.1150205, Q1 : 0.999997019768, Q2 : -0.00118195696268, Q3 : -0.00039884733269, Q4 : -0.00210239714943}
2019-04-14 14:21:36.81: SIM {TimeUS : 52234098, Roll : -0.11, Pitch : -0.04, Yaw : 359.75, Alt : 48.4000015259, Lat : 49.2835703, Lng : -123.1150205, Q1 : 0.999997198582, Q2 : -0.00101508200169, Q3 : -0.000349524430931, Q4 : -0.00212014885619}
2019-04-14 14:21:36.91: SIM {TimeUS : 52334058, Roll : -0.08, Pitch : -0.04, Yaw : 359.75, Alt : 48.5099983215, Lat : 49.2835703, Lng : -123.1150205, Q1 : 0.999997377396, Q2 : -0.000761868082918, Q3 : -0.000415354821598, Q4 : -0.00213651242666}
2019-04-14 14:21:37.02: SIM {TimeUS : 52434851, Roll : -0.05, Pitch : -0.05, Yaw : 359.75, Alt : 48.6100006104, Lat : 49.2835703, Lng : -123.1150205, Q1 : 0.999997437, Q2 : -0.000467089790618, Q3 : -0.000514909625053, Q4 : -0.00215514423326}
2019-04-14 14:21:37.11: SIM {TimeUS : 52534811, Roll : -0.03, Pitch : -0.07, Yaw : 359.75, Alt : 48.7000007629, Lat : 49.2835703, Lng : -123.1150205, Q1 : 0.999997437, Q2 : -0.000283127330476, Q3 : -0.000618537480477, Q4 : -0.00217738584615}
2019-04-14 14:21:37.21: SIM {TimeUS : 52634771, Roll : -0.03, Pitch : -0.08, Yaw : 359.74, Alt : 48.7799987793, Lat : 49.2835703, Lng : -123.1150206, Q1 : 0.999997317791, Q2 : -0.000274273188552, Q3 : -0.000720668467693, Q4 : -0.00219731940888}
2019-04-14 14:21:37.31: SIM {TimeUS : 52734731, Roll : 0.0, Pitch : -0.07, Yaw : 359.74, Alt : 48.8400001526, Lat : 49.2835703, Lng : -123.1150206, Q1 : 0.999997317791, Q2 : -5.6330987718e-05, Q3 : -0.000650716247037, Q4 : -0.00221577123739}
2019-04-14 14:21:37.41: SIM {TimeUS : 52834691, Roll : 0.02, Pitch : -0.05, Yaw : 359.74, Alt : 48.9000015259, Lat : 49.2835703, Lng : -123.1150206, Q1 : 0.999997377396, Q2 : 0.000203941468499, Q3 : -0.000475174194435, Q4 : -0.00223894743249}
2019-04-14 14:21:37.51: SIM {TimeUS : 52934651, Roll : 0.04, Pitch : -0.03, Yaw : 359.74, Alt : 48.9500007629, Lat : 49.2835703, Lng : -123.1150206, Q1 : 0.999997317791, Q2 : 0.000390681903809, Q3 : -0.000267875642749, Q4 : -0.00226620794274}
2019-04-14 14:21:37.61: SIM {TimeUS : 53034611, Roll : 0.08, Pitch : -0.02, Yaw : 359.73, Alt : 48.9900016785, Lat : 49.2835703, Lng : -123.1150206, Q1 : 0.999997019768, Q2 : 0.000759108283091, Q3 : -0.00019976751355, Q4 : -0.00230226409622}
2019-04-14 14:21:37.71: SIM {TimeUS : 53134571, Roll : 0.27, Pitch : -0.06, Yaw : 359.73, Alt : 49.0299987793, Lat : 49.2835703, Lng : -123.1150206, Q1 : 0.999994218349, Q2 : 0.00240595103242, Q3 : -0.00058596173767, Q4 : -0.00233918661252}
2019-04-14 14:21:37.81: SIM {TimeUS : 53234531, Roll : 0.7, Pitch : -0.2, Yaw : 359.72, Alt : 49.0600013733, Lat : 49.2835703, Lng : -123.1150206, Q1 : 0.999976754189, Q2 : 0.00613221898675, Q3 : -0.00180953450035, Q4 : -0.00237783673219}
2019-04-14 14:21:37.91: SIM {TimeUS : 53334491, Roll : 1.37, Pitch : -0.41, Yaw : 359.71, Alt : 49.0900001526, Lat : 49.2835703, Lng : -123.1150206, Q1 : 0.999918937683, Q2 : 0.0119483666494, Q3 : -0.00367887527682, Q4 : -0.00241181743331}
2019-04-14 14:21:38.01: SIM {TimeUS : 53434451, Roll : 2.24, Pitch : -0.68, Yaw : 359.7, Alt : 49.1100006104, Lat : 49.2835703, Lng : -123.1150206, Q1 : 0.999787032604, Q2 : 0.0195998176932, Q3 : -0.00598813965917, Q4 : -0.00243421946652}
2019-04-14 14:21:38.11: SIM {TimeUS : 53534411, Roll : 3.23, Pitch : -0.97, Yaw : 359.69, Alt : 49.1300010681, Lat : 49.2835704, Lng : -123.1150205, Q1 : 0.999563336372, Q2 : 0.0281756240875, Q3 : -0.00856540258974, Q4 : -0.00242816098034}
2019-04-14 14:21:38.21: SIM {TimeUS : 53634371, Roll : 4.18, Pitch : -1.24, Yaw : 359.68, Alt : 49.1500015259, Lat : 49.2835704, Lng : -123.1150203, Q1 : 0.999272763729, Q2 : 0.0364558920264, Q3 : -0.0109249548987, Q4 : -0.00237180897966}
2019-04-14 14:21:38.31: SIM {TimeUS : 53734331, Roll : 4.98, Pitch : -1.44, Yaw : 359.67, Alt : 49.1699981689, Lat : 49.2835706, Lng : -123.1150201, Q1 : 0.99897313118, Q2 : 0.0434133671224, Q3 : -0.0127611951903, Q4 : -0.00226995674893}
2019-04-14 14:21:38.41: SIM {TimeUS : 53834291, Roll : 5.58, Pitch : -1.6, Yaw : 359.67, Alt : 49.1800003052, Lat : 49.2835706, Lng : -123.1150198, Q1 : 0.998712837696, Q2 : 0.0486679449677, Q3 : -0.014125213027, Q4 : -0.00214361981489}
2019-04-14 14:21:38.51: SIM {TimeUS : 53934251, Roll : 6.02, Pitch : -1.74, Yaw : 359.67, Alt : 49.1899986267, Lat : 49.2835707, Lng : -123.1150194, Q1 : 0.998501002789, Q2 : 0.0524860695004, Q3 : -0.0153923379257, Q4 : -0.00201239390299}
2019-04-14 14:21:38.61: SIM {TimeUS : 54034211, Roll : 6.36, Pitch : -1.87, Yaw : 359.68, Alt : 49.2000007629, Lat : 49.2835708, Lng : -123.1150188, Q1 : 0.998324215412, Q2 : 0.055434346199, Q3 : -0.0165009610355, Q4 : -0.001876486931}
2019-04-14 14:21:38.71: SIM {TimeUS : 54134171, Roll : 6.67, Pitch : -2.01, Yaw : 359.68, Alt : 49.2099990845, Lat : 49.2835709, Lng : -123.1150182, Q1 : 0.998147130013, Q2 : 0.0581927001476, Q3 : -0.0176908876747, Q4 : -0.00174275715835}
2019-04-14 14:21:38.81: SIM {TimeUS : 54234131, Roll : 7.03, Pitch : -2.15, Yaw : 359.68, Alt : 49.2200012207, Lat : 49.283571, Lng : -123.1150174, Q1 : 0.99794113636, Q2 : 0.0612475499511, Q3 : -0.0189638156444, Q4 : -0.00160701491404}
2019-04-14 14:21:38.91: SIM {TimeUS : 54334091, Roll : 7.37, Pitch : -2.26, Yaw : 359.68, Alt : 49.2200012207, Lat : 49.2835713, Lng : -123.1150165, Q1 : 0.99773311615, Q2 : 0.0642654821277, Q3 : -0.0199128203094, Q4 : -0.00145392026752}
2019-04-14 14:21:39.01: SIM {TimeUS : 54434051, Roll : 7.66, Pitch : -2.35, Yaw : 359.69, Alt : 49.2299995422, Lat : 49.2835715, Lng : -123.1150155, Q1 : 0.997554838657, Q2 : 0.0667556226254, Q3 : -0.020649753511, Q4 : -0.0012965000933}
2019-04-14 14:21:39.12: SIM {TimeUS : 54534844, Roll : 7.88, Pitch : -2.4, Yaw : 359.7, Alt : 49.2400016785, Lat : 49.2835716, Lng : -123.1150144, Q1 : 0.997411549091, Q2 : 0.0687152370811, Q3 : -0.0211462881416, Q4 : -0.00115087360609}
2019-04-14 14:21:39.21: SIM {TimeUS : 54634804, Roll : 8.04, Pitch : -2.45, Yaw : 359.7, Alt : 49.2400016785, Lat : 49.283572, Lng : -123.1150132, Q1 : 0.997308194637, Q2 : 0.0700831115246, Q3 : -0.0215335320681, Q4 : -0.0010464793304}
2019-04-14 14:21:39.31: SIM {TimeUS : 54734764, Roll : 8.15, Pitch : -2.5, Yaw : 359.7, Alt : 49.25, Lat : 49.2835721, Lng : -123.1150119, Q1 : 0.997232377529, Q2 : 0.071024954319, Q3 : -0.0219565592706, Q4 : -0.000987460371107}
2019-04-14 14:21:39.41: SIM {TimeUS : 54834724, Roll : 8.28, Pitch : -2.55, Yaw : 359.7, Alt : 49.25, Lat : 49.2835725, Lng : -123.1150104, Q1 : 0.997138798237, Q2 : 0.0721817016602, Q3 : -0.0224311370403, Q4 : -0.000958075514063}
2019-04-14 14:21:39.51: SIM {TimeUS : 54934684, Roll : 8.55, Pitch : -2.45, Yaw : 359.83, Alt : 49.25, Lat : 49.2835727, Lng : -123.1150089, Q1 : 0.99698805809, Q2 : 0.0745315253735, Q3 : -0.0214430503547, Q4 : 0.000135446942295}
2019-04-14 14:21:39.61: SIM {TimeUS : 55034644, Roll : 8.99, Pitch : -2.09, Yaw : 0.61, Alt : 49.2599983215, Lat : 49.2835731, Lng : -123.1150072, Q1 : 0.99673306942, Q2 : 0.0784938633442, Q3 : -0.0177861619741, Q4 : 0.00674246484414}
2019-04-14 14:21:39.71: SIM {TimeUS : 55134604, Roll : 9.54, Pitch : -1.77, Yaw : 2.69, Alt : 49.2599983215, Lat : 49.2835734, Lng : -123.1150055, Q1 : 0.996105015278, Q2 : 0.0835639536381, Q3 : -0.0134992888197, Q4 : 0.0246929563582}
2019-04-14 14:21:39.81: SIM {TimeUS : 55234564, Roll : 10.04, Pitch : -1.92, Yaw : 6.34, Alt : 49.2599983215, Lat : 49.2835738, Lng : -123.1150037, Q1 : 0.994412779808, Q2 : 0.0883386731148, Q3 : -0.0118211638182, Q4 : 0.0565671660006}
2019-04-14 14:21:39.91: SIM {TimeUS : 55334524, Roll : 10.32, Pitch : -2.68, Yaw : 11.46, Alt : 49.2599983215, Lat : 49.283574, Lng : -123.1150017, Q1 : 0.990482449532, Q2 : 0.0918577089906, Q3 : -0.0142307337373, Q4 : 0.10150924325}
2019-04-14 14:21:40.01: SIM {TimeUS : 55434484, Roll : 10.23, Pitch : -4.04, Yaw : 17.81, Alt : 49.2599983215, Lat : 49.2835744, Lng : -123.1149996, Q1 : 0.982907891273, Q2 : 0.0934751927853, Q3 : -0.0209392029792, Q4 : 0.157213583589}
2019-04-14 14:21:40.11: SIM {TimeUS : 55534444, Roll : 9.65, Pitch : -5.85, Yaw : 25.14, Alt : 49.2599983215, Lat : 49.2835746, Lng : -123.1149974, Q1 : 0.970352172852, Q2 : 0.093082793057, Q3 : -0.0314148850739, Q4 : 0.22082862258}
2019-04-14 14:21:40.21: SIM {TimeUS : 55634404, Roll : 8.56, Pitch : -7.88, Yaw : 33.22, Alt : 49.2700004578, Lat : 49.283575, Lng : -123.114995, Q1 : 0.951849341393, Q2 : 0.0909776464105, Q3 : -0.0444070026278, Q4 : 0.289368122816}
2019-04-14 14:21:40.31: SIM {TimeUS : 55734364, Roll : 6.99, Pitch : -9.87, Yaw : 41.82, Alt : 49.2700004578, Lat : 49.2835752, Lng : -123.1149926, Q1 : 0.927059590816, Q2 : 0.0874248296022, Q3 : -0.0585568249226, Q4 : 0.359845250845}
2019-04-14 14:21:40.41: SIM {TimeUS : 55834324, Roll : 5.0, Pitch : -11.58, Yaw : 50.68, Alt : 49.2700004578, Lat : 49.2835757, Lng : -123.1149901, Q1 : 0.896405100822, Q2 : 0.082418859005, Q3 : -0.0725642293692, Q4 : 0.429417639971}
2019-04-14 14:21:40.51: SIM {TimeUS : 55934284, Roll : 2.72, Pitch : -12.85, Yaw : 59.52, Alt : 49.2700004578, Lat : 49.2835759, Lng : -123.1149874, Q1 : 0.861075103283, Q2 : 0.0760347917676, Q3 : -0.0854373946786, Q4 : 0.495448112488}
2019-04-14 14:21:40.61: SIM {TimeUS : 56034244, Roll : 0.26, Pitch : -13.6, Yaw : 68.02, Alt : 49.2700004578, Lat : 49.2835764, Lng : -123.1149846, Q1 : 0.822924852371, Q2 : 0.0681881830096, Q3 : -0.096916474402, Q4 : 0.55565482378}
2019-04-14 14:21:40.71: SIM {TimeUS : 56134204, Roll : -2.43, Pitch : -13.88, Yaw : 75.68, Alt : 49.2799987793, Lat : 49.2835769, Lng : -123.1149816, Q1 : 0.785286486149, Q2 : 0.0575371906161, Q3 : -0.108373112977, Q4 : 0.606852412224}
2019-04-14 14:21:40.81: SIM {TimeUS : 56234164, Roll : -5.02, Pitch : -13.78, Yaw : 81.82, Alt : 49.2799987793, Lat : 49.2835774, Lng : -123.1149786, Q1 : 0.752949655056, Q2 : 0.0456623993814, Q3 : -0.119090899825, Q4 : 0.645599842072}
2019-04-14 14:21:40.91: SIM {TimeUS : 56334124, Roll : -7.03, Pitch : -13.49, Yaw : 86.02, Alt : 49.2799987793, Lat : 49.283578, Lng : -123.1149755, Q1 : 0.729715108871, Q2 : 0.0354282334447, Q3 : -0.127289652824, Q4 : 0.670863628387}
2019-04-14 14:21:41.01: SIM {TimeUS : 56434084, Roll : -8.15, Pitch : -13.19, Yaw : 88.23, Alt : 49.2799987793, Lat : 49.2835786, Lng : -123.1149722, Q1 : 0.717011272907, Q2 : 0.0291058998555, Q3 : -0.131427675486, Q4 : 0.683940410614}
2019-04-14 14:21:41.11: SIM {TimeUS : 56534044, Roll : -8.28, Pitch : -13.06, Yaw : 88.72, Alt : 49.2799987793, Lat : 49.2835794, Lng : -123.1149689, Q1 : 0.714190304279, Q2 : 0.0280641783029, Q3 : -0.131294518709, Q4 : 0.686954438686}
2019-04-14 14:21:41.22: SIM {TimeUS : 56634837, Roll : -7.53, Pitch : -13.19, Yaw : 87.79, Alt : 49.2799987793, Lat : 49.2835801, Lng : -123.1149654, Q1 : 0.719487607479, Q2 : 0.0324610807002, Q3 : -0.127875179052, Q4 : 0.681859076023}
2019-04-14 14:21:41.31: SIM {TimeUS : 56734797, Roll : -6.13, Pitch : -13.59, Yaw : 85.82, Alt : 49.2799987793, Lat : 49.2835811, Lng : -123.1149619, Q1 : 0.730504751205, Q2 : 0.0415911711752, Q3 : -0.122740767896, Q4 : 0.670498132706}
2019-04-14 14:21:41.41: SIM {TimeUS : 56834757, Roll : -4.32, Pitch : -14.21, Yaw : 83.13, Alt : 49.2799987793, Lat : 49.283582, Lng : -123.1149583, Q1 : 0.744989335537, Q2 : 0.0539788901806, Q3 : -0.117341682315, Q4 : 0.654452502728}
2019-04-14 14:21:41.51: SIM {TimeUS : 56934717, Roll : -2.37, Pitch : -14.88, Yaw : 80.03, Alt : 49.2799987793, Lat : 49.2835831, Lng : -123.1149546, Q1 : 0.760983943939, Q2 : 0.0675520822406, Q3 : -0.112384051085, Q4 : 0.635381758213}
2019-04-14 14:21:41.61: SIM {TimeUS : 57034677, Roll : -0.45, Pitch : -15.46, Yaw : 76.81, Alt : 49.2799987793, Lat : 49.2835841, Lng : -123.1149509, Q1 : 0.776808679104, Q2 : 0.0805129259825, Q3 : -0.107907138765, Q4 : 0.615176439285}
2019-04-14 14:21:41.71: SIM {TimeUS : 57134637, Roll : 1.23, Pitch : -15.85, Yaw : 73.82, Alt : 49.2799987793, Lat : 49.283585, Lng : -123.114947, Q1 : 0.790990352631, Q2 : 0.0913448631763, Q3 : -0.103894524276, Q4 : 0.595983505249}
2019-04-14 14:21:41.81: SIM {TimeUS : 57234597, Roll : 2.53, Pitch : -16.02, Yaw : 71.34, Alt : 49.2799987793, Lat : 49.2835861, Lng : -123.1149429, Q1 : 0.802425801754, Q2 : 0.0990717113018, Q3 : -0.100422173738, Q4 : 0.579838812351}
2019-04-14 14:21:41.91: SIM {TimeUS : 57334557, Roll : 3.37, Pitch : -16.02, Yaw : 69.58, Alt : 49.2900009155, Lat : 49.2835871, Lng : -123.1149388, Q1 : 0.810501158237, Q2 : 0.103473111987, Q3 : -0.0977516546845, Q4 : 0.568177640438}
2019-04-14 14:21:42.01: SIM {TimeUS : 57434517, Roll : 3.72, Pitch : -15.95, Yaw : 68.61, Alt : 49.2900009155, Lat : 49.2835879, Lng : -123.1149345, Q1 : 0.815047740936, Q2 : 0.104800857604, Q3 : -0.0964238941669, Q4 : 0.561619460583}
2019-04-14 14:21:42.11: SIM {TimeUS : 57534477, Roll : 3.62, Pitch : -15.89, Yaw : 68.4, Alt : 49.2900009155, Lat : 49.2835889, Lng : -123.1149302, Q1 : 0.816240727901, Q2 : 0.103603988886, Q3 : -0.0967248901725, Q4 : 0.560055017471}
2019-04-14 14:21:42.21: SIM {TimeUS : 57634437, Roll : 3.14, Pitch : -15.9, Yaw : 68.84, Alt : 49.2900009155, Lat : 49.2835897, Lng : -123.1149257, Q1 : 0.814504981041, Q2 : 0.100607454777, Q3 : -0.0987113267183, Q4 : 0.56277513504}
2019-04-14 14:21:42.31: SIM {TimeUS : 57734397, Roll : 2.41, Pitch : -15.97, Yaw : 69.77, Alt : 49.2900009155, Lat : 49.2835907, Lng : -123.1149211, Q1 : 0.810453355312, Q2 : 0.0965762138367, Q3 : -0.102030843496, Q4 : 0.568707406521}
2019-04-14 14:21:42.41: SIM {TimeUS : 57834357, Roll : 1.55, Pitch : -16.09, Yaw : 71.01, Alt : 49.2900009155, Lat : 49.2835915, Lng : -123.1149165, Q1 : 0.804828464985, Q2 : 0.0922646522522, Q3 : -0.106136597693, Q4 : 0.576605141163}
2019-04-14 14:21:42.51: SIM {TimeUS : 57934317, Roll : 0.69, Pitch : -16.24, Yaw : 72.38, Alt : 49.2900009155, Lat : 49.2835923, Lng : -123.1149117, Q1 : 0.79843968153, Q2 : 0.0882683247328, Q3 : -0.110533259809, Q4 : 0.585222363472}
2019-04-14 14:21:42.61: SIM {TimeUS : 58034277, Roll : -0.09, Pitch : -16.39, Yaw : 73.69, Alt : 49.2900009155, Lat : 49.2835933, Lng : -123.114907, Q1 : 0.792109966278, Q2 : 0.0848541483283, Q3 : -0.11461763829, Q4 : 0.593484938145}
2019-04-14 14:21:42.71: SIM {TimeUS : 58134237, Roll : -0.75, Pitch : -16.52, Yaw : 74.83, Alt : 49.2900009155, Lat : 49.2835941, Lng : -123.1149021, Q1 : 0.786552190781, Q2 : 0.0821394696832, Q3 : -0.11804267019, Q4 : 0.600545346737}
2019-04-14 14:21:42.81: SIM {TimeUS : 58234197, Roll : -1.21, Pitch : -16.58, Yaw : 75.69, Alt : 49.2900009155, Lat : 49.2835951, Lng : -123.1148972, Q1 : 0.782306015491, Q2 : 0.0801453664899, Q3 : -0.12031648308, Q4 : 0.605886101723}
2019-04-14 14:21:42.91: SIM {TimeUS : 58334157, Roll : -1.45, Pitch : -16.59, Yaw : 76.22, Alt : 49.2900009155, Lat : 49.283596, Lng : -123.1148922, Q1 : 0.779621243477, Q2 : 0.079144872725, Q3 : -0.121299237013, Q4 : 0.609272778034}
2019-04-14 14:21:43.01: SIM {TimeUS : 58434117, Roll : -1.5, Pitch : -16.57, Yaw : 76.43, Alt : 49.2900009155, Lat : 49.283597, Lng : -123.1148872, Q1 : 0.778554022312, Q2 : 0.0789487808943, Q3 : -0.121334321797, Q4 : 0.610654354095}
2019-04-14 14:21:43.11: SIM {TimeUS : 58534077, Roll : -1.37, Pitch : -16.57, Yaw : 76.35, Alt : 49.2900009155, Lat : 49.283598, Lng : -123.1148821, Q1 : 0.778897881508, Q2 : 0.0797654762864, Q3 : -0.120665639639, Q4 : 0.610242128372}
2019-04-14 14:21:43.21: SIM {TimeUS : 58634037, Roll : -1.08, Pitch : -16.58, Yaw : 76.03, Alt : 49.2900009155, Lat : 49.2835989, Lng : -123.114877, Q1 : 0.780369818211, Q2 : 0.081418864429, Q3 : -0.119384653866, Q4 : 0.608392357826}
2019-04-14 14:21:43.32: SIM {TimeUS : 58734830, Roll : -0.72, Pitch : -16.6, Yaw : 75.55, Alt : 49.2900009155, Lat : 49.2836001, Lng : -123.1148717, Q1 : 0.782636165619, Q2 : 0.083485558629, Q3 : -0.117938891053, Q4 : 0.605476021767}
2019-04-14 14:21:43.41: SIM {TimeUS : 58834790, Roll : -0.36, Pitch : -16.64, Yaw : 75.0, Alt : 49.2900009155, Lat : 49.2836011, Lng : -123.1148665, Q1 : 0.785264074802, Q2 : 0.0856441929936, Q3 : -0.116776064038, Q4 : 0.601987302303}
2019-04-14 14:21:43.51: SIM {TimeUS : 58934750, Roll : -0.03, Pitch : -16.72, Yaw : 74.43, Alt : 49.2900009155, Lat : 49.283602, Lng : -123.1148612, Q1 : 0.787906587124, Q2 : 0.0877285972238, Q3 : -0.115965291858, Q4 : 0.59838026762}
2019-04-14 14:21:43.61: SIM {TimeUS : 59034710, Roll : 0.24, Pitch : -16.8, Yaw : 73.92, Alt : 49.2900009155, Lat : 49.2836031, Lng : -123.1148559, Q1 : 0.790272951126, Q2 : 0.0895714238286, Q3 : -0.11549924314, Q4 : 0.595067739487}
2019-04-14 14:21:43.71: SIM {TimeUS : 59134670, Roll : 0.45, Pitch : -16.86, Yaw : 73.5, Alt : 49.2900009155, Lat : 49.2836042, Lng : -123.1148505, Q1 : 0.79219019413, Q2 : 0.0908935219049, Q3 : -0.115174338222, Q4 : 0.59237486124}
2019-04-14 14:21:43.81: SIM {TimeUS : 59234630, Roll : 0.58, Pitch : -16.91, Yaw : 73.21, Alt : 49.2900009155, Lat : 49.2836051, Lng : -123.1148451, Q1 : 0.793531596661, Q2 : 0.0917252749205, Q3 : -0.115066066384, Q4 : 0.590469241142}
2019-04-14 14:21:43.91: SIM {TimeUS : 59334590, Roll : 0.62, Pitch : -16.94, Yaw : 73.06, Alt : 49.2999992371, Lat : 49.2836062, Lng : -123.1148397, Q1 : 0.794271051884, Q2 : 0.0920600965619, Q3 : -0.115165360272, Q4 : 0.589402616024}
2019-04-14 14:21:44.01: SIM {TimeUS : 59434550, Roll : 0.61, Pitch : -16.96, Yaw : 73.02, Alt : 49.2999992371, Lat : 49.2836073, Lng : -123.1148342, Q1 : 0.794432103634, Q2 : 0.0920151993632, Q3 : -0.115368142724, Q4 : 0.589152812958}
2019-04-14 14:21:44.11: SIM {TimeUS : 59534510, Roll : 0.55, Pitch : -16.97, Yaw : 73.1, Alt : 49.2999992371, Lat : 49.2836084, Lng : -123.1148287, Q1 : 0.794100701809, Q2 : 0.0916971340775, Q3 : -0.115698024631, Q4 : 0.589584350586}
2019-04-14 14:21:44.21: SIM {TimeUS : 59634470, Roll : 0.44, Pitch : -16.99, Yaw : 73.25, Alt : 49.2999992371, Lat : 49.2836093, Lng : -123.1148231, Q1 : 0.793398082256, Q2 : 0.0911919623613, Q3 : -0.116278491914, Q4 : 0.590493679047}
2019-04-14 14:21:44.31: SIM {TimeUS : 59734430, Roll : 0.3, Pitch : -17.01, Yaw : 73.44, Alt : 49.2999992371, Lat : 49.2836104, Lng : -123.1148175, Q1 : 0.792469501495, Q2 : 0.0905675366521, Q3 : -0.116994440556, Q4 : 0.591694116592}
2019-04-14 14:21:44.41: SIM {TimeUS : 59834390, Roll : 0.15, Pitch : -17.04, Yaw : 73.65, Alt : 49.2999992371, Lat : 49.2836115, Lng : -123.1148119, Q1 : 0.791466474533, Q2 : 0.0899095758796, Q3 : -0.117828555405, Q4 : 0.592970132828}
2019-04-14 14:21:44.51: SIM {TimeUS : 59934350, Roll : 0.01, Pitch : -17.09, Yaw : 73.85, Alt : 49.2999992371, Lat : 49.2836126, Lng : -123.1148062, Q1 : 0.790505111217, Q2 : 0.0893683284521, Q3 : -0.118723675609, Q4 : 0.594154655933}
2019-04-14 14:21:44.61: SIM {TimeUS : 60034310, Roll : -0.1, Pitch : -17.14, Yaw : 74.01, Alt : 49.2999992371, Lat : 49.2836135, Lng : -123.1148005, Q1 : 0.789699435234, Q2 : 0.0889811888337, Q3 : -0.119608975947, Q4 : 0.59510576725}
2019-04-14 14:21:44.71: SIM {TimeUS : 60134270, Roll : -0.2, Pitch : -17.18, Yaw : 74.13, Alt : 49.2999992371, Lat : 49.2836147, Lng : -123.1147948, Q1 : 0.789139688015, Q2 : 0.0886412858963, Q3 : -0.120305880904, Q4 : 0.595758199692}
2019-04-14 14:21:44.81: SIM {TimeUS : 60234230, Roll : -0.27, Pitch : -17.2, Yaw : 74.19, Alt : 49.2999992371, Lat : 49.2836158, Lng : -123.1147889, Q1 : 0.788858532906, Q2 : 0.0883620679379, Q3 : -0.120727337897, Q4 : 0.596086621284}
2019-04-14 14:21:44.91: SIM {TimeUS : 60334190, Roll : -0.3, Pitch : -17.22, Yaw : 74.19, Alt : 49.2999992371, Lat : 49.2836168, Lng : -123.1147833, Q1 : 0.788840770721, Q2 : 0.088244266808, Q3 : -0.121022135019, Q4 : 0.596067845821}
2019-04-14 14:21:45.01: SIM {TimeUS : 60434150, Roll : -0.27, Pitch : -17.25, Yaw : 74.15, Alt : 49.3100013733, Lat : 49.2836178, Lng : -123.1147775, Q1 : 0.789011895657, Q2 : 0.0885342955589, Q3 : -0.121121712029, Q4 : 0.595778048038}
2019-04-14 14:21:45.11: SIM {TimeUS : 60534110, Roll : -0.21, Pitch : -17.28, Yaw : 74.07, Alt : 49.3100013733, Lat : 49.2836189, Lng : -123.1147717, Q1 : 0.789342463017, Q2 : 0.0890551060438, Q3 : -0.121086478233, Q4 : 0.595269441605}
2019-04-14 14:21:45.21: SIM {TimeUS : 60634070, Roll : -0.12, Pitch : -17.32, Yaw : 73.97, Alt : 49.3100013733, Lat : 49.2836201, Lng : -123.1147658, Q1 : 0.789771616459, Q2 : 0.0897881910205, Q3 : -0.120951920748, Q4 : 0.594617187977}
2019-04-14 14:21:45.31: SIM {TimeUS : 60734030, Roll : -0.02, Pitch : -17.37, Yaw : 73.85, Alt : 49.3100013733, Lat : 49.2836212, Lng : -123.11476, Q1 : 0.790235996246, Q2 : 0.0905980616808, Q3 : -0.12084621191, Q4 : 0.593898355961}
2019-04-14 14:21:45.42: SIM {TimeUS : 60834823, Roll : 0.06, Pitch : -17.41, Yaw : 73.74, Alt : 49.3100013733, Lat : 49.2836224, Lng : -123.114754, Q1 : 0.79071688652, Q2 : 0.091241389513, Q3 : -0.120771549642, Q4 : 0.593174517155}
2019-04-14 14:21:45.51: SIM {TimeUS : 60934783, Roll : 0.11, Pitch : -17.43, Yaw : 73.64, Alt : 49.3100013733, Lat : 49.2836235, Lng : -123.1147481, Q1 : 0.791176736355, Q2 : 0.0915920734406, Q3 : -0.120707534254, Q4 : 0.592520058155}
2019-04-14 14:21:45.61: SIM {TimeUS : 61034743, Roll : 0.14, Pitch : -17.43, Yaw : 73.55, Alt : 49.3100013733, Lat : 49.2836245, Lng : -123.1147422, Q1 : 0.791582107544, Q2 : 0.0917030870914, Q3 : -0.120646253228, Q4 : 0.591973662376}
2019-04-14 14:21:45.71: SIM {TimeUS : 61134703, Roll : 0.16, Pitch : -17.43, Yaw : 73.49, Alt : 49.3100013733, Lat : 49.2836256, Lng : -123.1147363, Q1 : 0.791883111, Q2 : 0.0917737558484, Q3 : -0.120575487614, Q4 : 0.591574430466}
2019-04-14 14:21:45.81: SIM {TimeUS : 61234663, Roll : 0.17, Pitch : -17.43, Yaw : 73.45, Alt : 49.3100013733, Lat : 49.2836268, Lng : -123.1147303, Q1 : 0.792068958282, Q2 : 0.0918462052941, Q3 : -0.120621010661, Q4 : 0.591305077076}
2019-04-14 14:21:45.91: SIM {TimeUS : 61334623, Roll : 0.18, Pitch : -17.47, Yaw : 73.44, Alt : 49.3199996948, Lat : 49.283628, Lng : -123.1147243, Q1 : 0.792119145393, Q2 : 0.0920744389296, Q3 : -0.120788022876, Q4 : 0.591168224812}
2019-04-14 14:21:46.01: SIM {TimeUS : 61434583, Roll : 0.18, Pitch : -17.52, Yaw : 73.43, Alt : 49.3199996948, Lat : 49.2836291, Lng : -123.1147183, Q1 : 0.792063772678, Q2 : 0.0923735797405, Q3 : -0.121137157083, Q4 : 0.591124296188}
2019-04-14 14:21:46.11: SIM {TimeUS : 61534543, Roll : 0.17, Pitch : -17.55, Yaw : 73.45, Alt : 49.3199996948, Lat : 49.2836302, Lng : -123.1147123, Q1 : 0.791986644268, Q2 : 0.0924506112933, Q3 : -0.121401883662, Q4 : 0.591161251068}
2019-04-14 14:21:46.21: SIM {TimeUS : 61634503, Roll : 0.15, Pitch : -17.55, Yaw : 73.46, Alt : 49.3199996948, Lat : 49.2836314, Lng : -123.1147063, Q1 : 0.79190582037, Q2 : 0.0923261269927, Q3 : -0.121477082372, Q4 : 0.591273605824}
2019-04-14 14:21:46.31: SIM {TimeUS : 61734463, Roll : 0.12, Pitch : -17.56, Yaw : 73.49, Alt : 49.3199996948, Lat : 49.2836324, Lng : -123.1147003, Q1 : 0.791809737682, Q2 : 0.0922057181597, Q3 : -0.12165902555, Q4 : 0.591383576393}
2019-04-14 14:21:46.41: SIM {TimeUS : 61834423, Roll : 0.09, Pitch : -17.58, Yaw : 73.5, Alt : 49.3199996948, Lat : 49.2836335, Lng : -123.1146942, Q1 : 0.791717350483, Q2 : 0.0921154618263, Q3 : -0.122038260102, Q4 : 0.591443181038}
2019-04-14 14:21:46.51: SIM {TimeUS : 61934383, Roll : 0.06, Pitch : -17.61, Yaw : 73.52, Alt : 49.3199996948, Lat : 49.2836347, Lng : -123.1146881, Q1 : 0.79163891077, Q2 : 0.0920948311687, Q3 : -0.122346051037, Q4 : 0.591487824917}
2019-04-14 14:21:46.61: SIM {TimeUS : 62034343, Roll : 0.04, Pitch : -17.63, Yaw : 73.52, Alt : 49.3199996948, Lat : 49.2836359, Lng : -123.1146819, Q1 : 0.791601359844, Q2 : 0.092093937099, Q3 : -0.122586488724, Q4 : 0.591488480568}
2019-04-14 14:21:46.71: SIM {TimeUS : 62134303, Roll : 0.04, Pitch : -17.65, Yaw : 73.52, Alt : 49.3199996948, Lat : 49.2836371, Lng : -123.1146759, Q1 : 0.791611492634, Q2 : 0.0921048372984, Q3 : -0.122709989548, Q4 : 0.591447591782}
2019-04-14 14:21:46.81: SIM {TimeUS : 62234263, Roll : 0.04, Pitch : -17.66, Yaw : 73.51, Alt : 49.3199996948, Lat : 49.2836382, Lng : -123.1146698, Q1 : 0.791656970978, Q2 : 0.0921816378832, Q3 : -0.122785501182, Q4 : 0.591359019279}
2019-04-14 14:21:46.91: SIM {TimeUS : 62334223, Roll : 0.06, Pitch : -17.67, Yaw : 73.49, Alt : 49.3199996948, Lat : 49.2836394, Lng : -123.1146637, Q1 : 0.79173541069, Q2 : 0.0923398807645, Q3 : -0.122788354754, Q4 : 0.591228723526}
2019-04-14 14:21:47.01: SIM {TimeUS : 62434183, Roll : 0.09, Pitch : -17.69, Yaw : 73.46, Alt : 49.3199996948, Lat : 49.2836406, Lng : -123.1146576, Q1 : 0.791818976402, Q2 : 0.092624925077, Q3 : -0.122810028493, Q4 : 0.591067671776}
2019-04-14 14:21:47.11: SIM {TimeUS : 62534143, Roll : 0.11, Pitch : -17.72, Yaw : 73.43, Alt : 49.3199996948, Lat : 49.2836416, Lng : -123.1146514, Q1 : 0.791914522648, Q2 : 0.0929290577769, Q3 : -0.122864946723, Q4 : 0.590880513191}
2019-04-14 14:21:47.21: SIM {TimeUS : 62634103, Roll : 0.13, Pitch : -17.75, Yaw : 73.4, Alt : 49.3199996948, Lat : 49.2836428, Lng : -123.1146452, Q1 : 0.792023479939, Q2 : 0.0931508690119, Q3 : -0.123054429889, Q4 : 0.590660095215}
2019-04-14 14:21:47.31: SIM {TimeUS : 62734063, Roll : 0.12, Pitch : -17.79, Yaw : 73.37, Alt : 49.3199996948, Lat : 49.283644, Lng : -123.1146391, Q1 : 0.792144417763, Q2 : 0.0932560116053, Q3 : -0.123395144939, Q4 : 0.590410172939}
2019-04-14 14:21:47.41: SIM {TimeUS : 62834023, Roll : 0.11, Pitch : -17.83, Yaw : 73.34, Alt : 49.3300018311, Lat : 49.2836451, Lng : -123.1146329, Q1 : 0.792251884937, Q2 : 0.0933943912387, Q3 : -0.123750403523, Q4 : 0.590169727802}
2019-04-14 14:21:47.51: SIM {TimeUS : 62934816, Roll : 0.13, Pitch : -17.86, Yaw : 73.32, Alt : 49.3300018311, Lat : 49.2836463, Lng : -123.1146266, Q1 : 0.792338907719, Q2 : 0.0936552137136, Q3 : -0.1238809973, Q4 : 0.589984118938}
2019-04-14 14:21:47.61: SIM {TimeUS : 63034776, Roll : 0.16, Pitch : -17.86, Yaw : 73.29, Alt : 49.3300018311, Lat : 49.2836475, Lng : -123.1146204, Q1 : 0.792435884476, Q2 : 0.0938250571489, Q3 : -0.123704381287, Q4 : 0.58986389637}
2019-04-14 14:21:47.71: SIM {TimeUS : 63134736, Roll : 0.19, Pitch : -17.82, Yaw : 73.28, Alt : 49.3300018311, Lat : 49.2836487, Lng : -123.1146142, Q1 : 0.79254424572, Q2 : 0.0938160195947, Q3 : -0.123346976936, Q4 : 0.589794635773}
2019-04-14 14:21:47.81: SIM {TimeUS : 63234696, Roll : 0.19, Pitch : -17.8, Yaw : 73.26, Alt : 49.3300018311, Lat : 49.2836499, Lng : -123.114608, Q1 : 0.792632818222, Q2 : 0.093715518713, Q3 : -0.123157538474, Q4 : 0.589731216431}
2019-04-14 14:21:47.91: SIM {TimeUS : 63334656, Roll : 0.18, Pitch : -17.78, Yaw : 73.25, Alt : 49.3300018311, Lat : 49.2836511, Lng : -123.1146017, Q1 : 0.792708992958, Q2 : 0.0935106649995, Q3 : -0.123148091137, Q4 : 0.589663267136}
2019-04-14 14:21:48.01: SIM {TimeUS : 63434616, Roll : 0.16, Pitch : -17.78, Yaw : 73.25, Alt : 49.3300018311, Lat : 49.2836523, Lng : -123.1145954, Q1 : 0.792764365673, Q2 : 0.0933351069689, Q3 : -0.123214334249, Q4 : 0.589602768421}
2019-04-14 14:21:48.11: SIM {TimeUS : 63534576, Roll : 0.14, Pitch : -17.79, Yaw : 73.24, Alt : 49.3300018311, Lat : 49.2836535, Lng : -123.1145892, Q1 : 0.792786121368, Q2 : 0.0932845473289, Q3 : -0.123422294855, Q4 : 0.589538097382}
2019-04-14 14:21:48.21: SIM {TimeUS : 63634536, Roll : 0.13, Pitch : -17.82, Yaw : 73.24, Alt : 49.3300018311, Lat : 49.2836547, Lng : -123.1145828, Q1 : 0.792790353298, Q2 : 0.0933560431004, Q3 : -0.123630404472, Q4 : 0.589477419853}
2019-04-14 14:21:48.31: SIM {TimeUS : 63734496, Roll : 0.12, Pitch : -17.86, Yaw : 73.23, Alt : 49.3300018311, Lat : 49.2836559, Lng : -123.1145766, Q1 : 0.792782068253, Q2 : 0.0934754908085, Q3 : -0.123993337154, Q4 : 0.589393377304}
2019-04-14 14:21:48.41: SIM {TimeUS : 63834456, Roll : 0.11, Pitch : -17.91, Yaw : 73.23, Alt : 49.3300018311, Lat : 49.2836571, Lng : -123.1145703, Q1 : 0.792765617371, Q2 : 0.0936580449343, Q3 : -0.124406181276, Q4 : 0.589299559593}
2019-04-14 14:21:48.51: SIM {TimeUS : 63934416, Roll : 0.11, Pitch : -17.95, Yaw : 73.22, Alt : 49.3300018311, Lat : 49.2836583, Lng : -123.114564, Q1 : 0.792768359184, Q2 : 0.0938215628266, Q3 : -0.124657787383, Q4 : 0.589216709137}
2019-04-14 14:21:48.61: SIM {TimeUS : 64034376, Roll : 0.1, Pitch : -17.97, Yaw : 73.21, Alt : 49.3300018311, Lat : 49.2836595, Lng : -123.1145577, Q1 : 0.792804181576, Q2 : 0.0938837379217, Q3 : -0.12491415441, Q4 : 0.589104294777}
2019-04-14 14:21:48.71: SIM {TimeUS : 64134336, Roll : 0.09, Pitch : -18.0, Yaw : 73.19, Alt : 49.3300018311, Lat : 49.2836607, Lng : -123.1145514, Q1 : 0.792857885361, Q2 : 0.0939246490598, Q3 : -0.125117838383, Q4 : 0.588982284069}
2019-04-14 14:21:48.81: SIM {TimeUS : 64234296, Roll : 0.1, Pitch : -17.99, Yaw : 73.18, Alt : 49.3300018311, Lat : 49.2836619, Lng : -123.1145451, Q1 : 0.792935073376, Q2 : 0.093983784318, Q3 : -0.125046044588, Q4 : 0.588884174824}
2019-04-14 14:21:48.91: SIM {TimeUS : 64334256, Roll : 0.13, Pitch : -18.0, Yaw : 73.16, Alt : 49.3300018311, Lat : 49.2836631, Lng : -123.1145388, Q1 : 0.793010294437, Q2 : 0.0941771492362, Q3 : -0.1249339059, Q4 : 0.58877569437}
2019-04-14 14:21:49.01: SIM {TimeUS : 64434216, Roll : 0.15, Pitch : -18.01, Yaw : 73.14, Alt : 49.3400001526, Lat : 49.2836643, Lng : -123.1145323, Q1 : 0.793085753918, Q2 : 0.0943449065089, Q3 : -0.124933697283, Q4 : 0.588647246361}
2019-04-14 14:21:49.11: SIM {TimeUS : 64534176, Roll : 0.17, Pitch : -18.01, Yaw : 73.12, Alt : 49.3400001526, Lat : 49.2836655, Lng : -123.1145261, Q1 : 0.793163239956, Q2 : 0.0944638773799, Q3 : -0.124902188778, Q4 : 0.588530480862}
2019-04-14 14:21:49.21: SIM {TimeUS : 64634136, Roll : 0.18, Pitch : -18.01, Yaw : 73.1, Alt : 49.3400001526, Lat : 49.2836667, Lng : -123.1145198, Q1 : 0.793245077133, Q2 : 0.0945170000196, Q3 : -0.124807342887, Q4 : 0.58843177557}
2019-04-14 14:21:49.31: SIM {TimeUS : 64734096, Roll : 0.19, Pitch : -18.0, Yaw : 73.09, Alt : 49.3400001526, Lat : 49.283668, Lng : -123.1145134, Q1 : 0.793321669102, Q2 : 0.0945019349456, Q3 : -0.124742761254, Q4 : 0.588344633579}
2019-04-14 14:21:49.41: SIM {TimeUS : 64834056, Roll : 0.17, Pitch : -18.02, Yaw : 73.08, Alt : 49.3400001526, Lat : 49.2836692, Lng : -123.114507, Q1 : 0.793370604515, Q2 : 0.0944878906012, Q3 : -0.124958492815, Q4 : 0.588235080242}
2019-04-14 14:21:49.52: SIM {TimeUS : 64934849, Roll : 0.15, Pitch : -18.05, Yaw : 73.07, Alt : 49.3400001526, Lat : 49.2836704, Lng : -123.1145006, Q1 : 0.793396651745, Q2 : 0.0944974273443, Q3 : -0.125311776996, Q4 : 0.588123261929}
2019-04-14 14:21:49.61: SIM {TimeUS : 65034809, Roll : 0.14, Pitch : -18.06, Yaw : 73.06, Alt : 49.3400001526, Lat : 49.2836716, Lng : -123.1144942, Q1 : 0.793433785439, Q2 : 0.0944204255939, Q3 : -0.125411853194, Q4 : 0.58806425333}
2019-04-14 14:21:49.71: SIM {TimeUS : 65134769, Roll : 0.15, Pitch : -18.04, Yaw : 73.06, Alt : 49.3400001526, Lat : 49.2836728, Lng : -123.1144878, Q1 : 0.793468356133, Q2 : 0.0944196730852, Q3 : -0.125223711133, Q4 : 0.588057816029}
2019-04-14 14:21:49.81: SIM {TimeUS : 65234729, Roll : 0.17, Pitch : -18.03, Yaw : 73.05, Alt : 49.3400001526, Lat : 49.2836741, Lng : -123.1144815, Q1 : 0.793488502502, Q2 : 0.0945013016462, Q3 : -0.125037014484, Q4 : 0.588057219982}
2019-04-14 14:21:49.91: SIM {TimeUS : 65334689, Roll : 0.18, Pitch : -18.04, Yaw : 73.05, Alt : 49.3400001526, Lat : 49.2836753, Lng : -123.1144751, Q1 : 0.793496906757, Q2 : 0.0946045815945, Q3 : -0.125048801303, Q4 : 0.588026762009}
2019-04-14 14:21:50.01: SIM {TimeUS : 65434649, Roll : 0.17, Pitch : -18.06, Yaw : 73.04, Alt : 49.3400001526, Lat : 49.2836765, Lng : -123.1144687, Q1 : 0.79350990057, Q2 : 0.0946108996868, Q3 : -0.125266820192, Q4 : 0.587961792946}
2019-04-14 14:21:50.11: SIM {TimeUS : 65534609, Roll : 0.14, Pitch : -18.08, Yaw : 73.04, Alt : 49.3400001526, Lat : 49.2836777, Lng : -123.1144623, Q1 : 0.79352658987, Q2 : 0.0945399031043, Q3 : -0.125611007214, Q4 : 0.58787727356}
2019-04-14 14:21:50.21: SIM {TimeUS : 65634569, Roll : 0.12, Pitch : -18.1, Yaw : 73.03, Alt : 49.3400001526, Lat : 49.2836789, Lng : -123.1144559, Q1 : 0.793547570705, Q2 : 0.0945072472095, Q3 : -0.125847667456, Q4 : 0.587803542614}
2019-04-14 14:21:50.31: SIM {TimeUS : 65734529, Roll : 0.11, Pitch : -18.12, Yaw : 73.03, Alt : 49.3400001526, Lat : 49.2836802, Lng : -123.1144495, Q1 : 0.793563306332, Q2 : 0.0945675224066, Q3 : -0.126001209021, Q4 : 0.587739706039}
2019-04-14 14:21:50.41: SIM {TimeUS : 65834489, Roll : 0.12, Pitch : -18.13, Yaw : 73.02, Alt : 49.3400001526, Lat : 49.2836814, Lng : -123.114443, Q1 : 0.793583095074, Q2 : 0.0946583449841, Q3 : -0.125987172127, Q4 : 0.587701380253}
