2019-04-14 14:24:10.40: SIM {TimeUS : 40416327, Roll : 0.0, Pitch : 0.0, Yaw : 0.0, Alt : 30.1000003815, Lat : 49.28357, Lng : -123.11502, Q1 : 1.0, Q2 : 0.0, Q3 : 0.0, Q4 : 0.0}
2019-04-14 14:24:10.51: SIM {TimeUS : 40535446, Roll : 0.0, Pitch : 0.0, Yaw : 0.0, Alt : 30.1000003815, Lat : 49.28357, Lng : -123.11502, Q1 : 1.0, Q2 : 0.0, Q3 : 0.0, Q4 : 0.0}
2019-04-14 14:24:10.61: SIM {TimeUS : 40635406, Roll : 0.0, Pitch : 0.0, Yaw : 0.0, Alt : 30.1000003815, Lat : 49.28357, Lng : -123.11502, Q1 : 1.0, Q2 : 0.0, Q3 : 0.0, Q4 : 0.0}
2019-04-14 14:24:10.71: SIM {TimeUS : 40735366, Roll : 0.0, Pitch : 0.0, Yaw : 0.0, Alt : 30.1000003815, Lat : 49.28357, Lng : -123.11502, Q1 : 1.0, Q2 : 0.0, Q3 : 0.0, Q4 : 0.0}
2019-04-14 14:24:10.81: SIM {TimeUS : 40835326, Roll : 0.0, Pitch : 0.0, Yaw : 0.0, Alt : 30.1000003815, Lat : 49.28357, Lng : -123.11502, Q1 : 1.0, Q2 : 0.0, Q3 : 0.0, Q4 : 0.0}
2019-04-14 14:24:10.91: SIM {TimeUS : 40935286, Roll : 0.0, Pitch : 0.0, Yaw : 0.0, Alt : 30.1000003815, Lat : 49.28357, Lng : -123.11502, Q1 : 1.0, Q2 : 0.0, Q3 : 0.0, Q4 : 0.0}
2019-04-14 14:24:11.01: SIM {TimeUS : 41035246, Roll : 0.0, Pitch : 0.0, Yaw : 0.0, Alt : 30.1000003815, Lat : 49.28357, Lng : -123.11502, Q1 : 1.0, Q2 : 0.0, Q3 : 0.0, Q4 : 0.0}
2019-04-14 14:24:11.11: SIM {TimeUS : 41135206, Roll : 0.0, Pitch : 0.0, Yaw : 0.0, Alt : 30.1000003815, Lat : 49.28357, Lng : -123.11502, Q1 : 1.0, Q2 : 0.0, Q3 : 0.0, Q4 : 0.0}
2019-04-14 14:24:11.21: SIM {TimeUS : 41235166, Roll : 0.0, Pitch : 0.0, Yaw : 0.0, Alt : 30.1000003815, Lat : 49.28357, Lng : -123.11502, Q1 : 1.0, Q2 : 0.0, Q3 : 0.0, Q4 : 0.0}
2019-04-14 14:24:11.31: SIM {TimeUS : 41335126, Roll : 0.0, Pitch : 0.0, Yaw : 0.0, Alt : 30.1000003815, Lat : 49.28357, Lng : -123.11502, Q1 : 1.0, Q2 : 0.0, Q3 : 0.0, Q4 : 0.0}
2019-04-14 14:24:11.41: SIM {TimeUS : 41435086, Roll : 0.0, Pitch : 0.0, Yaw : 0.0, Alt : 30.1000003815, Lat : 49.28357, Lng : -123.11502, Q1 : 1.0, Q2 : 0.0, Q3 : 0.0, Q4 : 0.0}
2019-04-14 14:24:11.51: SIM {TimeUS : 41535046, Roll : 0.0, Pitch : 0.0, Yaw : 0.0, Alt : 30.1000003815, Lat : 49.28357, Lng : -123.11502, Q1 : 1.0, Q2 : 0.0, Q3 : 0.0, Q4 : 0.0}
2019-04-14 14:24:11.61: SIM {TimeUS : 41635006, Roll : 0.0, Pitch : 0.0, Yaw : 0.0, Alt : 30.1000003815, Lat : 49.28357, Lng : -123.11502, Q1 : 1.0, Q2 : 0.0, Q3 : 0.0, Q4 : 0.0}
2019-04-14 14:24:11.71: SIM {TimeUS : 41734966, Roll : 0.0, Pitch : 0.0, Yaw : 0.0, Alt : 30.1000003815, Lat : 49.28357, Lng : -123.11502, Q1 : 1.0, Q2 : 0.0, Q3 : 0.0, Q4 : 0.0}
2019-04-14 14:24:11.81: SIM {TimeUS : 41834926, Roll : 0.0, Pitch : 0.0, Yaw : 0.0, Alt : 30.1000003815, Lat : 49.28357, Lng : -123.11502, Q1 : 1.0, Q2 : 0.0, Q3 : 0.0, Q4 : 0.0}
2019-04-14 14:24:11.91: SIM {TimeUS : 41934886, Roll : 0.0, Pitch : 0.0, Yaw : 0.0, Alt : 30.1000003815, Lat : 49.28357, Lng : -123.11502, Q1 : 1.0, Q2 : 0.0, Q3 : 0.0, Q4 : 0.0}
2019-04-14 14:24:12.01: SIM {TimeUS : 42034846, Roll : 0.0, Pitch : 0.0, Yaw : 0.0, Alt : 30.1000003815, Lat : 49.28357, Lng : -123.11502, Q1 : 1.0, Q2 : 0.0, Q3 : 0.0, Q4 : 0.0}
2019-04-14 14:24:12.11: SIM {TimeUS : 42134806, Roll : 0.0, Pitch : 0.0, Yaw : 0.0, Alt : 30.1000003815, Lat : 49.28357, Lng : -123.11502, Q1 : 1.0, Q2 : 0.0, Q3 : 0.0, Q4 : 0.0}
2019-04-14 14:24:12.21: SIM {TimeUS : 42234766, Roll : 0.0, Pitch : 0.0, Yaw : 0.0, Alt : 30.1000003815, Lat : 49.28357, Lng : -123.11502, Q1 : 1.0, Q2 : 0.0, Q3 : 0.0, Q4 : 0.0}
2019-04-14 14:24:12.31: SIM {TimeUS : 42334726, Roll : 0.0, Pitch : 0.0, Yaw : 0.0, Alt : 30.1000003815, Lat : 49.28357, Lng : -123.11502, Q1 : 1.0, Q2 : 0.0, Q3 : 0.0, Q4 : 0.0}
2019-04-14 14:24:12.41: SIM {TimeUS : 42434686, Roll : 0.0, Pitch : 0.0, Yaw : 0.0, Alt : 30.1000003815, Lat : 49.28357, Lng : -123.11502, Q1 : 1.0, Q2 : 0.0, Q3 : 0.0, Q4 : 0.0}
2019-04-14 14:24:12.51: SIM {TimeUS : 42535479, Roll : 0.0, Pitch : 0.0, Yaw : 0.0, Alt : 30.1000003815, Lat : 49.28357, Lng : -123.11502, Q1 : 1.0, Q2 : 0.0, Q3 : 0.0, Q4 : 0.0}
2019-04-14 14:24:12.61: SIM {TimeUS : 42635439, Roll : 0.0, Pitch : 0.0, Yaw : 0.0, Alt : 30.1000003815, Lat : 49.28357, Lng : -123.11502, Q1 : 1.0, Q2 : 0.0, Q3 : 0.0, Q4 : 0.0}
2019-04-14 14:24:12.71: SIM {TimeUS : 42735399, Roll : 0.0, Pitch : 0.0, Yaw : 0.0, Alt : 30.1000003815, Lat : 49.28357, Lng : -123.11502, Q1 : 1.0, Q2 : 0.0, Q3 : 0.0, Q4 : 1.50531601073e-10}
2019-04-14 14:24:12.81: SIM {TimeUS : 42835359, Roll : 0.0, Pitch : 0.0, Yaw : 360.0, Alt : 30.1000003815, Lat : 49.28357, Lng : -123.11502, Q1 : 1.0, Q2 : 0.0, Q3 : 0.0, Q4 : -3.19015214245e-08}
2019-04-14 14:24:12.91: SIM {TimeUS : 42935319, Roll : 0.0, Pitch : 0.0, Yaw : 359.99, Alt : 30.1000003815, Lat : 49.28357, Lng : -123.11502, Q1 : 1.0, Q2 : 0.0, Q3 : 0.0, Q4 : -2.33977019093e-07}
2019-04-14 14:24:13.01: SIM {TimeUS : 43035279, Roll : 0.0, Pitch : 0.0, Yaw : 359.99, Alt : 30.1000003815, Lat : 49.28357, Lng : -123.11502, Q1 : 1.0, Q2 : 0.0, Q3 : 0.0, Q4 : -4.1379919935e-07}
2019-04-14 14:24:13.11: SIM {TimeUS : 43135239, Roll : 0.0, Pitch : 0.0, Yaw : 359.99, Alt : 30.1000003815, Lat : 49.28357, Lng : -123.11502, Q1 : 1.0, Q2 : 0.0, Q3 : 0.0, Q4 : -6.07024389865e-07}
2019-04-14 14:24:13.21: SIM {TimeUS : 43235199, Roll : 0.0, Pitch : 0.0, Yaw : 359.99, Alt : 30.1000003815, Lat : 49.28357, Lng : -123.11502, Q1 : 1.0, Q2 : 0.0, Q3 : 0.0, Q4 : -7.678017937e-07}
2019-04-14 14:24:13.31: SIM {TimeUS : 43335159, Roll : 0.0, Pitch : 0.0, Yaw : 359.99, Alt : 30.1000003815, Lat : 49.28357, Lng : -123.11502, Q1 : 1.0, Q2 : 0.0, Q3 : 0.0, Q4 : -9.52094126205e-07}
2019-04-14 14:24:13.41: SIM {TimeUS : 43435119, Roll : 0.0, Pitch : 0.0, Yaw : 359.99, Alt : 30.1000003815, Lat : 49.28357, Lng : -123.11502, Q1 : 1.0, Q2 : 0.0, Q3 : 0.0, Q4 : -1.14050476441e-06}
2019-04-14 14:24:13.51: SIM {TimeUS : 43535079, Roll : 0.0, Pitch : 0.0, Yaw : 359.99, Alt : 30.1000003815, Lat : 49.28357, Lng : -123.11502, Q1 : 1.0, Q2 : 0.0, Q3 : 0.0, Q4 : -1.37085635288e-06}
2019-04-14 14:24:13.61: SIM {TimeUS : 43635039, Roll : 0.0, Pitch : 0.0, Yaw : 359.99, Alt : 30.1200008392, Lat : 49.28357, Lng : -123.11502, Q1 : 1.0, Q2 : 0.0, Q3 : 0.0, Q4 : -1.58920624926e-06}
2019-04-14 14:24:13.71: SIM {TimeUS : 43734999, Roll : 0.0, Pitch : 0.0, Yaw : 359.99, Alt : 30.1499996185, Lat : 49.28357, Lng : -123.11502, Q1 : 1.0, Q2 : 0.0, Q3 : 0.0, Q4 : -1.76011599251e-06}
2019-04-14 14:24:13.81: SIM {TimeUS : 43834959, Roll : 0.0, Pitch : 0.0, Yaw : 359.99, Alt : 30.1800003052, Lat : 49.28357, Lng : -123.11502, Q1 : 1.0, Q2 : 0.0, Q3 : 0.0, Q4 : -1.9762503598e-06}
2019-04-14 14:24:13.91: SIM {TimeUS : 43934919, Roll : 0.0, Pitch : 0.0, Yaw : 359.99, Alt : 30.2099990845, Lat : 49.28357, Lng : -123.11502, Q1 : 1.0, Q2 : -1.36274884426e-05, Q3 : -1.21096154544e-05, Q4 : -2.27860186897e-06}
2019-04-14 14:24:14.01: SIM {TimeUS : 44034879, Roll : -0.18, Pitch : -0.17, Yaw : 359.99, Alt : 30.2700004578, Lat : 49.28357, Lng : -123.11502, Q1 : 0.999997496605, Q2 : -0.00164108618628, Q3 : -0.00150957051665, Q4 : -1.70553921635e-05}
2019-04-14 14:24:14.11: SIM {TimeUS : 44134839, Roll : -0.5, Pitch : -0.46, Yaw : 359.99, Alt : 30.3899993896, Lat : 49.28357, Lng : -123.11502, Q1 : 0.999982118607, Q2 : -0.00441357679665, Q3 : -0.00403455784544, Q4 : -5.90585004829e-05}
2019-04-14 14:24:14.21: SIM {TimeUS : 44234799, Roll : -0.77, Pitch : -0.69, Yaw : 359.99, Alt : 30.5400009155, Lat : 49.28357, Lng : -123.11502, Q1 : 0.999958753586, Q2 : -0.00675482302904, Q3 : -0.00606724945828, Q4 : -0.000124377198517}
2019-04-14 14:24:14.31: SIM {TimeUS : 44334759, Roll : -0.88, Pitch : -0.78, Yaw : 359.98, Alt : 30.7000007629, Lat : 49.28357, Lng : -123.11502, Q1 : 0.999946832657, Q2 : -0.00772360246629, Q3 : -0.00682805618271, Q4 : -0.000205098840524}
2019-04-14 14:24:14.41: SIM {TimeUS : 44434719, Roll : -0.81, Pitch : -0.73, Yaw : 359.97, Alt : 30.8600006104, Lat : 49.28357, Lng : -123.1150201, Q1 : 0.999954283237, Q2 : -0.00707551604137, Q3 : -0.00642501236871, Q4 : -0.000281390937744}
2019-04-14 14:24:14.51: SIM {TimeUS : 44534679, Roll : -0.62, Pitch : -0.58, Yaw : 359.96, Alt : 31.0100002289, Lat : 49.28357, Lng : -123.1150201, Q1 : 0.999972343445, Q2 : -0.00542939454317, Q3 : -0.00507679954171, Q4 : -0.000353540992364}
2019-04-14 14:24:14.61: SIM {TimeUS : 44635472, Roll : -0.39, Pitch : -0.36, Yaw : 359.95, Alt : 31.1700000763, Lat : 49.2835701, Lng : -123.1150202, Q1 : 0.999988853931, Q2 : -0.00344731193036, Q3 : -0.00320790684782, Q4 : -0.000418189214543}
2019-04-14 14:24:14.71: SIM {TimeUS : 44735432, Roll : -0.18, Pitch : -0.16, Yaw : 359.94, Alt : 31.3299999237, Lat : 49.2835701, Lng : -123.1150203, Q1 : 0.999997496605, Q2 : -0.0016222713748, Q3 : -0.0014540507691, Q4 : -0.000470891100122}
2019-04-14 14:24:14.81: SIM {TimeUS : 44835392, Roll : -0.03, Pitch : -0.02, Yaw : 359.94, Alt : 31.5, Lat : 49.2835702, Lng : -123.1150204, Q1 : 0.999999821186, Q2 : -0.000274553487543, Q3 : -0.000206153505133, Q4 : -0.00051120785065}
2019-04-14 14:24:14.91: SIM {TimeUS : 44935352, Roll : 0.05, Pitch : 0.05, Yaw : 359.93, Alt : 31.6800003052, Lat : 49.2835702, Lng : -123.1150205, Q1 : 0.999999642372, Q2 : 0.000482802919578, Q3 : 0.00044784398051, Q4 : -0.000539702130482}
2019-04-14 14:24:15.01: SIM {TimeUS : 45035312, Roll : 0.09, Pitch : 0.07, Yaw : 359.93, Alt : 31.8600006104, Lat : 49.2835703, Lng : -123.1150205, Q1 : 0.999999344349, Q2 : 0.000807470933069, Q3 : 0.000621493032668, Q4 : -0.000553565798327}
2019-04-14 14:24:15.11: SIM {TimeUS : 45135272, Roll : 0.1, Pitch : 0.05, Yaw : 359.93, Alt : 32.0400009155, Lat : 49.2835703, Lng : -123.1150206, Q1 : 0.999999344349, Q2 : 0.000886099063791, Q3 : 0.000438367831521, Q4 : -0.000546564231627}
2019-04-14 14:24:15.21: SIM {TimeUS : 45235232, Roll : 0.09, Pitch : 0.03, Yaw : 359.93, Alt : 32.2299995422, Lat : 49.2835703, Lng : -123.1150206, Q1 : 0.999999463558, Q2 : 0.000857063801959, Q3 : 0.000272333389148, Q4 : -0.000527608150151}
2019-04-14 14:24:15.31: SIM {TimeUS : 45335192, Roll : 0.08, Pitch : 0.04, Yaw : 359.94, Alt : 32.4199981689, Lat : 49.2835703, Lng : -123.1150207, Q1 : 0.999999523163, Q2 : 0.000745549623389, Q3 : 0.000359208002919, Q4 : -0.000493448227644}
2019-04-14 14:24:15.41: SIM {TimeUS : 45435152, Roll : 0.06, Pitch : 0.07, Yaw : 359.94, Alt : 32.6100006104, Lat : 49.2835703, Lng : -123.1150207, Q1 : 0.999999523163, Q2 : 0.00055021425942, Q3 : 0.000643840816338, Q4 : -0.000472632877063}
2019-04-14 14:24:15.51: SIM {TimeUS : 45535112, Roll : 0.06, Pitch : 0.12, Yaw : 359.94, Alt : 32.8100013733, Lat : 49.2835703, Lng : -123.1150208, Q1 : 0.99999910593, Q2 : 0.000606548564974, Q3 : 0.00108050601557, Q4 : -0.000466262805276}
2019-04-14 14:24:15.61: SIM {TimeUS : 45635072, Roll : 0.1, Pitch : 0.16, Yaw : 359.94, Alt : 33.0099983215, Lat : 49.2835704, Lng : -123.1150208, Q1 : 0.999998390675, Q2 : 0.000915741547942, Q3 : 0.00146397342905, Q4 : -0.000466538069304}
2019-04-14 14:24:15.71: SIM {TimeUS : 45735032, Roll : 0.14, Pitch : 0.19, Yaw : 359.94, Alt : 33.2099990845, Lat : 49.2835704, Lng : -123.1150208, Q1 : 0.999997675419, Q2 : 0.00125054607634, Q3 : 0.00167733093258, Q4 : -0.000477904104628}
2019-04-14 14:24:15.81: SIM {TimeUS : 45834992, Roll : 0.16, Pitch : 0.21, Yaw : 359.94, Alt : 33.4199981689, Lat : 49.2835704, Lng : -123.1150208, Q1 : 0.999997138977, Q2 : 0.00142064446118, Q3 : 0.00186432944611, Q4 : -0.00048961781431}
2019-04-14 14:24:15.91: SIM {TimeUS : 45934952, Roll : 0.17, Pitch : 0.19, Yaw : 359.94, Alt : 33.6199989319, Lat : 49.2835704, Lng : -123.1150209, Q1 : 0.999997317791, Q2 : 0.00149928184692, Q3 : 0.00168982415926, Q4 : -0.000517277163453}
2019-04-14 14:24:16.01: SIM {TimeUS : 46034912, Roll : 0.16, Pitch : 0.15, Yaw : 359.93, Alt : 33.8300018311, Lat : 49.2835704, Lng : -123.1150209, Q1 : 0.999997854233, Q2 : 0.00146979617421, Q3 : 0.00135141809005, Q4 : -0.000542611116543}
2019-04-14 14:24:16.11: SIM {TimeUS : 46134872, Roll : 0.15, Pitch : 0.12, Yaw : 359.93, Alt : 34.0400009155, Lat : 49.2835704, Lng : -123.1150209, Q1 : 0.999998390675, Q2 : 0.00134488439653, Q3 : 0.00107858504634, Q4 : -0.000567798910197}
2019-04-14 14:24:16.21: SIM {TimeUS : 46234832, Roll : 0.14, Pitch : 0.1, Yaw : 359.93, Alt : 34.25, Lat : 49.2835704, Lng : -123.1150209, Q1 : 0.999998629093, Q2 : 0.00125450885389, Q3 : 0.000913142343052, Q4 : -0.000590577255934}
2019-04-14 14:24:16.31: SIM {TimeUS : 46334792, Roll : 0.14, Pitch : 0.1, Yaw : 359.93, Alt : 34.4599990845, Lat : 49.2835704, Lng : -123.1150209, Q1 : 0.999998629093, Q2 : 0.00124146591406, Q3 : 0.00089187111007, Q4 : -0.000611022580415}
2019-04-14 14:24:16.41: SIM {TimeUS : 46434752, Roll : 0.12, Pitch : 0.08, Yaw : 359.92, Alt : 34.6800003052, Lat : 49.2835704, Lng : -123.1150209, Q1 : 0.999998927116, Q2 : 0.00111619918607, Q3 : 0.000756610243116, Q4 : -0.000625723158009}
2019-04-14 14:24:16.51: SIM {TimeUS : 46534712, Roll : 0.1, Pitch : 0.07, Yaw : 359.92, Alt : 34.8899993896, Lat : 49.2835704, Lng : -123.1150208, Q1 : 0.999999165535, Q2 : 0.000921143626329, Q3 : 0.000629488553386, Q4 : -0.00063870230224}
2019-04-14 14:24:16.61: SIM {TimeUS : 46634672, Roll : 0.08, Pitch : 0.06, Yaw : 359.92, Alt : 35.1100006104, Lat : 49.2835704, Lng : -123.1150208, Q1 : 0.999999403954, Q2 : 0.000709275656845, Q3 : 0.00054120994173, Q4 : -0.000652683607768}
2019-04-14 14:24:16.71: SIM {TimeUS : 46735465, Roll : 0.05, Pitch : 0.05, Yaw : 359.92, Alt : 35.3300018311, Lat : 49.2835704, Lng : -123.1150208, Q1 : 0.999999582767, Q2 : 0.000490208796691, Q3 : 0.000463929522084, Q4 : -0.000663992075715}
2019-04-14 14:24:16.81: SIM {TimeUS : 46835425, Roll : 0.04, Pitch : 0.01, Yaw : 359.92, Alt : 35.5499992371, Lat : 49.2835704, Lng : -123.1150208, Q1 : 0.999999701977, Q2 : 0.00038317363942, Q3 : 0.00017376471078, Q4 : -0.000672331778333}
2019-04-14 14:24:16.91: SIM {TimeUS : 46935385, Roll : 0.03, Pitch : 0.0, Yaw : 359.92, Alt : 35.7599983215, Lat : 49.2835704, Lng : -123.1150208, Q1 : 0.999999701977, Q2 : 0.000327976158587, Q3 : -6.84887854732e-05, Q4 : -0.000686799467076}
2019-04-14 14:24:17.01: SIM {TimeUS : 47035345, Roll : 0.01, Pitch : -0.01, Yaw : 359.91, Alt : 35.9799995422, Lat : 49.2835704, Lng : -123.1150208, Q1 : 0.999999701977, Q2 : 0.000142843142385, Q3 : -0.000124108119053, Q4 : -0.000711650354788}
2019-04-14 14:24:17.11: SIM {TimeUS : 47135305, Roll : 0.0, Pitch : 0.0, Yaw : 359.91, Alt : 36.2000007629, Lat : 49.2835704, Lng : -123.1150207, Q1 : 0.999999701977, Q2 : 8.48375420901e-05, Q3 : -7.94533625594e-05, Q4 : -0.000733071821742}
2019-04-14 14:24:17.21: SIM {TimeUS : 47235265, Roll : 0.01, Pitch : 0.0, Yaw : 359.91, Alt : 36.4300003052, Lat : 49.2835704, Lng : -123.1150207, Q1 : 0.999999701977, Q2 : 0.000126127983094, Q3 : -1.46331431097e-05, Q4 : -0.000754352484364}
2019-04-14 14:24:17.31: SIM {TimeUS : 47335225, Roll : 0.0, Pitch : -0.01, Yaw : 359.91, Alt : 36.6500015259, Lat : 49.2835704, Lng : -123.1150207, Q1 : 0.999999701977, Q2 : 1.91033432202e-05, Q3 : -0.000153220884386, Q4 : -0.000774277024902}
2019-04-14 14:24:17.41: SIM {TimeUS : 47435185, Roll : -0.03, Pitch : -0.05, Yaw : 359.9, Alt : 36.8699989319, Lat : 49.2835704, Lng : -123.1150207, Q1 : 0.999999523163, Q2 : -0.000280415668385, Q3 : -0.000470017141197, Q4 : -0.000796408974566}
2019-04-14 14:24:17.51: SIM {TimeUS : 47535145, Roll : -0.07, Pitch : -0.08, Yaw : 359.9, Alt : 37.0999984741, Lat : 49.2835704, Lng : -123.1150207, Q1 : 0.999999165535, Q2 : -0.000639869074803, Q3 : -0.000735468114726, Q4 : -0.000824221642688}
2019-04-14 14:24:17.61: SIM {TimeUS : 47635105, Roll : -0.11, Pitch : -0.1, Yaw : 359.9, Alt : 37.3199996948, Lat : 49.2835704, Lng : -123.1150207, Q1 : 0.999998688698, Q2 : -0.000975123024546, Q3 : -0.00093617424136, Q4 : -0.000853983859997}
2019-04-14 14:24:17.71: SIM {TimeUS : 47735065, Roll : -0.12, Pitch : -0.11, Yaw : 359.89, Alt : 37.5499992371, Lat : 49.2835704, Lng : -123.1150207, Q1 : 0.999998569489, Q2 : -0.00107343459968, Q3 : -0.000971496105194, Q4 : -0.00088543840684}
2019-04-14 14:24:17.81: SIM {TimeUS : 47835025, Roll : -0.11, Pitch : -0.09, Yaw : 359.89, Alt : 37.7700004578, Lat : 49.2835704, Lng : -123.1150206, Q1 : 0.999998688698, Q2 : -0.00102579081431, Q3 : -0.00083471549442, Q4 : -0.000916747318115}
2019-04-14 14:24:17.91: SIM {TimeUS : 47934985, Roll : -0.1, Pitch : -0.06, Yaw : 359.89, Alt : 38.0, Lat : 49.2835704, Lng : -123.1150206, Q1 : 0.999999046326, Q2 : -0.000886972004082, Q3 : -0.000531680125277, Q4 : -0.000940943311434}
2019-04-14 14:24:18.01: SIM {TimeUS : 48034945, Roll : -0.08, Pitch : -0.03, Yaw : 359.88, Alt : 38.2299995422, Lat : 49.2835704, Lng : -123.1150206, Q1 : 0.99999922514, Q2 : -0.000709860993084, Q3 : -0.00031022267649, Q4 : -0.000968411506619}
2019-04-14 14:24:18.11: SIM {TimeUS : 48134905, Roll : -0.07, Pitch : -0.03, Yaw : 359.88, Alt : 38.4500007629, Lat : 49.2835704, Lng : -123.1150206, Q1 : 0.99999922514, Q2 : -0.000647664943244, Q3 : -0.000307751673972, Q4 : -0.000998842879198}
2019-04-14 14:24:18.21: SIM {TimeUS : 48234865, Roll : -0.07, Pitch : -0.02, Yaw : 359.88, Alt : 38.6800003052, Lat : 49.2835704, Lng : -123.1150206, Q1 : 0.99999922514, Q2 : -0.000674844428431, Q3 : -0.000196614593733, Q4 : -0.00102333992254}
2019-04-14 14:24:18.31: SIM {TimeUS : 48334825, Roll : -0.09, Pitch : 0.0, Yaw : 359.88, Alt : 38.9099998474, Lat : 49.2835704, Lng : -123.1150206, Q1 : 0.99999910593, Q2 : -0.000819124223199, Q3 : -3.09084643959e-05, Q4 : -0.00104517501313}
2019-04-14 14:24:18.41: SIM {TimeUS : 48434785, Roll : -0.09, Pitch : 0.01, Yaw : 359.87, Alt : 39.1399993896, Lat : 49.2835706, Lng : -123.1150206, Q1 : 0.99999910593, Q2 : -0.000798501889221, Q3 : 0.000113427711767, Q4 : -0.00105862319469}
2019-04-14 14:24:18.51: SIM {TimeUS : 48534745, Roll : -0.07, Pitch : 0.04, Yaw : 359.87, Alt : 39.3699989319, Lat : 49.2835706, Lng : -123.1150206, Q1 : 0.999999165535, Q2 : -0.000633136543911, Q3 : 0.000361052749213, Q4 : -0.00106589705683}
2019-04-14 14:24:18.61: SIM {TimeUS : 48634705, Roll : -0.05, Pitch : 0.04, Yaw : 359.87, Alt : 39.5999984741, Lat : 49.2835706, Lng : -123.1150206, Q1 : 0.999999284744, Q2 : -0.00044046487892, Q3 : 0.000370983878383, Q4 : -0.00105907628313}
2019-04-14 14:24:18.71: SIM {TimeUS : 48734665, Roll : -0.02, Pitch : 0.03, Yaw : 359.88, Alt : 39.8300018311, Lat : 49.2835706, Lng : -123.1150207, Q1 : 0.999999403954, Q2 : -0.000216949614696, Q3 : 0.000332870549755, Q4 : -0.00104697979987}
2019-04-14 14:24:18.81: SIM {TimeUS : 48835458, Roll : 0.01, Pitch : 0.05, Yaw : 359.88, Alt : 40.0600013733, Lat : 49.2835706, Lng : -123.1150207, Q1 : 0.999999344349, Q2 : 9.74272770691e-05, Q3 : 0.000478491507238, Q4 : -0.0010398325976}
2019-04-14 14:24:18.91: SIM {TimeUS : 48935418, Roll : 0.05, Pitch : 0.08, Yaw : 359.88, Alt : 40.2900009155, Lat : 49.2835706, Lng : -123.1150207, Q1 : 0.99999910593, Q2 : 0.000460758223198, Q3 : 0.000719426607247, Q4 : -0.00103799719363}
2019-04-14 14:24:19.01: SIM {TimeUS : 49035378, Roll : 0.08, Pitch : 0.11, Yaw : 359.88, Alt : 40.5299987793, Lat : 49.2835706, Lng : -123.1150207, Q1 : 0.999998629093, Q2 : 0.000769662321545, Q3 : 0.0010148253059, Q4 : -0.00104805652518}
2019-04-14 14:24:19.11: SIM {TimeUS : 49135338, Roll : 0.08, Pitch : 0.15, Yaw : 359.87, Alt : 40.7599983215, Lat : 49.2835706, Lng : -123.1150207, Q1 : 0.99999833107, Q2 : 0.000717394577805, Q3 : 0.0013140871888, Q4 : -0.00105403165799}
2019-04-14 14:24:19.21: SIM {TimeUS : 49235298, Roll : 0.03, Pitch : 0.17, Yaw : 359.87, Alt : 40.9900016785, Lat : 49.2835706, Lng : -123.1150207, Q1 : 0.999998211861, Q2 : 0.00030803665868, Q3 : 0.00152631860692, Q4 : -0.00107961986214}
2019-04-14 14:24:19.31: SIM {TimeUS : 49335258, Roll : 0.0, Pitch : 0.18, Yaw : 359.87, Alt : 41.2200012207, Lat : 49.2835706, Lng : -123.1150207, Q1 : 0.999998092651, Q2 : -5.6382654293e-05, Q3 : 0.00162891077343, Q4 : -0.00110749388114}
2019-04-14 14:24:19.41: SIM {TimeUS : 49435218, Roll : -0.02, Pitch : 0.16, Yaw : 359.86, Alt : 41.4599990845, Lat : 49.2835706, Lng : -123.1150207, Q1 : 0.999998211861, Q2 : -0.000248502095928, Q3 : 0.00148100533988, Q4 : -0.00113973766565}
2019-04-14 14:24:19.51: SIM {TimeUS : 49535178, Roll : -0.03, Pitch : 0.13, Yaw : 359.86, Alt : 41.6899986267, Lat : 49.2835706, Lng : -123.1150207, Q1 : 0.999998509884, Q2 : -0.000329156609951, Q3 : 0.0012140981853, Q4 : -0.00118185475003}
2019-04-14 14:24:19.61: SIM {TimeUS : 49635138, Roll : -0.02, Pitch : 0.13, Yaw : 359.85, Alt : 41.9199981689, Lat : 49.2835706, Lng : -123.1150207, Q1 : 0.999998569489, Q2 : -0.000232636390137, Q3 : 0.00114586390555, Q4 : -0.00123411777895}
2019-04-14 14:24:19.71: SIM {TimeUS : 49735098, Roll : 0.01, Pitch : 0.14, Yaw : 359.85, Alt : 42.1599998474, Lat : 49.2835706, Lng : -123.1150207, Q1 : 0.999998390675, Q2 : 0.000121527467854, Q3 : 0.00124287267681, Q4 : -0.00129273207858}
2019-04-14 14:24:19.81: SIM {TimeUS : 49835058, Roll : 0.06, Pitch : 0.14, Yaw : 359.84, Alt : 42.3899993896, Lat : 49.2835706, Lng : -123.1150207, Q1 : 0.999998092651, Q2 : 0.000593858072534, Q3 : 0.00128898990806, Q4 : -0.00135118025355}
2019-04-14 14:24:19.91: SIM {TimeUS : 49935018, Roll : 0.1, Pitch : 0.12, Yaw : 359.83, Alt : 42.6300010681, Lat : 49.2835706, Lng : -123.1150207, Q1 : 0.999997973442, Q2 : 0.000949438894168, Q3 : 0.00105978606734, Q4 : -0.00140908814501}
2019-04-14 14:24:20.01: SIM {TimeUS : 50034978, Roll : 0.11, Pitch : 0.08, Yaw : 359.83, Alt : 42.8600006104, Lat : 49.2835706, Lng : -123.1150207, Q1 : 0.999998152256, Q2 : 0.000975692993961, Q3 : 0.000736803107429, Q4 : -0.00146054697689}
2019-04-14 14:24:20.11: SIM {TimeUS : 50134938, Roll : 0.07, Pitch : 0.05, Yaw : 359.82, Alt : 43.0999984741, Lat : 49.2835706, Lng : -123.1150207, Q1 : 0.999998569489, Q2 : 0.000620284117758, Q3 : 0.000491058162879, Q4 : -0.00149141938891}
2019-04-14 14:24:20.21: SIM {TimeUS : 50234898, Roll : 0.01, Pitch : 0.05, Yaw : 359.82, Alt : 43.3300018311, Lat : 49.2835706, Lng : -123.1150207, Q1 : 0.999998748302, Q2 : 0.000130857588374, Q3 : 0.000446791382274, Q4 : -0.00151168426964}
2019-04-14 14:24:20.31: SIM {TimeUS : 50334858, Roll : -0.02, Pitch : 0.07, Yaw : 359.82, Alt : 43.5699996948, Lat : 49.2835704, Lng : -123.1150207, Q1 : 0.999998569489, Q2 : -0.000236197767663, Q3 : 0.000657512806356, Q4 : -0.00152152276132}
2019-04-14 14:24:20.41: SIM {TimeUS : 50434818, Roll : -0.04, Pitch : 0.09, Yaw : 359.82, Alt : 43.7999992371, Lat : 49.2835704, Lng : -123.1150207, Q1 : 0.999998390675, Q2 : -0.000417256640503, Q3 : 0.000812291691545, Q4 : -0.00152699823957}
2019-04-14 14:24:20.51: SIM {TimeUS : 50534778, Roll : -0.04, Pitch : 0.08, Yaw : 359.82, Alt : 44.0400009155, Lat : 49.2835704, Lng : -123.1150207, Q1 : 0.999998509884, Q2 : -0.000389847089536, Q3 : 0.000735288660508, Q4 : -0.00152650114615}
2019-04-14 14:24:20.61: SIM {TimeUS : 50634738, Roll : -0.04, Pitch : 0.06, Yaw : 359.82, Alt : 44.2700004578, Lat : 49.2835704, Lng : -123.1150207, Q1 : 0.999998569489, Q2 : -0.000414030917455, Q3 : 0.000574794772547, Q4 : -0.00152613292448}
2019-04-14 14:24:20.71: SIM {TimeUS : 50734698, Roll : -0.04, Pitch : 0.04, Yaw : 359.82, Alt : 44.5099983215, Lat : 49.2835704, Lng : -123.1150207, Q1 : 0.999998688698, Q2 : -0.000357022450771, Q3 : 0.000425386038842, Q4 : -0.00153238419443}
2019-04-14 14:24:20.81: SIM {TimeUS : 50834658, Roll : -0.02, Pitch : 0.04, Yaw : 359.82, Alt : 44.7400016785, Lat : 49.2835704, Lng : -123.1150206, Q1 : 0.999998688698, Q2 : -0.000205159551115, Q3 : 0.000358893477824, Q4 : -0.0015480570728}
2019-04-14 14:24:20.91: SIM {TimeUS : 50935451, Roll : -0.01, Pitch : 0.03, Yaw : 359.81, Alt : 44.9799995422, Lat : 49.2835704, Lng : -123.1150206, Q1 : 0.999998688698, Q2 : -0.000126645260025, Q3 : 0.00033909486956, Q4 : -0.00157181627583}
2019-04-14 14:24:21.01: SIM {TimeUS : 51035411, Roll : -0.01, Pitch : 0.02, Yaw : 359.81, Alt : 45.2200012207, Lat : 49.2835704, Lng : -123.1150206, Q1 : 0.999998688698, Q2 : -0.000166836704011, Q3 : 0.000215077583562, Q4 : -0.00159911229275}
2019-04-14 14:24:21.11: SIM {TimeUS : 51135371, Roll : -0.02, Pitch : 0.0, Yaw : 359.81, Alt : 45.4500007629, Lat : 49.2835703, Lng : -123.1150206, Q1 : 0.999998688698, Q2 : -0.000207228004001, Q3 : -8.30916469567e-05, Q4 : -0.00162716209888}
2019-04-14 14:24:21.21: SIM {TimeUS : 51235331, Roll : -0.02, Pitch : -0.03, Yaw : 359.81, Alt : 45.6899986267, Lat : 49.2835703, Lng : -123.1150206, Q1 : 0.999998569489, Q2 : -0.000232615115237, Q3 : -0.000313880649628, Q4 : -0.00165440212004}
2019-04-14 14:24:21.31: SIM {TimeUS : 51335291, Roll : -0.02, Pitch : -0.04, Yaw : 359.8, Alt : 45.9199981689, Lat : 49.2835703, Lng : -123.1150206, Q1 : 0.999998509884, Q2 : -0.000187738623936, Q3 : -0.000426515878644, Q4 : -0.0016793460818}
2019-04-14 14:24:21.41: SIM {TimeUS : 51435251, Roll : -0.02, Pitch : -0.05, Yaw : 359.8, Alt : 46.1500015259, Lat : 49.2835703, Lng : -123.1150206, Q1 : 0.999998390675, Q2 : -0.000243930306169, Q3 : -0.000451152707683, Q4 : -0.00170467037242}
2019-04-14 14:24:21.51: SIM {TimeUS : 51535211, Roll : -0.05, Pitch : -0.04, Yaw : 359.8, Alt : 46.3800010681, Lat : 49.2835703, Lng : -123.1150206, Q1 : 0.99999833107, Q2 : -0.000437738432083, Q3 : -0.00037609692663, Q4 : -0.00173377350438}
2019-04-14 14:24:21.61: SIM {TimeUS : 51635171, Roll : -0.08, Pitch : -0.03, Yaw : 359.79, Alt : 46.5999984741, Lat : 49.2835703, Lng : -123.1150206, Q1 : 0.999998092651, Q2 : -0.000721764808986, Q3 : -0.000317470898153, Q4 : -0.00176580168772}
2019-04-14 14:24:21.71: SIM {TimeUS : 51735131, Roll : -0.1, Pitch : -0.03, Yaw : 359.79, Alt : 46.8100013733, Lat : 49.2835703, Lng : -123.1150206, Q1 : 0.999997913837, Q2 : -0.000917491328437, Q3 : -0.000311247305945, Q4 : -0.00179806235246}
2019-04-14 14:24:21.81: SIM {TimeUS : 51835091, Roll : -0.11, Pitch : -0.02, Yaw : 359.79, Alt : 47.0200004578, Lat : 49.2835703, Lng : -123.1150206, Q1 : 0.999997854233, Q2 : -0.000965289422311, Q3 : -0.000251437159022, Q4 : -0.00182734103873}
2019-04-14 14:24:21.91: SIM {TimeUS : 51935051, Roll : -0.1, Pitch : -0.01, Yaw : 359.78, Alt : 47.2299995422, Lat : 49.2835703, Lng : -123.1150206, Q1 : 0.999997913837, Q2 : -0.000895964738447, Q3 : -9.03869222384e-05, Q4 : -0.00185293448158}
2019-04-14 14:24:22.01: SIM {TimeUS : 52035011, Roll : -0.08, Pitch : 0.0, Yaw : 359.78, Alt : 47.4199981689, Lat : 49.2835703, Lng : -123.1150206, Q1 : 0.999997973442, Q2 : -0.000738320639357, Q3 : 2.04168882192e-05, Q4 : -0.00187622185331}
2019-04-14 14:24:22.11: SIM {TimeUS : 52134971, Roll : -0.06, Pitch : 0.0, Yaw : 359.78, Alt : 47.6100006104, Lat : 49.2835703, Lng : -123.1150206, Q1 : 0.999998033047, Q2 : -0.000591622316279, Q3 : 9.65978415479e-06, Q4 : -0.00189891178161}
2019-04-14 14:24:22.21: SIM {TimeUS : 52234931, Roll : -0.07, Pitch : -0.01, Yaw : 359.77, Alt : 47.7799987793, Lat : 49.2835703, Lng : -123.1150206, Q1 : 0.999997913837, Q2 : -0.000653806200717, Q3 : -0.000170013401657, Q4 : -0.00192075339146}
2019-04-14 14:24:22.31: SIM {TimeUS : 52334891, Roll : -0.07, Pitch : -0.04, Yaw : 359.77, Alt : 47.9500007629, Lat : 49.2835703, Lng : -123.1150206, Q1 : 0.999997794628, Q2 : -0.000645186752081, Q3 : -0.000407373037888, Q4 : -0.00194338697474}
2019-04-14 14:24:22.41: SIM {TimeUS : 52434851, Roll : -0.05, Pitch : -0.06, Yaw : 359.77, Alt : 48.0999984741, Lat : 49.2835703, Lng : -123.1150206, Q1 : 0.999997794628, Q2 : -0.000478784495499, Q3 : -0.000605621782597, Q4 : -0.00196686014533}
2019-04-14 14:24:22.51: SIM {TimeUS : 52534811, Roll : -0.03, Pitch : -0.09, Yaw : 359.77, Alt : 48.2400016785, Lat : 49.2835703, Lng : -123.1150206, Q1 : 0.999997615814, Q2 : -0.00034847293864, Q3 : -0.000785177457146, Q4 : -0.00199569924735}
2019-04-14 14:24:22.61: SIM {TimeUS : 52634771, Roll : -0.03, Pitch : -0.1, Yaw : 359.76, Alt : 48.3699989319, Lat : 49.2835703, Lng : -123.1150206, Q1 : 0.999997496605, Q2 : -0.000333296047756, Q3 : -0.000899393402506, Q4 : -0.00203030416742}
2019-04-14 14:24:22.71: SIM {TimeUS : 52734731, Roll : -0.01, Pitch : -0.09, Yaw : 359.76, Alt : 48.4799995422, Lat : 49.2835703, Lng : -123.1150206, Q1 : 0.999997496605, Q2 : -9.90234548226e-05, Q3 : -0.000860875414219, Q4 : -0.00206690467894}
2019-04-14 14:24:22.81: SIM {TimeUS : 52834691, Roll : 0.02, Pitch : -0.08, Yaw : 359.75, Alt : 48.5900001526, Lat : 49.2835703, Lng : -123.1150206, Q1 : 0.999997496605, Q2 : 0.000192538253032, Q3 : -0.000723682518583, Q4 : -0.0021030169446}
2019-04-14 14:24:22.91: SIM {TimeUS : 52935484, Roll : 0.05, Pitch : -0.05, Yaw : 359.75, Alt : 48.6800003052, Lat : 49.2835703, Lng : -123.1150206, Q1 : 0.999997496605, Q2 : 0.000436508271378, Q3 : -0.00050972844474, Q4 : -0.00213137618266}
2019-04-14 14:24:23.01: SIM {TimeUS : 53035444, Roll : 0.06, Pitch : -0.03, Yaw : 359.75, Alt : 48.7599983215, Lat : 49.2835703, Lng : -123.1150207, Q1 : 0.999997496605, Q2 : 0.000549582240637, Q3 : -0.000307607930154, Q4 : -0.0021579854656}
2019-04-14 14:24:23.11: SIM {TimeUS : 53135404, Roll : 0.06, Pitch : -0.02, Yaw : 359.74, Alt : 48.8300018311, Lat : 49.2835703, Lng : -123.1150207, Q1 : 0.999997437, Q2 : 0.000605699431617, Q3 : -0.000203336312552, Q4 : -0.00218185503036}
2019-04-14 14:24:23.21: SIM {TimeUS : 53235364, Roll : 0.06, Pitch : -0.03, Yaw : 359.74, Alt : 48.8899993896, Lat : 49.2835703, Lng : -123.1150207, Q1 : 0.999997377396, Q2 : 0.00054564740276, Q3 : -0.000283344794298, Q4 : -0.00220549828373}
2019-04-14 14:24:23.31: SIM {TimeUS : 53335324, Roll : 0.03, Pitch : -0.04, Yaw : 359.74, Alt : 48.9399986267, Lat : 49.2835703, Lng : -123.1150207, Q1 : 0.999997377396, Q2 : 0.000321503990563, Q3 : -0.000355743104592, Q4 : -0.00222831103019}
2019-04-14 14:24:23.41: SIM {TimeUS : 53435284, Roll : 0.05, Pitch : -0.04, Yaw : 359.74, Alt : 48.9900016785, Lat : 49.2835703, Lng : -123.1150207, Q1 : 0.999997317791, Q2 : 0.000463148957351, Q3 : -0.000401764962589, Q4 : -0.00224558822811}
2019-04-14 14:24:23.51: SIM {TimeUS : 53535244, Roll : 0.23, Pitch : -0.08, Yaw : 359.74, Alt : 49.0200004578, Lat : 49.2835703, Lng : -123.1150207, Q1 : 0.999995112419, Q2 : 0.00200889166445, Q3 : -0.000785211566836, Q4 : -0.00225956249051}
2019-04-14 14:24:23.61: SIM {TimeUS : 53635204, Roll : 0.66, Pitch : -0.2, Yaw : 359.73, Alt : 49.0600013733, Lat : 49.2835703, Lng : -123.1150207, Q1 : 0.999978780746, Q2 : 0.00583937671036, Q3 : -0.00176588236354, Q4 : -0.00228149583563}
2019-04-14 14:24:23.71: SIM {TimeUS : 53735164, Roll : 1.38, Pitch : -0.37, Yaw : 359.73, Alt : 49.0800018311, Lat : 49.2835704, Lng : -123.1150207, Q1 : 0.999918520451, Q2 : 0.0121069094166, Q3 : -0.00332978204824, Q4 : -0.00229883356951}
2019-04-14 14:24:23.81: SIM {TimeUS : 53835124, Roll : 2.31, Pitch : -0.63, Yaw : 359.72, Alt : 49.1100006104, Lat : 49.2835704, Lng : -123.1150206, Q1 : 0.999778926373, Q2 : 0.0201503820717, Q3 : -0.00555136892945, Q4 : -0.0023048967123}
2019-04-14 14:24:23.91: SIM {TimeUS : 53935084, Roll : 3.32, Pitch : -0.94, Yaw : 359.71, Alt : 49.1300010681, Lat : 49.2835704, Lng : -123.1150205, Q1 : 0.999541938305, Q2 : 0.0290190987289, Q3 : -0.00827877223492, Q4 : -0.00228825886734}
2019-04-14 14:24:24.01: SIM {TimeUS : 54035044, Roll : 4.27, Pitch : -1.24, Yaw : 359.69, Alt : 49.1500015259, Lat : 49.2835704, Lng : -123.1150204, Q1 : 0.999244093895, Q2 : 0.0372305512428, Q3 : -0.0109611367807, Q4 : -0.00224185921252}
2019-04-14 14:24:24.11: SIM {TimeUS : 54135004, Roll : 5.02, Pitch : -1.51, Yaw : 359.68, Alt : 49.1599998474, Lat : 49.2835706, Lng : -123.1150201, Q1 : 0.998949110508, Q2 : 0.0437978990376, Q3 : -0.0133335534483, Q4 : -0.00215902784839}
2019-04-14 14:24:24.21: SIM {TimeUS : 54234964, Roll : 5.57, Pitch : -1.72, Yaw : 359.68, Alt : 49.1800003052, Lat : 49.2835706, Lng : -123.1150199, Q1 : 0.998699843884, Q2 : 0.0486172884703, Q3 : -0.015192175284, Q4 : -0.00203034398146}
2019-04-14 14:24:24.31: SIM {TimeUS : 54334924, Roll : 5.99, Pitch : -1.86, Yaw : 359.68, Alt : 49.1899986267, Lat : 49.2835707, Lng : -123.1150194, Q1 : 0.998496651649, Q2 : 0.0522627644241, Q3 : -0.0164188444614, Q4 : -0.0018660450587}
2019-04-14 14:24:24.41: SIM {TimeUS : 54434884, Roll : 6.34, Pitch : -1.97, Yaw : 359.69, Alt : 49.2000007629, Lat : 49.2835709, Lng : -123.1150189, Q1 : 0.998317122459, Q2 : 0.0552965477109, Q3 : -0.0173897091299, Q4 : -0.00169022683986}
2019-04-14 14:24:24.51: SIM {TimeUS : 54534844, Roll : 6.68, Pitch : -2.07, Yaw : 359.7, Alt : 49.2099990845, Lat : 49.2835709, Lng : -123.1150182, Q1 : 0.998131811619, Q2 : 0.0582852475345, Q3 : -0.0182621832937, Q4 : -0.00151613098569}
2019-04-14 14:24:24.61: SIM {TimeUS : 54634804, Roll : 7.04, Pitch : -2.17, Yaw : 359.71, Alt : 49.2200012207, Lat : 49.2835712, Lng : -123.1150174, Q1 : 0.997930824757, Q2 : 0.0613686479628, Q3 : -0.0191363301128, Q4 : -0.00134671118576}
2019-04-14 14:24:24.71: SIM {TimeUS : 54734764, Roll : 7.37, Pitch : -2.28, Yaw : 359.71, Alt : 49.2200012207, Lat : 49.2835713, Lng : -123.1150165, Q1 : 0.997729599476, Q2 : 0.0642665475607, Q3 : -0.0201008338481, Q4 : -0.00120550754946}
2019-04-14 14:24:24.81: SIM {TimeUS : 54834724, Roll : 7.65, Pitch : -2.39, Yaw : 359.71, Alt : 49.2299995422, Lat : 49.2835715, Lng : -123.1150155, Q1 : 0.997550308704, Q2 : 0.0667225345969, Q3 : -0.0209836121649, Q4 : -0.00109835085459}
2019-04-14 14:24:24.91: SIM {TimeUS : 54934684, Roll : 7.88, Pitch : -2.45, Yaw : 359.71, Alt : 49.2299995422, Lat : 49.2835718, Lng : -123.1150144, Q1 : 0.997403562069, Q2 : 0.068707793951, Q3 : -0.0215479340404, Q4 : -0.00100605410989}
2019-04-14 14:24:25.01: SIM {TimeUS : 55035477, Roll : 8.05, Pitch : -2.47, Yaw : 359.71, Alt : 49.2400016785, Lat : 49.283572, Lng : -123.1150132, Q1 : 0.997300624847, Q2 : 0.0701244547963, Q3 : -0.0217530485243, Q4 : -0.00092726451112}
2019-04-14 14:24:25.11: SIM {TimeUS : 55135437, Roll : 8.16, Pitch : -2.49, Yaw : 359.72, Alt : 49.2400016785, Lat : 49.2835722, Lng : -123.1150118, Q1 : 0.997226655483, Q2 : 0.0711358860135, Q3 : -0.0218596719205, Q4 : -0.000884588283952}
2019-04-14 14:24:25.21: SIM {TimeUS : 55235397, Roll : 8.28, Pitch : -2.51, Yaw : 359.71, Alt : 49.25, Lat : 49.2835726, Lng : -123.1150104, Q1 : 0.997151196003, Q2 : 0.0721371173859, Q3 : -0.0220226421952, Q4 : -0.000864630390424}
2019-04-14 14:24:25.31: SIM {TimeUS : 55335357, Roll : 8.53, Pitch : -2.37, Yaw : 359.86, Alt : 49.25, Lat : 49.2835728, Lng : -123.1150088, Q1 : 0.997015297413, Q2 : 0.07436966151, Q3 : -0.0207273010164, Q4 : 0.000342193845427}
2019-04-14 14:24:25.41: SIM {TimeUS : 55435317, Roll : 8.97, Pitch : -2.0, Yaw : 0.68, Alt : 49.2599983215, Lat : 49.2835732, Lng : -123.1150072, Q1 : 0.996753871441, Q2 : 0.078359156847, Q3 : -0.0169573966414, Q4 : 0.00734975468367}
2019-04-14 14:24:25.51: SIM {TimeUS : 55535277, Roll : 9.53, Pitch : -1.71, Yaw : 2.83, Alt : 49.2599983215, Lat : 49.2835734, Lng : -123.1150055, Q1 : 0.996091485023, Q2 : 0.0834445282817, Q3 : -0.0128914089873, Q4 : 0.0259353667498}
2019-04-14 14:24:25.61: SIM {TimeUS : 55635237, Roll : 10.04, Pitch : -1.9, Yaw : 6.56, Alt : 49.2599983215, Lat : 49.2835739, Lng : -123.1150036, Q1 : 0.994301199913, Q2 : 0.0883784219623, Q3 : -0.0115255219862, Q4 : 0.0584945008159}
2019-04-14 14:24:25.71: SIM {TimeUS : 55735197, Roll : 10.35, Pitch : -2.72, Yaw : 11.75, Alt : 49.2599983215, Lat : 49.2835741, Lng : -123.1150016, Q1 : 0.990188002586, Q2 : 0.0921592339873, Q3 : -0.0143077066168, Q4 : 0.104065723717}
2019-04-14 14:24:25.81: SIM {TimeUS : 55835157, Roll : 10.27, Pitch : -4.12, Yaw : 18.16, Alt : 49.2599983215, Lat : 49.2835745, Lng : -123.1149996, Q1 : 0.982349872589, Q2 : 0.0940329357982, Q3 : -0.021282048896, Q4 : 0.160292446613}
2019-04-14 14:24:25.91: SIM {TimeUS : 55935117, Roll : 9.69, Pitch : -5.94, Yaw : 25.54, Alt : 49.2700004578, Lat : 49.2835747, Lng : -123.1149973, Q1 : 0.969482123852, Q2 : 0.0937378704548, Q3 : -0.0317733511329, Q4 : 0.224294483662}
2019-04-14 14:24:26.01: SIM {TimeUS : 56035077, Roll : 8.57, Pitch : -7.96, Yaw : 33.66, Alt : 49.2700004578, Lat : 49.2835751, Lng : -123.114995, Q1 : 0.950663805008, Q2 : 0.0914685726166, Q3 : -0.0447097867727, Q4 : 0.293040782213}
2019-04-14 14:24:26.11: SIM {TimeUS : 56135037, Roll : 6.95, Pitch : -9.94, Yaw : 42.27, Alt : 49.2700004578, Lat : 49.2835753, Lng : -123.1149925, Q1 : 0.925583302975, Q2 : 0.0875698626041, Q3 : -0.0589467473328, Q4 : 0.363527655602}
2019-04-14 14:24:26.21: SIM {TimeUS : 56234997, Roll : 4.91, Pitch : -11.67, Yaw : 51.14, Alt : 49.2700004578, Lat : 49.2835757, Lng : -123.11499, Q1 : 0.89467048645, Q2 : 0.0823169797659, Q3 : -0.0732621103525, Q4 : 0.432921886444}
2019-04-14 14:24:26.31: SIM {TimeUS : 56334957, Roll : 2.59, Pitch : -12.96, Yaw : 59.96, Alt : 49.2700004578, Lat : 49.2835761, Lng : -123.1149873, Q1 : 0.859140455723, Q2 : 0.0758901759982, Q3 : -0.0864858850837, Q4 : 0.498636782169}
2019-04-14 14:24:26.41: SIM {TimeUS : 56434917, Roll : 0.11, Pitch : -13.72, Yaw : 68.43, Alt : 49.2799987793, Lat : 49.2835764, Lng : -123.1149844, Q1 : 0.820895910263, Q2 : 0.0680366903543, Q3 : -0.0982417836785, Q4 : 0.558434903622}
2019-04-14 14:24:26.51: SIM {TimeUS : 56534877, Roll : -2.58, Pitch : -13.99, Yaw : 76.04, Alt : 49.2799987793, Lat : 49.2835769, Lng : -123.1149815, Q1 : 0.78336763382, Q2 : 0.0574087761343, Q3 : -0.109755240381, Q4 : 0.609092056751}
2019-04-14 14:24:26.61: SIM {TimeUS : 56634837, Roll : -5.15, Pitch : -13.86, Yaw : 82.1, Alt : 49.2799987793, Lat : 49.2835775, Lng : -123.1149785, Q1 : 0.751378715038, Q2 : 0.0455315671861, Q3 : -0.12021715194, Q4 : 0.64722853899}
2019-04-14 14:24:26.71: SIM {TimeUS : 56734797, Roll : -7.1, Pitch : -13.54, Yaw : 86.2, Alt : 49.2799987793, Lat : 49.283578, Lng : -123.1149753, Q1 : 0.728610754013, Q2 : 0.0354994647205, Q3 : -0.127966970205, Q4 : 0.671930491924}
2019-04-14 14:24:26.81: SIM {TimeUS : 56834757, Roll : -8.15, Pitch : -13.24, Yaw : 88.34, Alt : 49.2799987793, Lat : 49.2835787, Lng : -123.1149721, Q1 : 0.716368675232, Q2 : 0.0295151844621, Q3 : -0.131735011935, Q4 : 0.684536874294}
2019-04-14 14:24:26.91: SIM {TimeUS : 56934717, Roll : -8.25, Pitch : -13.1, Yaw : 88.75, Alt : 49.2799987793, Lat : 49.2835794, Lng : -123.1149687, Q1 : 0.713973283768, Q2 : 0.0285027306527, Q3 : -0.131362885237, Q4 : 0.687148869038}
2019-04-14 14:24:27.01: SIM {TimeUS : 57034677, Roll : -7.5, Pitch : -13.21, Yaw : 87.78, Alt : 49.2799987793, Lat : 49.2835802, Lng : -123.1149653, Q1 : 0.719539761543, Q2 : 0.0327253192663, Q3 : -0.127812296152, Q4 : 0.681803226471}
2019-04-14 14:24:27.11: SIM {TimeUS : 57135470, Roll : -6.1, Pitch : -13.59, Yaw : 85.76, Alt : 49.2799987793, Lat : 49.2835812, Lng : -123.1149617, Q1 : 0.730861902237, Q2 : 0.0416948273778, Q3 : -0.122591346502, Q4 : 0.670129716396}
2019-04-14 14:24:27.21: SIM {TimeUS : 57235430, Roll : -4.31, Pitch : -14.17, Yaw : 83.04, Alt : 49.2799987793, Lat : 49.2835822, Lng : -123.1149581, Q1 : 0.745504200459, Q2 : 0.0537896119058, Q3 : -0.117070637643, Q4 : 0.653930187225}
2019-04-14 14:24:27.31: SIM {TimeUS : 57335390, Roll : -2.35, Pitch : -14.83, Yaw : 79.93, Alt : 49.2799987793, Lat : 49.2835831, Lng : -123.1149543, Q1 : 0.761560976505, Q2 : 0.067282050848, Q3 : -0.111986488104, Q4 : 0.634788990021}
2019-04-14 14:24:27.41: SIM {TimeUS : 57435350, Roll : -0.44, Pitch : -15.42, Yaw : 76.71, Alt : 49.2799987793, Lat : 49.2835842, Lng : -123.1149506, Q1 : 0.77735209465, Q2 : 0.080293096602, Q3 : -0.107633113861, Q4 : 0.614566445351}
2019-04-14 14:24:27.51: SIM {TimeUS : 57535310, Roll : 1.23, Pitch : -15.84, Yaw : 73.73, Alt : 49.2799987793, Lat : 49.2835852, Lng : -123.1149467, Q1 : 0.791433095932, Q2 : 0.0912175327539, Q3 : -0.103836558759, Q4 : 0.595425069332}
2019-04-14 14:24:27.61: SIM {TimeUS : 57635270, Roll : 2.53, Pitch : -16.03, Yaw : 71.28, Alt : 49.2799987793, Lat : 49.2835861, Lng : -123.1149426, Q1 : 0.802734613419, Q2 : 0.0990378260612, Q3 : -0.100565582514, Q4 : 0.579392075539}
2019-04-14 14:24:27.71: SIM {TimeUS : 57735230, Roll : 3.36, Pitch : -16.04, Yaw : 69.54, Alt : 49.2799987793, Lat : 49.2835871, Lng : -123.1149385, Q1 : 0.810672700405, Q2 : 0.103457868099, Q3 : -0.0980382487178, Q4 : 0.567886173725}
2019-04-14 14:24:27.81: SIM {TimeUS : 57835190, Roll : 3.72, Pitch : -15.97, Yaw : 68.6, Alt : 49.2799987793, Lat : 49.283588, Lng : -123.1149342, Q1 : 0.815081417561, Q2 : 0.104853026569, Q3 : -0.09663490206, Q4 : 0.561524569988}
2019-04-14 14:24:27.91: SIM {TimeUS : 57935150, Roll : 3.63, Pitch : -15.93, Yaw : 68.41, Alt : 49.2900009155, Lat : 49.283589, Lng : -123.1149299, Q1 : 0.816131174564, Q2 : 0.103852167726, Q3 : -0.0968948304653, Q4 : 0.560139298439}
2019-04-14 14:24:28.01: SIM {TimeUS : 58035110, Roll : 3.17, Pitch : -15.94, Yaw : 68.87, Alt : 49.2900009155, Lat : 49.2835898, Lng : -123.1149254, Q1 : 0.814275979996, Q2 : 0.101071961224, Q3 : -0.0988478437066, Q4 : 0.562999248505}
2019-04-14 14:24:28.11: SIM {TimeUS : 58135070, Roll : 2.44, Pitch : -16.04, Yaw : 69.81, Alt : 49.2900009155, Lat : 49.2835908, Lng : -123.1149208, Q1 : 0.810153126717, Q2 : 0.0971497669816, Q3 : -0.102305464447, Q4 : 0.568988084793}
2019-04-14 14:24:28.21: SIM {TimeUS : 58235030, Roll : 1.56, Pitch : -16.15, Yaw : 71.06, Alt : 49.2900009155, Lat : 49.2835916, Lng : -123.1149162, Q1 : 0.804529845715, Q2 : 0.0926817208529, Q3 : -0.10650793463, Q4 : 0.576886415482}
2019-04-14 14:24:28.31: SIM {TimeUS : 58334990, Roll : 0.68, Pitch : -16.27, Yaw : 72.42, Alt : 49.2900009155, Lat : 49.2835925, Lng : -123.1149114, Q1 : 0.798198342323, Q2 : 0.0884134843946, Q3 : -0.110739775002, Q4 : 0.585490584373}
2019-04-14 14:24:28.41: SIM {TimeUS : 58434950, Roll : -0.12, Pitch : -16.38, Yaw : 73.73, Alt : 49.2900009155, Lat : 49.2835934, Lng : -123.1149066, Q1 : 0.791970133781, Q2 : 0.0846129879355, Q3 : -0.114648357034, Q4 : 0.593700051308}
2019-04-14 14:24:28.51: SIM {TimeUS : 58534910, Roll : -0.76, Pitch : -16.46, Yaw : 74.85, Alt : 49.2900009155, Lat : 49.2835943, Lng : -123.1149018, Q1 : 0.786500275135, Q2 : 0.0817554444075, Q3 : -0.117751196027, Q4 : 0.600722908974}
2019-04-14 14:24:28.61: SIM {TimeUS : 58634870, Roll : -1.18, Pitch : -16.5, Yaw : 75.7, Alt : 49.2900009155, Lat : 49.2835952, Lng : -123.1148968, Q1 : 0.782297730446, Q2 : 0.0799728035927, Q3 : -0.119644708931, Q4 : 0.6060526371}
2019-04-14 14:24:28.71: SIM {TimeUS : 58734830, Roll : -1.39, Pitch : -16.51, Yaw : 76.22, Alt : 49.2900009155, Lat : 49.2835962, Lng : -123.1148918, Q1 : 0.779646813869, Q2 : 0.0791515260935, Q3 : -0.120481938124, Q4 : 0.609401345253}
2019-04-14 14:24:28.81: SIM {TimeUS : 58834790, Roll : -1.43, Pitch : -16.53, Yaw : 76.43, Alt : 49.2900009155, Lat : 49.283597, Lng : -123.1148868, Q1 : 0.778579056263, Q2 : 0.0791874602437, Q3 : -0.120658740401, Q4 : 0.610725343227}
2019-04-14 14:24:28.91: SIM {TimeUS : 58934750, Roll : -1.32, Pitch : -16.57, Yaw : 76.34, Alt : 49.2900009155, Lat : 49.2835981, Lng : -123.1148817, Q1 : 0.778928220272, Q2 : 0.0800806879997, Q3 : -0.12034227699, Q4 : 0.610225856304}
2019-04-14 14:24:29.01: SIM {TimeUS : 59034710, Roll : -1.08, Pitch : -16.63, Yaw : 76.02, Alt : 49.2900009155, Lat : 49.283599, Lng : -123.1148766, Q1 : 0.780387341976, Q2 : 0.0817149356008, Q3 : -0.11971821636, Q4 : 0.608264625072}
2019-04-14 14:24:29.11: SIM {TimeUS : 59134670, Roll : -0.77, Pitch : -16.69, Yaw : 75.55, Alt : 49.2900009155, Lat : 49.2836001, Lng : -123.1148714, Q1 : 0.782621026039, Q2 : 0.0836425349116, Q3 : -0.118818432093, Q4 : 0.605301976204}
2019-04-14 14:24:29.21: SIM {TimeUS : 59235463, Roll : -0.42, Pitch : -16.74, Yaw : 74.99, Alt : 49.2900009155, Lat : 49.2836012, Lng : -123.1148661, Q1 : 0.78525018692, Q2 : 0.0857605859637, Q3 : -0.117758870125, Q4 : 0.601797401905}
2019-04-14 14:24:29.31: SIM {TimeUS : 59335423, Roll : -0.07, Pitch : -16.78, Yaw : 74.43, Alt : 49.2900009155, Lat : 49.2836022, Lng : -123.1148608, Q1 : 0.787884056568, Q2 : 0.0877759158611, Q3 : -0.116657026112, Q4 : 0.598268568516}
2019-04-14 14:24:29.41: SIM {TimeUS : 59435383, Roll : 0.22, Pitch : -16.82, Yaw : 73.92, Alt : 49.2900009155, Lat : 49.2836032, Lng : -123.1148555, Q1 : 0.790255188942, Q2 : 0.0895200520754, Q3 : -0.115683436394, Q4 : 0.595063269138}
2019-04-14 14:24:29.51: SIM {TimeUS : 59535343, Roll : 0.47, Pitch : -16.84, Yaw : 73.51, Alt : 49.2900009155, Lat : 49.2836043, Lng : -123.1148501, Q1 : 0.79215580225, Q2 : 0.0909021347761, Q3 : -0.114903397858, Q4 : 0.592472136021}
2019-04-14 14:24:29.61: SIM {TimeUS : 59635303, Roll : 0.63, Pitch : -16.87, Yaw : 73.23, Alt : 49.2900009155, Lat : 49.2836053, Lng : -123.1148447, Q1 : 0.793469488621, Q2 : 0.0918680280447, Q3 : -0.114500910044, Q4 : 0.590640366077}
2019-04-14 14:24:29.71: SIM {TimeUS : 59735263, Roll : 0.68, Pitch : -16.89, Yaw : 73.08, Alt : 49.2900009155, Lat : 49.2836063, Lng : -123.1148393, Q1 : 0.794183552265, Q2 : 0.0922346562147, Q3 : -0.114495016634, Q4 : 0.589623749256}
2019-04-14 14:24:29.81: SIM {TimeUS : 59835223, Roll : 0.66, Pitch : -16.92, Yaw : 73.05, Alt : 49.2999992371, Lat : 49.2836074, Lng : -123.1148338, Q1 : 0.794327497482, Q2 : 0.0921620950103, Q3 : -0.114827811718, Q4 : 0.589376449585}
2019-04-14 14:24:29.91: SIM {TimeUS : 59935183, Roll : 0.56, Pitch : -16.95, Yaw : 73.12, Alt : 49.2999992371, Lat : 49.2836085, Lng : -123.1148282, Q1 : 0.793988764286, Q2 : 0.0917196273804, Q3 : -0.115551285446, Q4 : 0.589760363102}
2019-04-14 14:24:30.01: SIM {TimeUS : 60035143, Roll : 0.41, Pitch : -17.0, Yaw : 73.27, Alt : 49.2999992371, Lat : 49.2836095, Lng : -123.1148227, Q1 : 0.793283581734, Q2 : 0.0911048874259, Q3 : -0.116544425488, Q4 : 0.590608596802}
2019-04-14 14:24:30.11: SIM {TimeUS : 60135103, Roll : 0.22, Pitch : -17.05, Yaw : 73.46, Alt : 49.2999992371, Lat : 49.2836105, Lng : -123.1148171, Q1 : 0.792379140854, Q2 : 0.0902810096741, Q3 : -0.117689482868, Q4 : 0.591721117496}
2019-04-14 14:24:30.21: SIM {TimeUS : 60235063, Roll : 0.04, Pitch : -17.08, Yaw : 73.67, Alt : 49.2999992371, Lat : 49.2836116, Lng : -123.1148114, Q1 : 0.791420757771, Q2 : 0.0894037634134, Q3 : -0.11864759028, Q4 : 0.592944264412}
2019-04-14 14:24:30.31: SIM {TimeUS : 60335023, Roll : -0.1, Pitch : -17.11, Yaw : 73.86, Alt : 49.2999992371, Lat : 49.2836127, Lng : -123.1148058, Q1 : 0.790507614613, Q2 : 0.0887004509568, Q3 : -0.119484335184, Q4 : 0.594098865986}
2019-04-14 14:24:30.41: SIM {TimeUS : 60434983, Roll : -0.2, Pitch : -17.15, Yaw : 74.02, Alt : 49.2999992371, Lat : 49.2836136, Lng : -123.1148001, Q1 : 0.789728045464, Q2 : 0.0883748903871, Q3 : -0.120147056878, Q4 : 0.595049738884}
2019-04-14 14:24:30.51: SIM {TimeUS : 60534943, Roll : -0.25, Pitch : -17.19, Yaw : 74.13, Alt : 49.2999992371, Lat : 49.2836147, Lng : -123.1147944, Q1 : 0.789160430431, Q2 : 0.0883217900991, Q3 : -0.120619431138, Q4 : 0.595714747906}
2019-04-14 14:24:30.61: SIM {TimeUS : 60634903, Roll : -0.26, Pitch : -17.23, Yaw : 74.19, Alt : 49.2999992371, Lat : 49.2836159, Lng : -123.1147886, Q1 : 0.788831233978, Q2 : 0.088563375175, Q3 : -0.120905257761, Q4 : 0.596056878567}
2019-04-14 14:24:30.71: SIM {TimeUS : 60734863, Roll : -0.22, Pitch : -17.27, Yaw : 74.19, Alt : 49.2999992371, Lat : 49.2836169, Lng : -123.1147828, Q1 : 0.788751423359, Q2 : 0.0890465155244, Q3 : -0.120964206755, Q4 : 0.596078515053}
2019-04-14 14:24:30.81: SIM {TimeUS : 60834823, Roll : -0.18, Pitch : -17.3, Yaw : 74.14, Alt : 49.3100013733, Lat : 49.283618, Lng : -123.114777, Q1 : 0.788927793503, Q2 : 0.0894380807877, Q3 : -0.120960317552, Q4 : 0.595787167549}
2019-04-14 14:24:30.91: SIM {TimeUS : 60934783, Roll : -0.14, Pitch : -17.32, Yaw : 74.06, Alt : 49.3100013733, Lat : 49.283619, Lng : -123.1147712, Q1 : 0.789292573929, Q2 : 0.0897563993931, Q3 : -0.120982557535, Q4 : 0.595251441002}
2019-04-14 14:24:31.01: SIM {TimeUS : 61034743, Roll : -0.09, Pitch : -17.34, Yaw : 73.96, Alt : 49.3100013733, Lat : 49.2836201, Lng : -123.1147654, Q1 : 0.78978395462, Q2 : 0.0900091230869, Q3 : -0.120931871235, Q4 : 0.59457141161}
2019-04-14 14:24:31.11: SIM {TimeUS : 61134703, Roll : -0.03, Pitch : -17.33, Yaw : 73.84, Alt : 49.3100013733, Lat : 49.2836213, Lng : -123.1147595, Q1 : 0.790328145027, Q2 : 0.0903229638934, Q3 : -0.120682165027, Q4 : 0.593851029873}
2019-04-14 14:24:31.21: SIM {TimeUS : 61234663, Roll : 0.03, Pitch : -17.34, Yaw : 73.73, Alt : 49.3100013733, Lat : 49.2836225, Lng : -123.1147536, Q1 : 0.790858566761, Q2 : 0.0906614139676, Q3 : -0.120435245335, Q4 : 0.593143045902}
2019-04-14 14:24:31.31: SIM {TimeUS : 61335456, Roll : 0.1, Pitch : -17.36, Yaw : 73.63, Alt : 49.3100013733, Lat : 49.2836236, Lng : -123.1147477, Q1 : 0.791301012039, Q2 : 0.0911785885692, Q3 : -0.120301909745, Q4 : 0.592500388622}
2019-04-14 14:24:31.41: SIM {TimeUS : 61435416, Roll : 0.17, Pitch : -17.41, Yaw : 73.55, Alt : 49.3100013733, Lat : 49.2836247, Lng : -123.1147418, Q1 : 0.791621923447, Q2 : 0.0918139964342, Q3 : -0.120385043323, Q4 : 0.591956377029}
2019-04-14 14:24:31.51: SIM {TimeUS : 61535376, Roll : 0.21, Pitch : -17.44, Yaw : 73.49, Alt : 49.3100013733, Lat : 49.2836257, Lng : -123.1147358, Q1 : 0.791860938072, Q2 : 0.0922182053328, Q3 : -0.120425634086, Q4 : 0.591565489769}
2019-04-14 14:24:31.61: SIM {TimeUS : 61635336, Roll : 0.23, Pitch : -17.45, Yaw : 73.45, Alt : 49.3100013733, Lat : 49.2836269, Lng : -123.1147299, Q1 : 0.792021989822, Q2 : 0.0923618599772, Q3 : -0.120389260352, Q4 : 0.591334879398}
2019-04-14 14:24:31.71: SIM {TimeUS : 61735296, Roll : 0.21, Pitch : -17.46, Yaw : 73.44, Alt : 49.3100013733, Lat : 49.283628, Lng : -123.1147239, Q1 : 0.792090415955, Q2 : 0.0923114791512, Q3 : -0.120599709451, Q4 : 0.591208159924}
2019-04-14 14:24:31.81: SIM {TimeUS : 61835256, Roll : 0.18, Pitch : -17.5, Yaw : 73.44, Alt : 49.3100013733, Lat : 49.2836292, Lng : -123.1147178, Q1 : 0.792075335979, Q2 : 0.0922104641795, Q3 : -0.121008597314, Q4 : 0.591160595417}
2019-04-14 14:24:31.91: SIM {TimeUS : 61935216, Roll : 0.14, Pitch : -17.53, Yaw : 73.45, Alt : 49.3100013733, Lat : 49.2836303, Lng : -123.1147119, Q1 : 0.791991949081, Q2 : 0.0921257734299, Q3 : -0.121395990252, Q4 : 0.591206133366}
2019-04-14 14:24:32.01: SIM {TimeUS : 62035176, Roll : 0.1, Pitch : -17.55, Yaw : 73.48, Alt : 49.3199996948, Lat : 49.2836315, Lng : -123.1147058, Q1 : 0.791878521442, Q2 : 0.0920459777117, Q3 : -0.121752001345, Q4 : 0.591297268867}
2019-04-14 14:24:32.11: SIM {TimeUS : 62135136, Roll : 0.07, Pitch : -17.57, Yaw : 73.5, Alt : 49.3199996948, Lat : 49.2836326, Lng : -123.1146998, Q1 : 0.791771292686, Q2 : 0.0919506400824, Q3 : -0.1219978109, Q4 : 0.591404974461}
2019-04-14 14:24:32.21: SIM {TimeUS : 62235096, Roll : 0.06, Pitch : -17.59, Yaw : 73.52, Alt : 49.3199996948, Lat : 49.2836337, Lng : -123.1146937, Q1 : 0.79166674614, Q2 : 0.091989479959, Q3 : -0.122229501605, Q4 : 0.591491043568}
2019-04-14 14:24:32.31: SIM {TimeUS : 62335056, Roll : 0.06, Pitch : -17.6, Yaw : 73.53, Alt : 49.3199996948, Lat : 49.2836348, Lng : -123.1146877, Q1 : 0.791606903076, Q2 : 0.0920375287533, Q3 : -0.122303113341, Q4 : 0.591548502445}
2019-04-14 14:24:32.41: SIM {TimeUS : 62435016, Roll : 0.07, Pitch : -17.62, Yaw : 73.53, Alt : 49.3199996948, Lat : 49.283636, Lng : -123.1146816, Q1 : 0.791568160057, Q2 : 0.0922237485647, Q3 : -0.122329026461, Q4 : 0.591565907001}
2019-04-14 14:24:32.51: SIM {TimeUS : 62534976, Roll : 0.09, Pitch : -17.64, Yaw : 73.52, Alt : 49.3199996948, Lat : 49.2836372, Lng : -123.1146755, Q1 : 0.791566312313, Q2 : 0.0924552381039, Q3 : -0.122371599078, Q4 : 0.591523468494}
2019-04-14 14:24:32.61: SIM {TimeUS : 62634936, Roll : 0.1, Pitch : -17.67, Yaw : 73.5, Alt : 49.3199996948, Lat : 49.2836384, Lng : -123.1146694, Q1 : 0.791610777378, Q2 : 0.092623360455, Q3 : -0.122563682497, Q4 : 0.591397881508}
2019-04-14 14:24:32.71: SIM {TimeUS : 62734896, Roll : 0.08, Pitch : -17.71, Yaw : 73.48, Alt : 49.3199996948, Lat : 49.2836395, Lng : -123.1146632, Q1 : 0.791686475277, Q2 : 0.0927273780107, Q3 : -0.122950814664, Q4 : 0.591199815273}
2019-04-14 14:24:32.81: SIM {TimeUS : 62834856, Roll : 0.07, Pitch : -17.76, Yaw : 73.46, Alt : 49.3199996948, Lat : 49.2836407, Lng : -123.114657, Q1 : 0.791769742966, Q2 : 0.0928966403008, Q3 : -0.123352572322, Q4 : 0.59097802639}
2019-04-14 14:24:32.91: SIM {TimeUS : 62934816, Roll : 0.09, Pitch : -17.8, Yaw : 73.43, Alt : 49.3199996948, Lat : 49.2836419, Lng : -123.1146509, Q1 : 0.791858315468, Q2 : 0.0931792333722, Q3 : -0.123528197408, Q4 : 0.590778172016}
2019-04-14 14:24:33.01: SIM {TimeUS : 63034776, Roll : 0.11, Pitch : -17.8, Yaw : 73.4, Alt : 49.3199996948, Lat : 49.283643, Lng : -123.1146448, Q1 : 0.791988193989, Q2 : 0.0933197438717, Q3 : -0.123476341367, Q4 : 0.590592682362}
2019-04-14 14:24:33.11: SIM {TimeUS : 63134736, Roll : 0.13, Pitch : -17.77, Yaw : 73.37, Alt : 49.3199996948, Lat : 49.2836442, Lng : -123.1146386, Q1 : 0.792163014412, Q2 : 0.0932668894529, Q3 : -0.123195335269, Q4 : 0.590425252914}
2019-04-14 14:24:33.21: SIM {TimeUS : 63234696, Roll : 0.14, Pitch : -17.75, Yaw : 73.34, Alt : 49.3199996948, Lat : 49.2836454, Lng : -123.1146324, Q1 : 0.792324244976, Q2 : 0.0931382551789, Q3 : -0.123051069677, Q4 : 0.590259313583}
2019-04-14 14:24:33.31: SIM {TimeUS : 63334656, Roll : 0.13, Pitch : -17.73, Yaw : 73.32, Alt : 49.3199996948, Lat : 49.2836464, Lng : -123.1146262, Q1 : 0.79246866703, Q2 : 0.092992387712, Q3 : -0.122954644263, Q4 : 0.590108513832}
2019-04-14 14:24:33.41: SIM {TimeUS : 63435449, Roll : 0.13, Pitch : -17.72, Yaw : 73.3, Alt : 49.3199996948, Lat : 49.2836476, Lng : -123.1146199, Q1 : 0.792578458786, Q2 : 0.0929073989391, Q3 : -0.122915036976, Q4 : 0.589982628822}
2019-04-14 14:24:33.51: SIM {TimeUS : 63535409, Roll : 0.13, Pitch : -17.73, Yaw : 73.29, Alt : 49.3199996948, Lat : 49.2836488, Lng : -123.1146137, Q1 : 0.792645037174, Q2 : 0.0929367393255, Q3 : -0.123026780784, Q4 : 0.589865267277}
2019-04-14 14:24:33.61: SIM {TimeUS : 63635369, Roll : 0.14, Pitch : -17.76, Yaw : 73.27, Alt : 49.3300018311, Lat : 49.28365, Lng : -123.1146074, Q1 : 0.79268014431, Q2 : 0.0931235253811, Q3 : -0.123163886368, Q4 : 0.589760005474}
2019-04-14 14:24:33.71: SIM {TimeUS : 63735329, Roll : 0.14, Pitch : -17.81, Yaw : 73.26, Alt : 49.3300018311, Lat : 49.2836512, Lng : -123.1146012, Q1 : 0.792683005333, Q2 : 0.0933613032103, Q3 : -0.123533315957, Q4 : 0.589641332626}
2019-04-14 14:24:33.81: SIM {TimeUS : 63835289, Roll : 0.13, Pitch : -17.86, Yaw : 73.25, Alt : 49.3300018311, Lat : 49.2836524, Lng : -123.1145949, Q1 : 0.792677640915, Q2 : 0.0935841873288, Q3 : -0.123948216438, Q4 : 0.589526116848}
2019-04-14 14:24:33.91: SIM {TimeUS : 63935249, Roll : 0.12, Pitch : -17.9, Yaw : 73.24, Alt : 49.3300018311, Lat : 49.2836536, Lng : -123.1145887, Q1 : 0.79268270731, Q2 : 0.0937138870358, Q3 : -0.124197393656, Q4 : 0.589446246624}
2019-04-14 14:24:34.01: SIM {TimeUS : 64035209, Roll : 0.12, Pitch : -17.93, Yaw : 73.24, Alt : 49.3300018311, Lat : 49.2836548, Lng : -123.1145824, Q1 : 0.792693138123, Q2 : 0.0937895476818, Q3 : -0.124453142285, Q4 : 0.589366197586}
2019-04-14 14:24:34.11: SIM {TimeUS : 64135169, Roll : 0.11, Pitch : -17.94, Yaw : 73.23, Alt : 49.3300018311, Lat : 49.283656, Lng : -123.1145761, Q1 : 0.792713046074, Q2 : 0.0938226506114, Q3 : -0.124623455107, Q4 : 0.589298188686}
2019-04-14 14:24:34.21: SIM {TimeUS : 64235129, Roll : 0.12, Pitch : -17.94, Yaw : 73.22, Alt : 49.3300018311, Lat : 49.2836572, Lng : -123.1145698, Q1 : 0.792746841908, Q2 : 0.0938668325543, Q3 : -0.124537415802, Q4 : 0.589263916016}
2019-04-14 14:24:34.31: SIM {TimeUS : 64335089, Roll : 0.14, Pitch : -17.95, Yaw : 73.21, Alt : 49.3300018311, Lat : 49.2836584, Lng : -123.1145635, Q1 : 0.792770683765, Q2 : 0.0940563082695, Q3 : -0.124469518661, Q4 : 0.589215934277}
2019-04-14 14:24:34.41: SIM {TimeUS : 64435049, Roll : 0.15, Pitch : -17.96, Yaw : 73.2, Alt : 49.3300018311, Lat : 49.2836596, Lng : -123.1145572, Q1 : 0.792803049088, Q2 : 0.0941906124353, Q3 : -0.12453687191, Q4 : 0.589136660099}
2019-04-14 14:24:34.51: SIM {TimeUS : 64535009, Roll : 0.16, Pitch : -17.97, Yaw : 73.19, Alt : 49.3300018311, Lat : 49.2836608, Lng : -123.1145509, Q1 : 0.792850255966, Q2 : 0.0942826494575, Q3 : -0.124562464654, Q4 : 0.589052975178}
2019-04-14 14:24:34.61: SIM {TimeUS : 64634969, Roll : 0.17, Pitch : -17.97, Yaw : 73.18, Alt : 49.3300018311, Lat : 49.283662, Lng : -123.1145445, Q1 : 0.792919516563, Q2 : 0.0942883640528, Q3 : -0.124538205564, Q4 : 0.588964045048}
2019-04-14 14:24:34.71: SIM {TimeUS : 64734929, Roll : 0.16, Pitch : -17.96, Yaw : 73.16, Alt : 49.3300018311, Lat : 49.2836632, Lng : -123.1145383, Q1 : 0.793000221252, Q2 : 0.0942338630557, Q3 : -0.12454072386, Q4 : 0.588863551617}
2019-04-14 14:24:34.81: SIM {TimeUS : 64834889, Roll : 0.14, Pitch : -17.98, Yaw : 73.15, Alt : 49.3300018311, Lat : 49.2836644, Lng : -123.1145319, Q1 : 0.793071627617, Q2 : 0.0941632762551, Q3 : -0.1247850582, Q4 : 0.588726937771}
2019-04-14 14:24:34.91: SIM {TimeUS : 64934849, Roll : 0.11, Pitch : -18.02, Yaw : 73.13, Alt : 49.3300018311, Lat : 49.2836657, Lng : -123.1145256, Q1 : 0.793133437634, Q2 : 0.0941089913249, Q3 : -0.125221550465, Q4 : 0.588559627533}
2019-04-14 14:24:35.01: SIM {TimeUS : 65034809, Roll : 0.09, Pitch : -18.03, Yaw : 73.12, Alt : 49.3400001526, Lat : 49.2836669, Lng : -123.1145192, Q1 : 0.793211638927, Q2 : 0.0940262824297, Q3 : -0.125368610024, Q4 : 0.588436126709}
2019-04-14 14:24:35.11: SIM {TimeUS : 65134769, Roll : 0.11, Pitch : -18.01, Yaw : 73.1, Alt : 49.3400001526, Lat : 49.2836681, Lng : -123.1145129, Q1 : 0.793289482594, Q2 : 0.094030559063, Q3 : -0.125202313066, Q4 : 0.588365912437}
2019-04-14 14:24:35.21: SIM {TimeUS : 65234729, Roll : 0.13, Pitch : -18.0, Yaw : 73.09, Alt : 49.3400001526, Lat : 49.2836693, Lng : -123.1145065, Q1 : 0.793354213238, Q2 : 0.0941143929958, Q3 : -0.125016823411, Q4 : 0.588304698467}
2019-04-14 14:24:35.31: SIM {TimeUS : 65334689, Roll : 0.14, Pitch : -18.01, Yaw : 73.08, Alt : 49.3400001526, Lat : 49.2836705, Lng : -123.1145001, Q1 : 0.793411254883, Q2 : 0.0942156240344, Q3 : -0.125016286969, Q4 : 0.588211596012}
2019-04-14 14:24:35.41: SIM {TimeUS : 65435482, Roll : 0.13, Pitch : -18.03, Yaw : 73.06, Alt : 49.3400001526, Lat : 49.2836717, Lng : -123.1144937, Q1 : 0.793467700481, Q2 : 0.0942261144519, Q3 : -0.12522366643, Q4 : 0.588089764118}
2019-04-14 14:24:35.51: SIM {TimeUS : 65535442, Roll : 0.1, Pitch : -18.05, Yaw : 73.05, Alt : 49.3400001526, Lat : 49.283673, Lng : -123.1144873, Q1 : 0.793524503708, Q2 : 0.0941541045904, Q3 : -0.125526830554, Q4 : 0.587959945202}
2019-04-14 14:24:35.61: SIM {TimeUS : 65635402, Roll : 0.09, Pitch : -18.06, Yaw : 73.04, Alt : 49.3400001526, Lat : 49.2836742, Lng : -123.1144809, Q1 : 0.793583810329, Q2 : 0.0940876156092, Q3 : -0.125701844692, Q4 : 0.587853193283}
2019-04-14 14:24:35.71: SIM {TimeUS : 65735362, Roll : 0.09, Pitch : -18.08, Yaw : 73.03, Alt : 49.3400001526, Lat : 49.2836754, Lng : -123.1144746, Q1 : 0.793630063534, Q2 : 0.0941611900926, Q3 : -0.125787600875, Q4 : 0.58776062727}
2019-04-14 14:24:35.81: SIM {TimeUS : 65835322, Roll : 0.11, Pitch : -18.09, Yaw : 73.02, Alt : 49.3400001526, Lat : 49.2836766, Lng : -123.1144682, Q1 : 0.793662071228, Q2 : 0.0943125262856, Q3 : -0.125798121095, Q4 : 0.587690830231}
2019-04-14 14:24:35.91: SIM {TimeUS : 65935282, Roll : 0.13, Pitch : -18.1, Yaw : 73.01, Alt : 49.3400001526, Lat : 49.2836779, Lng : -123.1144618, Q1 : 0.793674468994, Q2 : 0.0945631116629, Q3 : -0.125753447413, Q4 : 0.587643384933}
2019-04-14 14:24:36.01: SIM {TimeUS : 66035242, Roll : 0.16, Pitch : -18.12, Yaw : 73.0, Alt : 49.3400001526, Lat : 49.2836791, Lng : -123.1144554, Q1 : 0.793675541878, Q2 : 0.0948165953159, Q3 : -0.125794991851, Q4 : 0.587592244148}
2019-04-14 14:24:36.11: SIM {TimeUS : 66135202, Roll : 0.18, Pitch : -18.14, Yaw : 72.99, Alt : 49.3400001526, Lat : 49.2836803, Lng : -123.1144489, Q1 : 0.793674528599, Q2 : 0.0950583145022, Q3 : -0.125857114792, Q4 : 0.587541222572}
2019-04-14 14:24:36.21: SIM {TimeUS : 66235162, Roll : 0.19, Pitch : -18.16, Yaw : 72.98, Alt : 49.3400001526, Lat : 49.2836815, Lng : -123.1144425, Q1 : 0.79367262125, Q2 : 0.0952659398317, Q3 : -0.125878944993, Q4 : 0.587505459785}
2019-04-14 14:24:36.31: SIM {TimeUS : 66335122, Roll : 0.23, Pitch : -18.17, Yaw : 72.98, Alt : 49.3499984741, Lat : 49.2836828, Lng : -123.1144361, Q1 : 0.793669044971, Q2 : 0.0955002978444, Q3 : -0.125767320395, Q4 : 0.587496161461}
