2019-04-14 12:50:36.60: SIM {TimeUS : 40416327, Roll : 0.0, Pitch : 0.0, Yaw : 0.0, Alt : 30.1000003815, Lat : 49.28357, Lng : -123.11502, Q1 : 1.0, Q2 : 0.0, Q3 : 0.0, Q4 : 0.0}
2019-04-14 12:50:36.71: SIM {TimeUS : 40535446, Roll : 0.0, Pitch : 0.0, Yaw : 0.0, Alt : 30.1000003815, Lat : 49.28357, Lng : -123.11502, Q1 : 1.0, Q2 : 0.0, Q3 : 0.0, Q4 : 0.0}
2019-04-14 12:50:36.81: SIM {TimeUS : 40635406, Roll : 0.0, Pitch : 0.0, Yaw : 0.0, Alt : 30.1000003815, Lat : 49.28357, Lng : -123.11502, Q1 : 1.0, Q2 : 0.0, Q3 : 0.0, Q4 : 0.0}
2019-04-14 12:50:36.91: SIM {TimeUS : 40735366, Roll : 0.0, Pitch : 0.0, Yaw : 0.0, Alt : 30.1000003815, Lat : 49.28357, Lng : -123.11502, Q1 : 1.0, Q2 : 0.0, Q3 : 0.0, Q4 : 0.0}
2019-04-14 12:50:37.01: SIM {TimeUS : 40835326, Roll : 0.0, Pitch : 0.0, Yaw : 0.0, Alt : 30.1000003815, Lat : 49.28357, Lng : -123.11502, Q1 : 1.0, Q2 : 0.0, Q3 : 0.0, Q4 : 0.0}
2019-04-14 12:50:37.11: SIM {TimeUS : 40935286, Roll : 0.0, Pitch : 0.0, Yaw : 0.0, Alt : 30.1000003815, Lat : 49.28357, Lng : -123.11502, Q1 : 1.0, Q2 : 0.0, Q3 : 0.0, Q4 : 0.0}
2019-04-14 12:50:37.21: SIM {TimeUS : 41035246, Roll : 0.0, Pitch : 0.0, Yaw : 0.0, Alt : 30.1000003815, Lat : 49.28357, Lng : -123.11502, Q1 : 1.0, Q2 : 0.0, Q3 : 0.0, Q4 : 0.0}
2019-04-14 12:50:37.31: SIM {TimeUS : 41135206, Roll : 0.0, Pitch : 0.0, Yaw : 0.0, Alt : 30.1000003815, Lat : 49.28357, Lng : -123.11502, Q1 : 1.0, Q2 : 0.0, Q3 : 0.0, Q4 : 0.0}
2019-04-14 12:50:37.41: SIM {TimeUS : 41235166, Roll : 0.0, Pitch : 0.0, Yaw : 0.0, Alt : 30.1000003815, Lat : 49.28357, Lng : -123.11502, Q1 : 1.0, Q2 : 0.0, Q3 : 0.0, Q4 : 0.0}
2019-04-14 12:50:37.51: SIM {TimeUS : 41335126, Roll : 0.0, Pitch : 0.0, Yaw : 0.0, Alt : 30.1000003815, Lat : 49.28357, Lng : -123.11502, Q1 : 1.0, Q2 : 0.0, Q3 : 0.0, Q4 : 0.0}
2019-04-14 12:50:37.61: SIM {TimeUS : 41435086, Roll : 0.0, Pitch : 0.0, Yaw : 0.0, Alt : 30.1000003815, Lat : 49.28357, Lng : -123.11502, Q1 : 1.0, Q2 : 0.0, Q3 : 0.0, Q4 : 0.0}
2019-04-14 12:50:37.71: SIM {TimeUS : 41535046, Roll : 0.0, Pitch : 0.0, Yaw : 0.0, Alt : 30.1000003815, Lat : 49.28357, Lng : -123.11502, Q1 : 1.0, Q2 : 0.0, Q3 : 0.0, Q4 : 0.0}
2019-04-14 12:50:37.81: SIM {TimeUS : 41635006, Roll : 0.0, Pitch : 0.0, Yaw : 0.0, Alt : 30.1000003815, Lat : 49.28357, Lng : -123.11502, Q1 : 1.0, Q2 : 0.0, Q3 : 0.0, Q4 : 0.0}
2019-04-14 12:50:37.91: SIM {TimeUS : 41734966, Roll : 0.0, Pitch : 0.0, Yaw : 0.0, Alt : 30.1000003815, Lat : 49.28357, Lng : -123.11502, Q1 : 1.0, Q2 : 0.0, Q3 : 0.0, Q4 : 0.0}
2019-04-14 12:50:38.01: SIM {TimeUS : 41834926, Roll : 0.0, Pitch : 0.0, Yaw : 0.0, Alt : 30.1000003815, Lat : 49.28357, Lng : -123.11502, Q1 : 1.0, Q2 : 0.0, Q3 : 0.0, Q4 : 0.0}
2019-04-14 12:50:38.11: SIM {TimeUS : 41934886, Roll : 0.0, Pitch : 0.0, Yaw : 0.0, Alt : 30.1000003815, Lat : 49.28357, Lng : -123.11502, Q1 : 1.0, Q2 : 0.0, Q3 : 0.0, Q4 : 0.0}
2019-04-14 12:50:38.21: SIM {TimeUS : 42034846, Roll : 0.0, Pitch : 0.0, Yaw : 0.0, Alt : 30.1000003815, Lat : 49.28357, Lng : -123.11502, Q1 : 1.0, Q2 : 0.0, Q3 : 0.0, Q4 : 0.0}
2019-04-14 12:50:38.31: SIM {TimeUS : 42134806, Roll : 0.0, Pitch : 0.0, Yaw : 0.0, Alt : 30.1000003815, Lat : 49.28357, Lng : -123.11502, Q1 : 1.0, Q2 : 0.0, Q3 : 0.0, Q4 : 0.0}
2019-04-14 12:50:38.41: SIM {TimeUS : 42234766, Roll : 0.0, Pitch : 0.0, Yaw : 0.0, Alt : 30.1000003815, Lat : 49.28357, Lng : -123.11502, Q1 : 1.0, Q2 : 0.0, Q3 : 0.0, Q4 : 0.0}
2019-04-14 12:50:38.51: SIM {TimeUS : 42334726, Roll : 0.0, Pitch : 0.0, Yaw : 0.0, Alt : 30.1000003815, Lat : 49.28357, Lng : -123.11502, Q1 : 1.0, Q2 : 0.0, Q3 : 0.0, Q4 : 0.0}
2019-04-14 12:50:38.61: SIM {TimeUS : 42434686, Roll : 0.0, Pitch : 0.0, Yaw : 0.0, Alt : 30.1000003815, Lat : 49.28357, Lng : -123.11502, Q1 : 1.0, Q2 : 0.0, Q3 : 0.0, Q4 : 0.0}
2019-04-14 12:50:38.71: SIM {TimeUS : 42535479, Roll : 0.0, Pitch : 0.0, Yaw : 0.0, Alt : 30.1000003815, Lat : 49.28357, Lng : -123.11502, Q1 : 1.0, Q2 : 0.0, Q3 : 0.0, Q4 : 0.0}
2019-04-14 12:50:38.81: SIM {TimeUS : 42635439, Roll : 0.0, Pitch : 0.0, Yaw : 0.0, Alt : 30.1000003815, Lat : 49.28357, Lng : -123.11502, Q1 : 1.0, Q2 : 0.0, Q3 : 0.0, Q4 : 0.0}
2019-04-14 12:50:38.91: SIM {TimeUS : 42735399, Roll : 0.0, Pitch : 0.0, Yaw : 0.0, Alt : 30.1000003815, Lat : 49.28357, Lng : -123.11502, Q1 : 1.0, Q2 : 0.0, Q3 : 0.0, Q4 : 1.50531601073e-10}
2019-04-14 12:50:39.01: SIM {TimeUS : 42835359, Roll : 0.0, Pitch : 0.0, Yaw : 360.0, Alt : 30.1000003815, Lat : 49.28357, Lng : -123.11502, Q1 : 1.0, Q2 : 0.0, Q3 : 0.0, Q4 : -3.19015214245e-08}
2019-04-14 12:50:39.11: SIM {TimeUS : 42935319, Roll : 0.0, Pitch : 0.0, Yaw : 359.99, Alt : 30.1000003815, Lat : 49.28357, Lng : -123.11502, Q1 : 1.0, Q2 : 0.0, Q3 : 0.0, Q4 : -2.33976592767e-07}
2019-04-14 12:50:39.21: SIM {TimeUS : 43035279, Roll : 0.0, Pitch : 0.0, Yaw : 359.99, Alt : 30.1000003815, Lat : 49.28357, Lng : -123.11502, Q1 : 1.0, Q2 : 0.0, Q3 : 0.0, Q4 : -4.05724364327e-07}
2019-04-14 12:50:39.31: SIM {TimeUS : 43135239, Roll : 0.0, Pitch : 0.0, Yaw : 359.99, Alt : 30.1000003815, Lat : 49.28357, Lng : -123.11502, Q1 : 1.0, Q2 : 0.0, Q3 : 0.0, Q4 : -5.90876595652e-07}
2019-04-14 12:50:39.41: SIM {TimeUS : 43235199, Roll : 0.0, Pitch : 0.0, Yaw : 359.99, Alt : 30.1000003815, Lat : 49.28357, Lng : -123.11502, Q1 : 1.0, Q2 : 0.0, Q3 : 0.0, Q4 : -7.59730141908e-07}
2019-04-14 12:50:39.51: SIM {TimeUS : 43335159, Roll : 0.0, Pitch : 0.0, Yaw : 359.99, Alt : 30.1000003815, Lat : 49.28357, Lng : -123.11502, Q1 : 1.0, Q2 : 0.0, Q3 : 0.0, Q4 : -9.44023724969e-07}
2019-04-14 12:50:39.61: SIM {TimeUS : 43435119, Roll : 0.0, Pitch : 0.0, Yaw : 359.99, Alt : 30.1000003815, Lat : 49.28357, Lng : -123.11502, Q1 : 1.0, Q2 : 0.0, Q3 : 0.0, Q4 : -1.13243572741e-06}
2019-04-14 12:50:39.71: SIM {TimeUS : 43535079, Roll : 0.0, Pitch : 0.0, Yaw : 359.99, Alt : 30.1000003815, Lat : 49.28357, Lng : -123.11502, Q1 : 1.0, Q2 : 0.0, Q3 : 0.0, Q4 : -1.33856656248e-06}
2019-04-14 12:50:39.81: SIM {TimeUS : 43635039, Roll : 0.0, Pitch : 0.0, Yaw : 359.99, Alt : 30.1200008392, Lat : 49.28357, Lng : -123.11502, Q1 : 1.0, Q2 : 0.0, Q3 : 0.0, Q4 : -1.5488402596e-06}
2019-04-14 12:50:39.91: SIM {TimeUS : 43734999, Roll : 0.0, Pitch : 0.0, Yaw : 359.99, Alt : 30.1499996185, Lat : 49.28357, Lng : -123.11502, Q1 : 1.0, Q2 : 0.0, Q3 : 0.0, Q4 : -1.7197504576e-06}
2019-04-14 12:50:40.01: SIM {TimeUS : 43834959, Roll : 0.0, Pitch : 0.0, Yaw : 359.99, Alt : 30.1800003052, Lat : 49.28357, Lng : -123.11502, Q1 : 1.0, Q2 : 0.0, Q3 : 0.0, Q4 : -1.95202915165e-06}
2019-04-14 12:50:40.11: SIM {TimeUS : 43934919, Roll : 0.0, Pitch : 0.0, Yaw : 359.99, Alt : 30.2099990845, Lat : 49.28357, Lng : -123.11502, Q1 : 1.0, Q2 : -1.36274875331e-05, Q3 : -1.21096163639e-05, Q4 : -2.23823349188e-06}
2019-04-14 12:50:40.21: SIM {TimeUS : 44034879, Roll : -0.18, Pitch : -0.17, Yaw : 359.99, Alt : 30.2700004578, Lat : 49.28357, Lng : -123.11502, Q1 : 0.999997496605, Q2 : -0.00164138246328, Q3 : -0.00150922476314, Q4 : -1.71936662809e-05}
2019-04-14 12:50:40.31: SIM {TimeUS : 44134839, Roll : -0.5, Pitch : -0.46, Yaw : 359.99, Alt : 30.3899993896, Lat : 49.28357, Lng : -123.11502, Q1 : 0.999982059002, Q2 : -0.00441386643797, Q3 : -0.00404610857368, Q4 : -5.95026831434e-05}
2019-04-14 12:50:40.41: SIM {TimeUS : 44234799, Roll : -0.77, Pitch : -0.69, Yaw : 359.99, Alt : 30.5400009155, Lat : 49.28357, Lng : -123.11502, Q1 : 0.999958872795, Q2 : -0.00674403365701, Q3 : -0.00606857798994, Q4 : -0.000125950668007}
2019-04-14 12:50:40.51: SIM {TimeUS : 44334759, Roll : -0.88, Pitch : -0.78, Yaw : 359.98, Alt : 30.7000007629, Lat : 49.28357, Lng : -123.11502, Q1 : 0.999946892262, Q2 : -0.00772855477408, Q3 : -0.00681389076635, Q4 : -0.000207900578971}
2019-04-14 12:50:40.61: SIM {TimeUS : 44434719, Roll : -0.81, Pitch : -0.73, Yaw : 359.97, Alt : 30.8600006104, Lat : 49.28357, Lng : -123.1150201, Q1 : 0.999954402447, Q2 : -0.00708761624992, Q3 : -0.00639145309106, Q4 : -0.000282888009679}
2019-04-14 12:50:40.71: SIM {TimeUS : 44534679, Roll : -0.62, Pitch : -0.57, Yaw : 359.96, Alt : 31.0100002289, Lat : 49.28357, Lng : -123.1150201, Q1 : 0.999972462654, Q2 : -0.00543507235125, Q3 : -0.00503480015323, Q4 : -0.000351802620571}
2019-04-14 12:50:40.81: SIM {TimeUS : 44635472, Roll : -0.39, Pitch : -0.36, Yaw : 359.95, Alt : 31.1700000763, Lat : 49.2835701, Lng : -123.1150202, Q1 : 0.999988853931, Q2 : -0.00346468482167, Q3 : -0.00317975180224, Q4 : -0.000416665105149}
2019-04-14 12:50:40.91: SIM {TimeUS : 44735432, Roll : -0.18, Pitch : -0.16, Yaw : 359.94, Alt : 31.3299999237, Lat : 49.2835701, Lng : -123.1150203, Q1 : 0.999997496605, Q2 : -0.00163917115424, Q3 : -0.00145951274317, Q4 : -0.000473727850476}
2019-04-14 12:50:41.01: SIM {TimeUS : 44835392, Roll : -0.03, Pitch : -0.02, Yaw : 359.94, Alt : 31.5, Lat : 49.2835702, Lng : -123.1150204, Q1 : 0.999999761581, Q2 : -0.000289206509478, Q3 : -0.000243834700086, Q4 : -0.000517909298651}
2019-04-14 12:50:41.11: SIM {TimeUS : 44935352, Roll : 0.05, Pitch : 0.04, Yaw : 359.93, Alt : 31.6800003052, Lat : 49.2835702, Lng : -123.1150205, Q1 : 0.999999642372, Q2 : 0.000482154486235, Q3 : 0.000385794759495, Q4 : -0.000548635842279}
2019-04-14 12:50:41.21: SIM {TimeUS : 45035312, Roll : 0.09, Pitch : 0.06, Yaw : 359.93, Alt : 31.8600006104, Lat : 49.2835703, Lng : -123.1150205, Q1 : 0.999999344349, Q2 : 0.000817790802103, Q3 : 0.000531733385287, Q4 : -0.000565319787711}
2019-04-14 12:50:41.31: SIM {TimeUS : 45135272, Roll : 0.1, Pitch : 0.04, Yaw : 359.93, Alt : 32.0400009155, Lat : 49.2835703, Lng : -123.1150206, Q1 : 0.999999344349, Q2 : 0.000894590397365, Q3 : 0.000401364522986, Q4 : -0.000559046515264}
2019-04-14 12:50:41.41: SIM {TimeUS : 45235232, Roll : 0.09, Pitch : 0.03, Yaw : 359.93, Alt : 32.2299995422, Lat : 49.2835703, Lng : -123.1150206, Q1 : 0.999999463558, Q2 : 0.000848167343065, Q3 : 0.000317989615723, Q4 : -0.000538616382983}
2019-04-14 12:50:41.51: SIM {TimeUS : 45335192, Roll : 0.08, Pitch : 0.05, Yaw : 359.94, Alt : 32.4199981689, Lat : 49.2835703, Lng : -123.1150207, Q1 : 0.999999523163, Q2 : 0.000724979676306, Q3 : 0.000449882092653, Q4 : -0.000505562056787}
2019-04-14 12:50:41.61: SIM {TimeUS : 45435152, Roll : 0.06, Pitch : 0.08, Yaw : 359.94, Alt : 32.6100006104, Lat : 49.2835703, Lng : -123.1150207, Q1 : 0.999999523163, Q2 : 0.000527503783815, Q3 : 0.000730832573026, Q4 : -0.000478767673485}
2019-04-14 12:50:41.71: SIM {TimeUS : 45535112, Roll : 0.06, Pitch : 0.12, Yaw : 359.94, Alt : 32.8100013733, Lat : 49.2835703, Lng : -123.1150208, Q1 : 0.99999910593, Q2 : 0.000592813594267, Q3 : 0.00112033693586, Q4 : -0.000462621101178}
2019-04-14 12:50:41.81: SIM {TimeUS : 45635072, Roll : 0.1, Pitch : 0.16, Yaw : 359.94, Alt : 33.0099983215, Lat : 49.2835704, Lng : -123.1150208, Q1 : 0.999998390675, Q2 : 0.000914122269023, Q3 : 0.0014527447056, Q4 : -0.000452682405012}
2019-04-14 12:50:41.91: SIM {TimeUS : 45735032, Roll : 0.14, Pitch : 0.19, Yaw : 359.94, Alt : 33.2099990845, Lat : 49.2835704, Lng : -123.1150208, Q1 : 0.999997675419, Q2 : 0.00127759366296, Q3 : 0.0016584180994, Q4 : -0.000452948879683}
2019-04-14 12:50:42.01: SIM {TimeUS : 45834992, Roll : 0.16, Pitch : 0.21, Yaw : 359.94, Alt : 33.4199981689, Lat : 49.2835704, Lng : -123.1150209, Q1 : 0.999997079372, Q2 : 0.00146039272659, Q3 : 0.00185706384946, Q4 : -0.000456044392195}
2019-04-14 12:50:42.11: SIM {TimeUS : 45934952, Roll : 0.17, Pitch : 0.19, Yaw : 359.94, Alt : 33.6199989319, Lat : 49.2835704, Lng : -123.1150209, Q1 : 0.999997258186, Q2 : 0.00156273832545, Q3 : 0.00168887502514, Q4 : -0.000477572495583}
2019-04-14 12:50:42.21: SIM {TimeUS : 46034912, Roll : 0.17, Pitch : 0.15, Yaw : 359.94, Alt : 33.8300018311, Lat : 49.2835704, Lng : -123.1150209, Q1 : 0.999997794628, Q2 : 0.00156210223213, Q3 : 0.00134001940023, Q4 : -0.000498057401273}
2019-04-14 12:50:42.31: SIM {TimeUS : 46134872, Roll : 0.16, Pitch : 0.12, Yaw : 359.94, Alt : 34.0400009155, Lat : 49.2835704, Lng : -123.1150209, Q1 : 0.999998271465, Q2 : 0.00140809838194, Q3 : 0.00106075848453, Q4 : -0.000519527297001}
2019-04-14 12:50:42.41: SIM {TimeUS : 46234832, Roll : 0.14, Pitch : 0.09, Yaw : 359.93, Alt : 34.25, Lat : 49.2835704, Lng : -123.1150209, Q1 : 0.999998688698, Q2 : 0.00125980982557, Q3 : 0.000869299168698, Q4 : -0.000544148264453}
2019-04-14 12:50:42.51: SIM {TimeUS : 46334792, Roll : 0.13, Pitch : 0.09, Yaw : 359.93, Alt : 34.4599990845, Lat : 49.2835704, Lng : -123.1150209, Q1 : 0.999998748302, Q2 : 0.00117808557115, Q3 : 0.00085782178212, Q4 : -0.000574962818064}
2019-04-14 12:50:42.61: SIM {TimeUS : 46434752, Roll : 0.11, Pitch : 0.08, Yaw : 359.93, Alt : 34.6800003052, Lat : 49.2835704, Lng : -123.1150209, Q1 : 0.999999046326, Q2 : 0.00103980710264, Q3 : 0.000733684981242, Q4 : -0.000600403291173}
2019-04-14 12:50:42.71: SIM {TimeUS : 46534712, Roll : 0.09, Pitch : 0.07, Yaw : 359.92, Alt : 34.8899993896, Lat : 49.2835704, Lng : -123.1150208, Q1 : 0.999999284744, Q2 : 0.00082522095181, Q3 : 0.00061914883554, Q4 : -0.000622537336312}
2019-04-14 12:50:42.81: SIM {TimeUS : 46634672, Roll : 0.06, Pitch : 0.06, Yaw : 359.92, Alt : 35.1100006104, Lat : 49.2835704, Lng : -123.1150208, Q1 : 0.999999463558, Q2 : 0.000592086173128, Q3 : 0.000526219548192, Q4 : -0.000644205021672}
2019-04-14 12:50:42.91: SIM {TimeUS : 46735465, Roll : 0.04, Pitch : 0.05, Yaw : 359.92, Alt : 35.3300018311, Lat : 49.2835704, Lng : -123.1150208, Q1 : 0.999999582767, Q2 : 0.000395568553358, Q3 : 0.000449157465482, Q4 : -0.000662291597109}
2019-04-14 12:50:43.01: SIM {TimeUS : 46835425, Roll : 0.03, Pitch : 0.01, Yaw : 359.92, Alt : 35.5499992371, Lat : 49.2835704, Lng : -123.1150208, Q1 : 0.999999701977, Q2 : 0.000328169291606, Q3 : 0.000159290866577, Q4 : -0.000676403578836}
2019-04-14 12:50:43.11: SIM {TimeUS : 46935385, Roll : 0.03, Pitch : 0.0, Yaw : 359.92, Alt : 35.7599983215, Lat : 49.2835704, Lng : -123.1150208, Q1 : 0.999999761581, Q2 : 0.000305390218273, Q3 : -5.65507762076e-05, Q4 : -0.000697698327713}
2019-04-14 12:50:43.21: SIM {TimeUS : 47035345, Roll : 0.01, Pitch : -0.01, Yaw : 359.91, Alt : 35.9799995422, Lat : 49.2835704, Lng : -123.1150208, Q1 : 0.999999701977, Q2 : 0.000155152127263, Q3 : -9.61530749919e-05, Q4 : -0.000725845107809}
2019-04-14 12:50:43.31: SIM {TimeUS : 47135305, Roll : 0.01, Pitch : 0.0, Yaw : 359.91, Alt : 36.2000007629, Lat : 49.2835704, Lng : -123.1150207, Q1 : 0.999999701977, Q2 : 0.000103359430796, Q3 : -6.10796487308e-05, Q4 : -0.000749838887714}
2019-04-14 12:50:43.41: SIM {TimeUS : 47235265, Roll : 0.01, Pitch : 0.0, Yaw : 359.91, Alt : 36.4300003052, Lat : 49.2835704, Lng : -123.1150207, Q1 : 0.999999701977, Q2 : 0.00013269300689, Q3 : -1.37475572046e-05, Q4 : -0.000771115534008}
2019-04-14 12:50:43.51: SIM {TimeUS : 47335225, Roll : 0.0, Pitch : -0.01, Yaw : 359.9, Alt : 36.6500015259, Lat : 49.2835704, Lng : -123.1150207, Q1 : 0.999999701977, Q2 : 2.06193599297e-05, Q3 : -0.000155742382049, Q4 : -0.000791347178165}
2019-04-14 12:50:43.61: SIM {TimeUS : 47435185, Roll : -0.03, Pitch : -0.05, Yaw : 359.9, Alt : 36.8699989319, Lat : 49.2835704, Lng : -123.1150207, Q1 : 0.999999523163, Q2 : -0.000273642828688, Q3 : -0.000486798089696, Q4 : -0.000810625322629}
2019-04-14 12:50:43.71: SIM {TimeUS : 47535145, Roll : -0.07, Pitch : -0.08, Yaw : 359.9, Alt : 37.0999984741, Lat : 49.2835704, Lng : -123.1150207, Q1 : 0.999999165535, Q2 : -0.000622124003712, Q3 : -0.000747276295442, Q4 : -0.000831074430607}
2019-04-14 12:50:43.81: SIM {TimeUS : 47635105, Roll : -0.1, Pitch : -0.1, Yaw : 359.9, Alt : 37.3199996948, Lat : 49.2835704, Lng : -123.1150207, Q1 : 0.999998748302, Q2 : -0.000953340961132, Q3 : -0.000940196798183, Q4 : -0.000854362442624}
2019-04-14 12:50:43.91: SIM {TimeUS : 47735065, Roll : -0.12, Pitch : -0.11, Yaw : 359.89, Alt : 37.5499992371, Lat : 49.2835704, Lng : -123.1150207, Q1 : 0.999998569489, Q2 : -0.00107128510717, Q3 : -0.000989709980786, Q4 : -0.000885444227606}
2019-04-14 12:50:44.01: SIM {TimeUS : 47835025, Roll : -0.11, Pitch : -0.1, Yaw : 359.89, Alt : 37.7700004578, Lat : 49.2835704, Lng : -123.1150207, Q1 : 0.999998688698, Q2 : -0.00102362409234, Q3 : -0.000882784835994, Q4 : -0.000918640231248}
2019-04-14 12:50:44.11: SIM {TimeUS : 47934985, Roll : -0.09, Pitch : -0.06, Yaw : 359.89, Alt : 38.0, Lat : 49.2835704, Lng : -123.1150206, Q1 : 0.999999046326, Q2 : -0.000832864898257, Q3 : -0.000563353474718, Q4 : -0.000950088724494}
2019-04-14 12:50:44.21: SIM {TimeUS : 48034945, Roll : -0.07, Pitch : -0.03, Yaw : 359.88, Alt : 38.2299995422, Lat : 49.2835704, Lng : -123.1150206, Q1 : 0.999999284744, Q2 : -0.000644360668957, Q3 : -0.000296157872071, Q4 : -0.000981363235041}
2019-04-14 12:50:44.31: SIM {TimeUS : 48134905, Roll : -0.06, Pitch : -0.02, Yaw : 359.88, Alt : 38.4500007629, Lat : 49.2835704, Lng : -123.1150206, Q1 : 0.999999284744, Q2 : -0.000610279035755, Q3 : -0.000244292750722, Q4 : -0.0010118978098}
2019-04-14 12:50:44.41: SIM {TimeUS : 48234865, Roll : -0.07, Pitch : -0.01, Yaw : 359.88, Alt : 38.6800003052, Lat : 49.2835704, Lng : -123.1150206, Q1 : 0.999999284744, Q2 : -0.000622535066213, Q3 : -0.000116993469419, Q4 : -0.00103017012589}
2019-04-14 12:50:44.51: SIM {TimeUS : 48334825, Roll : -0.08, Pitch : 0.0, Yaw : 359.88, Alt : 38.9099998474, Lat : 49.2835704, Lng : -123.1150206, Q1 : 0.999999165535, Q2 : -0.00077123939991, Q3 : 5.30030229129e-06, Q4 : -0.00104101432953}
2019-04-14 12:50:44.61: SIM {TimeUS : 48434785, Roll : -0.08, Pitch : 0.01, Yaw : 359.87, Alt : 39.1399993896, Lat : 49.2835706, Lng : -123.1150206, Q1 : 0.999999165535, Q2 : -0.000777373905294, Q3 : 0.000123656427604, Q4 : -0.0010476106545}
2019-04-14 12:50:44.71: SIM {TimeUS : 48534745, Roll : -0.06, Pitch : 0.03, Yaw : 359.87, Alt : 39.3699989319, Lat : 49.2835706, Lng : -123.1150206, Q1 : 0.99999922514, Q2 : -0.000601893523708, Q3 : 0.000348883186234, Q4 : -0.00105566962156}
2019-04-14 12:50:44.81: SIM {TimeUS : 48634705, Roll : -0.04, Pitch : 0.03, Yaw : 359.87, Alt : 39.5999984741, Lat : 49.2835706, Lng : -123.1150207, Q1 : 0.999999284744, Q2 : -0.000397652358515, Q3 : 0.000346063257894, Q4 : -0.0010545195546}
2019-04-14 12:50:44.91: SIM {TimeUS : 48734665, Roll : -0.01, Pitch : 0.03, Yaw : 359.87, Alt : 39.8300018311, Lat : 49.2835706, Lng : -123.1150207, Q1 : 0.999999403954, Q2 : -0.000151014392031, Q3 : 0.000300500949379, Q4 : -0.00105015758891}
2019-04-14 12:50:45.01: SIM {TimeUS : 48835458, Roll : 0.01, Pitch : 0.05, Yaw : 359.88, Alt : 40.0600013733, Lat : 49.2835706, Lng : -123.1150207, Q1 : 0.999999344349, Q2 : 0.000162716503837, Q3 : 0.000476449698908, Q4 : -0.00104382145219}
2019-04-14 12:50:45.11: SIM {TimeUS : 48935418, Roll : 0.05, Pitch : 0.09, Yaw : 359.88, Alt : 40.2900009155, Lat : 49.2835706, Lng : -123.1150207, Q1 : 0.999999046326, Q2 : 0.000477111287182, Q3 : 0.000802921247669, Q4 : -0.00104756758083}
2019-04-14 12:50:45.21: SIM {TimeUS : 49035378, Roll : 0.08, Pitch : 0.13, Yaw : 359.87, Alt : 40.5299987793, Lat : 49.2835706, Lng : -123.1150207, Q1 : 0.999998450279, Q2 : 0.000760636758059, Q3 : 0.00117770815268, Q4 : -0.00106251821853}
2019-04-14 12:50:45.31: SIM {TimeUS : 49135338, Roll : 0.08, Pitch : 0.17, Yaw : 359.87, Alt : 40.7599983215, Lat : 49.2835706, Lng : -123.1150207, Q1 : 0.999997973442, Q2 : 0.000734748202376, Q3 : 0.0015437892871, Q4 : -0.00107454706449}
2019-04-14 12:50:45.41: SIM {TimeUS : 49235298, Roll : 0.04, Pitch : 0.2, Yaw : 359.87, Alt : 40.9900016785, Lat : 49.2835706, Lng : -123.1150207, Q1 : 0.999997675419, Q2 : 0.000355479656719, Q3 : 0.0017963842256, Q4 : -0.00110861263238}
2019-04-14 12:50:45.51: SIM {TimeUS : 49335258, Roll : 0.0, Pitch : 0.21, Yaw : 359.86, Alt : 41.2200012207, Lat : 49.2835706, Lng : -123.1150207, Q1 : 0.999997675419, Q2 : 2.13263206206e-06, Q3 : 0.00183748570271, Q4 : -0.00114012870472}
2019-04-14 12:50:45.61: SIM {TimeUS : 49435218, Roll : -0.02, Pitch : 0.17, Yaw : 359.86, Alt : 41.4599990845, Lat : 49.2835706, Lng : -123.1150207, Q1 : 0.999998092651, Q2 : -0.000208682366065, Q3 : 0.00154581142124, Q4 : -0.00116663903464}
2019-04-14 12:50:45.71: SIM {TimeUS : 49535178, Roll : -0.03, Pitch : 0.13, Yaw : 359.86, Alt : 41.6899986267, Lat : 49.2835706, Lng : -123.1150207, Q1 : 0.999998569489, Q2 : -0.000319470476825, Q3 : 0.00116496242117, Q4 : -0.00120150973089}
2019-04-14 12:50:45.81: SIM {TimeUS : 49635138, Roll : -0.02, Pitch : 0.12, Yaw : 359.85, Alt : 41.9199981689, Lat : 49.2835706, Lng : -123.1150207, Q1 : 0.999998629093, Q2 : -0.00024963071337, Q3 : 0.00104834279045, Q4 : -0.00124219898134}
2019-04-14 12:50:45.91: SIM {TimeUS : 49735098, Roll : 0.0, Pitch : 0.12, Yaw : 359.85, Alt : 42.1599998474, Lat : 49.2835706, Lng : -123.1150207, Q1 : 0.999998569489, Q2 : 8.40085413074e-05, Q3 : 0.00111613702029, Q4 : -0.00128946139012}
2019-04-14 12:50:46.01: SIM {TimeUS : 49835058, Roll : 0.06, Pitch : 0.13, Yaw : 359.84, Alt : 42.3899993896, Lat : 49.2835706, Lng : -123.1150207, Q1 : 0.999998271465, Q2 : 0.000556306506041, Q3 : 0.00116314890329, Q4 : -0.0013347476488}
2019-04-14 12:50:46.11: SIM {TimeUS : 49935018, Roll : 0.1, Pitch : 0.11, Yaw : 359.84, Alt : 42.6300010681, Lat : 49.2835706, Lng : -123.1150207, Q1 : 0.999998092651, Q2 : 0.00092910323292, Q3 : 0.00100200949237, Q4 : -0.00137949397322}
2019-04-14 12:50:46.21: SIM {TimeUS : 50034978, Roll : 0.11, Pitch : 0.08, Yaw : 359.83, Alt : 42.8600006104, Lat : 49.2835706, Lng : -123.1150207, Q1 : 0.999998271465, Q2 : 0.000977837131359, Q3 : 0.000744324235711, Q4 : -0.00141718972009}
2019-04-14 12:50:46.31: SIM {TimeUS : 50134938, Roll : 0.07, Pitch : 0.06, Yaw : 359.83, Alt : 43.0999984741, Lat : 49.2835706, Lng : -123.1150207, Q1 : 0.999998569489, Q2 : 0.000649189809337, Q3 : 0.000585340254474, Q4 : -0.00144047825597}
2019-04-14 12:50:46.41: SIM {TimeUS : 50234898, Roll : 0.01, Pitch : 0.06, Yaw : 359.83, Alt : 43.3300018311, Lat : 49.2835704, Lng : -123.1150207, Q1 : 0.999998748302, Q2 : 0.000171777312062, Q3 : 0.00057578535052, Q4 : -0.00145949993748}
2019-04-14 12:50:46.51: SIM {TimeUS : 50334858, Roll : -0.01, Pitch : 0.08, Yaw : 359.83, Alt : 43.5699996948, Lat : 49.2835704, Lng : -123.1150207, Q1 : 0.999998629093, Q2 : -0.000172562693479, Q3 : 0.000752567662857, Q4 : -0.00147504801862}
2019-04-14 12:50:46.61: SIM {TimeUS : 50434818, Roll : -0.04, Pitch : 0.09, Yaw : 359.82, Alt : 43.7999992371, Lat : 49.2835704, Lng : -123.1150207, Q1 : 0.999998509884, Q2 : -0.000347838446032, Q3 : 0.000833056343254, Q4 : -0.00148906675167}
2019-04-14 12:50:46.71: SIM {TimeUS : 50534778, Roll : -0.04, Pitch : 0.07, Yaw : 359.82, Alt : 44.0400009155, Lat : 49.2835704, Lng : -123.1150207, Q1 : 0.999998569489, Q2 : -0.000377360993298, Q3 : 0.000689753855113, Q4 : -0.00150040886365}
2019-04-14 12:50:46.81: SIM {TimeUS : 50634738, Roll : -0.05, Pitch : 0.05, Yaw : 359.82, Alt : 44.2700004578, Lat : 49.2835704, Lng : -123.1150206, Q1 : 0.999998629093, Q2 : -0.000449771876447, Q3 : 0.00046684985864, Q4 : -0.00151533237658}
2019-04-14 12:50:46.91: SIM {TimeUS : 50734698, Roll : -0.04, Pitch : 0.02, Yaw : 359.82, Alt : 44.5099983215, Lat : 49.2835704, Lng : -123.1150206, Q1 : 0.999998748302, Q2 : -0.000435031281086, Q3 : 0.000206138996873, Q4 : -0.00153071153909}
2019-04-14 12:50:47.01: SIM {TimeUS : 50834658, Roll : -0.03, Pitch : 0.0, Yaw : 359.82, Alt : 44.7400016785, Lat : 49.2835704, Lng : -123.1150206, Q1 : 0.999998748302, Q2 : -0.000315201468766, Q3 : 3.85487837775e-05, Q4 : -0.00154697487596}
2019-04-14 12:50:47.11: SIM {TimeUS : 50935451, Roll : -0.03, Pitch : 0.0, Yaw : 359.82, Alt : 44.9799995422, Lat : 49.2835704, Lng : -123.1150206, Q1 : 0.999998748302, Q2 : -0.000263319758233, Q3 : -1.45401163536e-05, Q4 : -0.00156545348}
2019-04-14 12:50:47.21: SIM {TimeUS : 51035411, Roll : -0.02, Pitch : -0.01, Yaw : 359.81, Alt : 45.2200012207, Lat : 49.2835703, Lng : -123.1150206, Q1 : 0.999998688698, Q2 : -0.000252559839282, Q3 : -9.44959538174e-05, Q4 : -0.00158984237351}
2019-04-14 12:50:47.31: SIM {TimeUS : 51135371, Roll : -0.02, Pitch : -0.03, Yaw : 359.81, Alt : 45.4500007629, Lat : 49.2835703, Lng : -123.1150206, Q1 : 0.999998629093, Q2 : -0.000238042353885, Q3 : -0.000296257931041, Q4 : -0.00161620194558}
2019-04-14 12:50:47.41: SIM {TimeUS : 51235331, Roll : -0.02, Pitch : -0.04, Yaw : 359.81, Alt : 45.6899986267, Lat : 49.2835703, Lng : -123.1150206, Q1 : 0.999998509884, Q2 : -0.000226475021918, Q3 : -0.000434675836004, Q4 : -0.0016423688503}
2019-04-14 12:50:47.51: SIM {TimeUS : 51335291, Roll : -0.01, Pitch : -0.05, Yaw : 359.8, Alt : 45.9199981689, Lat : 49.2835703, Lng : -123.1150206, Q1 : 0.999998450279, Q2 : -0.000145942176459, Q3 : -0.000490977312438, Q4 : -0.00167162320577}
2019-04-14 12:50:47.61: SIM {TimeUS : 51435251, Roll : -0.02, Pitch : -0.05, Yaw : 359.8, Alt : 46.1500015259, Lat : 49.2835703, Lng : -123.1150206, Q1 : 0.999998450279, Q2 : -0.000191825645743, Q3 : -0.000467074132757, Q4 : -0.0017027243739}
2019-04-14 12:50:47.71: SIM {TimeUS : 51535211, Roll : -0.04, Pitch : -0.04, Yaw : 359.8, Alt : 46.3800010681, Lat : 49.2835703, Lng : -123.1150206, Q1 : 0.99999833107, Q2 : -0.000404020713177, Q3 : -0.000366764346836, Q4 : -0.00173697981518}
2019-04-14 12:50:47.81: SIM {TimeUS : 51635171, Roll : -0.08, Pitch : -0.03, Yaw : 359.79, Alt : 46.5999984741, Lat : 49.2835703, Lng : -123.1150206, Q1 : 0.999998152256, Q2 : -0.000724742596503, Q3 : -0.00029900795198, Q4 : -0.00177285564132}
2019-04-14 12:50:47.91: SIM {TimeUS : 51735131, Roll : -0.1, Pitch : -0.02, Yaw : 359.79, Alt : 46.8100013733, Lat : 49.2835703, Lng : -123.1150206, Q1 : 0.999997854233, Q2 : -0.000950348388869, Q3 : -0.000258568819845, Q4 : -0.00181061017793}
2019-04-14 12:50:48.01: SIM {TimeUS : 51835091, Roll : -0.11, Pitch : -0.01, Yaw : 359.78, Alt : 47.0200004578, Lat : 49.2835703, Lng : -123.1150206, Q1 : 0.999997735023, Q2 : -0.00101428548805, Q3 : -0.000165360703249, Q4 : -0.00184247875586}
2019-04-14 12:50:48.11: SIM {TimeUS : 51935051, Roll : -0.1, Pitch : 0.0, Yaw : 359.78, Alt : 47.2299995422, Lat : 49.2835703, Lng : -123.1150206, Q1 : 0.999997794628, Q2 : -0.000922408828046, Q3 : 2.01250022656e-05, Q4 : -0.00186952168588}
2019-04-14 12:50:48.21: SIM {TimeUS : 52035011, Roll : -0.08, Pitch : 0.01, Yaw : 359.78, Alt : 47.4199981689, Lat : 49.2835703, Lng : -123.1150206, Q1 : 0.999997913837, Q2 : -0.000718250696082, Q3 : 0.000126592000015, Q4 : -0.00189702014904}
2019-04-14 12:50:48.31: SIM {TimeUS : 52134971, Roll : -0.06, Pitch : 0.01, Yaw : 359.77, Alt : 47.6100006104, Lat : 49.2835703, Lng : -123.1150206, Q1 : 0.999998033047, Q2 : -0.000531897880137, Q3 : 0.000111642475531, Q4 : -0.00192255526781}
2019-04-14 12:50:48.41: SIM {TimeUS : 52234931, Roll : -0.06, Pitch : 0.0, Yaw : 359.77, Alt : 47.7799987793, Lat : 49.2835703, Lng : -123.1150206, Q1 : 0.999997973442, Q2 : -0.000580479158089, Q3 : -6.59070865368e-05, Q4 : -0.00194917130284}
2019-04-14 12:50:48.51: SIM {TimeUS : 52334891, Roll : -0.06, Pitch : -0.03, Yaw : 359.77, Alt : 47.9500007629, Lat : 49.2835703, Lng : -123.1150206, Q1 : 0.999997854233, Q2 : -0.000575238198508, Q3 : -0.000340303842677, Q4 : -0.00197356357239}
2019-04-14 12:50:48.61: SIM {TimeUS : 52434851, Roll : -0.04, Pitch : -0.06, Yaw : 359.77, Alt : 48.0999984741, Lat : 49.2835703, Lng : -123.1150206, Q1 : 0.999997735023, Q2 : -0.000436262023868, Q3 : -0.000574358273298, Q4 : -0.00199423870072}
2019-04-14 12:50:48.71: SIM {TimeUS : 52534811, Roll : -0.03, Pitch : -0.08, Yaw : 359.76, Alt : 48.2400016785, Lat : 49.2835703, Lng : -123.1150206, Q1 : 0.999997615814, Q2 : -0.000347628927557, Q3 : -0.000771680555772, Q4 : -0.00201364955865}
2019-04-14 12:50:48.81: SIM {TimeUS : 52634771, Roll : -0.03, Pitch : -0.1, Yaw : 359.76, Alt : 48.3699989319, Lat : 49.2835703, Lng : -123.1150206, Q1 : 0.999997496605, Q2 : -0.000331923045451, Q3 : -0.000897456950042, Q4 : -0.00203157705255}
2019-04-14 12:50:48.91: SIM {TimeUS : 52734731, Roll : 0.0, Pitch : -0.09, Yaw : 359.76, Alt : 48.4799995422, Lat : 49.2835703, Lng : -123.1150206, Q1 : 0.99999755621, Q2 : -7.43815544411e-05, Q3 : -0.000852414872497, Q4 : -0.00204953807406}
2019-04-14 12:50:49.01: SIM {TimeUS : 52834691, Roll : 0.02, Pitch : -0.08, Yaw : 359.76, Alt : 48.5900001526, Lat : 49.2835703, Lng : -123.1150206, Q1 : 0.999997615814, Q2 : 0.000239445231273, Q3 : -0.00070681021316, Q4 : -0.00206962879747}
2019-04-14 12:50:49.11: SIM {TimeUS : 52935484, Roll : 0.06, Pitch : -0.05, Yaw : 359.75, Alt : 48.6800003052, Lat : 49.2835703, Lng : -123.1150206, Q1 : 0.99999755621, Q2 : 0.000523048220202, Q3 : -0.000501446484122, Q4 : -0.00209516705945}
2019-04-14 12:50:49.21: SIM {TimeUS : 53035444, Roll : 0.07, Pitch : -0.03, Yaw : 359.75, Alt : 48.7599983215, Lat : 49.2835703, Lng : -123.1150206, Q1 : 0.999997496605, Q2 : 0.000628907524515, Q3 : -0.000307939830236, Q4 : -0.0021246841643}
2019-04-14 12:50:49.31: SIM {TimeUS : 53135404, Roll : 0.07, Pitch : -0.02, Yaw : 359.75, Alt : 48.8300018311, Lat : 49.2835703, Lng : -123.1150207, Q1 : 0.999997496605, Q2 : 0.000625709653832, Q3 : -0.000222565067816, Q4 : -0.00215375819243}
2019-04-14 12:50:49.41: SIM {TimeUS : 53235364, Roll : 0.06, Pitch : -0.03, Yaw : 359.75, Alt : 48.8899993896, Lat : 49.2835703, Lng : -123.1150207, Q1 : 0.999997437, Q2 : 0.000526442716364, Q3 : -0.000318131234962, Q4 : -0.00217949831858}
2019-04-14 12:50:49.51: SIM {TimeUS : 53335324, Roll : 0.03, Pitch : -0.04, Yaw : 359.74, Alt : 48.9399986267, Lat : 49.2835703, Lng : -123.1150207, Q1 : 0.999997437, Q2 : 0.00029434406315, Q3 : -0.000378843949875, Q4 : -0.00220331456512}
2019-04-14 12:50:49.61: SIM {TimeUS : 53435284, Roll : 0.04, Pitch : -0.04, Yaw : 359.74, Alt : 48.9900016785, Lat : 49.2835703, Lng : -123.1150207, Q1 : 0.999997317791, Q2 : 0.000420524418587, Q3 : -0.000404138030717, Q4 : -0.00222421414219}
2019-04-14 12:50:49.71: SIM {TimeUS : 53535244, Roll : 0.22, Pitch : -0.08, Yaw : 359.74, Alt : 49.0200004578, Lat : 49.2835703, Lng : -123.1150207, Q1 : 0.999995291233, Q2 : 0.00194201909471, Q3 : -0.000768289202824, Q4 : -0.00224569602869}
2019-04-14 12:50:49.81: SIM {TimeUS : 53635204, Roll : 0.65, Pitch : -0.19, Yaw : 359.73, Alt : 49.0600013733, Lat : 49.2835703, Lng : -123.1150207, Q1 : 0.999979376793, Q2 : 0.00574340485036, Q3 : -0.00174237100873, Q4 : -0.00227534980513}
2019-04-14 12:50:49.91: SIM {TimeUS : 53735164, Roll : 1.37, Pitch : -0.37, Yaw : 359.73, Alt : 49.0800018311, Lat : 49.2835704, Lng : -123.1150207, Q1 : 0.999919891357, Q2 : 0.0119998445734, Q3 : -0.00330224540085, Q4 : -0.00230103544891}
2019-04-14 12:50:50.01: SIM {TimeUS : 53835124, Roll : 2.3, Pitch : -0.62, Yaw : 359.72, Alt : 49.1100006104, Lat : 49.2835704, Lng : -123.1150206, Q1 : 0.999780654907, Q2 : 0.0200683381408, Q3 : -0.00553342280909, Q4 : -0.00231459876522}
2019-04-14 12:50:50.11: SIM {TimeUS : 53935084, Roll : 3.32, Pitch : -0.93, Yaw : 359.7, Alt : 49.1300010681, Lat : 49.2835704, Lng : -123.1150205, Q1 : 0.999544084072, Q2 : 0.0289475619793, Q3 : -0.008271609433, Q4 : -0.00230663246475}
2019-04-14 12:50:50.21: SIM {TimeUS : 54035044, Roll : 4.26, Pitch : -1.24, Yaw : 359.69, Alt : 49.1500015259, Lat : 49.2835704, Lng : -123.1150204, Q1 : 0.999246478081, Q2 : 0.0371600314975, Q3 : -0.0109784724191, Q4 : -0.00226602540351}
2019-04-14 12:50:50.31: SIM {TimeUS : 54135004, Roll : 5.01, Pitch : -1.51, Yaw : 359.68, Alt : 49.1599998474, Lat : 49.2835706, Lng : -123.1150201, Q1 : 0.998951196671, Q2 : 0.0437431149185, Q3 : -0.013351675123, Q4 : -0.0021802324336}
2019-04-14 12:50:50.41: SIM {TimeUS : 54234964, Roll : 5.57, Pitch : -1.72, Yaw : 359.68, Alt : 49.1800003052, Lat : 49.2835707, Lng : -123.1150199, Q1 : 0.99870043993, Q2 : 0.0485993549228, Q3 : -0.0152119789273, Q4 : -0.00205052620731}
2019-04-14 12:50:50.51: SIM {TimeUS : 54334924, Roll : 5.99, Pitch : -1.87, Yaw : 359.68, Alt : 49.1899986267, Lat : 49.2835707, Lng : -123.1150194, Q1 : 0.998495638371, Q2 : 0.0522743538022, Q3 : -0.0164417270571, Q4 : -0.00188722810708}
2019-04-14 12:50:50.61: SIM {TimeUS : 54434884, Roll : 6.34, Pitch : -1.97, Yaw : 359.69, Alt : 49.2000007629, Lat : 49.2835709, Lng : -123.1150189, Q1 : 0.998315989971, Q2 : 0.0553154237568, Q3 : -0.0173919983208, Q4 : -0.0017142809229}
2019-04-14 12:50:50.71: SIM {TimeUS : 54534844, Roll : 6.68, Pitch : -2.07, Yaw : 359.7, Alt : 49.2099990845, Lat : 49.2835709, Lng : -123.1150182, Q1 : 0.998131632805, Q2 : 0.058287486434, Q3 : -0.0182595029473, Q4 : -0.00154351699166}
2019-04-14 12:50:50.81: SIM {TimeUS : 54634804, Roll : 7.04, Pitch : -2.18, Yaw : 359.7, Alt : 49.2200012207, Lat : 49.2835712, Lng : -123.1150174, Q1 : 0.997930169106, Q2 : 0.0613750554621, Q3 : -0.0191469676793, Q4 : -0.00137433758937}
2019-04-14 12:50:50.91: SIM {TimeUS : 54734764, Roll : 7.37, Pitch : -2.29, Yaw : 359.71, Alt : 49.2200012207, Lat : 49.2835713, Lng : -123.1150165, Q1 : 0.997728407383, Q2 : 0.0642731934786, Q3 : -0.0201370548457, Q4 : -0.00123298901599}
2019-04-14 12:50:51.01: SIM {TimeUS : 54834724, Roll : 7.66, Pitch : -2.39, Yaw : 359.71, Alt : 49.2299995422, Lat : 49.2835715, Lng : -123.1150155, Q1 : 0.997548401356, Q2 : 0.0667408332229, Q3 : -0.0210160706192, Q4 : -0.0011164098978}
2019-04-14 12:50:51.11: SIM {TimeUS : 54934684, Roll : 7.88, Pitch : -2.45, Yaw : 359.71, Alt : 49.2299995422, Lat : 49.2835718, Lng : -123.1150144, Q1 : 0.997403144836, Q2 : 0.0687098428607, Q3 : -0.0215606857091, Q4 : -0.00101266684942}
2019-04-14 12:50:51.21: SIM {TimeUS : 55035477, Roll : 8.04, Pitch : -2.48, Yaw : 359.71, Alt : 49.2400016785, Lat : 49.283572, Lng : -123.1150132, Q1 : 0.997301697731, Q2 : 0.0701057985425, Q3 : -0.0217633191496, Q4 : -0.000926289299969}
2019-04-14 12:50:51.31: SIM {TimeUS : 55135437, Roll : 8.16, Pitch : -2.49, Yaw : 359.72, Alt : 49.2400016785, Lat : 49.2835722, Lng : -123.1150118, Q1 : 0.997229516506, Q2 : 0.0710923522711, Q3 : -0.0218741539866, Q4 : -0.000877184385899}
2019-04-14 12:50:51.41: SIM {TimeUS : 55235397, Roll : 8.27, Pitch : -2.51, Yaw : 359.72, Alt : 49.25, Lat : 49.2835726, Lng : -123.1150104, Q1 : 0.997155666351, Q2 : 0.072076022625, Q3 : -0.0220223460346, Q4 : -0.000848037190735}
2019-04-14 12:50:51.51: SIM {TimeUS : 55335357, Roll : 8.52, Pitch : -2.36, Yaw : 359.86, Alt : 49.25, Lat : 49.2835728, Lng : -123.1150088, Q1 : 0.997020184994, Q2 : 0.0743132457137, Q3 : -0.0206950120628, Q4 : 0.000366871827282}
2019-04-14 12:50:51.61: SIM {TimeUS : 55435317, Roll : 8.97, Pitch : -1.99, Yaw : 0.69, Alt : 49.2599983215, Lat : 49.2835732, Lng : -123.1150072, Q1 : 0.996755301952, Q2 : 0.0783477053046, Q3 : -0.0169101711363, Q4 : 0.00738445110619}
2019-04-14 12:50:51.71: SIM {TimeUS : 55535277, Roll : 9.54, Pitch : -1.71, Yaw : 2.84, Alt : 49.2599983215, Lat : 49.2835734, Lng : -123.1150055, Q1 : 0.996086716652, Q2 : 0.0834953784943, Q3 : -0.0128444349393, Q4 : 0.0259783342481}
2019-04-14 12:50:51.81: SIM {TimeUS : 55635237, Roll : 10.06, Pitch : -1.9, Yaw : 6.57, Alt : 49.2599983215, Lat : 49.2835739, Lng : -123.1150036, Q1 : 0.994290173054, Q2 : 0.0884719714522, Q3 : -0.0115295555443, Q4 : 0.0585398562253}
2019-04-14 12:50:51.91: SIM {TimeUS : 55735197, Roll : 10.36, Pitch : -2.73, Yaw : 11.75, Alt : 49.2599983215, Lat : 49.2835741, Lng : -123.1150016, Q1 : 0.990173697472, Q2 : 0.0922524631023, Q3 : -0.0143528906628, Q4 : 0.104113094509}
2019-04-14 12:50:52.01: SIM {TimeUS : 55835157, Roll : 10.27, Pitch : -4.13, Yaw : 18.16, Alt : 49.2599983215, Lat : 49.2835745, Lng : -123.1149995, Q1 : 0.982337832451, Q2 : 0.0940714627504, Q3 : -0.0213352255523, Q4 : 0.160336405039}
2019-04-14 12:50:52.11: SIM {TimeUS : 55935117, Roll : 9.69, Pitch : -5.95, Yaw : 25.55, Alt : 49.2700004578, Lat : 49.2835747, Lng : -123.1149973, Q1 : 0.969473659992, Q2 : 0.0937206447124, Q3 : -0.0318207107484, Q4 : 0.224331691861}
2019-04-14 12:50:52.21: SIM {TimeUS : 56035077, Roll : 8.57, Pitch : -7.96, Yaw : 33.66, Alt : 49.2700004578, Lat : 49.2835751, Lng : -123.114995, Q1 : 0.950658321381, Q2 : 0.0914170295, Q3 : -0.044739484787, Q4 : 0.293070077896}
2019-04-14 12:50:52.31: SIM {TimeUS : 56135037, Roll : 6.94, Pitch : -9.94, Yaw : 42.28, Alt : 49.2700004578, Lat : 49.2835753, Lng : -123.1149925, Q1 : 0.925579369068, Q2 : 0.0875210091472, Q3 : -0.0589470975101, Q4 : 0.363549441099}
2019-04-14 12:50:52.41: SIM {TimeUS : 56234997, Roll : 4.91, Pitch : -11.67, Yaw : 51.14, Alt : 49.2700004578, Lat : 49.2835757, Lng : -123.11499, Q1 : 0.894668340683, Q2 : 0.0822865068913, Q3 : -0.0732270777225, Q4 : 0.432937949896}
2019-04-14 12:50:52.51: SIM {TimeUS : 56334957, Roll : 2.6, Pitch : -12.95, Yaw : 59.96, Alt : 49.2700004578, Lat : 49.2835761, Lng : -123.1149873, Q1 : 0.859141111374, Q2 : 0.0758804380894, Q3 : -0.0864039510489, Q4 : 0.498651325703}
2019-04-14 12:50:52.61: SIM {TimeUS : 56434917, Roll : 0.12, Pitch : -13.71, Yaw : 68.43, Alt : 49.2799987793, Lat : 49.2835764, Lng : -123.1149844, Q1 : 0.820894896984, Q2 : 0.0680684819818, Q3 : -0.0981314703822, Q4 : 0.558451890945}
2019-04-14 12:50:52.71: SIM {TimeUS : 56534877, Roll : -2.57, Pitch : -13.99, Yaw : 76.05, Alt : 49.2799987793, Lat : 49.2835769, Lng : -123.1149815, Q1 : 0.78336083889, Q2 : 0.0574662312865, Q3 : -0.109660975635, Q4 : 0.60911244154}
2019-04-14 12:50:52.81: SIM {TimeUS : 56634837, Roll : -5.14, Pitch : -13.86, Yaw : 82.11, Alt : 49.2799987793, Lat : 49.2835775, Lng : -123.1149785, Q1 : 0.751361608505, Q2 : 0.0455849282444, Q3 : -0.120166271925, Q4 : 0.647254109383}
2019-04-14 12:50:52.91: SIM {TimeUS : 56734797, Roll : -7.1, Pitch : -13.54, Yaw : 86.21, Alt : 49.2799987793, Lat : 49.283578, Lng : -123.1149753, Q1 : 0.72858518362, Q2 : 0.0355221666396, Q3 : -0.127955004573, Q4 : 0.671959340572}
2019-04-14 12:50:53.01: SIM {TimeUS : 56834757, Roll : -8.15, Pitch : -13.24, Yaw : 88.35, Alt : 49.2799987793, Lat : 49.2835787, Lng : -123.1149721, Q1 : 0.716337740421, Q2 : 0.0295210760087, Q3 : -0.131731599569, Q4 : 0.684569656849}
2019-04-14 12:50:53.11: SIM {TimeUS : 56934717, Roll : -8.25, Pitch : -13.1, Yaw : 88.76, Alt : 49.2799987793, Lat : 49.2835794, Lng : -123.1149687, Q1 : 0.713939845562, Q2 : 0.0284863039851, Q3 : -0.131333649158, Q4 : 0.687189877033}
2019-04-14 12:50:53.21: SIM {TimeUS : 57034677, Roll : -7.5, Pitch : -13.2, Yaw : 87.79, Alt : 49.2799987793, Lat : 49.2835802, Lng : -123.1149653, Q1 : 0.719501793385, Q2 : 0.0327006056905, Q3 : -0.127769261599, Q4 : 0.681852579117}
2019-04-14 12:50:53.31: SIM {TimeUS : 57135470, Roll : -6.1, Pitch : -13.59, Yaw : 85.77, Alt : 49.2799987793, Lat : 49.2835812, Lng : -123.1149617, Q1 : 0.730815947056, Q2 : 0.0416935905814, Q3 : -0.122540660203, Q4 : 0.670189142227}
2019-04-14 12:50:53.41: SIM {TimeUS : 57235430, Roll : -4.3, Pitch : -14.17, Yaw : 83.05, Alt : 49.2799987793, Lat : 49.2835822, Lng : -123.1149581, Q1 : 0.745451152325, Q2 : 0.0538152456284, Q3 : -0.117032840848, Q4 : 0.653995275497}
2019-04-14 12:50:53.51: SIM {TimeUS : 57335390, Roll : -2.35, Pitch : -14.83, Yaw : 79.94, Alt : 49.2799987793, Lat : 49.2835831, Lng : -123.1149543, Q1 : 0.761502742767, Q2 : 0.0673248395324, Q3 : -0.111974269152, Q4 : 0.634856462479}
2019-04-14 12:50:53.61: SIM {TimeUS : 57435350, Roll : -0.44, Pitch : -15.43, Yaw : 76.72, Alt : 49.2799987793, Lat : 49.2835842, Lng : -123.1149506, Q1 : 0.777294993401, Q2 : 0.0803242400289, Q3 : -0.107638590038, Q4 : 0.614633619785}
2019-04-14 12:50:53.71: SIM {TimeUS : 57535310, Roll : 1.23, Pitch : -15.84, Yaw : 73.74, Alt : 49.2799987793, Lat : 49.2835852, Lng : -123.1149467, Q1 : 0.791381537914, Q2 : 0.091253682971, Q3 : -0.103847004473, Q4 : 0.595486223698}
2019-04-14 12:50:53.81: SIM {TimeUS : 57635270, Roll : 2.53, Pitch : -16.03, Yaw : 71.29, Alt : 49.2799987793, Lat : 49.2835861, Lng : -123.1149426, Q1 : 0.802690565586, Q2 : 0.0990671738982, Q3 : -0.10056168586, Q4 : 0.57944881916}
2019-04-14 12:50:53.91: SIM {TimeUS : 57735230, Roll : 3.36, Pitch : -16.04, Yaw : 69.55, Alt : 49.2799987793, Lat : 49.2835871, Lng : -123.1149385, Q1 : 0.810636997223, Q2 : 0.103469766676, Q3 : -0.098028421402, Q4 : 0.567936658859}
2019-04-14 12:50:54.01: SIM {TimeUS : 57835190, Roll : 3.72, Pitch : -15.97, Yaw : 68.61, Alt : 49.2799987793, Lat : 49.283588, Lng : -123.1149342, Q1 : 0.815053582191, Q2 : 0.104860603809, Q3 : -0.0966095775366, Q4 : 0.561567902565}
2019-04-14 12:50:54.11: SIM {TimeUS : 57935150, Roll : 3.63, Pitch : -15.92, Yaw : 68.42, Alt : 49.2900009155, Lat : 49.283589, Lng : -123.1149299, Q1 : 0.816112577915, Q2 : 0.103845968843, Q3 : -0.0968520492315, Q4 : 0.560174942017}
2019-04-14 12:50:54.21: SIM {TimeUS : 58035110, Roll : 3.17, Pitch : -15.94, Yaw : 68.87, Alt : 49.2900009155, Lat : 49.2835898, Lng : -123.1149254, Q1 : 0.814268946648, Q2 : 0.101041346788, Q3 : -0.0988218784332, Q4 : 0.563019514084}
2019-04-14 12:50:54.31: SIM {TimeUS : 58135070, Roll : 2.43, Pitch : -16.03, Yaw : 69.81, Alt : 49.2900009155, Lat : 49.2835908, Lng : -123.1149208, Q1 : 0.8101541996, Q2 : 0.0971000343561, Q3 : -0.102317780256, Q4 : 0.568992853165}
2019-04-14 12:50:54.41: SIM {TimeUS : 58235030, Roll : 1.55, Pitch : -16.15, Yaw : 71.06, Alt : 49.2900009155, Lat : 49.2835916, Lng : -123.1149162, Q1 : 0.804536402225, Q2 : 0.0926299765706, Q3 : -0.106533311307, Q4 : 0.57688087225}
2019-04-14 12:50:54.51: SIM {TimeUS : 58334990, Roll : 0.67, Pitch : -16.27, Yaw : 72.42, Alt : 49.2900009155, Lat : 49.2835925, Lng : -123.1149114, Q1 : 0.798208415508, Q2 : 0.0883649736643, Q3 : -0.110768996179, Q4 : 0.58547860384}
2019-04-14 12:50:54.61: SIM {TimeUS : 58434950, Roll : -0.12, Pitch : -16.38, Yaw : 73.73, Alt : 49.2900009155, Lat : 49.2835934, Lng : -123.1149066, Q1 : 0.791979372501, Q2 : 0.0845865085721, Q3 : -0.114660486579, Q4 : 0.593689143658}
2019-04-14 12:50:54.71: SIM {TimeUS : 58534910, Roll : -0.76, Pitch : -16.46, Yaw : 74.85, Alt : 49.2900009155, Lat : 49.2835943, Lng : -123.1149018, Q1 : 0.786505043507, Q2 : 0.081768296659, Q3 : -0.117744229734, Q4 : 0.600716292858}
2019-04-14 12:50:54.81: SIM {TimeUS : 58634870, Roll : -1.18, Pitch : -16.5, Yaw : 75.7, Alt : 49.2900009155, Lat : 49.2835952, Lng : -123.1148968, Q1 : 0.782298803329, Q2 : 0.0800043940544, Q3 : -0.119622021914, Q4 : 0.606051564217}
2019-04-14 12:50:54.91: SIM {TimeUS : 58734830, Roll : -1.39, Pitch : -16.52, Yaw : 76.22, Alt : 49.2900009155, Lat : 49.2835962, Lng : -123.1148918, Q1 : 0.779645204544, Q2 : 0.0791769996285, Q3 : -0.120474614203, Q4 : 0.609401583672}
2019-04-14 12:50:55.01: SIM {TimeUS : 58834790, Roll : -1.43, Pitch : -16.53, Yaw : 76.43, Alt : 49.2900009155, Lat : 49.283597, Lng : -123.1148868, Q1 : 0.778573930264, Q2 : 0.0792086794972, Q3 : -0.120664998889, Q4 : 0.610727965832}
2019-04-14 12:50:55.11: SIM {TimeUS : 58934750, Roll : -1.32, Pitch : -16.57, Yaw : 76.34, Alt : 49.2900009155, Lat : 49.2835981, Lng : -123.1148817, Q1 : 0.778922438622, Q2 : 0.080086633563, Q3 : -0.120359957218, Q4 : 0.61022901535}
2019-04-14 12:50:55.21: SIM {TimeUS : 59034710, Roll : -1.08, Pitch : -16.63, Yaw : 76.02, Alt : 49.2900009155, Lat : 49.283599, Lng : -123.1148766, Q1 : 0.78038161993, Q2 : 0.0817116871476, Q3 : -0.119735561311, Q4 : 0.608268976212}
2019-04-14 12:50:55.31: SIM {TimeUS : 59134670, Roll : -0.77, Pitch : -16.69, Yaw : 75.55, Alt : 49.2900009155, Lat : 49.2836001, Lng : -123.1148714, Q1 : 0.782616972923, Q2 : 0.0836329460144, Q3 : -0.118828013539, Q4 : 0.605306684971}
2019-04-14 12:50:55.41: SIM {TimeUS : 59235463, Roll : -0.42, Pitch : -16.74, Yaw : 74.99, Alt : 49.2900009155, Lat : 49.2836012, Lng : -123.1148661, Q1 : 0.785252928734, Q2 : 0.0857308283448, Q3 : -0.117771200836, Q4 : 0.601795613766}
2019-04-14 12:50:55.51: SIM {TimeUS : 59335423, Roll : -0.07, Pitch : -16.78, Yaw : 74.43, Alt : 49.2900009155, Lat : 49.2836022, Lng : -123.1148608, Q1 : 0.787890195847, Q2 : 0.0877544060349, Q3 : -0.116665735841, Q4 : 0.5982619524}
2019-04-14 12:50:55.61: SIM {TimeUS : 59435383, Roll : 0.22, Pitch : -16.81, Yaw : 73.92, Alt : 49.2900009155, Lat : 49.2836032, Lng : -123.1148555, Q1 : 0.790267109871, Q2 : 0.0894858837128, Q3 : -0.115669339895, Q4 : 0.595055222511}
2019-04-14 12:50:55.71: SIM {TimeUS : 59535343, Roll : 0.46, Pitch : -16.83, Yaw : 73.51, Alt : 49.2900009155, Lat : 49.2836043, Lng : -123.1148501, Q1 : 0.792171895504, Q2 : 0.0908591896296, Q3 : -0.114889621735, Q4 : 0.592459857464}
2019-04-14 12:50:55.81: SIM {TimeUS : 59635303, Roll : 0.62, Pitch : -16.86, Yaw : 73.23, Alt : 49.2900009155, Lat : 49.2836053, Lng : -123.1148447, Q1 : 0.793486535549, Q2 : 0.0918440818787, Q3 : -0.114488944411, Q4 : 0.590623497963}
2019-04-14 12:50:55.91: SIM {TimeUS : 59735263, Roll : 0.68, Pitch : -16.89, Yaw : 73.07, Alt : 49.2900009155, Lat : 49.2836063, Lng : -123.1148393, Q1 : 0.794201552868, Q2 : 0.0922375395894, Q3 : -0.114480227232, Q4 : 0.589601933956}
2019-04-14 12:50:56.01: SIM {TimeUS : 59835223, Roll : 0.66, Pitch : -16.92, Yaw : 73.04, Alt : 49.2999992371, Lat : 49.2836074, Lng : -123.1148338, Q1 : 0.794347167015, Q2 : 0.0921767279506, Q3 : -0.11482629925, Q4 : 0.589347958565}
2019-04-14 12:50:56.11: SIM {TimeUS : 59935183, Roll : 0.56, Pitch : -16.96, Yaw : 73.12, Alt : 49.2999992371, Lat : 49.2836085, Lng : -123.1148282, Q1 : 0.794009625912, Q2 : 0.0917370393872, Q3 : -0.115556381643, Q4 : 0.589728534222}
2019-04-14 12:50:56.21: SIM {TimeUS : 60035143, Roll : 0.41, Pitch : -17.01, Yaw : 73.27, Alt : 49.2999992371, Lat : 49.2836095, Lng : -123.1148227, Q1 : 0.793302714825, Q2 : 0.0911196097732, Q3 : -0.11654741317, Q4 : 0.590580046177}
2019-04-14 12:50:56.31: SIM {TimeUS : 60135103, Roll : 0.22, Pitch : -17.05, Yaw : 73.46, Alt : 49.2999992371, Lat : 49.2836105, Lng : -123.1148171, Q1 : 0.792398750782, Q2 : 0.0902678221464, Q3 : -0.117670439184, Q4 : 0.591700673103}
2019-04-14 12:50:56.41: SIM {TimeUS : 60235063, Roll : 0.04, Pitch : -17.08, Yaw : 73.67, Alt : 49.2999992371, Lat : 49.2836116, Lng : -123.1148114, Q1 : 0.791437983513, Q2 : 0.0893744155765, Q3 : -0.118623614311, Q4 : 0.592930495739}
2019-04-14 12:50:56.51: SIM {TimeUS : 60335023, Roll : -0.1, Pitch : -17.11, Yaw : 73.86, Alt : 49.2999992371, Lat : 49.2836126, Lng : -123.1148058, Q1 : 0.790519177914, Q2 : 0.0886784940958, Q3 : -0.119476996362, Q4 : 0.594088196754}
2019-04-14 12:50:56.61: SIM {TimeUS : 60434983, Roll : -0.2, Pitch : -17.15, Yaw : 74.02, Alt : 49.2999992371, Lat : 49.2836136, Lng : -123.1148001, Q1 : 0.789733469486, Q2 : 0.0883886516094, Q3 : -0.12013810873, Q4 : 0.595042347908}
2019-04-14 12:50:56.71: SIM {TimeUS : 60534943, Roll : -0.25, Pitch : -17.19, Yaw : 74.13, Alt : 49.2999992371, Lat : 49.2836147, Lng : -123.1147944, Q1 : 0.789163768291, Q2 : 0.08836171031, Q3 : -0.120616160333, Q4 : 0.595705091953}
2019-04-14 12:50:56.81: SIM {TimeUS : 60634903, Roll : -0.26, Pitch : -17.23, Yaw : 74.18, Alt : 49.2999992371, Lat : 49.2836159, Lng : -123.1147886, Q1 : 0.788840711117, Q2 : 0.0885789692402, Q3 : -0.12090177834, Q4 : 0.596042692661}
2019-04-14 12:50:56.91: SIM {TimeUS : 60734863, Roll : -0.22, Pitch : -17.27, Yaw : 74.18, Alt : 49.2999992371, Lat : 49.2836169, Lng : -123.1147828, Q1 : 0.788768470287, Q2 : 0.0890407115221, Q3 : -0.120970435441, Q4 : 0.596055567265}
2019-04-14 12:50:57.01: SIM {TimeUS : 60834823, Roll : -0.18, Pitch : -17.3, Yaw : 74.14, Alt : 49.3100013733, Lat : 49.283618, Lng : -123.1147771, Q1 : 0.788949012756, Q2 : 0.0894232094288, Q3 : -0.120967812836, Q4 : 0.595759809017}
2019-04-14 12:50:57.11: SIM {TimeUS : 60934783, Roll : -0.14, Pitch : -17.32, Yaw : 74.06, Alt : 49.3100013733, Lat : 49.283619, Lng : -123.1147712, Q1 : 0.789314091206, Q2 : 0.0897360891104, Q3 : -0.12099275738, Q4 : 0.595223903656}
2019-04-14 12:50:57.21: SIM {TimeUS : 61034743, Roll : -0.1, Pitch : -17.33, Yaw : 73.95, Alt : 49.3100013733, Lat : 49.2836201, Lng : -123.1147654, Q1 : 0.789808213711, Q2 : 0.0899651050568, Q3 : -0.12095284462, Q4 : 0.594541549683}
2019-04-14 12:50:57.31: SIM {TimeUS : 61134703, Roll : -0.04, Pitch : -17.34, Yaw : 73.84, Alt : 49.3100013733, Lat : 49.2836213, Lng : -123.1147595, Q1 : 0.790352106094, Q2 : 0.0902784913778, Q3 : -0.120724573731, Q4 : 0.593817234039}
2019-04-14 12:50:57.41: SIM {TimeUS : 61234663, Roll : 0.02, Pitch : -17.34, Yaw : 73.73, Alt : 49.3100013733, Lat : 49.2836225, Lng : -123.1147536, Q1 : 0.790882647038, Q2 : 0.0906233489513, Q3 : -0.120477475226, Q4 : 0.59310811758}
2019-04-14 12:50:57.51: SIM {TimeUS : 61335456, Roll : 0.1, Pitch : -17.36, Yaw : 73.62, Alt : 49.3100013733, Lat : 49.2836236, Lng : -123.1147477, Q1 : 0.791326403618, Q2 : 0.0911689847708, Q3 : -0.120330572128, Q4 : 0.592462062836}
2019-04-14 12:50:57.61: SIM {TimeUS : 61435416, Roll : 0.16, Pitch : -17.41, Yaw : 73.54, Alt : 49.3100013733, Lat : 49.2836247, Lng : -123.1147418, Q1 : 0.791650474072, Q2 : 0.0918093770742, Q3 : -0.120415128767, Q4 : 0.591912865639}
2019-04-14 12:50:57.71: SIM {TimeUS : 61535376, Roll : 0.21, Pitch : -17.44, Yaw : 73.48, Alt : 49.3100013733, Lat : 49.2836257, Lng : -123.1147358, Q1 : 0.791894733906, Q2 : 0.0922113209963, Q3 : -0.120448060334, Q4 : 0.591516792774}
2019-04-14 12:50:57.81: SIM {TimeUS : 61635336, Roll : 0.23, Pitch : -17.45, Yaw : 73.44, Alt : 49.3100013733, Lat : 49.2836269, Lng : -123.1147299, Q1 : 0.792061030865, Q2 : 0.0923661962152, Q3 : -0.120378963649, Q4 : 0.591283977032}
2019-04-14 12:50:57.91: SIM {TimeUS : 61735296, Roll : 0.22, Pitch : -17.46, Yaw : 73.43, Alt : 49.3100013733, Lat : 49.283628, Lng : -123.1147239, Q1 : 0.792129397392, Q2 : 0.0923331752419, Q3 : -0.120566509664, Q4 : 0.591159284115}
2019-04-14 12:50:58.01: SIM {TimeUS : 61835256, Roll : 0.18, Pitch : -17.5, Yaw : 73.43, Alt : 49.3100013733, Lat : 49.2836292, Lng : -123.1147178, Q1 : 0.792111575603, Q2 : 0.092233069241, Q3 : -0.121006682515, Q4 : 0.59110891819}
2019-04-14 12:50:58.11: SIM {TimeUS : 61935216, Roll : 0.14, Pitch : -17.53, Yaw : 73.45, Alt : 49.3100013733, Lat : 49.2836303, Lng : -123.1147119, Q1 : 0.792020082474, Q2 : 0.0921600013971, Q3 : -0.121421270072, Q4 : 0.591157853603}
2019-04-14 12:50:58.21: SIM {TimeUS : 62035176, Roll : 0.1, Pitch : -17.56, Yaw : 73.47, Alt : 49.3199996948, Lat : 49.2836315, Lng : -123.1147059, Q1 : 0.791895389557, Q2 : 0.0920962914824, Q3 : -0.121819809079, Q4 : 0.591252863407}
2019-04-14 12:50:58.31: SIM {TimeUS : 62135136, Roll : 0.07, Pitch : -17.58, Yaw : 73.49, Alt : 49.3199996948, Lat : 49.2836326, Lng : -123.1146998, Q1 : 0.79177826643, Q2 : 0.0920171141624, Q3 : -0.122078873217, Q4 : 0.591368615627}
2019-04-14 12:50:58.41: SIM {TimeUS : 62235096, Roll : 0.06, Pitch : -17.6, Yaw : 73.51, Alt : 49.3199996948, Lat : 49.2836337, Lng : -123.1146938, Q1 : 0.791677057743, Q2 : 0.0920280069113, Q3 : -0.122258573771, Q4 : 0.591465294361}
2019-04-14 12:50:58.51: SIM {TimeUS : 62335056, Roll : 0.06, Pitch : -17.61, Yaw : 73.52, Alt : 49.3199996948, Lat : 49.2836348, Lng : -123.1146877, Q1 : 0.791619360447, Q2 : 0.0920506715775, Q3 : -0.122310690582, Q4 : 0.591528177261}
2019-04-14 12:50:58.61: SIM {TimeUS : 62435016, Roll : 0.07, Pitch : -17.62, Yaw : 73.53, Alt : 49.3199996948, Lat : 49.283636, Lng : -123.1146816, Q1 : 0.791578531265, Q2 : 0.0922120735049, Q3 : -0.122332677245, Q4 : 0.591553151608}
2019-04-14 12:50:58.71: SIM {TimeUS : 62534976, Roll : 0.09, Pitch : -17.64, Yaw : 73.52, Alt : 49.3199996948, Lat : 49.2836372, Lng : -123.1146755, Q1 : 0.791567921638, Q2 : 0.0924494639039, Q3 : -0.122357919812, Q4 : 0.59152507782}
2019-04-14 12:50:58.81: SIM {TimeUS : 62634936, Roll : 0.1, Pitch : -17.67, Yaw : 73.51, Alt : 49.3199996948, Lat : 49.2836384, Lng : -123.1146694, Q1 : 0.791604459286, Q2 : 0.0926232039928, Q3 : -0.122546330094, Q4 : 0.591409981251}
2019-04-14 12:50:58.91: SIM {TimeUS : 62734896, Roll : 0.08, Pitch : -17.72, Yaw : 73.49, Alt : 49.3199996948, Lat : 49.2836395, Lng : -123.1146632, Q1 : 0.791672587395, Q2 : 0.0927392318845, Q3 : -0.1229743734, Q4 : 0.591211736202}
2019-04-14 12:50:59.01: SIM {TimeUS : 62834856, Roll : 0.07, Pitch : -17.77, Yaw : 73.46, Alt : 49.3199996948, Lat : 49.2836407, Lng : -123.114657, Q1 : 0.791751146317, Q2 : 0.0929236486554, Q3 : -0.123400323093, Q4 : 0.590988755226}
2019-04-14 12:50:59.11: SIM {TimeUS : 62934816, Roll : 0.09, Pitch : -17.8, Yaw : 73.43, Alt : 49.3199996948, Lat : 49.2836419, Lng : -123.114651, Q1 : 0.791843175888, Q2 : 0.0931943506002, Q3 : -0.123561687768, Q4 : 0.590789079666}
2019-04-14 12:50:59.21: SIM {TimeUS : 63034776, Roll : 0.11, Pitch : -17.8, Yaw : 73.4, Alt : 49.3199996948, Lat : 49.283643, Lng : -123.1146448, Q1 : 0.791979193687, Q2 : 0.0933133363724, Q3 : -0.123479112983, Q4 : 0.590605258942}
2019-04-14 12:50:59.31: SIM {TimeUS : 63134736, Roll : 0.13, Pitch : -17.77, Yaw : 73.37, Alt : 49.3199996948, Lat : 49.2836442, Lng : -123.1146386, Q1 : 0.792154192924, Q2 : 0.0932569056749, Q3 : -0.123204581439, Q4 : 0.590436756611}
2019-04-14 12:50:59.41: SIM {TimeUS : 63234696, Roll : 0.13, Pitch : -17.75, Yaw : 73.35, Alt : 49.3199996948, Lat : 49.2836454, Lng : -123.1146324, Q1 : 0.792311370373, Q2 : 0.0931349620223, Q3 : -0.123075671494, Q4 : 0.590271890163}
2019-04-14 12:50:59.51: SIM {TimeUS : 63334656, Roll : 0.13, Pitch : -17.74, Yaw : 73.32, Alt : 49.3199996948, Lat : 49.2836466, Lng : -123.1146262, Q1 : 0.792448818684, Q2 : 0.0930085927248, Q3 : -0.122994214296, Q4 : 0.590124309063}
2019-04-14 12:50:59.61: SIM {TimeUS : 63435449, Roll : 0.13, Pitch : -17.73, Yaw : 73.31, Alt : 49.3199996948, Lat : 49.2836476, Lng : -123.1146199, Q1 : 0.792550861835, Q2 : 0.0929297953844, Q3 : -0.12296462059, Q4 : 0.590005874634}
2019-04-14 12:50:59.71: SIM {TimeUS : 63535409, Roll : 0.12, Pitch : -17.74, Yaw : 73.29, Alt : 49.3300018311, Lat : 49.2836488, Lng : -123.1146137, Q1 : 0.792614579201, Q2 : 0.0929282084107, Q3 : -0.123076915741, Q4 : 0.589897096157}
2019-04-14 12:50:59.81: SIM {TimeUS : 63635369, Roll : 0.13, Pitch : -17.76, Yaw : 73.28, Alt : 49.3300018311, Lat : 49.28365, Lng : -123.1146074, Q1 : 0.792648792267, Q2 : 0.0930699706078, Q3 : -0.12318008393, Q4 : 0.589807212353}
2019-04-14 12:50:59.91: SIM {TimeUS : 63735329, Roll : 0.13, Pitch : -17.8, Yaw : 73.27, Alt : 49.3300018311, Lat : 49.2836512, Lng : -123.1146012, Q1 : 0.792649805546, Q2 : 0.0933052822948, Q3 : -0.123504340649, Q4 : 0.589700877666}
2019-04-14 12:51:00.01: SIM {TimeUS : 63835289, Roll : 0.13, Pitch : -17.86, Yaw : 73.26, Alt : 49.3300018311, Lat : 49.2836524, Lng : -123.1145949, Q1 : 0.792638421059, Q2 : 0.0935773104429, Q3 : -0.123876601458, Q4 : 0.589594960213}
2019-04-14 12:51:00.11: SIM {TimeUS : 63935249, Roll : 0.14, Pitch : -17.89, Yaw : 73.25, Alt : 49.3300018311, Lat : 49.2836536, Lng : -123.1145887, Q1 : 0.79263573885, Q2 : 0.0937764272094, Q3 : -0.124103806913, Q4 : 0.5895190835}
2019-04-14 12:51:00.21: SIM {TimeUS : 64035209, Roll : 0.13, Pitch : -17.92, Yaw : 73.25, Alt : 49.3300018311, Lat : 49.2836548, Lng : -123.1145824, Q1 : 0.792647898197, Q2 : 0.0938631817698, Q3 : -0.124364949763, Q4 : 0.589433908463}
2019-04-14 12:51:00.31: SIM {TimeUS : 64135169, Roll : 0.11, Pitch : -17.94, Yaw : 73.24, Alt : 49.3300018311, Lat : 49.283656, Lng : -123.1145761, Q1 : 0.792679905891, Q2 : 0.0938473120332, Q3 : -0.124573014677, Q4 : 0.589349508286}
2019-04-14 12:51:00.41: SIM {TimeUS : 64235129, Roll : 0.12, Pitch : -17.93, Yaw : 73.23, Alt : 49.3300018311, Lat : 49.2836572, Lng : -123.1145698, Q1 : 0.792725980282, Q2 : 0.0938504636288, Q3 : -0.124490655959, Q4 : 0.589304387569}
2019-04-14 12:51:00.51: SIM {TimeUS : 64335089, Roll : 0.14, Pitch : -17.94, Yaw : 73.22, Alt : 49.3300018311, Lat : 49.2836584, Lng : -123.1145635, Q1 : 0.792751669884, Q2 : 0.0940407365561, Q3 : -0.124417982996, Q4 : 0.58925485611}
2019-04-14 12:51:00.61: SIM {TimeUS : 64435049, Roll : 0.15, Pitch : -17.96, Yaw : 73.21, Alt : 49.3300018311, Lat : 49.2836596, Lng : -123.1145572, Q1 : 0.792780637741, Q2 : 0.094190813601, Q3 : -0.124492526054, Q4 : 0.589176177979}
2019-04-14 12:51:00.71: SIM {TimeUS : 64535009, Roll : 0.16, Pitch : -17.96, Yaw : 73.2, Alt : 49.3300018311, Lat : 49.2836608, Lng : -123.1145509, Q1 : 0.792827546597, Q2 : 0.0942635163665, Q3 : -0.124527797103, Q4 : 0.589093983173}
2019-04-14 12:51:00.81: SIM {TimeUS : 64634969, Roll : 0.16, Pitch : -17.96, Yaw : 73.18, Alt : 49.3300018311, Lat : 49.283662, Lng : -123.1145445, Q1 : 0.792893946171, Q2 : 0.0942417234182, Q3 : -0.12450505048, Q4 : 0.589012920856}
2019-04-14 12:51:00.91: SIM {TimeUS : 64734929, Roll : 0.16, Pitch : -17.96, Yaw : 73.17, Alt : 49.3300018311, Lat : 49.2836632, Lng : -123.1145383, Q1 : 0.792965948582, Q2 : 0.0941888689995, Q3 : -0.124533034861, Q4 : 0.588918507099}
2019-04-14 12:51:01.01: SIM {TimeUS : 64834889, Roll : 0.14, Pitch : -17.98, Yaw : 73.16, Alt : 49.3300018311, Lat : 49.2836644, Lng : -123.1145319, Q1 : 0.793035447598, Q2 : 0.0941187143326, Q3 : -0.124784976244, Q4 : 0.588782787323}
2019-04-14 12:51:01.11: SIM {TimeUS : 64934849, Roll : 0.11, Pitch : -18.01, Yaw : 73.14, Alt : 49.3300018311, Lat : 49.2836657, Lng : -123.1145256, Q1 : 0.793096005917, Q2 : 0.0940737500787, Q3 : -0.125197350979, Q4 : 0.588620841503}
2019-04-14 12:51:01.21: SIM {TimeUS : 65034809, Roll : 0.09, Pitch : -18.02, Yaw : 73.13, Alt : 49.3400001526, Lat : 49.2836669, Lng : -123.1145192, Q1 : 0.79317677021, Q2 : 0.0939834937453, Q3 : -0.125343456864, Q4 : 0.588495373726}
2019-04-14 12:51:01.31: SIM {TimeUS : 65134769, Roll : 0.1, Pitch : -18.01, Yaw : 73.11, Alt : 49.3400001526, Lat : 49.2836681, Lng : -123.1145129, Q1 : 0.793262422085, Q2 : 0.0939692780375, Q3 : -0.125178262591, Q4 : 0.588417232037}
2019-04-14 12:51:01.41: SIM {TimeUS : 65234729, Roll : 0.12, Pitch : -17.99, Yaw : 73.1, Alt : 49.3400001526, Lat : 49.2836693, Lng : -123.1145065, Q1 : 0.793334960938, Q2 : 0.094052106142, Q3 : -0.124994121492, Q4 : 0.58834540844}
2019-04-14 12:51:01.51: SIM {TimeUS : 65334689, Roll : 0.14, Pitch : -18.0, Yaw : 73.08, Alt : 49.3400001526, Lat : 49.2836705, Lng : -123.1145001, Q1 : 0.793390750885, Q2 : 0.0942132174969, Q3 : -0.12496689707, Q4 : 0.588250160217}
2019-04-14 12:51:01.61: SIM {TimeUS : 65435482, Roll : 0.14, Pitch : -18.02, Yaw : 73.07, Alt : 49.3400001526, Lat : 49.2836717, Lng : -123.1144937, Q1 : 0.793451070786, Q2 : 0.0942488089204, Q3 : -0.125151529908, Q4 : 0.588123857975}
2019-04-14 12:51:01.71: SIM {TimeUS : 65535442, Roll : 0.11, Pitch : -18.05, Yaw : 73.05, Alt : 49.3400001526, Lat : 49.283673, Lng : -123.1144873, Q1 : 0.793513715267, Q2 : 0.094171307981, Q3 : -0.125459954143, Q4 : 0.587985992432}
2019-04-14 12:51:01.81: SIM {TimeUS : 65635402, Roll : 0.09, Pitch : -18.06, Yaw : 73.04, Alt : 49.3400001526, Lat : 49.2836742, Lng : -123.114481, Q1 : 0.793576478958, Q2 : 0.0941061452031, Q3 : -0.125643849373, Q4 : 0.587872505188}
2019-04-14 12:51:01.91: SIM {TimeUS : 65735362, Roll : 0.09, Pitch : -18.07, Yaw : 73.03, Alt : 49.3400001526, Lat : 49.2836754, Lng : -123.1144746, Q1 : 0.79362988472, Q2 : 0.094164185226, Q3 : -0.125737354159, Q4 : 0.587771058083}
2019-04-14 12:51:02.01: SIM {TimeUS : 65835322, Roll : 0.11, Pitch : -18.08, Yaw : 73.01, Alt : 49.3400001526, Lat : 49.2836766, Lng : -123.1144682, Q1 : 0.793666779995, Q2 : 0.0943172946572, Q3 : -0.125761777163, Q4 : 0.587691485882}
2019-04-14 12:51:02.11: SIM {TimeUS : 65935282, Roll : 0.14, Pitch : -18.1, Yaw : 73.01, Alt : 49.3400001526, Lat : 49.2836778, Lng : -123.1144618, Q1 : 0.793673217297, Q2 : 0.0946116372943, Q3 : -0.125719293952, Q4 : 0.587644577026}
2019-04-14 12:51:02.21: SIM {TimeUS : 66035242, Roll : 0.16, Pitch : -18.12, Yaw : 73.0, Alt : 49.3400001526, Lat : 49.2836791, Lng : -123.1144554, Q1 : 0.79367172718, Q2 : 0.0948400050402, Q3 : -0.125762596726, Q4 : 0.587600529194}
2019-04-14 12:51:02.31: SIM {TimeUS : 66135202, Roll : 0.18, Pitch : -18.14, Yaw : 72.99, Alt : 49.3400001526, Lat : 49.2836803, Lng : -123.114449, Q1 : 0.793670475483, Q2 : 0.0950419157743, Q3 : -0.12582783401, Q4 : 0.587555587292}
2019-04-14 12:51:02.41: SIM {TimeUS : 66235162, Roll : 0.19, Pitch : -18.16, Yaw : 72.99, Alt : 49.3400001526, Lat : 49.2836815, Lng : -123.1144425, Q1 : 0.793667495251, Q2 : 0.0952256917953, Q3 : -0.125867977738, Q4 : 0.587521314621}
2019-04-14 12:51:02.51: SIM {TimeUS : 66335122, Roll : 0.22, Pitch : -18.16, Yaw : 72.98, Alt : 49.3499984741, Lat : 49.2836828, Lng : -123.1144361, Q1 : 0.793658554554, Q2 : 0.095463052392, Q3 : -0.125773966312, Q4 : 0.587514996529}
