2019-04-14 13:37:30.20: SIM {TimeUS : 40216407, Roll : 0.0, Pitch : 0.0, Yaw : 0.0, Alt : 30.1000003815, Lat : 49.28357, Lng : -123.11502, Q1 : 1.0, Q2 : 0.0, Q3 : 0.0, Q4 : 0.0}
2019-04-14 13:37:30.31: SIM {TimeUS : 40335526, Roll : 0.0, Pitch : 0.0, Yaw : 0.0, Alt : 30.1000003815, Lat : 49.28357, Lng : -123.11502, Q1 : 1.0, Q2 : 0.0, Q3 : 0.0, Q4 : 0.0}
2019-04-14 13:37:30.41: SIM {TimeUS : 40435486, Roll : 0.0, Pitch : 0.0, Yaw : 0.0, Alt : 30.1000003815, Lat : 49.28357, Lng : -123.11502, Q1 : 1.0, Q2 : 0.0, Q3 : 0.0, Q4 : 0.0}
2019-04-14 13:37:30.51: SIM {TimeUS : 40535446, Roll : 0.0, Pitch : 0.0, Yaw : 0.0, Alt : 30.1000003815, Lat : 49.28357, Lng : -123.11502, Q1 : 1.0, Q2 : 0.0, Q3 : 0.0, Q4 : 0.0}
2019-04-14 13:37:30.61: SIM {TimeUS : 40635406, Roll : 0.0, Pitch : 0.0, Yaw : 0.0, Alt : 30.1000003815, Lat : 49.28357, Lng : -123.11502, Q1 : 1.0, Q2 : 0.0, Q3 : 0.0, Q4 : 0.0}
2019-04-14 13:37:30.71: SIM {TimeUS : 40735366, Roll : 0.0, Pitch : 0.0, Yaw : 0.0, Alt : 30.1000003815, Lat : 49.28357, Lng : -123.11502, Q1 : 1.0, Q2 : 0.0, Q3 : 0.0, Q4 : 0.0}
2019-04-14 13:37:30.81: SIM {TimeUS : 40835326, Roll : 0.0, Pitch : 0.0, Yaw : 0.0, Alt : 30.1000003815, Lat : 49.28357, Lng : -123.11502, Q1 : 1.0, Q2 : 0.0, Q3 : 0.0, Q4 : 0.0}
2019-04-14 13:37:30.91: SIM {TimeUS : 40935286, Roll : 0.0, Pitch : 0.0, Yaw : 0.0, Alt : 30.1000003815, Lat : 49.28357, Lng : -123.11502, Q1 : 1.0, Q2 : 0.0, Q3 : 0.0, Q4 : 0.0}
2019-04-14 13:37:31.01: SIM {TimeUS : 41035246, Roll : 0.0, Pitch : 0.0, Yaw : 0.0, Alt : 30.1000003815, Lat : 49.28357, Lng : -123.11502, Q1 : 1.0, Q2 : 0.0, Q3 : 0.0, Q4 : 0.0}
2019-04-14 13:37:31.11: SIM {TimeUS : 41135206, Roll : 0.0, Pitch : 0.0, Yaw : 0.0, Alt : 30.1000003815, Lat : 49.28357, Lng : -123.11502, Q1 : 1.0, Q2 : 0.0, Q3 : 0.0, Q4 : 0.0}
2019-04-14 13:37:31.21: SIM {TimeUS : 41235166, Roll : 0.0, Pitch : 0.0, Yaw : 0.0, Alt : 30.1000003815, Lat : 49.28357, Lng : -123.11502, Q1 : 1.0, Q2 : 0.0, Q3 : 0.0, Q4 : 0.0}
2019-04-14 13:37:31.31: SIM {TimeUS : 41335126, Roll : 0.0, Pitch : 0.0, Yaw : 0.0, Alt : 30.1000003815, Lat : 49.28357, Lng : -123.11502, Q1 : 1.0, Q2 : 0.0, Q3 : 0.0, Q4 : 0.0}
2019-04-14 13:37:31.41: SIM {TimeUS : 41435086, Roll : 0.0, Pitch : 0.0, Yaw : 0.0, Alt : 30.1000003815, Lat : 49.28357, Lng : -123.11502, Q1 : 1.0, Q2 : 0.0, Q3 : 0.0, Q4 : 0.0}
2019-04-14 13:37:31.51: SIM {TimeUS : 41535046, Roll : 0.0, Pitch : 0.0, Yaw : 0.0, Alt : 30.1000003815, Lat : 49.28357, Lng : -123.11502, Q1 : 1.0, Q2 : 0.0, Q3 : 0.0, Q4 : 0.0}
2019-04-14 13:37:31.61: SIM {TimeUS : 41635006, Roll : 0.0, Pitch : 0.0, Yaw : 0.0, Alt : 30.1000003815, Lat : 49.28357, Lng : -123.11502, Q1 : 1.0, Q2 : 0.0, Q3 : 0.0, Q4 : 0.0}
2019-04-14 13:37:31.71: SIM {TimeUS : 41734966, Roll : 0.0, Pitch : 0.0, Yaw : 0.0, Alt : 30.1000003815, Lat : 49.28357, Lng : -123.11502, Q1 : 1.0, Q2 : 0.0, Q3 : 0.0, Q4 : 0.0}
2019-04-14 13:37:31.81: SIM {TimeUS : 41834926, Roll : 0.0, Pitch : 0.0, Yaw : 0.0, Alt : 30.1000003815, Lat : 49.28357, Lng : -123.11502, Q1 : 1.0, Q2 : 0.0, Q3 : 0.0, Q4 : 0.0}
2019-04-14 13:37:31.91: SIM {TimeUS : 41934886, Roll : 0.0, Pitch : 0.0, Yaw : 0.0, Alt : 30.1000003815, Lat : 49.28357, Lng : -123.11502, Q1 : 1.0, Q2 : 0.0, Q3 : 0.0, Q4 : 0.0}
2019-04-14 13:37:32.01: SIM {TimeUS : 42034846, Roll : 0.0, Pitch : 0.0, Yaw : 0.0, Alt : 30.1000003815, Lat : 49.28357, Lng : -123.11502, Q1 : 1.0, Q2 : 0.0, Q3 : 0.0, Q4 : 0.0}
2019-04-14 13:37:32.11: SIM {TimeUS : 42134806, Roll : 0.0, Pitch : 0.0, Yaw : 0.0, Alt : 30.1000003815, Lat : 49.28357, Lng : -123.11502, Q1 : 1.0, Q2 : 0.0, Q3 : 0.0, Q4 : 0.0}
2019-04-14 13:37:32.21: SIM {TimeUS : 42234766, Roll : 0.0, Pitch : 0.0, Yaw : 0.0, Alt : 30.1000003815, Lat : 49.28357, Lng : -123.11502, Q1 : 1.0, Q2 : 0.0, Q3 : 0.0, Q4 : 0.0}
2019-04-14 13:37:32.31: SIM {TimeUS : 42335559, Roll : 0.0, Pitch : 0.0, Yaw : 0.0, Alt : 30.1000003815, Lat : 49.28357, Lng : -123.11502, Q1 : 1.0, Q2 : 0.0, Q3 : 0.0, Q4 : 0.0}
2019-04-14 13:37:32.41: SIM {TimeUS : 42435519, Roll : 0.0, Pitch : 0.0, Yaw : 0.0, Alt : 30.1000003815, Lat : 49.28357, Lng : -123.11502, Q1 : 1.0, Q2 : 0.0, Q3 : 0.0, Q4 : 0.0}
2019-04-14 13:37:32.51: SIM {TimeUS : 42535479, Roll : 0.0, Pitch : 0.0, Yaw : 360.0, Alt : 30.1000003815, Lat : 49.28357, Lng : -123.11502, Q1 : 1.0, Q2 : 0.0, Q3 : 0.0, Q4 : -1.4079991513e-12}
2019-04-14 13:37:32.61: SIM {TimeUS : 42635439, Roll : 0.0, Pitch : 0.0, Yaw : 0.0, Alt : 30.1000003815, Lat : 49.28357, Lng : -123.11502, Q1 : 1.0, Q2 : 0.0, Q3 : 0.0, Q4 : 2.27504577677e-11}
2019-04-14 13:37:32.71: SIM {TimeUS : 42735399, Roll : 0.0, Pitch : 0.0, Yaw : 360.0, Alt : 30.1000003815, Lat : 49.28357, Lng : -123.11502, Q1 : 1.0, Q2 : 0.0, Q3 : 0.0, Q4 : -1.59848354997e-07}
2019-04-14 13:37:32.81: SIM {TimeUS : 42835359, Roll : 0.0, Pitch : 0.0, Yaw : 359.99, Alt : 30.1000003815, Lat : 49.28357, Lng : -123.11502, Q1 : 1.0, Q2 : 0.0, Q3 : 0.0, Q4 : -3.35635519377e-07}
2019-04-14 13:37:32.91: SIM {TimeUS : 42935319, Roll : 0.0, Pitch : 0.0, Yaw : 359.99, Alt : 30.1000003815, Lat : 49.28357, Lng : -123.11502, Q1 : 1.0, Q2 : 0.0, Q3 : 0.0, Q4 : -5.30331476511e-07}
2019-04-14 13:37:33.01: SIM {TimeUS : 43035279, Roll : 0.0, Pitch : 0.0, Yaw : 359.99, Alt : 30.1000003815, Lat : 49.28357, Lng : -123.11502, Q1 : 1.0, Q2 : 0.0, Q3 : 0.0, Q4 : -7.35103583338e-07}
2019-04-14 13:37:33.11: SIM {TimeUS : 43135239, Roll : 0.0, Pitch : 0.0, Yaw : 359.99, Alt : 30.1000003815, Lat : 49.28357, Lng : -123.11502, Q1 : 1.0, Q2 : 0.0, Q3 : 0.0, Q4 : -9.12013206289e-07}
2019-04-14 13:37:33.21: SIM {TimeUS : 43235199, Roll : 0.0, Pitch : 0.0, Yaw : 359.99, Alt : 30.1000003815, Lat : 49.28357, Lng : -123.11502, Q1 : 1.0, Q2 : 0.0, Q3 : 0.0, Q4 : -1.12913539851e-06}
2019-04-14 13:37:33.31: SIM {TimeUS : 43335159, Roll : 0.0, Pitch : 0.0, Yaw : 359.99, Alt : 30.1000003815, Lat : 49.28357, Lng : -123.11502, Q1 : 1.0, Q2 : 0.0, Q3 : 0.0, Q4 : -1.32929835672e-06}
2019-04-14 13:37:33.41: SIM {TimeUS : 43435119, Roll : 0.0, Pitch : 0.0, Yaw : 359.99, Alt : 30.1200008392, Lat : 49.28357, Lng : -123.11502, Q1 : 1.0, Q2 : 0.0, Q3 : 0.0, Q4 : -1.55741008712e-06}
2019-04-14 13:37:33.51: SIM {TimeUS : 43535079, Roll : 0.0, Pitch : 0.0, Yaw : 359.99, Alt : 30.1399993896, Lat : 49.28357, Lng : -123.11502, Q1 : 1.0, Q2 : 0.0, Q3 : 0.0, Q4 : -1.80437564268e-06}
2019-04-14 13:37:33.61: SIM {TimeUS : 43635039, Roll : 0.0, Pitch : 0.0, Yaw : 359.99, Alt : 30.1700000763, Lat : 49.28357, Lng : -123.11502, Q1 : 1.0, Q2 : 0.0, Q3 : 0.0, Q4 : -2.07927973861e-06}
2019-04-14 13:37:33.71: SIM {TimeUS : 43734999, Roll : 0.0, Pitch : 0.0, Yaw : 359.99, Alt : 30.2000007629, Lat : 49.28357, Lng : -123.11502, Q1 : 1.0, Q2 : 0.0, Q3 : 0.0, Q4 : -2.29794727602e-06}
2019-04-14 13:37:33.81: SIM {TimeUS : 43834959, Roll : -0.1, Pitch : -0.08, Yaw : 359.99, Alt : 30.25, Lat : 49.28357, Lng : -123.11502, Q1 : 0.999999284744, Q2 : -0.000945437466726, Q3 : -0.000766454788391, Q4 : -1.19026053653e-05}
2019-04-14 13:37:33.91: SIM {TimeUS : 43934919, Roll : -0.41, Pitch : -0.33, Yaw : 359.99, Alt : 30.3500003815, Lat : 49.28357, Lng : -123.11502, Q1 : 0.999989211559, Q2 : -0.00359205924906, Q3 : -0.00294988090172, Q4 : -4.73498439533e-05}
2019-04-14 13:37:34.01: SIM {TimeUS : 44034879, Roll : -0.69, Pitch : -0.59, Yaw : 359.99, Alt : 30.4899997711, Lat : 49.28357, Lng : -123.11502, Q1 : 0.999968349934, Q2 : -0.00606691185385, Q3 : -0.00515101430938, Q4 : -0.000109711429104}
2019-04-14 13:37:34.11: SIM {TimeUS : 44134839, Roll : -0.84, Pitch : -0.73, Yaw : 359.98, Alt : 30.6499996185, Lat : 49.28357, Lng : -123.11502, Q1 : 0.999952614307, Q2 : -0.00733928987756, Q3 : -0.00639808597043, Q4 : -0.000185341501492}
2019-04-14 13:37:34.21: SIM {TimeUS : 44234799, Roll : -0.83, Pitch : -0.73, Yaw : 359.97, Alt : 30.8099994659, Lat : 49.28357, Lng : -123.11502, Q1 : 0.999952852726, Q2 : -0.00726502947509, Q3 : -0.00644011329859, Q4 : -0.000269399781246}
2019-04-14 13:37:34.31: SIM {TimeUS : 44334759, Roll : -0.69, Pitch : -0.62, Yaw : 359.96, Alt : 30.9599990845, Lat : 49.28357, Lng : -123.1150201, Q1 : 0.999966442585, Q2 : -0.0061047365889, Q3 : -0.00545245176181, Q4 : -0.000348355417373}
2019-04-14 13:37:34.41: SIM {TimeUS : 44435552, Roll : -0.46, Pitch : -0.45, Yaw : 359.95, Alt : 31.1200008392, Lat : 49.2835701, Lng : -123.1150202, Q1 : 0.999983549118, Q2 : -0.00409392127767, Q3 : -0.0039975955151, Q4 : -0.000416654947912}
2019-04-14 13:37:34.51: SIM {TimeUS : 44535512, Roll : -0.23, Pitch : -0.26, Yaw : 359.94, Alt : 31.2800006866, Lat : 49.2835701, Lng : -123.1150203, Q1 : 0.999995052814, Q2 : -0.00207164138556, Q3 : -0.00231526396237, Q4 : -0.000474497122923}
2019-04-14 13:37:34.61: SIM {TimeUS : 44635472, Roll : -0.06, Pitch : -0.09, Yaw : 359.94, Alt : 31.4400005341, Lat : 49.2835702, Lng : -123.1150204, Q1 : 0.999999344349, Q2 : -0.000589866715018, Q3 : -0.000824705290142, Q4 : -0.000521078589372}
2019-04-14 13:37:34.71: SIM {TimeUS : 44735432, Roll : 0.02, Pitch : 0.01, Yaw : 359.93, Alt : 31.6200008392, Lat : 49.2835702, Lng : -123.1150204, Q1 : 0.999999821186, Q2 : 0.000257181789493, Q3 : 0.000131266919198, Q4 : -0.000553022662643}
2019-04-14 13:37:34.81: SIM {TimeUS : 44835392, Roll : 0.06, Pitch : 0.05, Yaw : 359.93, Alt : 31.7999992371, Lat : 49.2835703, Lng : -123.1150205, Q1 : 0.999999582767, Q2 : 0.000552633195184, Q3 : 0.000519654946402, Q4 : -0.000573549245019}
2019-04-14 13:37:34.91: SIM {TimeUS : 44935352, Roll : 0.06, Pitch : 0.05, Yaw : 359.93, Alt : 31.9799995422, Lat : 49.2835703, Lng : -123.1150206, Q1 : 0.999999582767, Q2 : 0.000549677642994, Q3 : 0.000479274342069, Q4 : -0.000583813991398}
2019-04-14 13:37:35.01: SIM {TimeUS : 45035312, Roll : 0.06, Pitch : 0.03, Yaw : 359.93, Alt : 32.1699981689, Lat : 49.2835703, Lng : -123.1150206, Q1 : 0.999999642372, Q2 : 0.000560422020499, Q3 : 0.000328794878442, Q4 : -0.000583709741477}
2019-04-14 13:37:35.11: SIM {TimeUS : 45135272, Roll : 0.07, Pitch : 0.03, Yaw : 359.93, Alt : 32.3600006104, Lat : 49.2835703, Lng : -123.1150207, Q1 : 0.999999582767, Q2 : 0.000690422486514, Q3 : 0.000289930263534, Q4 : -0.000577126629651}
2019-04-14 13:37:35.21: SIM {TimeUS : 45235232, Roll : 0.09, Pitch : 0.05, Yaw : 359.93, Alt : 32.5499992371, Lat : 49.2835703, Lng : -123.1150207, Q1 : 0.999999344349, Q2 : 0.000857404083945, Q3 : 0.000502186478116, Q4 : -0.000556988525204}
2019-04-14 13:37:35.31: SIM {TimeUS : 45335192, Roll : 0.1, Pitch : 0.09, Yaw : 359.94, Alt : 32.75, Lat : 49.2835703, Lng : -123.1150208, Q1 : 0.999999046326, Q2 : 0.00095085427165, Q3 : 0.000858526327647, Q4 : -0.00052407727344}
2019-04-14 13:37:35.41: SIM {TimeUS : 45435152, Roll : 0.11, Pitch : 0.13, Yaw : 359.94, Alt : 32.9500007629, Lat : 49.2835704, Lng : -123.1150208, Q1 : 0.999998688698, Q2 : 0.000976073497441, Q3 : 0.00121727981605, Q4 : -0.000493944913615}
2019-04-14 13:37:35.51: SIM {TimeUS : 45535112, Roll : 0.13, Pitch : 0.18, Yaw : 359.94, Alt : 33.1500015259, Lat : 49.2835704, Lng : -123.1150208, Q1 : 0.999997973442, Q2 : 0.00113739608787, Q3 : 0.00158725562505, Q4 : -0.000477752328152}
2019-04-14 13:37:35.61: SIM {TimeUS : 45635072, Roll : 0.16, Pitch : 0.2, Yaw : 359.94, Alt : 33.3499984741, Lat : 49.2835704, Lng : -123.1150209, Q1 : 0.999997317791, Q2 : 0.00141217035707, Q3 : 0.001787389745, Q4 : -0.000481819442939}
2019-04-14 13:37:35.71: SIM {TimeUS : 45735032, Roll : 0.18, Pitch : 0.21, Yaw : 359.94, Alt : 33.5600013733, Lat : 49.2835704, Lng : -123.1150209, Q1 : 0.999996781349, Q2 : 0.00163409276865, Q3 : 0.00187332881615, Q4 : -0.000493940373417}
2019-04-14 13:37:35.81: SIM {TimeUS : 45834992, Roll : 0.19, Pitch : 0.21, Yaw : 359.94, Alt : 33.7599983215, Lat : 49.2835704, Lng : -123.1150209, Q1 : 0.999996721745, Q2 : 0.00168363645207, Q3 : 0.0018698227359, Q4 : -0.000512957340106}
2019-04-14 13:37:35.91: SIM {TimeUS : 45934952, Roll : 0.18, Pitch : 0.18, Yaw : 359.93, Alt : 33.9700012207, Lat : 49.2835704, Lng : -123.1150209, Q1 : 0.999997198582, Q2 : 0.00164456968196, Q3 : 0.00160504796077, Q4 : -0.00053738540737}
2019-04-14 13:37:36.01: SIM {TimeUS : 46034912, Roll : 0.17, Pitch : 0.13, Yaw : 359.93, Alt : 34.1800003052, Lat : 49.2835706, Lng : -123.1150209, Q1 : 0.999998033047, Q2 : 0.00148564728443, Q3 : 0.00118088093586, Q4 : -0.000549447722733}
2019-04-14 13:37:36.11: SIM {TimeUS : 46134872, Roll : 0.14, Pitch : 0.09, Yaw : 359.93, Alt : 34.3899993896, Lat : 49.2835706, Lng : -123.1150209, Q1 : 0.999998748302, Q2 : 0.0012418422848, Q3 : 0.000795682368334, Q4 : -0.000556804297958}
2019-04-14 13:37:36.21: SIM {TimeUS : 46234832, Roll : 0.11, Pitch : 0.06, Yaw : 359.93, Alt : 34.6100006104, Lat : 49.2835704, Lng : -123.1150209, Q1 : 0.999999165535, Q2 : 0.00101000769064, Q3 : 0.000551265431568, Q4 : -0.000573550234549}
2019-04-14 13:37:36.31: SIM {TimeUS : 46334792, Roll : 0.1, Pitch : 0.06, Yaw : 359.93, Alt : 34.8199996948, Lat : 49.2835704, Lng : -123.1150209, Q1 : 0.999999284744, Q2 : 0.000892726180609, Q3 : 0.000523539551068, Q4 : -0.000598805432674}
2019-04-14 13:37:36.41: SIM {TimeUS : 46434752, Roll : 0.08, Pitch : 0.04, Yaw : 359.92, Alt : 35.0400009155, Lat : 49.2835704, Lng : -123.1150208, Q1 : 0.999999403954, Q2 : 0.000781191745773, Q3 : 0.000406980514526, Q4 : -0.00062030821573}
2019-04-14 13:37:36.51: SIM {TimeUS : 46535545, Roll : 0.06, Pitch : 0.04, Yaw : 359.92, Alt : 35.25, Lat : 49.2835704, Lng : -123.1150208, Q1 : 0.999999582767, Q2 : 0.000605183769949, Q3 : 0.00035197896068, Q4 : -0.00064414733788}
2019-04-14 13:37:36.61: SIM {TimeUS : 46635505, Roll : 0.04, Pitch : 0.03, Yaw : 359.92, Alt : 35.4700012207, Lat : 49.2835704, Lng : -123.1150208, Q1 : 0.999999642372, Q2 : 0.000381670863135, Q3 : 0.000310303817969, Q4 : -0.000668737571687}
2019-04-14 13:37:36.71: SIM {TimeUS : 46735465, Roll : 0.02, Pitch : 0.03, Yaw : 359.92, Alt : 35.6899986267, Lat : 49.2835704, Lng : -123.1150208, Q1 : 0.999999701977, Q2 : 0.000196203225642, Q3 : 0.000285087444354, Q4 : -0.00069168349728}
2019-04-14 13:37:36.81: SIM {TimeUS : 46835425, Roll : 0.01, Pitch : 0.0, Yaw : 359.91, Alt : 35.9099998474, Lat : 49.2835704, Lng : -123.1150208, Q1 : 0.999999761581, Q2 : 0.000130752305267, Q3 : 6.82066529407e-05, Q4 : -0.000707919534761}
2019-04-14 13:37:36.91: SIM {TimeUS : 46935385, Roll : 0.0, Pitch : -0.01, Yaw : 359.91, Alt : 36.1300010681, Lat : 49.2835704, Lng : -123.1150207, Q1 : 0.999999761581, Q2 : 7.45587749407e-05, Q3 : -0.00010102889064, Q4 : -0.000724697776604}
2019-04-14 13:37:37.01: SIM {TimeUS : 47035345, Roll : 0.0, Pitch : -0.02, Yaw : 359.91, Alt : 36.3499984741, Lat : 49.2835704, Lng : -123.1150207, Q1 : 0.999999701977, Q2 : -8.32242585602e-05, Q3 : -0.000203512696316, Q4 : -0.000749294704292}
2019-04-14 13:37:37.11: SIM {TimeUS : 47135305, Roll : -0.01, Pitch : -0.02, Yaw : 359.91, Alt : 36.5699996948, Lat : 49.2835704, Lng : -123.1150207, Q1 : 0.999999642372, Q2 : -0.000137829236337, Q3 : -0.000222576447413, Q4 : -0.000777343404479}
2019-04-14 13:37:37.21: SIM {TimeUS : 47235265, Roll : 0.0, Pitch : -0.02, Yaw : 359.9, Alt : 36.7999992371, Lat : 49.2835704, Lng : -123.1150207, Q1 : 0.999999642372, Q2 : -1.04719592855e-05, Q3 : -0.000205736141652, Q4 : -0.000807168369647}
2019-04-14 13:37:37.31: SIM {TimeUS : 47335225, Roll : 0.0, Pitch : -0.03, Yaw : 359.9, Alt : 37.0200004578, Lat : 49.2835704, Lng : -123.1150207, Q1 : 0.999999582767, Q2 : -2.61933346337e-05, Q3 : -0.000277022947557, Q4 : -0.000837067258544}
2019-04-14 13:37:37.41: SIM {TimeUS : 47435185, Roll : -0.02, Pitch : -0.05, Yaw : 359.9, Alt : 37.25, Lat : 49.2835704, Lng : -123.1150207, Q1 : 0.999999463558, Q2 : -0.000247456540819, Q3 : -0.000495839980431, Q4 : -0.000870861753356}
2019-04-14 13:37:37.51: SIM {TimeUS : 47535145, Roll : -0.06, Pitch : -0.08, Yaw : 359.89, Alt : 37.4700012207, Lat : 49.2835704, Lng : -123.1150207, Q1 : 0.999999165535, Q2 : -0.00060283759376, Q3 : -0.000710241787601, Q4 : -0.000910193484742}
2019-04-14 13:37:37.61: SIM {TimeUS : 47635105, Roll : -0.1, Pitch : -0.09, Yaw : 359.89, Alt : 37.7000007629, Lat : 49.2835704, Lng : -123.1150206, Q1 : 0.999998748302, Q2 : -0.000940694240853, Q3 : -0.000843777670525, Q4 : -0.00094785913825}
2019-04-14 13:37:37.71: SIM {TimeUS : 47735065, Roll : -0.13, Pitch : -0.1, Yaw : 359.88, Alt : 37.9199981689, Lat : 49.2835704, Lng : -123.1150206, Q1 : 0.999998450279, Q2 : -0.00115585688036, Q3 : -0.000889910268597, Q4 : -0.000986688653938}
2019-04-14 13:37:37.81: SIM {TimeUS : 47835025, Roll : -0.13, Pitch : -0.09, Yaw : 359.88, Alt : 38.1500015259, Lat : 49.2835704, Lng : -123.1150206, Q1 : 0.999998450279, Q2 : -0.0012046181364, Q3 : -0.000800972164143, Q4 : -0.0010237863753}
2019-04-14 13:37:37.91: SIM {TimeUS : 47934985, Roll : -0.11, Pitch : -0.05, Yaw : 359.87, Alt : 38.3800010681, Lat : 49.2835704, Lng : -123.1150206, Q1 : 0.999998807907, Q2 : -0.00103351229336, Q3 : -0.000492615101393, Q4 : -0.00105357856955}
2019-04-14 13:37:38.01: SIM {TimeUS : 48034945, Roll : -0.08, Pitch : -0.03, Yaw : 359.87, Alt : 38.6100006104, Lat : 49.2835704, Lng : -123.1150206, Q1 : 0.99999910593, Q2 : -0.000774347689003, Q3 : -0.000277173501672, Q4 : -0.00108012231067}
2019-04-14 13:37:38.11: SIM {TimeUS : 48134905, Roll : -0.07, Pitch : -0.02, Yaw : 359.87, Alt : 38.8300018311, Lat : 49.2835704, Lng : -123.1150206, Q1 : 0.999999165535, Q2 : -0.000659821147565, Q3 : -0.000237367697991, Q4 : -0.00110805290751}
2019-04-14 13:37:38.21: SIM {TimeUS : 48234865, Roll : -0.07, Pitch : -0.01, Yaw : 359.87, Alt : 39.0600013733, Lat : 49.2835704, Lng : -123.1150206, Q1 : 0.999999165535, Q2 : -0.000641211285256, Q3 : -0.000104479695437, Q4 : -0.00112855585758}
2019-04-14 13:37:38.31: SIM {TimeUS : 48334825, Roll : -0.08, Pitch : 0.0, Yaw : 359.86, Alt : 39.2900009155, Lat : 49.2835706, Lng : -123.1150206, Q1 : 0.999999046326, Q2 : -0.000755873974413, Q3 : 5.76806996833e-05, Q4 : -0.00113759527449}
2019-04-14 13:37:38.41: SIM {TimeUS : 48434785, Roll : -0.08, Pitch : 0.02, Yaw : 359.86, Alt : 39.5200004578, Lat : 49.2835706, Lng : -123.1150206, Q1 : 0.999999046326, Q2 : -0.000736422371119, Q3 : 0.000179450376891, Q4 : -0.00114059553016}
2019-04-14 13:37:38.51: SIM {TimeUS : 48534745, Roll : -0.06, Pitch : 0.04, Yaw : 359.86, Alt : 39.75, Lat : 49.2835706, Lng : -123.1150206, Q1 : 0.99999910593, Q2 : -0.000589533883613, Q3 : 0.000386727857403, Q4 : -0.00114101183135}
2019-04-14 13:37:38.61: SIM {TimeUS : 48635538, Roll : -0.04, Pitch : 0.04, Yaw : 359.86, Alt : 39.9900016785, Lat : 49.2835706, Lng : -123.1150206, Q1 : 0.99999922514, Q2 : -0.000378743046895, Q3 : 0.000367881904822, Q4 : -0.00113723287359}
2019-04-14 13:37:38.71: SIM {TimeUS : 48735498, Roll : 0.0, Pitch : 0.03, Yaw : 359.86, Alt : 40.2200012207, Lat : 49.2835706, Lng : -123.1150207, Q1 : 0.999999284744, Q2 : -8.54176760186e-05, Q3 : 0.000295197416563, Q4 : -0.00113730982412}
2019-04-14 13:37:38.81: SIM {TimeUS : 48835458, Roll : 0.02, Pitch : 0.05, Yaw : 359.87, Alt : 40.4500007629, Lat : 49.2835706, Lng : -123.1150207, Q1 : 0.99999922514, Q2 : 0.000243351867539, Q3 : 0.000479866517708, Q4 : -0.00113409361802}
2019-04-14 13:37:38.91: SIM {TimeUS : 48935418, Roll : 0.07, Pitch : 0.1, Yaw : 359.86, Alt : 40.6800003052, Lat : 49.2835706, Lng : -123.1150207, Q1 : 0.999998748302, Q2 : 0.000636873184703, Q3 : 0.000902368454263, Q4 : -0.00113899400458}
2019-04-14 13:37:39.01: SIM {TimeUS : 49035378, Roll : 0.1, Pitch : 0.15, Yaw : 359.86, Alt : 40.9099998474, Lat : 49.2835706, Lng : -123.1150207, Q1 : 0.999998033047, Q2 : 0.00089211325394, Q3 : 0.00133888714481, Q4 : -0.00115524535067}
2019-04-14 13:37:39.11: SIM {TimeUS : 49135338, Roll : 0.08, Pitch : 0.19, Yaw : 359.86, Alt : 41.1500015259, Lat : 49.2835706, Lng : -123.1150207, Q1 : 0.999997615814, Q2 : 0.000779384747148, Q3 : 0.0016854602145, Q4 : -0.00116648175754}
2019-04-14 13:37:39.21: SIM {TimeUS : 49235298, Roll : 0.03, Pitch : 0.21, Yaw : 359.86, Alt : 41.3800010681, Lat : 49.2835706, Lng : -123.1150207, Q1 : 0.999997496605, Q2 : 0.000330395705532, Q3 : 0.00187724386342, Q4 : -0.00118922581896}
2019-04-14 13:37:39.31: SIM {TimeUS : 49335258, Roll : -0.01, Pitch : 0.21, Yaw : 359.86, Alt : 41.6100006104, Lat : 49.2835706, Lng : -123.1150207, Q1 : 0.999997437, Q2 : -8.93603209988e-05, Q3 : 0.0019059239421, Q4 : -0.00121262005996}
2019-04-14 13:37:39.41: SIM {TimeUS : 49435218, Roll : -0.02, Pitch : 0.18, Yaw : 359.85, Alt : 41.8499984741, Lat : 49.2835706, Lng : -123.1150207, Q1 : 0.999997913837, Q2 : -0.000254772487096, Q3 : 0.00160532374866, Q4 : -0.00123271322809}
2019-04-14 13:37:39.51: SIM {TimeUS : 49535178, Roll : -0.02, Pitch : 0.13, Yaw : 359.85, Alt : 42.0800018311, Lat : 49.2835706, Lng : -123.1150207, Q1 : 0.999998450279, Q2 : -0.000251531106187, Q3 : 0.00120064197108, Q4 : -0.00125680095516}
2019-04-14 13:37:39.61: SIM {TimeUS : 49635138, Roll : -0.01, Pitch : 0.12, Yaw : 359.85, Alt : 42.3100013733, Lat : 49.2835706, Lng : -123.1150207, Q1 : 0.999998569489, Q2 : -9.41379621509e-05, Q3 : 0.00107427721377, Q4 : -0.00128548184875}
2019-04-14 13:37:39.71: SIM {TimeUS : 49735098, Roll : 0.02, Pitch : 0.13, Yaw : 359.84, Alt : 42.5499992371, Lat : 49.2835706, Lng : -123.1150207, Q1 : 0.999998450279, Q2 : 0.000257094507106, Q3 : 0.0011351761641, Q4 : -0.00132024823688}
2019-04-14 13:37:39.81: SIM {TimeUS : 49835058, Roll : 0.08, Pitch : 0.13, Yaw : 359.84, Alt : 42.7799987793, Lat : 49.2835706, Lng : -123.1150207, Q1 : 0.999998092651, Q2 : 0.000706491235178, Q3 : 0.00119011767674, Q4 : -0.00135675782803}
2019-04-14 13:37:39.91: SIM {TimeUS : 49935018, Roll : 0.11, Pitch : 0.12, Yaw : 359.83, Alt : 43.0200004578, Lat : 49.2835706, Lng : -123.1150207, Q1 : 0.999997913837, Q2 : 0.00103196070995, Q3 : 0.00107299024239, Q4 : -0.00140165246557}
2019-04-14 13:37:40.01: SIM {TimeUS : 50034978, Roll : 0.11, Pitch : 0.09, Yaw : 359.83, Alt : 43.25, Lat : 49.2835706, Lng : -123.1150207, Q1 : 0.999998033047, Q2 : 0.00102389988024, Q3 : 0.000868040195201, Q4 : -0.00144341168925}
2019-04-14 13:37:40.11: SIM {TimeUS : 50134938, Roll : 0.07, Pitch : 0.08, Yaw : 359.83, Alt : 43.4900016785, Lat : 49.2835706, Lng : -123.1150207, Q1 : 0.999998450279, Q2 : 0.000649197550956, Q3 : 0.000737942464184, Q4 : -0.00147004052997}
2019-04-14 13:37:40.21: SIM {TimeUS : 50234898, Roll : 0.01, Pitch : 0.07, Yaw : 359.82, Alt : 43.7200012207, Lat : 49.2835704, Lng : -123.1150207, Q1 : 0.999998629093, Q2 : 0.000144150399137, Q3 : 0.000680763507262, Q4 : -0.00149203138426}
2019-04-14 13:37:40.31: SIM {TimeUS : 50334858, Roll : -0.02, Pitch : 0.08, Yaw : 359.82, Alt : 43.9599990845, Lat : 49.2835704, Lng : -123.1150207, Q1 : 0.999998569489, Q2 : -0.000206531200092, Q3 : 0.000735408510081, Q4 : -0.0015169037506}
2019-04-14 13:37:40.41: SIM {TimeUS : 50434818, Roll : -0.04, Pitch : 0.08, Yaw : 359.82, Alt : 44.1899986267, Lat : 49.2835704, Lng : -123.1150207, Q1 : 0.999998450279, Q2 : -0.00037468719529, Q3 : 0.000739732990041, Q4 : -0.00154016620945}
2019-04-14 13:37:40.51: SIM {TimeUS : 50534778, Roll : -0.03, Pitch : 0.06, Yaw : 359.82, Alt : 44.4300003052, Lat : 49.2835704, Lng : -123.1150206, Q1 : 0.999998569489, Q2 : -0.000345618318534, Q3 : 0.000592084310483, Q4 : -0.00155811267905}
2019-04-14 13:37:40.61: SIM {TimeUS : 50634738, Roll : -0.04, Pitch : 0.04, Yaw : 359.81, Alt : 44.6699981689, Lat : 49.2835704, Lng : -123.1150206, Q1 : 0.999998629093, Q2 : -0.000385122111766, Q3 : 0.000384235347155, Q4 : -0.00157752865925}
2019-04-14 13:37:40.71: SIM {TimeUS : 50735531, Roll : -0.04, Pitch : 0.02, Yaw : 359.81, Alt : 44.9000015259, Lat : 49.2835704, Lng : -123.1150206, Q1 : 0.999998629093, Q2 : -0.000354108371539, Q3 : 0.000185383294593, Q4 : -0.00159684207756}
2019-04-14 13:37:40.81: SIM {TimeUS : 50835491, Roll : -0.02, Pitch : 0.0, Yaw : 359.81, Alt : 45.1399993896, Lat : 49.2835704, Lng : -123.1150206, Q1 : 0.999998688698, Q2 : -0.000198777532205, Q3 : 7.38323651603e-05, Q4 : -0.00161950173788}
2019-04-14 13:37:40.91: SIM {TimeUS : 50935451, Roll : -0.01, Pitch : 0.0, Yaw : 359.81, Alt : 45.3800010681, Lat : 49.2835703, Lng : -123.1150206, Q1 : 0.999998629093, Q2 : -0.000159173228894, Q3 : 5.68228017528e-07, Q4 : -0.00164371111896}
2019-04-14 13:37:41.01: SIM {TimeUS : 51035411, Roll : -0.02, Pitch : 0.0, Yaw : 359.8, Alt : 45.6100006104, Lat : 49.2835703, Lng : -123.1150206, Q1 : 0.999998569489, Q2 : -0.000217299093492, Q3 : -8.30235367175e-05, Q4 : -0.00166973040905}
2019-04-14 13:37:41.11: SIM {TimeUS : 51135371, Roll : -0.03, Pitch : -0.03, Yaw : 359.8, Alt : 45.8400001526, Lat : 49.2835703, Lng : -123.1150206, Q1 : 0.999998450279, Q2 : -0.00029642006848, Q3 : -0.000274108664598, Q4 : -0.00169831898529}
2019-04-14 13:37:41.21: SIM {TimeUS : 51235331, Roll : -0.03, Pitch : -0.04, Yaw : 359.8, Alt : 46.0800018311, Lat : 49.2835703, Lng : -123.1150206, Q1 : 0.999998390675, Q2 : -0.000330211216351, Q3 : -0.000405156402849, Q4 : -0.0017295127036}
2019-04-14 13:37:41.31: SIM {TimeUS : 51335291, Roll : -0.03, Pitch : -0.04, Yaw : 359.79, Alt : 46.2999992371, Lat : 49.2835703, Lng : -123.1150206, Q1 : 0.99999833107, Q2 : -0.000268172821961, Q3 : -0.000435258203652, Q4 : -0.00176095857751}
2019-04-14 13:37:41.41: SIM {TimeUS : 51435251, Roll : -0.03, Pitch : -0.04, Yaw : 359.79, Alt : 46.5299987793, Lat : 49.2835703, Lng : -123.1150206, Q1 : 0.999998271465, Q2 : -0.000278223189525, Q3 : -0.000396523944801, Q4 : -0.00179109198507}
2019-04-14 13:37:41.51: SIM {TimeUS : 51535211, Roll : -0.05, Pitch : -0.03, Yaw : 359.79, Alt : 46.7400016785, Lat : 49.2835703, Lng : -123.1150206, Q1 : 0.999998211861, Q2 : -0.000442697986728, Q3 : -0.000314439676004, Q4 : -0.00182327791117}
2019-04-14 13:37:41.61: SIM {TimeUS : 51635171, Roll : -0.08, Pitch : -0.03, Yaw : 359.78, Alt : 46.9599990845, Lat : 49.2835703, Lng : -123.1150206, Q1 : 0.999997973442, Q2 : -0.000720963987987, Q3 : -0.000305127265165, Q4 : -0.0018584469799}
2019-04-14 13:37:41.71: SIM {TimeUS : 51735131, Roll : -0.1, Pitch : -0.03, Yaw : 359.78, Alt : 47.1599998474, Lat : 49.2835703, Lng : -123.1150205, Q1 : 0.999997735023, Q2 : -0.000914783566259, Q3 : -0.00032154811197, Q4 : -0.00189325318206}
2019-04-14 13:37:41.81: SIM {TimeUS : 51835091, Roll : -0.11, Pitch : -0.02, Yaw : 359.77, Alt : 47.3600006104, Lat : 49.2835703, Lng : -123.1150205, Q1 : 0.999997615814, Q2 : -0.000966598745435, Q3 : -0.000257622130448, Q4 : -0.00192645739298}
2019-04-14 13:37:41.91: SIM {TimeUS : 51935051, Roll : -0.09, Pitch : 0.0, Yaw : 359.77, Alt : 47.5499992371, Lat : 49.2835703, Lng : -123.1150205, Q1 : 0.999997675419, Q2 : -0.000867374415975, Q3 : -7.14811394573e-05, Q4 : -0.00195687636733}
2019-04-14 13:37:42.01: SIM {TimeUS : 52035011, Roll : -0.1, Pitch : -0.01, Yaw : 359.77, Alt : 47.7299995422, Lat : 49.2835703, Lng : -123.1150205, Q1 : 0.999997615814, Q2 : -0.000896234239917, Q3 : -0.000114767113701, Q4 : -0.0019863191992}
2019-04-14 13:37:42.11: SIM {TimeUS : 52134971, Roll : -0.11, Pitch : -0.03, Yaw : 359.76, Alt : 47.8899993896, Lat : 49.2835703, Lng : -123.1150206, Q1 : 0.999997496605, Q2 : -0.000992163317278, Q3 : -0.000263587600784, Q4 : -0.00201152195223}
2019-04-14 13:37:42.21: SIM {TimeUS : 52234931, Roll : -0.11, Pitch : -0.04, Yaw : 359.76, Alt : 48.0499992371, Lat : 49.2835703, Lng : -123.1150206, Q1 : 0.999997317791, Q2 : -0.00101943220943, Q3 : -0.000405227212468, Q4 : -0.00203069276176}
2019-04-14 13:37:42.31: SIM {TimeUS : 52334891, Roll : -0.1, Pitch : -0.06, Yaw : 359.76, Alt : 48.1899986267, Lat : 49.2835703, Lng : -123.1150206, Q1 : 0.999997317791, Q2 : -0.000923971587326, Q3 : -0.000542602210771, Q4 : -0.00204825936817}
2019-04-14 13:37:42.41: SIM {TimeUS : 52434851, Roll : -0.07, Pitch : -0.07, Yaw : 359.76, Alt : 48.3300018311, Lat : 49.2835703, Lng : -123.1150206, Q1 : 0.999997437, Q2 : -0.000666110368911, Q3 : -0.00064184027724, Q4 : -0.00206680153497}
2019-04-14 13:37:42.51: SIM {TimeUS : 52534811, Roll : -0.05, Pitch : -0.08, Yaw : 359.76, Alt : 48.4500007629, Lat : 49.2835703, Lng : -123.1150206, Q1 : 0.999997437, Q2 : -0.000448364618933, Q3 : -0.000718006980605, Q4 : -0.00209002150223}
2019-04-14 13:37:42.61: SIM {TimeUS : 52634771, Roll : -0.04, Pitch : -0.08, Yaw : 359.75, Alt : 48.5499992371, Lat : 49.2835703, Lng : -123.1150206, Q1 : 0.999997377396, Q2 : -0.0003664183605, Q3 : -0.000779184454586, Q4 : -0.0021122219041}
2019-04-14 13:37:42.71: SIM {TimeUS : 52735564, Roll : -0.01, Pitch : -0.08, Yaw : 359.75, Alt : 48.6500015259, Lat : 49.2835703, Lng : -123.1150206, Q1 : 0.999997437, Q2 : -0.000100763711089, Q3 : -0.000720241921954, Q4 : -0.00213506864384}
2019-04-14 13:37:42.81: SIM {TimeUS : 52835524, Roll : 0.02, Pitch : -0.06, Yaw : 359.75, Alt : 48.7299995422, Lat : 49.2835703, Lng : -123.1150206, Q1 : 0.999997496605, Q2 : 0.000211103382753, Q3 : -0.00058613641886, Q4 : -0.00215850840323}
2019-04-14 13:37:42.91: SIM {TimeUS : 52935484, Roll : 0.05, Pitch : -0.04, Yaw : 359.74, Alt : 48.8100013733, Lat : 49.2835703, Lng : -123.1150206, Q1 : 0.999997437, Q2 : 0.000480711751152, Q3 : -0.000426240614615, Q4 : -0.00218330603093}
2019-04-14 13:37:43.01: SIM {TimeUS : 53035444, Roll : 0.06, Pitch : -0.02, Yaw : 359.74, Alt : 48.8699989319, Lat : 49.2835703, Lng : -123.1150206, Q1 : 0.999997377396, Q2 : 0.000557811348699, Q3 : -0.00025464623468, Q4 : -0.00220766616985}
2019-04-14 13:37:43.11: SIM {TimeUS : 53135404, Roll : 0.06, Pitch : -0.01, Yaw : 359.74, Alt : 48.9300003052, Lat : 49.2835703, Lng : -123.1150207, Q1 : 0.999997317791, Q2 : 0.000598474231083, Q3 : -0.00013684858277, Q4 : -0.00223554228432}
2019-04-14 13:37:43.21: SIM {TimeUS : 53235364, Roll : 0.06, Pitch : -0.02, Yaw : 359.73, Alt : 48.9700012207, Lat : 49.2835703, Lng : -123.1150207, Q1 : 0.999997258186, Q2 : 0.000572169257794, Q3 : -0.000222760470933, Q4 : -0.00227032508701}
2019-04-14 13:37:43.31: SIM {TimeUS : 53335324, Roll : 0.11, Pitch : -0.05, Yaw : 359.73, Alt : 49.0099983215, Lat : 49.2835703, Lng : -123.1150207, Q1 : 0.999996721745, Q2 : 0.00102468288969, Q3 : -0.000446178135462, Q4 : -0.00230612745509}
2019-04-14 13:37:43.41: SIM {TimeUS : 53435284, Roll : 0.36, Pitch : -0.12, Yaw : 359.73, Alt : 49.0499992371, Lat : 49.2835703, Lng : -123.1150207, Q1 : 0.99999165535, Q2 : 0.00318167032674, Q3 : -0.00107479502913, Q4 : -0.00233305804431}
2019-04-14 13:37:43.51: SIM {TimeUS : 53535244, Roll : 0.87, Pitch : -0.26, Yaw : 359.72, Alt : 49.0800018311, Lat : 49.2835703, Lng : -123.1150207, Q1 : 0.999965369701, Q2 : 0.00762610277161, Q3 : -0.00235891994089, Q4 : -0.0023562675342}
2019-04-14 13:37:43.61: SIM {TimeUS : 53635204, Roll : 1.63, Pitch : -0.47, Yaw : 359.72, Alt : 49.0999984741, Lat : 49.2835703, Lng : -123.1150206, Q1 : 0.999886393547, Q2 : 0.0142761496827, Q3 : -0.00421320647001, Q4 : -0.00237288186327}
2019-04-14 13:37:43.71: SIM {TimeUS : 53735164, Roll : 2.59, Pitch : -0.73, Yaw : 359.71, Alt : 49.1199989319, Lat : 49.2835704, Lng : -123.1150206, Q1 : 0.999719560146, Q2 : 0.0226522926241, Q3 : -0.00648092431948, Q4 : -0.00236896960996}
2019-04-14 13:37:43.81: SIM {TimeUS : 53835124, Roll : 3.62, Pitch : -1.02, Yaw : 359.69, Alt : 49.1399993896, Lat : 49.2835704, Lng : -123.1150205, Q1 : 0.999456167221, Q2 : 0.0316415913403, Q3 : -0.00898809544742, Q4 : -0.00234580226243}
2019-04-14 13:37:43.91: SIM {TimeUS : 53935084, Roll : 4.55, Pitch : -1.31, Yaw : 359.68, Alt : 49.1599998474, Lat : 49.2835704, Lng : -123.1150203, Q1 : 0.999142467976, Q2 : 0.0396945439279, Q3 : -0.0115489158779, Q4 : -0.00229345099069}
2019-04-14 13:37:44.01: SIM {TimeUS : 54035044, Roll : 5.26, Pitch : -1.55, Yaw : 359.67, Alt : 49.1699981689, Lat : 49.2835706, Lng : -123.11502, Q1 : 0.998852491379, Q2 : 0.0458547994494, Q3 : -0.0136447362602, Q4 : -0.0022011087276}
2019-04-14 13:37:44.11: SIM {TimeUS : 54135004, Roll : 5.76, Pitch : -1.74, Yaw : 359.67, Alt : 49.1800003052, Lat : 49.2835707, Lng : -123.1150197, Q1 : 0.998617708683, Q2 : 0.0502155348659, Q3 : -0.0153855066746, Q4 : -0.00209067715332}
2019-04-14 13:37:44.21: SIM {TimeUS : 54234964, Roll : 6.12, Pitch : -1.9, Yaw : 359.67, Alt : 49.2000007629, Lat : 49.2835708, Lng : -123.1150192, Q1 : 0.998431682587, Q2 : 0.0533962249756, Q3 : -0.0167103968561, Q4 : -0.0019486809615}
2019-04-14 13:37:44.31: SIM {TimeUS : 54334924, Roll : 6.45, Pitch : -2.0, Yaw : 359.68, Alt : 49.2099990845, Lat : 49.2835709, Lng : -123.1150187, Q1 : 0.998260438442, Q2 : 0.0562309585512, Q3 : -0.0176369510591, Q4 : -0.00177499209531}
2019-04-14 13:37:44.41: SIM {TimeUS : 54434884, Roll : 6.8, Pitch : -2.11, Yaw : 359.69, Alt : 49.2099990845, Lat : 49.2835709, Lng : -123.1150179, Q1 : 0.998067617416, Q2 : 0.0592776350677, Q3 : -0.018565678969, Q4 : -0.00159457162954}
2019-04-14 13:37:44.51: SIM {TimeUS : 54534844, Roll : 7.17, Pitch : -2.21, Yaw : 359.69, Alt : 49.2200012207, Lat : 49.2835712, Lng : -123.1150171, Q1 : 0.997854113579, Q2 : 0.0624940246344, Q3 : -0.0194847844541, Q4 : -0.00142002396751}
2019-04-14 13:37:44.61: SIM {TimeUS : 54634804, Roll : 7.5, Pitch : -2.3, Yaw : 359.7, Alt : 49.2299995422, Lat : 49.2835714, Lng : -123.1150162, Q1 : 0.997657060623, Q2 : 0.0653508603573, Q3 : -0.0202022045851, Q4 : -0.00125204026699}
2019-04-14 13:37:44.71: SIM {TimeUS : 54734764, Roll : 7.74, Pitch : -2.37, Yaw : 359.71, Alt : 49.2299995422, Lat : 49.2835715, Lng : -123.1150151, Q1 : 0.997501254082, Q2 : 0.067483715713, Q3 : -0.0208791196346, Q4 : -0.00111540651415}
2019-04-14 13:37:44.81: SIM {TimeUS : 54835557, Roll : 7.93, Pitch : -2.44, Yaw : 359.71, Alt : 49.2400016785, Lat : 49.2835718, Lng : -123.1150139, Q1 : 0.997376084328, Q2 : 0.0691233053803, Q3 : -0.0214918833226, Q4 : -0.00101392285433}
2019-04-14 13:37:44.91: SIM {TimeUS : 54935517, Roll : 8.08, Pitch : -2.5, Yaw : 359.71, Alt : 49.2400016785, Lat : 49.2835721, Lng : -123.1150127, Q1 : 0.99727666378, Q2 : 0.0704043507576, Q3 : -0.0219466499984, Q4 : -0.000935953110456}
2019-04-14 13:37:45.01: SIM {TimeUS : 55035477, Roll : 8.19, Pitch : -2.53, Yaw : 359.71, Alt : 49.25, Lat : 49.2835722, Lng : -123.1150114, Q1 : 0.99719953537, Q2 : 0.0714070945978, Q3 : -0.0222100596875, Q4 : -0.00089286750881}
2019-04-14 13:37:45.11: SIM {TimeUS : 55135437, Roll : 8.35, Pitch : -2.52, Yaw : 359.72, Alt : 49.25, Lat : 49.2835726, Lng : -123.1150099, Q1 : 0.997100710869, Q2 : 0.0728060081601, Q3 : -0.0221107434481, Q4 : -0.000760729948524}
2019-04-14 13:37:45.21: SIM {TimeUS : 55235397, Roll : 8.66, Pitch : -2.31, Yaw : 0.01, Alt : 49.2599983215, Lat : 49.2835729, Lng : -123.1150083, Q1 : 0.996936380863, Q2 : 0.0755690038204, Q3 : -0.0201086495072, Q4 : 0.001677142689}
2019-04-14 13:37:45.31: SIM {TimeUS : 55335357, Roll : 9.16, Pitch : -1.92, Yaw : 1.21, Alt : 49.2599983215, Lat : 49.2835733, Lng : -123.1150067, Q1 : 0.996591567993, Q2 : 0.0800758227706, Q3 : -0.0158613324165, Q4 : 0.0119005059823}
2019-04-14 13:37:45.41: SIM {TimeUS : 55435317, Roll : 9.72, Pitch : -1.74, Yaw : 3.87, Alt : 49.2599983215, Lat : 49.2835735, Lng : -123.1150049, Q1 : 0.995668888092, Q2 : 0.0852562487125, Q3 : -0.0122837498784, Q4 : 0.0349855981767}
2019-04-14 13:37:45.51: SIM {TimeUS : 55535277, Roll : 10.17, Pitch : -2.11, Yaw : 8.09, Alt : 49.2599983215, Lat : 49.2835739, Lng : -123.115003, Q1 : 0.993286848068, Q2 : 0.0897589176893, Q3 : -0.0120899435133, Q4 : 0.0719612389803}
2019-04-14 13:37:45.61: SIM {TimeUS : 55635237, Roll : 10.34, Pitch : -3.13, Yaw : 13.71, Alt : 49.2599983215, Lat : 49.2835743, Lng : -123.115001, Q1 : 0.988144159317, Q2 : 0.0927254259586, Q3 : -0.0162747111171, Q4 : 0.121277786791}
2019-04-14 13:37:45.71: SIM {TimeUS : 55735197, Roll : 10.1, Pitch : -4.7, Yaw : 20.46, Alt : 49.2700004578, Lat : 49.2835745, Lng : -123.1149988, Q1 : 0.978805840015, Q2 : 0.0938488468528, Q3 : -0.0246485415846, Q4 : 0.180344060063}
2019-04-14 13:37:45.81: SIM {TimeUS : 55835157, Roll : 9.36, Pitch : -6.63, Yaw : 28.1, Alt : 49.2700004578, Lat : 49.2835749, Lng : -123.1149966, Q1 : 0.964061737061, Q2 : 0.0930327028036, Q3 : -0.0361866652966, Q4 : 0.246212139726}
2019-04-14 13:37:45.91: SIM {TimeUS : 55935117, Roll : 8.08, Pitch : -8.66, Yaw : 36.41, Alt : 49.2700004578, Lat : 49.2835751, Lng : -123.1149942, Q1 : 0.94319498539, Q2 : 0.0903097987175, Q3 : -0.0496535338461, Q4 : 0.315851122141}
2019-04-14 13:37:46.01: SIM {TimeUS : 56035077, Roll : 6.31, Pitch : -10.55, Yaw : 45.14, Alt : 49.2700004578, Lat : 49.2835755, Lng : -123.1149917, Q1 : 0.91614228487, Q2 : 0.0858903378248, Q3 : -0.0637942180037, Q4 : 0.386311411858}
2019-04-14 13:37:46.11: SIM {TimeUS : 56135037, Roll : 4.16, Pitch : -12.12, Yaw : 54.03, Alt : 49.2700004578, Lat : 49.2835758, Lng : -123.1149891, Q1 : 0.88357937336, Q2 : 0.0801169201732, Q3 : -0.0775999426842, Q4 : 0.454804390669}
2019-04-14 13:37:46.21: SIM {TimeUS : 56234997, Roll : 1.81, Pitch : -13.22, Yaw : 62.77, Alt : 49.2700004578, Lat : 49.2835762, Lng : -123.1149864, Q1 : 0.846928179264, Q2 : 0.073374800384, Q3 : -0.0901394784451, Q4 : 0.518848419189}
2019-04-14 13:37:46.31: SIM {TimeUS : 56334957, Roll : -0.75, Pitch : -13.84, Yaw : 71.03, Alt : 49.2799987793, Lat : 49.2835765, Lng : -123.1149835, Q1 : 0.80845618248, Q2 : 0.0646484941244, Q3 : -0.101884692907, Q4 : 0.576054394245}
2019-04-14 13:37:46.41: SIM {TimeUS : 56434917, Roll : -3.49, Pitch : -13.97, Yaw : 78.19, Alt : 49.2799987793, Lat : 49.283577, Lng : -123.1149805, Q1 : 0.772271692753, Q2 : 0.0532097108662, Q3 : -0.113425426185, Q4 : 0.622816085815}
2019-04-14 13:37:46.51: SIM {TimeUS : 56534877, Roll : -5.91, Pitch : -13.76, Yaw : 83.63, Alt : 49.2799987793, Lat : 49.2835776, Lng : -123.1149774, Q1 : 0.74305921793, Q2 : 0.0416495315731, Q3 : -0.123348616064, Q4 : 0.656439960003}
2019-04-14 13:37:46.61: SIM {TimeUS : 56634837, Roll : -7.58, Pitch : -13.43, Yaw : 87.06, Alt : 49.2799987793, Lat : 49.2835782, Lng : -123.1149743, Q1 : 0.723754763603, Q2 : 0.03277220577, Q3 : -0.129863321781, Q4 : 0.676934719086}
2019-04-14 13:37:46.71: SIM {TimeUS : 56734797, Roll : -8.29, Pitch : -13.17, Yaw : 88.59, Alt : 49.2799987793, Lat : 49.2835789, Lng : -123.114971, Q1 : 0.714923560619, Q2 : 0.0284834150225, Q3 : -0.132053658366, Q4 : 0.686028301716}
2019-04-14 13:37:46.81: SIM {TimeUS : 56834757, Roll : -8.06, Pitch : -13.12, Yaw : 88.51, Alt : 49.2799987793, Lat : 49.2835798, Lng : -123.1149676, Q1 : 0.715380191803, Q2 : 0.0295267887414, Q3 : -0.130375668406, Q4 : 0.685829102993}
2019-04-14 13:37:46.91: SIM {TimeUS : 56935550, Roll : -7.05, Pitch : -13.33, Yaw : 87.14, Alt : 49.2799987793, Lat : 49.2835806, Lng : -123.1149641, Q1 : 0.723134338856, Q2 : 0.035658441484, Q3 : -0.126084402204, Q4 : 0.678165137768}
2019-04-14 13:37:47.01: SIM {TimeUS : 57035510, Roll : -5.49, Pitch : -13.79, Yaw : 84.87, Alt : 49.2799987793, Lat : 49.2835816, Lng : -123.1149605, Q1 : 0.735718786716, Q2 : 0.0458362214267, Q3 : -0.12063896656, Q4 : 0.664878308773}
2019-04-14 13:37:47.11: SIM {TimeUS : 57135470, Roll : -3.62, Pitch : -14.41, Yaw : 81.99, Alt : 49.2799987793, Lat : 49.2835824, Lng : -123.1149569, Q1 : 0.750981330872, Q2 : 0.058622084558, Q3 : -0.115231856704, Q4 : 0.64754319191}
2019-04-14 13:37:47.21: SIM {TimeUS : 57235430, Roll : -1.66, Pitch : -15.06, Yaw : 78.82, Alt : 49.2799987793, Lat : 49.2835835, Lng : -123.1149531, Q1 : 0.767071604729, Q2 : 0.0720731690526, Q3 : -0.110435754061, Q4 : 0.627861917019}
2019-04-14 13:37:47.31: SIM {TimeUS : 57335390, Roll : 0.17, Pitch : -15.59, Yaw : 75.65, Alt : 49.2799987793, Lat : 49.2835844, Lng : -123.1149493, Q1 : 0.782403767109, Q2 : 0.0844140723348, Q3 : -0.106176525354, Q4 : 0.607820034027}
2019-04-14 13:37:47.41: SIM {TimeUS : 57435350, Roll : 1.73, Pitch : -15.92, Yaw : 72.83, Alt : 49.2799987793, Lat : 49.2835855, Lng : -123.1149454, Q1 : 0.795616865158, Q2 : 0.0942897498608, Q3 : -0.102529935539, Q4 : 0.589568436146}
2019-04-14 13:37:47.51: SIM {TimeUS : 57535310, Roll : 2.87, Pitch : -16.04, Yaw : 70.61, Alt : 49.2799987793, Lat : 49.2835865, Lng : -123.1149413, Q1 : 0.805797278881, Q2 : 0.100955456495, Q3 : -0.0995112657547, Q4 : 0.574975073338}
2019-04-14 13:37:47.61: SIM {TimeUS : 57635270, Roll : 3.53, Pitch : -16.03, Yaw : 69.14, Alt : 49.2799987793, Lat : 49.2835874, Lng : -123.1149371, Q1 : 0.812527298927, Q2 : 0.10426774621, Q3 : -0.0974326953292, Q4 : 0.565185427666}
2019-04-14 13:37:47.71: SIM {TimeUS : 57735230, Roll : 3.71, Pitch : -15.96, Yaw : 68.46, Alt : 49.2900009155, Lat : 49.2835884, Lng : -123.1149328, Q1 : 0.815779685974, Q2 : 0.104606740177, Q3 : -0.0966818258166, Q4 : 0.56054764986}
2019-04-14 13:37:47.81: SIM {TimeUS : 57835190, Roll : 3.48, Pitch : -15.91, Yaw : 68.51, Alt : 49.2900009155, Lat : 49.2835892, Lng : -123.1149284, Q1 : 0.815809845924, Q2 : 0.102757692337, Q3 : -0.097430922091, Q4 : 0.560715973377}
2019-04-14 13:37:47.91: SIM {TimeUS : 57935150, Roll : 2.92, Pitch : -15.94, Yaw : 69.15, Alt : 49.2900009155, Lat : 49.2835902, Lng : -123.1149239, Q1 : 0.813105344772, Q2 : 0.0995344370604, Q3 : -0.0998038426042, Q4 : 0.564793586731}
2019-04-14 13:37:48.01: SIM {TimeUS : 58035110, Roll : 2.15, Pitch : -16.05, Yaw : 70.22, Alt : 49.2900009155, Lat : 49.283591, Lng : -123.1149193, Q1 : 0.808359384537, Q2 : 0.0955497696996, Q3 : -0.103450000286, Q4 : 0.571597278118}
2019-04-14 13:37:48.11: SIM {TimeUS : 58135070, Roll : 1.27, Pitch : -16.2, Yaw : 71.52, Alt : 49.2900009155, Lat : 49.2835919, Lng : -123.1149146, Q1 : 0.802369058132, Q2 : 0.0913035497069, Q3 : -0.107899345458, Q4 : 0.579849421978}
2019-04-14 13:37:48.21: SIM {TimeUS : 58235030, Roll : 0.4, Pitch : -16.33, Yaw : 72.88, Alt : 49.2900009155, Lat : 49.2835928, Lng : -123.1149099, Q1 : 0.795973777771, Q2 : 0.0872080698609, Q3 : -0.112253285944, Q4 : 0.588404417038}
2019-04-14 13:37:48.31: SIM {TimeUS : 58334990, Roll : -0.34, Pitch : -16.43, Yaw : 74.14, Alt : 49.2900009155, Lat : 49.2835937, Lng : -123.1149051, Q1 : 0.789924860001, Q2 : 0.0837945565581, Q3 : -0.11586227268, Q4 : 0.596299529076}
2019-04-14 13:37:48.41: SIM {TimeUS : 58434950, Roll : -0.93, Pitch : -16.5, Yaw : 75.18, Alt : 49.2900009155, Lat : 49.2835946, Lng : -123.1149002, Q1 : 0.78486007452, Q2 : 0.0811329036951, Q3 : -0.118625022471, Q4 : 0.602777123451}
2019-04-14 13:37:48.51: SIM {TimeUS : 58534910, Roll : -1.31, Pitch : -16.53, Yaw : 75.92, Alt : 49.2900009155, Lat : 49.2835956, Lng : -123.1148952, Q1 : 0.781179070473, Q2 : 0.079516813159, Q3 : -0.120346158743, Q4 : 0.607415139675}
2019-04-14 13:37:48.61: SIM {TimeUS : 58634870, Roll : -1.45, Pitch : -16.53, Yaw : 76.33, Alt : 49.2900009155, Lat : 49.2835964, Lng : -123.1148902, Q1 : 0.779080629349, Q2 : 0.078984990716, Q3 : -0.120752282441, Q4 : 0.610093176365}
2019-04-14 13:37:48.71: SIM {TimeUS : 58734830, Roll : -1.39, Pitch : -16.52, Yaw : 76.43, Alt : 49.2900009155, Lat : 49.2835975, Lng : -123.1148852, Q1 : 0.778522253036, Q2 : 0.0793942809105, Q3 : -0.120350033045, Q4 : 0.610831856728}
2019-04-14 13:37:48.81: SIM {TimeUS : 58834790, Roll : -1.21, Pitch : -16.54, Yaw : 76.26, Alt : 49.2900009155, Lat : 49.2835984, Lng : -123.1148801, Q1 : 0.779283702374, Q2 : 0.0805803909898, Q3 : -0.119670651853, Q4 : 0.609838247299}
2019-04-14 13:37:48.91: SIM {TimeUS : 58934750, Roll : -0.94, Pitch : -16.6, Yaw : 75.89, Alt : 49.2900009155, Lat : 49.2835995, Lng : -123.1148749, Q1 : 0.781037867069, Q2 : 0.0823770463467, Q3 : -0.118876375258, Q4 : 0.607504963875}
2019-04-14 13:37:49.01: SIM {TimeUS : 59035543, Roll : -0.61, Pitch : -16.68, Yaw : 75.37, Alt : 49.2900009155, Lat : 49.2836005, Lng : -123.1148697, Q1 : 0.783430337906, Q2 : 0.0845333188772, Q3 : -0.118079863489, Q4 : 0.60427492857}
2019-04-14 13:37:49.11: SIM {TimeUS : 59135503, Roll : -0.27, Pitch : -16.75, Yaw : 74.81, Alt : 49.2900009155, Lat : 49.2836016, Lng : -123.1148643, Q1 : 0.786077976227, Q2 : 0.0866037085652, Q3 : -0.117152661085, Q4 : 0.600713312626}
2019-04-14 13:37:49.21: SIM {TimeUS : 59235463, Roll : 0.04, Pitch : -16.79, Yaw : 74.26, Alt : 49.2900009155, Lat : 49.2836025, Lng : -123.1148591, Q1 : 0.788650691509, Q2 : 0.0885021239519, Q3 : -0.116222538054, Q4 : 0.597235143185}
2019-04-14 13:37:49.31: SIM {TimeUS : 59335423, Roll : 0.31, Pitch : -16.83, Yaw : 73.78, Alt : 49.2900009155, Lat : 49.2836036, Lng : -123.1148538, Q1 : 0.790884673595, Q2 : 0.0900835767388, Q3 : -0.115450203419, Q4 : 0.594186544418}
2019-04-14 13:37:49.41: SIM {TimeUS : 59435383, Roll : 0.51, Pitch : -16.87, Yaw : 73.41, Alt : 49.2900009155, Lat : 49.2836047, Lng : -123.1148484, Q1 : 0.792599737644, Q2 : 0.0912418588996, Q3 : -0.114946834743, Q4 : 0.591817378998}
2019-04-14 13:37:49.51: SIM {TimeUS : 59535343, Roll : 0.63, Pitch : -16.89, Yaw : 73.18, Alt : 49.2900009155, Lat : 49.2836056, Lng : -123.114843, Q1 : 0.793707966805, Q2 : 0.0919427499175, Q3 : -0.114703416824, Q4 : 0.590268909931}
2019-04-14 13:37:49.61: SIM {TimeUS : 59635303, Roll : 0.67, Pitch : -16.92, Yaw : 73.07, Alt : 49.2900009155, Lat : 49.2836067, Lng : -123.1148375, Q1 : 0.794198215008, Q2 : 0.0922868028283, Q3 : -0.114761084318, Q4 : 0.589544117451}
2019-04-14 13:37:49.71: SIM {TimeUS : 59735263, Roll : 0.63, Pitch : -16.94, Yaw : 73.08, Alt : 49.2999992371, Lat : 49.2836078, Lng : -123.114832, Q1 : 0.794153928757, Q2 : 0.092167660594, Q3 : -0.115124903619, Q4 : 0.589551448822}
2019-04-14 13:37:49.81: SIM {TimeUS : 59835223, Roll : 0.53, Pitch : -16.98, Yaw : 73.18, Alt : 49.2999992371, Lat : 49.2836087, Lng : -123.1148264, Q1 : 0.793674111366, Q2 : 0.0917458683252, Q3 : -0.115784741938, Q4 : 0.590133905411}
2019-04-14 13:37:49.91: SIM {TimeUS : 59935183, Roll : 0.38, Pitch : -17.02, Yaw : 73.35, Alt : 49.2999992371, Lat : 49.2836098, Lng : -123.1148209, Q1 : 0.792899549007, Q2 : 0.0910796672106, Q3 : -0.116700828075, Q4 : 0.591096997261}
2019-04-14 13:37:50.01: SIM {TimeUS : 60035143, Roll : 0.22, Pitch : -17.06, Yaw : 73.54, Alt : 49.2999992371, Lat : 49.2836109, Lng : -123.1148153, Q1 : 0.791966021061, Q2 : 0.0903559178114, Q3 : -0.117717750371, Q4 : 0.592256844044}
2019-04-14 13:37:50.11: SIM {TimeUS : 60135103, Roll : 0.05, Pitch : -17.1, Yaw : 73.74, Alt : 49.2999992371, Lat : 49.283612, Lng : -123.1148096, Q1 : 0.791018664837, Q2 : 0.0895724222064, Q3 : -0.118686668575, Q4 : 0.593447387218}
2019-04-14 13:37:50.21: SIM {TimeUS : 60235063, Roll : -0.1, Pitch : -17.12, Yaw : 73.93, Alt : 49.2999992371, Lat : 49.2836129, Lng : -123.1148039, Q1 : 0.790170907974, Q2 : 0.0888106077909, Q3 : -0.119500763714, Q4 : 0.59452688694}
2019-04-14 13:37:50.31: SIM {TimeUS : 60335023, Roll : -0.22, Pitch : -17.14, Yaw : 74.07, Alt : 49.2999992371, Lat : 49.2836141, Lng : -123.1147982, Q1 : 0.789509296417, Q2 : 0.0882436111569, Q3 : -0.120163433254, Q4 : 0.595356106758}
2019-04-14 13:37:50.41: SIM {TimeUS : 60434983, Roll : -0.28, Pitch : -17.18, Yaw : 74.16, Alt : 49.2999992371, Lat : 49.2836151, Lng : -123.1147925, Q1 : 0.789040803909, Q2 : 0.0881542116404, Q3 : -0.120669782162, Q4 : 0.59588778019}
2019-04-14 13:37:50.51: SIM {TimeUS : 60534943, Roll : -0.29, Pitch : -17.22, Yaw : 74.19, Alt : 49.2999992371, Lat : 49.2836162, Lng : -123.1147867, Q1 : 0.788822472095, Q2 : 0.0883198305964, Q3 : -0.120993092656, Q4 : 0.596086740494}
2019-04-14 13:37:50.61: SIM {TimeUS : 60634903, Roll : -0.26, Pitch : -17.27, Yaw : 74.18, Alt : 49.2999992371, Lat : 49.2836172, Lng : -123.114781, Q1 : 0.788833141327, Q2 : 0.0887461528182, Q3 : -0.121148929, Q4 : 0.595977723598}
2019-04-14 13:37:50.71: SIM {TimeUS : 60734863, Roll : -0.2, Pitch : -17.31, Yaw : 74.12, Alt : 49.3100013733, Lat : 49.2836183, Lng : -123.1147752, Q1 : 0.789049744606, Q2 : 0.0893136188388, Q3 : -0.121167846024, Q4 : 0.595602154732}
2019-04-14 13:37:50.81: SIM {TimeUS : 60834823, Roll : -0.12, Pitch : -17.34, Yaw : 74.03, Alt : 49.3100013733, Lat : 49.2836195, Lng : -123.1147693, Q1 : 0.789432644844, Q2 : 0.0898925289512, Q3 : -0.121072046459, Q4 : 0.595026910305}
2019-04-14 13:37:50.91: SIM {TimeUS : 60934783, Roll : -0.06, Pitch : -17.35, Yaw : 73.92, Alt : 49.3100013733, Lat : 49.2836206, Lng : -123.1147635, Q1 : 0.789935171604, Q2 : 0.0902852341533, Q3 : -0.120905905962, Q4 : 0.594333946705}
2019-04-14 13:37:51.01: SIM {TimeUS : 61034743, Roll : -0.01, Pitch : -17.36, Yaw : 73.81, Alt : 49.3100013733, Lat : 49.2836217, Lng : -123.1147576, Q1 : 0.790482461452, Q2 : 0.0905435830355, Q3 : -0.120742276311, Q4 : 0.593599796295}
2019-04-14 13:37:51.11: SIM {TimeUS : 61135536, Roll : 0.05, Pitch : -17.35, Yaw : 73.69, Alt : 49.3100013733, Lat : 49.2836227, Lng : -123.1147517, Q1 : 0.791007220745, Q2 : 0.0908554792404, Q3 : -0.120497994125, Q4 : 0.592902302742}
2019-04-14 13:37:51.21: SIM {TimeUS : 61235496, Roll : 0.1, Pitch : -17.36, Yaw : 73.6, Alt : 49.3100013733, Lat : 49.2836238, Lng : -123.1147458, Q1 : 0.79146283865, Q2 : 0.0911561399698, Q3 : -0.120317108929, Q4 : 0.592284500599}
2019-04-14 13:37:51.31: SIM {TimeUS : 61335456, Roll : 0.16, Pitch : -17.39, Yaw : 73.52, Alt : 49.3100013733, Lat : 49.283625, Lng : -123.1147398, Q1 : 0.791787445545, Q2 : 0.0916343927383, Q3 : -0.12032302469, Q4 : 0.591775417328}
2019-04-14 13:37:51.41: SIM {TimeUS : 61435416, Roll : 0.19, Pitch : -17.46, Yaw : 73.46, Alt : 49.3100013733, Lat : 49.2836262, Lng : -123.1147339, Q1 : 0.791976571083, Q2 : 0.0921574234962, Q3 : -0.120611101389, Q4 : 0.5913823843}
2019-04-14 13:37:51.51: SIM {TimeUS : 61535376, Roll : 0.21, Pitch : -17.49, Yaw : 73.43, Alt : 49.3100013733, Lat : 49.2836273, Lng : -123.1147279, Q1 : 0.792091369629, Q2 : 0.0924138277769, Q3 : -0.120831049979, Q4 : 0.591143667698}
2019-04-14 13:37:51.61: SIM {TimeUS : 61635336, Roll : 0.21, Pitch : -17.51, Yaw : 73.42, Alt : 49.3100013733, Lat : 49.2836284, Lng : -123.1147219, Q1 : 0.792136907578, Q2 : 0.0924542620778, Q3 : -0.120929636061, Q4 : 0.591056168079}
2019-04-14 13:37:51.71: SIM {TimeUS : 61735296, Roll : 0.18, Pitch : -17.51, Yaw : 73.42, Alt : 49.3100013733, Lat : 49.2836296, Lng : -123.1147159, Q1 : 0.792125225067, Q2 : 0.0923157259822, Q3 : -0.121128246188, Q4 : 0.591052830219}
2019-04-14 13:37:51.81: SIM {TimeUS : 61835256, Roll : 0.14, Pitch : -17.54, Yaw : 73.44, Alt : 49.3199996948, Lat : 49.2836306, Lng : -123.1147099, Q1 : 0.792059242725, Q2 : 0.0921437963843, Q3 : -0.121489204466, Q4 : 0.591093957424}
2019-04-14 13:37:51.91: SIM {TimeUS : 61935216, Roll : 0.1, Pitch : -17.55, Yaw : 73.46, Alt : 49.3199996948, Lat : 49.2836317, Lng : -123.1147039, Q1 : 0.791969358921, Q2 : 0.0920353680849, Q3 : -0.121758908033, Q4 : 0.591175794601}
2019-04-14 13:37:52.01: SIM {TimeUS : 62035176, Roll : 0.08, Pitch : -17.58, Yaw : 73.48, Alt : 49.3199996948, Lat : 49.2836329, Lng : -123.1146977, Q1 : 0.791862607002, Q2 : 0.0919839590788, Q3 : -0.122063033283, Q4 : 0.59126406908}
2019-04-14 13:37:52.11: SIM {TimeUS : 62135136, Roll : 0.06, Pitch : -17.6, Yaw : 73.5, Alt : 49.3199996948, Lat : 49.2836341, Lng : -123.1146918, Q1 : 0.79176902771, Q2 : 0.0919798016548, Q3 : -0.122268989682, Q4 : 0.591347515583}
2019-04-14 13:37:52.21: SIM {TimeUS : 62235096, Roll : 0.05, Pitch : -17.62, Yaw : 73.5, Alt : 49.3199996948, Lat : 49.2836353, Lng : -123.1146857, Q1 : 0.791705787182, Q2 : 0.0920390337706, Q3 : -0.12247081846, Q4 : 0.591381192207}
2019-04-14 13:37:52.31: SIM {TimeUS : 62335056, Roll : 0.05, Pitch : -17.63, Yaw : 73.5, Alt : 49.3199996948, Lat : 49.2836364, Lng : -123.1146796, Q1 : 0.791685283184, Q2 : 0.0921430811286, Q3 : -0.12251020968, Q4 : 0.591384291649}
2019-04-14 13:37:52.41: SIM {TimeUS : 62435016, Roll : 0.08, Pitch : -17.65, Yaw : 73.5, Alt : 49.3199996948, Lat : 49.2836376, Lng : -123.1146735, Q1 : 0.791681468487, Q2 : 0.0923973023891, Q3 : -0.122493132949, Q4 : 0.591353297234}
2019-04-14 13:37:52.51: SIM {TimeUS : 62534976, Roll : 0.11, Pitch : -17.67, Yaw : 73.48, Alt : 49.3199996948, Lat : 49.2836387, Lng : -123.1146673, Q1 : 0.791708648205, Q2 : 0.0926880016923, Q3 : -0.122491799295, Q4 : 0.59127163887}
2019-04-14 13:37:52.61: SIM {TimeUS : 62634936, Roll : 0.12, Pitch : -17.69, Yaw : 73.46, Alt : 49.3199996948, Lat : 49.2836399, Lng : -123.1146612, Q1 : 0.791779875755, Q2 : 0.0928615778685, Q3 : -0.122661232948, Q4 : 0.591113865376}
2019-04-14 13:37:52.71: SIM {TimeUS : 62734896, Roll : 0.11, Pitch : -17.74, Yaw : 73.44, Alt : 49.3199996948, Lat : 49.283641, Lng : -123.1146551, Q1 : 0.791870772839, Q2 : 0.09298286587, Q3 : -0.123039491475, Q4 : 0.590894341469}
2019-04-14 13:37:52.81: SIM {TimeUS : 62834856, Roll : 0.09, Pitch : -17.79, Yaw : 73.41, Alt : 49.3199996948, Lat : 49.2836421, Lng : -123.1146489, Q1 : 0.791972398758, Q2 : 0.0930970013142, Q3 : -0.123463369906, Q4 : 0.590651750565}
2019-04-14 13:37:52.91: SIM {TimeUS : 62934816, Roll : 0.1, Pitch : -17.82, Yaw : 73.38, Alt : 49.3199996948, Lat : 49.2836433, Lng : -123.1146428, Q1 : 0.792077422142, Q2 : 0.0932902693748, Q3 : -0.123672701418, Q4 : 0.590436518192}
2019-04-14 13:37:53.01: SIM {TimeUS : 63034776, Roll : 0.12, Pitch : -17.82, Yaw : 73.35, Alt : 49.3199996948, Lat : 49.2836445, Lng : -123.1146366, Q1 : 0.792213201523, Q2 : 0.0933880880475, Q3 : -0.123592510819, Q4 : 0.590255737305}
2019-04-14 13:37:53.11: SIM {TimeUS : 63134736, Roll : 0.14, Pitch : -17.79, Yaw : 73.33, Alt : 49.3199996948, Lat : 49.2836457, Lng : -123.1146304, Q1 : 0.792365729809, Q2 : 0.0933817848563, Q3 : -0.123288467526, Q4 : 0.590115606785}
2019-04-14 13:37:53.21: SIM {TimeUS : 63235529, Roll : 0.15, Pitch : -17.76, Yaw : 73.3, Alt : 49.3199996948, Lat : 49.2836469, Lng : -123.1146241, Q1 : 0.79250061512, Q2 : 0.0932829529047, Q3 : -0.123076200485, Q4 : 0.589994370937}
2019-04-14 13:37:53.31: SIM {TimeUS : 63335489, Roll : 0.15, Pitch : -17.74, Yaw : 73.29, Alt : 49.3300018311, Lat : 49.2836481, Lng : -123.1146179, Q1 : 0.792618393898, Q2 : 0.0931292101741, Q3 : -0.122946307063, Q4 : 0.589887499809}
2019-04-14 13:37:53.41: SIM {TimeUS : 63435449, Roll : 0.15, Pitch : -17.73, Yaw : 73.27, Alt : 49.3300018311, Lat : 49.2836493, Lng : -123.1146117, Q1 : 0.792697906494, Q2 : 0.0930420383811, Q3 : -0.122911162674, Q4 : 0.589801728725}
2019-04-14 13:37:53.51: SIM {TimeUS : 63535409, Roll : 0.14, Pitch : -17.75, Yaw : 73.26, Alt : 49.3300018311, Lat : 49.2836505, Lng : -123.1146053, Q1 : 0.792726159096, Q2 : 0.0931022912264, Q3 : -0.123088367283, Q4 : 0.589717328548}
2019-04-14 13:37:53.61: SIM {TimeUS : 63635369, Roll : 0.14, Pitch : -17.78, Yaw : 73.26, Alt : 49.3300018311, Lat : 49.2836517, Lng : -123.1145992, Q1 : 0.7927313447, Q2 : 0.09326518327, Q3 : -0.123296134174, Q4 : 0.589641153812}
2019-04-14 13:37:53.71: SIM {TimeUS : 63735329, Roll : 0.13, Pitch : -17.83, Yaw : 73.25, Alt : 49.3300018311, Lat : 49.2836529, Lng : -123.1145929, Q1 : 0.792721986771, Q2 : 0.0934375599027, Q3 : -0.123683363199, Q4 : 0.589545369148}
2019-04-14 13:37:53.81: SIM {TimeUS : 63835289, Roll : 0.12, Pitch : -17.88, Yaw : 73.24, Alt : 49.3300018311, Lat : 49.283654, Lng : -123.1145866, Q1 : 0.792707383633, Q2 : 0.0936220660806, Q3 : -0.124116383493, Q4 : 0.589444696903}
2019-04-14 13:37:53.91: SIM {TimeUS : 63935249, Roll : 0.12, Pitch : -17.92, Yaw : 73.24, Alt : 49.3300018311, Lat : 49.2836552, Lng : -123.1145804, Q1 : 0.792704045773, Q2 : 0.0937854200602, Q3 : -0.124373845756, Q4 : 0.5893689394}
2019-04-14 13:37:54.01: SIM {TimeUS : 64035209, Roll : 0.11, Pitch : -17.94, Yaw : 73.23, Alt : 49.3300018311, Lat : 49.2836564, Lng : -123.1145741, Q1 : 0.792729914188, Q2 : 0.0938343927264, Q3 : -0.12462965399, Q4 : 0.589272260666}
2019-04-14 13:37:54.11: SIM {TimeUS : 64135169, Roll : 0.1, Pitch : -17.96, Yaw : 73.22, Alt : 49.3300018311, Lat : 49.2836576, Lng : -123.1145678, Q1 : 0.792771935463, Q2 : 0.0938396081328, Q3 : -0.124812535942, Q4 : 0.589176237583}
2019-04-14 13:37:54.21: SIM {TimeUS : 64235129, Roll : 0.11, Pitch : -17.96, Yaw : 73.2, Alt : 49.3300018311, Lat : 49.2836588, Lng : -123.1145615, Q1 : 0.792830348015, Q2 : 0.0938870534301, Q3 : -0.124701350927, Q4 : 0.589113652706}
2019-04-14 13:37:54.31: SIM {TimeUS : 64335089, Roll : 0.14, Pitch : -17.96, Yaw : 73.19, Alt : 49.3300018311, Lat : 49.28366, Lng : -123.1145552, Q1 : 0.792874574661, Q2 : 0.0941147953272, Q3 : -0.124590888619, Q4 : 0.589041113853}
2019-04-14 13:37:54.41: SIM {TimeUS : 64435049, Roll : 0.16, Pitch : -17.98, Yaw : 73.17, Alt : 49.3300018311, Lat : 49.2836612, Lng : -123.1145489, Q1 : 0.792924165726, Q2 : 0.0942908748984, Q3 : -0.124642111361, Q4 : 0.588935315609}
2019-04-14 13:37:54.51: SIM {TimeUS : 64535009, Roll : 0.17, Pitch : -17.99, Yaw : 73.16, Alt : 49.3300018311, Lat : 49.2836624, Lng : -123.1145425, Q1 : 0.79298967123, Q2 : 0.0943864881992, Q3 : -0.124662294984, Q4 : 0.588827550411}
2019-04-14 13:37:54.61: SIM {TimeUS : 64634969, Roll : 0.18, Pitch : -17.98, Yaw : 73.14, Alt : 49.3300018311, Lat : 49.2836635, Lng : -123.1145362, Q1 : 0.793062627316, Q2 : 0.094430334866, Q3 : -0.124584212899, Q4 : 0.588738799095}
2019-04-14 13:37:54.71: SIM {TimeUS : 64734929, Roll : 0.19, Pitch : -17.98, Yaw : 73.13, Alt : 49.3400001526, Lat : 49.2836647, Lng : -123.1145299, Q1 : 0.793135464191, Q2 : 0.0944338291883, Q3 : -0.124547697604, Q4 : 0.588647842407}
2019-04-14 13:37:54.81: SIM {TimeUS : 64834889, Roll : 0.17, Pitch : -17.99, Yaw : 73.12, Alt : 49.3400001526, Lat : 49.2836659, Lng : -123.1145235, Q1 : 0.793193697929, Q2 : 0.0943959057331, Q3 : -0.124744780362, Q4 : 0.588533759117}
2019-04-14 13:37:54.91: SIM {TimeUS : 64934849, Roll : 0.14, Pitch : -18.03, Yaw : 73.11, Alt : 49.3400001526, Lat : 49.2836673, Lng : -123.1145172, Q1 : 0.793230056763, Q2 : 0.0943616181612, Q3 : -0.125147923827, Q4 : 0.588404595852}
2019-04-14 13:37:55.01: SIM {TimeUS : 65034809, Roll : 0.12, Pitch : -18.03, Yaw : 73.1, Alt : 49.3400001526, Lat : 49.2836685, Lng : -123.1145108, Q1 : 0.793280661106, Q2 : 0.0942579209805, Q3 : -0.125264599919, Q4 : 0.588328123093}
2019-04-14 13:37:55.11: SIM {TimeUS : 65134769, Roll : 0.14, Pitch : -18.02, Yaw : 73.09, Alt : 49.3400001526, Lat : 49.2836697, Lng : -123.1145044, Q1 : 0.793320953846, Q2 : 0.0942663997412, Q3 : -0.125095114112, Q4 : 0.588308513165}
2019-04-14 13:37:55.21: SIM {TimeUS : 65235562, Roll : 0.16, Pitch : -18.01, Yaw : 73.09, Alt : 49.3400001526, Lat : 49.2836709, Lng : -123.114498, Q1 : 0.793347001076, Q2 : 0.0943539068103, Q3 : -0.124924309552, Q4 : 0.588295757771}
2019-04-14 13:37:55.31: SIM {TimeUS : 65335522, Roll : 0.17, Pitch : -18.01, Yaw : 73.08, Alt : 49.3400001526, Lat : 49.283672, Lng : -123.1144916, Q1 : 0.793371081352, Q2 : 0.0944566652179, Q3 : -0.124915637076, Q4 : 0.588248610497}
2019-04-14 13:37:55.41: SIM {TimeUS : 65435482, Roll : 0.16, Pitch : -18.03, Yaw : 73.07, Alt : 49.3400001526, Lat : 49.2836732, Lng : -123.1144853, Q1 : 0.793404996395, Q2 : 0.0944466590881, Q3 : -0.125062912703, Q4 : 0.588173091412}
2019-04-14 13:37:55.51: SIM {TimeUS : 65535442, Roll : 0.13, Pitch : -18.04, Yaw : 73.06, Alt : 49.3400001526, Lat : 49.2836746, Lng : -123.1144789, Q1 : 0.793444156647, Q2 : 0.0943471193314, Q3 : -0.125324338675, Q4 : 0.588080585003}
2019-04-14 13:37:55.61: SIM {TimeUS : 65635402, Roll : 0.12, Pitch : -18.06, Yaw : 73.05, Alt : 49.3400001526, Lat : 49.2836758, Lng : -123.1144725, Q1 : 0.793483376503, Q2 : 0.0942998379469, Q3 : -0.125560462475, Q4 : 0.587984919548}
2019-04-14 13:37:55.71: SIM {TimeUS : 65735362, Roll : 0.11, Pitch : -18.08, Yaw : 73.04, Alt : 49.3400001526, Lat : 49.283677, Lng : -123.1144661, Q1 : 0.793512821198, Q2 : 0.0943830683827, Q3 : -0.12570489943, Q4 : 0.587900996208}
2019-04-14 13:37:55.81: SIM {TimeUS : 65835322, Roll : 0.12, Pitch : -18.1, Yaw : 73.03, Alt : 49.3400001526, Lat : 49.2836782, Lng : -123.1144597, Q1 : 0.793534815311, Q2 : 0.0945107191801, Q3 : -0.125807911158, Q4 : 0.587828695774}
2019-04-14 13:37:55.91: SIM {TimeUS : 65935282, Roll : 0.15, Pitch : -18.12, Yaw : 73.02, Alt : 49.3400001526, Lat : 49.2836793, Lng : -123.1144533, Q1 : 0.793545424938, Q2 : 0.0947723463178, Q3 : -0.125806376338, Q4 : 0.587772548199}
2019-04-14 13:37:56.01: SIM {TimeUS : 66035242, Roll : 0.17, Pitch : -18.14, Yaw : 73.01, Alt : 49.3400001526, Lat : 49.2836807, Lng : -123.1144469, Q1 : 0.793562293053, Q2 : 0.0949938893318, Q3 : -0.12584219873, Q4 : 0.587706387043}
2019-04-14 13:37:56.11: SIM {TimeUS : 66135202, Roll : 0.18, Pitch : -18.16, Yaw : 73.0, Alt : 49.3499984741, Lat : 49.2836819, Lng : -123.1144404, Q1 : 0.793580830097, Q2 : 0.0951952338219, Q3 : -0.12588262558, Q4 : 0.587640106678}
