2019-04-14 13:21:03.50: SIM {TimeUS : 40716207, Roll : 0.0, Pitch : 0.0, Yaw : 0.0, Alt : 30.1000003815, Lat : 49.28357, Lng : -123.11502, Q1 : 1.0, Q2 : 0.0, Q3 : 0.0, Q4 : 0.0}
2019-04-14 13:21:03.61: SIM {TimeUS : 40835326, Roll : 0.0, Pitch : 0.0, Yaw : 0.0, Alt : 30.1000003815, Lat : 49.28357, Lng : -123.11502, Q1 : 1.0, Q2 : 0.0, Q3 : 0.0, Q4 : 0.0}
2019-04-14 13:21:03.71: SIM {TimeUS : 40935286, Roll : 0.0, Pitch : 0.0, Yaw : 0.0, Alt : 30.1000003815, Lat : 49.28357, Lng : -123.11502, Q1 : 1.0, Q2 : 0.0, Q3 : 0.0, Q4 : 0.0}
2019-04-14 13:21:03.81: SIM {TimeUS : 41035246, Roll : 0.0, Pitch : 0.0, Yaw : 0.0, Alt : 30.1000003815, Lat : 49.28357, Lng : -123.11502, Q1 : 1.0, Q2 : 0.0, Q3 : 0.0, Q4 : 0.0}
2019-04-14 13:21:03.91: SIM {TimeUS : 41135206, Roll : 0.0, Pitch : 0.0, Yaw : 0.0, Alt : 30.1000003815, Lat : 49.28357, Lng : -123.11502, Q1 : 1.0, Q2 : 0.0, Q3 : 0.0, Q4 : 0.0}
2019-04-14 13:21:04.01: SIM {TimeUS : 41235166, Roll : 0.0, Pitch : 0.0, Yaw : 0.0, Alt : 30.1000003815, Lat : 49.28357, Lng : -123.11502, Q1 : 1.0, Q2 : 0.0, Q3 : 0.0, Q4 : 0.0}
2019-04-14 13:21:04.11: SIM {TimeUS : 41335126, Roll : 0.0, Pitch : 0.0, Yaw : 0.0, Alt : 30.1000003815, Lat : 49.28357, Lng : -123.11502, Q1 : 1.0, Q2 : 0.0, Q3 : 0.0, Q4 : 0.0}
2019-04-14 13:21:04.21: SIM {TimeUS : 41435086, Roll : 0.0, Pitch : 0.0, Yaw : 0.0, Alt : 30.1000003815, Lat : 49.28357, Lng : -123.11502, Q1 : 1.0, Q2 : 0.0, Q3 : 0.0, Q4 : 0.0}
2019-04-14 13:21:04.31: SIM {TimeUS : 41535046, Roll : 0.0, Pitch : 0.0, Yaw : 0.0, Alt : 30.1000003815, Lat : 49.28357, Lng : -123.11502, Q1 : 1.0, Q2 : 0.0, Q3 : 0.0, Q4 : 0.0}
2019-04-14 13:21:04.41: SIM {TimeUS : 41635006, Roll : 0.0, Pitch : 0.0, Yaw : 0.0, Alt : 30.1000003815, Lat : 49.28357, Lng : -123.11502, Q1 : 1.0, Q2 : 0.0, Q3 : 0.0, Q4 : 0.0}
2019-04-14 13:21:04.51: SIM {TimeUS : 41734966, Roll : 0.0, Pitch : 0.0, Yaw : 0.0, Alt : 30.1000003815, Lat : 49.28357, Lng : -123.11502, Q1 : 1.0, Q2 : 0.0, Q3 : 0.0, Q4 : 0.0}
2019-04-14 13:21:04.61: SIM {TimeUS : 41834926, Roll : 0.0, Pitch : 0.0, Yaw : 0.0, Alt : 30.1000003815, Lat : 49.28357, Lng : -123.11502, Q1 : 1.0, Q2 : 0.0, Q3 : 0.0, Q4 : 0.0}
2019-04-14 13:21:04.71: SIM {TimeUS : 41934886, Roll : 0.0, Pitch : 0.0, Yaw : 0.0, Alt : 30.1000003815, Lat : 49.28357, Lng : -123.11502, Q1 : 1.0, Q2 : 0.0, Q3 : 0.0, Q4 : 0.0}
2019-04-14 13:21:04.81: SIM {TimeUS : 42034846, Roll : 0.0, Pitch : 0.0, Yaw : 0.0, Alt : 30.1000003815, Lat : 49.28357, Lng : -123.11502, Q1 : 1.0, Q2 : 0.0, Q3 : 0.0, Q4 : 0.0}
2019-04-14 13:21:04.91: SIM {TimeUS : 42134806, Roll : 0.0, Pitch : 0.0, Yaw : 0.0, Alt : 30.1000003815, Lat : 49.28357, Lng : -123.11502, Q1 : 1.0, Q2 : 0.0, Q3 : 0.0, Q4 : 0.0}
2019-04-14 13:21:05.01: SIM {TimeUS : 42234766, Roll : 0.0, Pitch : 0.0, Yaw : 0.0, Alt : 30.1000003815, Lat : 49.28357, Lng : -123.11502, Q1 : 1.0, Q2 : 0.0, Q3 : 0.0, Q4 : 0.0}
2019-04-14 13:21:05.11: SIM {TimeUS : 42334726, Roll : 0.0, Pitch : 0.0, Yaw : 0.0, Alt : 30.1000003815, Lat : 49.28357, Lng : -123.11502, Q1 : 1.0, Q2 : 0.0, Q3 : 0.0, Q4 : 0.0}
2019-04-14 13:21:05.21: SIM {TimeUS : 42434686, Roll : 0.0, Pitch : 0.0, Yaw : 0.0, Alt : 30.1000003815, Lat : 49.28357, Lng : -123.11502, Q1 : 1.0, Q2 : 0.0, Q3 : 0.0, Q4 : 0.0}
2019-04-14 13:21:05.31: SIM {TimeUS : 42534646, Roll : 0.0, Pitch : 0.0, Yaw : 0.0, Alt : 30.1000003815, Lat : 49.28357, Lng : -123.11502, Q1 : 1.0, Q2 : 0.0, Q3 : 0.0, Q4 : 0.0}
2019-04-14 13:21:05.41: SIM {TimeUS : 42634606, Roll : 0.0, Pitch : 0.0, Yaw : 0.0, Alt : 30.1000003815, Lat : 49.28357, Lng : -123.11502, Q1 : 1.0, Q2 : 0.0, Q3 : 0.0, Q4 : 0.0}
2019-04-14 13:21:05.51: SIM {TimeUS : 42734566, Roll : 0.0, Pitch : 0.0, Yaw : 0.0, Alt : 30.1000003815, Lat : 49.28357, Lng : -123.11502, Q1 : 1.0, Q2 : 0.0, Q3 : 0.0, Q4 : 0.0}
2019-04-14 13:21:05.62: SIM {TimeUS : 42835359, Roll : 0.0, Pitch : 0.0, Yaw : 0.0, Alt : 30.1000003815, Lat : 49.28357, Lng : -123.11502, Q1 : 1.0, Q2 : 0.0, Q3 : 0.0, Q4 : 0.0}
2019-04-14 13:21:05.71: SIM {TimeUS : 42935319, Roll : 0.0, Pitch : 0.0, Yaw : 0.0, Alt : 30.1000003815, Lat : 49.28357, Lng : -123.11502, Q1 : 1.0, Q2 : 0.0, Q3 : 0.0, Q4 : 0.0}
2019-04-14 13:21:05.81: SIM {TimeUS : 43035279, Roll : 0.0, Pitch : 0.0, Yaw : 360.0, Alt : 30.1000003815, Lat : 49.28357, Lng : -123.11502, Q1 : 1.0, Q2 : 0.0, Q3 : 0.0, Q4 : -1.2311567564e-11}
2019-04-14 13:21:05.91: SIM {TimeUS : 43135239, Roll : 0.0, Pitch : 0.0, Yaw : 0.0, Alt : 30.1000003815, Lat : 49.28357, Lng : -123.11502, Q1 : 1.0, Q2 : 0.0, Q3 : 0.0, Q4 : 5.47755590885e-12}
2019-04-14 13:21:06.01: SIM {TimeUS : 43235199, Roll : 0.0, Pitch : 0.0, Yaw : 360.0, Alt : 30.1000003815, Lat : 49.28357, Lng : -123.11502, Q1 : 1.0, Q2 : 0.0, Q3 : 0.0, Q4 : -1.28970086166e-07}
2019-04-14 13:21:06.11: SIM {TimeUS : 43335159, Roll : 0.0, Pitch : 0.0, Yaw : 359.99, Alt : 30.1000003815, Lat : 49.28357, Lng : -123.11502, Q1 : 1.0, Q2 : 0.0, Q3 : 0.0, Q4 : -2.97712915653e-07}
2019-04-14 13:21:06.21: SIM {TimeUS : 43435119, Roll : 0.0, Pitch : 0.0, Yaw : 359.99, Alt : 30.1000003815, Lat : 49.28357, Lng : -123.11502, Q1 : 1.0, Q2 : 0.0, Q3 : 0.0, Q4 : -4.71948538916e-07}
2019-04-14 13:21:06.31: SIM {TimeUS : 43535079, Roll : 0.0, Pitch : 0.0, Yaw : 359.99, Alt : 30.1000003815, Lat : 49.28357, Lng : -123.11502, Q1 : 1.0, Q2 : 0.0, Q3 : 0.0, Q4 : -6.44438841846e-07}
2019-04-14 13:21:06.41: SIM {TimeUS : 43635039, Roll : 0.0, Pitch : 0.0, Yaw : 359.99, Alt : 30.1000003815, Lat : 49.28357, Lng : -123.11502, Q1 : 1.0, Q2 : 0.0, Q3 : 0.0, Q4 : -8.54610561873e-07}
2019-04-14 13:21:06.51: SIM {TimeUS : 43734999, Roll : 0.0, Pitch : 0.0, Yaw : 359.99, Alt : 30.1000003815, Lat : 49.28357, Lng : -123.11502, Q1 : 1.0, Q2 : 0.0, Q3 : 0.0, Q4 : -1.04296748304e-06}
2019-04-14 13:21:06.61: SIM {TimeUS : 43834959, Roll : 0.0, Pitch : 0.0, Yaw : 359.99, Alt : 30.1000003815, Lat : 49.28357, Lng : -123.11502, Q1 : 1.0, Q2 : 0.0, Q3 : 0.0, Q4 : -1.22715312045e-06}
2019-04-14 13:21:06.71: SIM {TimeUS : 43934919, Roll : 0.0, Pitch : 0.0, Yaw : 359.99, Alt : 30.1200008392, Lat : 49.28357, Lng : -123.11502, Q1 : 1.0, Q2 : 0.0, Q3 : 0.0, Q4 : -1.38719519782e-06}
2019-04-14 13:21:06.81: SIM {TimeUS : 44034879, Roll : 0.0, Pitch : 0.0, Yaw : 359.99, Alt : 30.1399993896, Lat : 49.28357, Lng : -123.11502, Q1 : 1.0, Q2 : 0.0, Q3 : 0.0, Q4 : -1.60338674959e-06}
2019-04-14 13:21:06.91: SIM {TimeUS : 44134839, Roll : 0.0, Pitch : 0.0, Yaw : 359.99, Alt : 30.1700000763, Lat : 49.28357, Lng : -123.11502, Q1 : 1.0, Q2 : 0.0, Q3 : 0.0, Q4 : -1.77711399374e-06}
2019-04-14 13:21:07.01: SIM {TimeUS : 44234799, Roll : 0.0, Pitch : 0.0, Yaw : 359.99, Alt : 30.2000007629, Lat : 49.28357, Lng : -123.11502, Q1 : 1.0, Q2 : 0.0, Q3 : 0.0, Q4 : -1.93944151761e-06}
2019-04-14 13:21:07.11: SIM {TimeUS : 44334759, Roll : -0.09, Pitch : -0.08, Yaw : 359.99, Alt : 30.25, Lat : 49.28357, Lng : -123.11502, Q1 : 0.999999344349, Q2 : -0.000854198471643, Q3 : -0.000773647625465, Q4 : -1.05955041363e-05}
2019-04-14 13:21:07.21: SIM {TimeUS : 44434719, Roll : -0.36, Pitch : -0.35, Yaw : 359.99, Alt : 30.3400001526, Lat : 49.28357, Lng : -123.11502, Q1 : 0.99998998642, Q2 : -0.00319715426303, Q3 : -0.00312424590811, Q4 : -4.67898025818e-05}
2019-04-14 13:21:07.31: SIM {TimeUS : 44534679, Roll : -0.63, Pitch : -0.61, Yaw : 359.99, Alt : 30.4899997711, Lat : 49.28357, Lng : -123.11502, Q1 : 0.999970197678, Q2 : -0.00556356739253, Q3 : -0.00535487709567, Q4 : -0.000110360226245}
2019-04-14 13:21:07.41: SIM {TimeUS : 44634639, Roll : -0.8, Pitch : -0.74, Yaw : 359.98, Alt : 30.6499996185, Lat : 49.28357, Lng : -123.11502, Q1 : 0.999954044819, Q2 : -0.00704480614513, Q3 : -0.00650450540707, Q4 : -0.000187785757589}
2019-04-14 13:21:07.51: SIM {TimeUS : 44734599, Roll : -0.81, Pitch : -0.73, Yaw : 359.97, Alt : 30.8099994659, Lat : 49.28357, Lng : -123.11502, Q1 : 0.999953985214, Q2 : -0.00712926127017, Q3 : -0.00641337502748, Q4 : -0.000270711432677}
2019-04-14 13:21:07.61: SIM {TimeUS : 44834559, Roll : -0.68, Pitch : -0.61, Yaw : 359.96, Alt : 30.9599990845, Lat : 49.28357, Lng : -123.1150201, Q1 : 0.999967455864, Q2 : -0.00601726071909, Q3 : -0.00535964686424, Q4 : -0.000352413160726}
2019-04-14 13:21:07.72: SIM {TimeUS : 44935352, Roll : -0.47, Pitch : -0.42, Yaw : 359.95, Alt : 31.1100006104, Lat : 49.2835701, Lng : -123.1150202, Q1 : 0.999984383583, Q2 : -0.00415384490043, Q3 : -0.00372203392908, Q4 : -0.000423616467742}
2019-04-14 13:21:07.81: SIM {TimeUS : 45035312, Roll : -0.24, Pitch : -0.23, Yaw : 359.94, Alt : 31.2700004578, Lat : 49.2835701, Lng : -123.1150202, Q1 : 0.999995470047, Q2 : -0.00213952874765, Q3 : -0.00206236587837, Q4 : -0.000475869921502}
2019-04-14 13:21:07.91: SIM {TimeUS : 45135272, Roll : -0.05, Pitch : -0.08, Yaw : 359.94, Alt : 31.4400005341, Lat : 49.2835702, Lng : -123.1150203, Q1 : 0.999999523163, Q2 : -0.000456781330286, Q3 : -0.000727286329493, Q4 : -0.000509398058057}
2019-04-14 13:21:08.01: SIM {TimeUS : 45235232, Roll : 0.06, Pitch : 0.02, Yaw : 359.93, Alt : 31.6100006104, Lat : 49.2835702, Lng : -123.1150204, Q1 : 0.999999701977, Q2 : 0.000536816136446, Q3 : 0.000215079111513, Q4 : -0.000525185547303}
2019-04-14 13:21:08.11: SIM {TimeUS : 45335192, Roll : 0.09, Pitch : 0.08, Yaw : 359.94, Alt : 31.7900009155, Lat : 49.2835703, Lng : -123.1150205, Q1 : 0.999999284744, Q2 : 0.00079185620416, Q3 : 0.00074863032205, Q4 : -0.000516725645866}
2019-04-14 13:21:08.21: SIM {TimeUS : 45435152, Roll : 0.06, Pitch : 0.1, Yaw : 359.94, Alt : 31.9699993134, Lat : 49.2835703, Lng : -123.1150205, Q1 : 0.999999284744, Q2 : 0.000597633828875, Q3 : 0.000896022596862, Q4 : -0.000501606904436}
2019-04-14 13:21:08.31: SIM {TimeUS : 45535112, Roll : 0.06, Pitch : 0.1, Yaw : 359.94, Alt : 32.1599998474, Lat : 49.2835703, Lng : -123.1150206, Q1 : 0.999999284744, Q2 : 0.000525473966263, Q3 : 0.00095713022165, Q4 : -0.000471041363198}
2019-04-14 13:21:08.41: SIM {TimeUS : 45635072, Roll : 0.06, Pitch : 0.11, Yaw : 359.94, Alt : 32.3499984741, Lat : 49.2835703, Lng : -123.1150206, Q1 : 0.99999922514, Q2 : 0.000588902970776, Q3 : 0.000995276379399, Q4 : -0.000446097110398}
2019-04-14 13:21:08.51: SIM {TimeUS : 45735032, Roll : 0.08, Pitch : 0.12, Yaw : 359.95, Alt : 32.5400009155, Lat : 49.2835703, Lng : -123.1150207, Q1 : 0.99999910593, Q2 : 0.000719037081581, Q3 : 0.00106174545363, Q4 : -0.000433083274402}
2019-04-14 13:21:08.61: SIM {TimeUS : 45834992, Roll : 0.09, Pitch : 0.13, Yaw : 359.95, Alt : 32.7400016785, Lat : 49.2835703, Lng : -123.1150207, Q1 : 0.999998807907, Q2 : 0.000828154152259, Q3 : 0.00120984227397, Q4 : -0.000430307205534}
2019-04-14 13:21:08.71: SIM {TimeUS : 45934952, Roll : 0.11, Pitch : 0.14, Yaw : 359.95, Alt : 32.9300003052, Lat : 49.2835704, Lng : -123.1150207, Q1 : 0.999998629093, Q2 : 0.000990545144305, Q3 : 0.00123685330618, Q4 : -0.000428595056292}
2019-04-14 13:21:08.81: SIM {TimeUS : 46034912, Roll : 0.13, Pitch : 0.13, Yaw : 359.95, Alt : 33.1399993896, Lat : 49.2835704, Lng : -123.1150208, Q1 : 0.999998569489, Q2 : 0.00114095257595, Q3 : 0.0011947855819, Q4 : -0.000428646395449}
2019-04-14 13:21:08.91: SIM {TimeUS : 46134872, Roll : 0.14, Pitch : 0.13, Yaw : 359.95, Alt : 33.3400001526, Lat : 49.2835704, Lng : -123.1150208, Q1 : 0.999998390675, Q2 : 0.00127939437516, Q3 : 0.00115533801727, Q4 : -0.000430929998402}
2019-04-14 13:21:09.01: SIM {TimeUS : 46234832, Roll : 0.15, Pitch : 0.13, Yaw : 359.95, Alt : 33.5400009155, Lat : 49.2835704, Lng : -123.1150208, Q1 : 0.99999833107, Q2 : 0.00134479987901, Q3 : 0.00117009482346, Q4 : -0.000435313151684}
2019-04-14 13:21:09.11: SIM {TimeUS : 46334792, Roll : 0.16, Pitch : 0.13, Yaw : 359.94, Alt : 33.75, Lat : 49.2835704, Lng : -123.1150208, Q1 : 0.999998152256, Q2 : 0.00141936121508, Q3 : 0.0012186934473, Q4 : -0.00044309621444}
2019-04-14 13:21:09.21: SIM {TimeUS : 46434752, Roll : 0.16, Pitch : 0.13, Yaw : 359.94, Alt : 33.9599990845, Lat : 49.2835704, Lng : -123.1150208, Q1 : 0.999998211861, Q2 : 0.00140229170211, Q3 : 0.00116154528223, Q4 : -0.00044893543236}
2019-04-14 13:21:09.31: SIM {TimeUS : 46534712, Roll : 0.14, Pitch : 0.11, Yaw : 359.94, Alt : 34.1699981689, Lat : 49.2835704, Lng : -123.1150208, Q1 : 0.999998509884, Q2 : 0.00128447683528, Q3 : 0.00104363367427, Q4 : -0.000454246735899}
2019-04-14 13:21:09.41: SIM {TimeUS : 46634672, Roll : 0.13, Pitch : 0.11, Yaw : 359.94, Alt : 34.3800010681, Lat : 49.2835704, Lng : -123.1150208, Q1 : 0.999998748302, Q2 : 0.00115106767043, Q3 : 0.000962781079579, Q4 : -0.000463121861685}
2019-04-14 13:21:09.51: SIM {TimeUS : 46734632, Roll : 0.1, Pitch : 0.1, Yaw : 359.94, Alt : 34.5900001526, Lat : 49.2835704, Lng : -123.1150208, Q1 : 0.999999046326, Q2 : 0.000959324883297, Q3 : 0.000900998769794, Q4 : -0.000484807416797}
2019-04-14 13:21:09.61: SIM {TimeUS : 46834592, Roll : 0.09, Pitch : 0.06, Yaw : 359.94, Alt : 34.8100013733, Lat : 49.2835704, Lng : -123.1150208, Q1 : 0.999999344349, Q2 : 0.000807236356195, Q3 : 0.00060680572642, Q4 : -0.000521896174178}
2019-04-14 13:21:09.71: SIM {TimeUS : 46934552, Roll : 0.07, Pitch : 0.03, Yaw : 359.93, Alt : 35.0200004578, Lat : 49.2835704, Lng : -123.1150208, Q1 : 0.999999523163, Q2 : 0.00068251916673, Q3 : 0.000345747743268, Q4 : -0.000566290516872}
2019-04-14 13:21:09.82: SIM {TimeUS : 47035345, Roll : 0.05, Pitch : 0.02, Yaw : 359.93, Alt : 35.2400016785, Lat : 49.2835704, Lng : -123.1150208, Q1 : 0.999999701977, Q2 : 0.000438194256276, Q3 : 0.000211864011362, Q4 : -0.000607828667853}
2019-04-14 13:21:09.91: SIM {TimeUS : 47135305, Roll : 0.03, Pitch : 0.02, Yaw : 359.92, Alt : 35.4599990845, Lat : 49.2835704, Lng : -123.1150208, Q1 : 0.999999701977, Q2 : 0.00028757029213, Q3 : 0.000174961198354, Q4 : -0.000643714622129}
2019-04-14 13:21:10.01: SIM {TimeUS : 47235265, Roll : 0.02, Pitch : 0.01, Yaw : 359.92, Alt : 35.6800003052, Lat : 49.2835704, Lng : -123.1150207, Q1 : 0.999999761581, Q2 : 0.000245964125497, Q3 : 0.000161418676726, Q4 : -0.000677858712152}
2019-04-14 13:21:10.11: SIM {TimeUS : 47335225, Roll : 0.0, Pitch : 0.0, Yaw : 359.91, Alt : 35.9000015259, Lat : 49.2835704, Lng : -123.1150207, Q1 : 0.999999761581, Q2 : 4.21416298195e-05, Q3 : -5.74883015361e-05, Q4 : -0.000705197395291}
2019-04-14 13:21:10.21: SIM {TimeUS : 47435185, Roll : -0.03, Pitch : -0.04, Yaw : 359.91, Alt : 36.1199989319, Lat : 49.2835704, Lng : -123.1150207, Q1 : 0.999999582767, Q2 : -0.000270378717687, Q3 : -0.000407617015298, Q4 : -0.000732490851078}
2019-04-14 13:21:10.31: SIM {TimeUS : 47535145, Roll : -0.06, Pitch : -0.07, Yaw : 359.91, Alt : 36.3400001526, Lat : 49.2835704, Lng : -123.1150207, Q1 : 0.999999403954, Q2 : -0.000556782470085, Q3 : -0.000620349776, Q4 : -0.000759318703786}
2019-04-14 13:21:10.41: SIM {TimeUS : 47635105, Roll : -0.09, Pitch : -0.08, Yaw : 359.91, Alt : 36.5600013733, Lat : 49.2835704, Lng : -123.1150207, Q1 : 0.99999910593, Q2 : -0.000800091191195, Q3 : -0.000755618675612, Q4 : -0.000785022799391}
2019-04-14 13:21:10.51: SIM {TimeUS : 47735065, Roll : -0.09, Pitch : -0.08, Yaw : 359.9, Alt : 36.7900009155, Lat : 49.2835704, Lng : -123.1150207, Q1 : 0.99999910593, Q2 : -0.000795703905169, Q3 : -0.000733882072382, Q4 : -0.000810063269455}
2019-04-14 13:21:10.61: SIM {TimeUS : 47835025, Roll : -0.07, Pitch : -0.07, Yaw : 359.9, Alt : 37.0099983215, Lat : 49.2835704, Lng : -123.1150207, Q1 : 0.99999922514, Q2 : -0.000697702227626, Q3 : -0.000626051099971, Q4 : -0.000833227997646}
2019-04-14 13:21:10.71: SIM {TimeUS : 47934985, Roll : -0.06, Pitch : -0.04, Yaw : 359.9, Alt : 37.2299995422, Lat : 49.2835704, Lng : -123.1150207, Q1 : 0.999999403954, Q2 : -0.000574480218347, Q3 : -0.000425710139098, Q4 : -0.000852540077176}
2019-04-14 13:21:10.81: SIM {TimeUS : 48034945, Roll : -0.05, Pitch : -0.03, Yaw : 359.9, Alt : 37.4599990845, Lat : 49.2835704, Lng : -123.1150207, Q1 : 0.999999463558, Q2 : -0.000449553335784, Q3 : -0.000289796153083, Q4 : -0.000864030909725}
2019-04-14 13:21:10.91: SIM {TimeUS : 48134905, Roll : -0.05, Pitch : -0.03, Yaw : 359.9, Alt : 37.6800003052, Lat : 49.2835704, Lng : -123.1150206, Q1 : 0.999999403954, Q2 : -0.000516408646945, Q3 : -0.000327728077536, Q4 : -0.000870948832016}
2019-04-14 13:21:11.01: SIM {TimeUS : 48234865, Roll : -0.07, Pitch : -0.02, Yaw : 359.89, Alt : 37.9099998474, Lat : 49.2835704, Lng : -123.1150206, Q1 : 0.999999344349, Q2 : -0.000658598321024, Q3 : -0.000257715291809, Q4 : -0.000881841871887}
2019-04-14 13:21:11.11: SIM {TimeUS : 48334825, Roll : -0.1, Pitch : -0.01, Yaw : 359.89, Alt : 38.1399993896, Lat : 49.2835704, Lng : -123.1150206, Q1 : 0.999999165535, Q2 : -0.000884900160599, Q3 : -0.000141607742989, Q4 : -0.000895586621482}
2019-04-14 13:21:11.21: SIM {TimeUS : 48434785, Roll : -0.1, Pitch : 0.0, Yaw : 359.89, Alt : 38.3699989319, Lat : 49.2835704, Lng : -123.1150206, Q1 : 0.999999165535, Q2 : -0.000950814806856, Q3 : -3.75143317797e-05, Q4 : -0.000905893510208}
2019-04-14 13:21:11.31: SIM {TimeUS : 48534745, Roll : -0.08, Pitch : 0.02, Yaw : 359.89, Alt : 38.5900001526, Lat : 49.2835704, Lng : -123.1150206, Q1 : 0.999999284744, Q2 : -0.000763656455092, Q3 : 0.000211263715755, Q4 : -0.000922627572436}
2019-04-14 13:21:11.41: SIM {TimeUS : 48634705, Roll : -0.05, Pitch : 0.02, Yaw : 359.89, Alt : 38.8199996948, Lat : 49.2835704, Lng : -123.1150207, Q1 : 0.999999403954, Q2 : -0.000500135880429, Q3 : 0.000219643887249, Q4 : -0.000935491756536}
2019-04-14 13:21:11.51: SIM {TimeUS : 48734665, Roll : -0.02, Pitch : 0.02, Yaw : 359.89, Alt : 39.0499992371, Lat : 49.2835706, Lng : -123.1150207, Q1 : 0.999999523163, Q2 : -0.000210504149436, Q3 : 0.00018171503325, Q4 : -0.000945336010773}
2019-04-14 13:21:11.61: SIM {TimeUS : 48834625, Roll : 0.01, Pitch : 0.03, Yaw : 359.89, Alt : 39.2799987793, Lat : 49.2835706, Lng : -123.1150207, Q1 : 0.999999463558, Q2 : 0.000108070220449, Q3 : 0.00032109732274, Q4 : -0.000952792528551}
2019-04-14 13:21:11.71: SIM {TimeUS : 48934585, Roll : 0.05, Pitch : 0.06, Yaw : 359.88, Alt : 39.5099983215, Lat : 49.2835706, Lng : -123.1150207, Q1 : 0.999999284744, Q2 : 0.000440902309492, Q3 : 0.000592452881392, Q4 : -0.000965594546869}
2019-04-14 13:21:11.81: SIM {TimeUS : 49034545, Roll : 0.07, Pitch : 0.09, Yaw : 359.88, Alt : 39.7400016785, Lat : 49.2835706, Lng : -123.1150207, Q1 : 0.999998927116, Q2 : 0.000685470819008, Q3 : 0.000854092475493, Q4 : -0.000981707940809}
2019-04-14 13:21:11.92: SIM {TimeUS : 49135338, Roll : 0.06, Pitch : 0.12, Yaw : 359.88, Alt : 39.9799995422, Lat : 49.2835706, Lng : -123.1150207, Q1 : 0.999998748302, Q2 : 0.000591173826251, Q3 : 0.00108367111534, Q4 : -0.000992554589175}
2019-04-14 13:21:12.01: SIM {TimeUS : 49235298, Roll : 0.01, Pitch : 0.14, Yaw : 359.88, Alt : 40.2099990845, Lat : 49.2835706, Lng : -123.1150207, Q1 : 0.999998629093, Q2 : 0.000167296209838, Q3 : 0.00126804120373, Q4 : -0.00102419941686}
2019-04-14 13:21:12.11: SIM {TimeUS : 49335258, Roll : -0.02, Pitch : 0.15, Yaw : 359.87, Alt : 40.4399986267, Lat : 49.2835706, Lng : -123.1150207, Q1 : 0.999998569489, Q2 : -0.000178210582817, Q3 : 0.00132620392833, Q4 : -0.00105306820478}
2019-04-14 13:21:12.21: SIM {TimeUS : 49435218, Roll : -0.04, Pitch : 0.13, Yaw : 359.87, Alt : 40.6699981689, Lat : 49.2835706, Lng : -123.1150207, Q1 : 0.999998629093, Q2 : -0.000386395142414, Q3 : 0.00118871382438, Q4 : -0.00107939622831}
2019-04-14 13:21:12.31: SIM {TimeUS : 49535178, Roll : -0.05, Pitch : 0.11, Yaw : 359.87, Alt : 40.9000015259, Lat : 49.2835706, Lng : -123.1150207, Q1 : 0.999998748302, Q2 : -0.00043983469368, Q3 : 0.00101766432635, Q4 : -0.00111301895231}
2019-04-14 13:21:12.41: SIM {TimeUS : 49635138, Roll : -0.03, Pitch : 0.11, Yaw : 359.86, Alt : 41.1399993896, Lat : 49.2835706, Lng : -123.1150207, Q1 : 0.999998748302, Q2 : -0.000303039530991, Q3 : 0.00103062891867, Q4 : -0.00115520437248}
2019-04-14 13:21:12.51: SIM {TimeUS : 49735098, Roll : 0.0, Pitch : 0.13, Yaw : 359.86, Alt : 41.3699989319, Lat : 49.2835706, Lng : -123.1150207, Q1 : 0.999998569489, Q2 : 7.94322841102e-05, Q3 : 0.00119369232561, Q4 : -0.0012044653995}
2019-04-14 13:21:12.61: SIM {TimeUS : 49835058, Roll : 0.06, Pitch : 0.14, Yaw : 359.85, Alt : 41.5999984741, Lat : 49.2835706, Lng : -123.1150207, Q1 : 0.999998271465, Q2 : 0.000534444290679, Q3 : 0.00128371117171, Q4 : -0.00125471851788}
2019-04-14 13:21:12.71: SIM {TimeUS : 49935018, Roll : 0.09, Pitch : 0.11, Yaw : 359.85, Alt : 41.8400001526, Lat : 49.2835706, Lng : -123.1150207, Q1 : 0.999998271465, Q2 : 0.000843889429234, Q3 : 0.00103263847996, Q4 : -0.00129998230841}
2019-04-14 13:21:12.81: SIM {TimeUS : 50034978, Roll : 0.09, Pitch : 0.07, Yaw : 359.84, Alt : 42.0699996948, Lat : 49.2835706, Lng : -123.1150207, Q1 : 0.999998509884, Q2 : 0.000871614611242, Q3 : 0.000649850757327, Q4 : -0.00133627397008}
2019-04-14 13:21:12.91: SIM {TimeUS : 50134938, Roll : 0.06, Pitch : 0.04, Yaw : 359.84, Alt : 42.2999992371, Lat : 49.2835706, Lng : -123.1150207, Q1 : 0.999998807907, Q2 : 0.000545189890545, Q3 : 0.000404513004469, Q4 : -0.00135886948556}
2019-04-14 13:21:13.01: SIM {TimeUS : 50234898, Roll : 0.0, Pitch : 0.04, Yaw : 359.84, Alt : 42.5400009155, Lat : 49.2835706, Lng : -123.1150207, Q1 : 0.999998986721, Q2 : 7.89151381468e-05, Q3 : 0.000371742353309, Q4 : -0.00137599860318}
2019-04-14 13:21:13.11: SIM {TimeUS : 50334858, Roll : -0.03, Pitch : 0.06, Yaw : 359.84, Alt : 42.7700004578, Lat : 49.2835706, Lng : -123.1150207, Q1 : 0.999998807907, Q2 : -0.000266037328402, Q3 : 0.000604090746492, Q4 : -0.00138298829552}
2019-04-14 13:21:13.21: SIM {TimeUS : 50434818, Roll : -0.05, Pitch : 0.08, Yaw : 359.84, Alt : 43.0099983215, Lat : 49.2835704, Lng : -123.1150207, Q1 : 0.999998629093, Q2 : -0.000437054462964, Q3 : 0.000775736873038, Q4 : -0.00138844456524}
2019-04-14 13:21:13.31: SIM {TimeUS : 50534778, Roll : -0.04, Pitch : 0.08, Yaw : 359.84, Alt : 43.2400016785, Lat : 49.2835704, Lng : -123.1150207, Q1 : 0.999998688698, Q2 : -0.00040492269909, Q3 : 0.000733424967621, Q4 : -0.00139357359149}
2019-04-14 13:21:13.41: SIM {TimeUS : 50634738, Roll : -0.04, Pitch : 0.07, Yaw : 359.83, Alt : 43.4799995422, Lat : 49.2835704, Lng : -123.1150207, Q1 : 0.999998748302, Q2 : -0.000407928368077, Q3 : 0.000628429406788, Q4 : -0.0014046082506}
2019-04-14 13:21:13.51: SIM {TimeUS : 50734698, Roll : -0.04, Pitch : 0.05, Yaw : 359.83, Alt : 43.7099990845, Lat : 49.2835704, Lng : -123.1150207, Q1 : 0.999998807907, Q2 : -0.000354062125552, Q3 : 0.000498394481838, Q4 : -0.00141881860327}
2019-04-14 13:21:13.61: SIM {TimeUS : 50834658, Roll : -0.02, Pitch : 0.04, Yaw : 359.83, Alt : 43.9500007629, Lat : 49.2835704, Lng : -123.1150207, Q1 : 0.999998867512, Q2 : -0.0002224475611, Q3 : 0.000406468316214, Q4 : -0.00143876392394}
2019-04-14 13:21:13.71: SIM {TimeUS : 50934618, Roll : -0.01, Pitch : 0.03, Yaw : 359.83, Alt : 44.1800003052, Lat : 49.2835704, Lng : -123.1150207, Q1 : 0.999998867512, Q2 : -0.000154798239237, Q3 : 0.000338510377333, Q4 : -0.00145804998465}
2019-04-14 13:21:13.81: SIM {TimeUS : 51034578, Roll : -0.01, Pitch : 0.01, Yaw : 359.83, Alt : 44.4199981689, Lat : 49.2835704, Lng : -123.1150206, Q1 : 0.999998867512, Q2 : -0.000170916624484, Q3 : 0.000130485277623, Q4 : -0.00147637771443}
2019-04-14 13:21:13.91: SIM {TimeUS : 51134538, Roll : -0.02, Pitch : -0.02, Yaw : 359.82, Alt : 44.6599998474, Lat : 49.2835704, Lng : -123.1150206, Q1 : 0.999998867512, Q2 : -0.000229600729654, Q3 : -0.000189954458619, Q4 : -0.00149975216482}
2019-04-14 13:21:14.01: SIM {TimeUS : 51235331, Roll : -0.03, Pitch : -0.04, Yaw : 359.82, Alt : 44.9000015259, Lat : 49.2835704, Lng : -123.1150206, Q1 : 0.999998748302, Q2 : -0.00026577533572, Q3 : -0.000381674966775, Q4 : -0.00153141585179}
2019-04-14 13:21:14.11: SIM {TimeUS : 51335291, Roll : -0.02, Pitch : -0.05, Yaw : 359.82, Alt : 45.1300010681, Lat : 49.2835704, Lng : -123.1150206, Q1 : 0.999998629093, Q2 : -0.000221247741138, Q3 : -0.000495320302434, Q4 : -0.00156287034042}
2019-04-14 13:21:14.21: SIM {TimeUS : 51435251, Roll : -0.02, Pitch : -0.05, Yaw : 359.81, Alt : 45.3699989319, Lat : 49.2835703, Lng : -123.1150206, Q1 : 0.999998569489, Q2 : -0.000232591162785, Q3 : -0.000498590408824, Q4 : -0.0015955765266}
2019-04-14 13:21:14.31: SIM {TimeUS : 51535211, Roll : -0.04, Pitch : -0.04, Yaw : 359.81, Alt : 45.5999984741, Lat : 49.2835703, Lng : -123.1150206, Q1 : 0.999998509884, Q2 : -0.000415473652538, Q3 : -0.000380267883884, Q4 : -0.001627007965}
2019-04-14 13:21:14.41: SIM {TimeUS : 51635171, Roll : -0.08, Pitch : -0.03, Yaw : 359.8, Alt : 45.8400001526, Lat : 49.2835703, Lng : -123.1150206, Q1 : 0.99999833107, Q2 : -0.000713231158443, Q3 : -0.000288896408165, Q4 : -0.00165995466523}
2019-04-14 13:21:14.51: SIM {TimeUS : 51735131, Roll : -0.1, Pitch : -0.02, Yaw : 359.8, Alt : 46.0699996948, Lat : 49.2835703, Lng : -123.1150206, Q1 : 0.999998092651, Q2 : -0.000932276772801, Q3 : -0.000244075839873, Q4 : -0.00169148982968}
2019-04-14 13:21:14.61: SIM {TimeUS : 51835091, Roll : -0.11, Pitch : -0.01, Yaw : 359.8, Alt : 46.2900009155, Lat : 49.2835703, Lng : -123.1150206, Q1 : 0.999997973442, Q2 : -0.0010064507369, Q3 : -0.000139505238621, Q4 : -0.00171941006556}
2019-04-14 13:21:14.71: SIM {TimeUS : 51935051, Roll : -0.1, Pitch : 0.0, Yaw : 359.8, Alt : 46.5200004578, Lat : 49.2835703, Lng : -123.1150206, Q1 : 0.999998033047, Q2 : -0.000929368194193, Q3 : 6.25489265076e-05, Q4 : -0.00174069055356}
2019-04-14 13:21:14.81: SIM {TimeUS : 52035011, Roll : -0.08, Pitch : 0.01, Yaw : 359.79, Alt : 46.7400016785, Lat : 49.2835703, Lng : -123.1150206, Q1 : 0.999998152256, Q2 : -0.000725218385924, Q3 : 0.000162156589795, Q4 : -0.00176232762169}
2019-04-14 13:21:14.91: SIM {TimeUS : 52134971, Roll : -0.06, Pitch : 0.01, Yaw : 359.79, Alt : 46.9500007629, Lat : 49.2835703, Lng : -123.1150206, Q1 : 0.999998211861, Q2 : -0.00056436000159, Q3 : 0.000114286769531, Q4 : -0.00178621092346}
2019-04-14 13:21:15.01: SIM {TimeUS : 52234931, Roll : -0.05, Pitch : 0.0, Yaw : 359.79, Alt : 47.1500015259, Lat : 49.2835703, Lng : -123.1150206, Q1 : 0.999998211861, Q2 : -0.000483663112391, Q3 : -4.62866628368e-05, Q4 : -0.00181206967682}
2019-04-14 13:21:15.11: SIM {TimeUS : 52334891, Roll : -0.04, Pitch : -0.03, Yaw : 359.78, Alt : 47.3499984741, Lat : 49.2835703, Lng : -123.1150206, Q1 : 0.999998211861, Q2 : -0.000352987786755, Q3 : -0.00029392488068, Q4 : -0.00183767289855}
2019-04-14 13:21:15.21: SIM {TimeUS : 52434851, Roll : -0.01, Pitch : -0.06, Yaw : 359.78, Alt : 47.5400009155, Lat : 49.2835703, Lng : -123.1150206, Q1 : 0.999998152256, Q2 : -0.000137933151564, Q3 : -0.000525572162587, Q4 : -0.00185942125972}
2019-04-14 13:21:15.31: SIM {TimeUS : 52534811, Roll : 0.0, Pitch : -0.1, Yaw : 359.78, Alt : 47.7200012207, Lat : 49.2835703, Lng : -123.1150206, Q1 : 0.999997854233, Q2 : -6.12899821135e-05, Q3 : -0.000876595382579, Q4 : -0.00188162003178}
2019-04-14 13:21:15.41: SIM {TimeUS : 52634771, Roll : 0.0, Pitch : -0.14, Yaw : 359.78, Alt : 47.8899993896, Lat : 49.2835703, Lng : -123.1150207, Q1 : 0.999997437, Q2 : -7.05459679011e-05, Q3 : -0.00122575380374, Q4 : -0.00190301251132}
2019-04-14 13:21:15.51: SIM {TimeUS : 52734731, Roll : 0.01, Pitch : -0.15, Yaw : 359.77, Alt : 48.0400009155, Lat : 49.2835703, Lng : -123.1150207, Q1 : 0.999997258186, Q2 : 0.000128423940623, Q3 : -0.00132037361618, Q4 : -0.00192956614774}
2019-04-14 13:21:15.61: SIM {TimeUS : 52834691, Roll : 0.04, Pitch : -0.13, Yaw : 359.77, Alt : 48.1899986267, Lat : 49.2835703, Lng : -123.1150207, Q1 : 0.999997317791, Q2 : 0.000378952827305, Q3 : -0.00118070805911, Q4 : -0.00195519183762}
2019-04-14 13:21:15.71: SIM {TimeUS : 52934651, Roll : 0.06, Pitch : -0.1, Yaw : 359.77, Alt : 48.3199996948, Lat : 49.2835703, Lng : -123.1150207, Q1 : 0.999997496605, Q2 : 0.000566778879147, Q3 : -0.00091771298321, Q4 : -0.00197902065702}
2019-04-14 13:21:15.81: SIM {TimeUS : 53034611, Roll : 0.06, Pitch : -0.06, Yaw : 359.77, Alt : 48.4399986267, Lat : 49.2835704, Lng : -123.1150207, Q1 : 0.999997615814, Q2 : 0.000593536824454, Q3 : -0.000606761721428, Q4 : -0.00200438988395}
2019-04-14 13:21:15.91: SIM {TimeUS : 53134571, Roll : 0.07, Pitch : -0.04, Yaw : 359.76, Alt : 48.5499992371, Lat : 49.2835704, Lng : -123.1150207, Q1 : 0.999997675419, Q2 : 0.000612277246546, Q3 : -0.000411338638514, Q4 : -0.00203193142079}
2019-04-14 13:21:16.02: SIM {TimeUS : 53235364, Roll : 0.05, Pitch : -0.04, Yaw : 359.76, Alt : 48.6500015259, Lat : 49.2835704, Lng : -123.1150207, Q1 : 0.999997675419, Q2 : 0.000503334624227, Q3 : -0.00042995630065, Q4 : -0.00205947342329}
2019-04-14 13:21:16.11: SIM {TimeUS : 53335324, Roll : 0.02, Pitch : -0.04, Yaw : 359.76, Alt : 48.7299995422, Lat : 49.2835704, Lng : -123.1150207, Q1 : 0.999997675419, Q2 : 0.000256250670645, Q3 : -0.000431943306467, Q4 : -0.00208894186653}
2019-04-14 13:21:16.21: SIM {TimeUS : 53435284, Roll : 0.01, Pitch : -0.03, Yaw : 359.75, Alt : 48.7999992371, Lat : 49.2835704, Lng : -123.1150207, Q1 : 0.999997675419, Q2 : 0.000159942544997, Q3 : -0.000300988467643, Q4 : -0.00212096306495}
2019-04-14 13:21:16.31: SIM {TimeUS : 53535244, Roll : 0.0, Pitch : -0.01, Yaw : 359.75, Alt : 48.8699989319, Lat : 49.2835704, Lng : -123.1150207, Q1 : 0.999997675419, Q2 : 7.0183275966e-05, Q3 : -0.000161153584486, Q4 : -0.00215797778219}
2019-04-14 13:21:16.41: SIM {TimeUS : 53635204, Roll : 0.0, Pitch : 0.0, Yaw : 359.74, Alt : 48.9199981689, Lat : 49.2835704, Lng : -123.1150207, Q1 : 0.99999755621, Q2 : 2.71073386102e-05, Q3 : 1.90091486729e-05, Q4 : -0.00219785771333}
2019-04-14 13:21:16.51: SIM {TimeUS : 53735164, Roll : 0.03, Pitch : 0.02, Yaw : 359.74, Alt : 48.9700012207, Lat : 49.2835704, Lng : -123.1150207, Q1 : 0.999997437, Q2 : 0.000323860935168, Q3 : 0.000243888382101, Q4 : -0.00223002373241}
2019-04-14 13:21:16.61: SIM {TimeUS : 53835124, Roll : 0.19, Pitch : 0.01, Yaw : 359.74, Alt : 49.0099983215, Lat : 49.2835704, Lng : -123.1150207, Q1 : 0.999995946884, Q2 : 0.00171372562181, Q3 : 0.000126274695504, Q4 : -0.0022572085727}
2019-04-14 13:21:16.71: SIM {TimeUS : 53935084, Roll : 0.57, Pitch : -0.09, Yaw : 359.73, Alt : 49.0400009155, Lat : 49.2835704, Lng : -123.1150207, Q1 : 0.999984562397, Q2 : 0.00499088037759, Q3 : -0.000867108232342, Q4 : -0.00227576261386}
2019-04-14 13:21:16.81: SIM {TimeUS : 54035044, Roll : 1.18, Pitch : -0.3, Yaw : 359.73, Alt : 49.0699996948, Lat : 49.2835704, Lng : -123.1150207, Q1 : 0.999940514565, Q2 : 0.0103320889175, Q3 : -0.002649897011, Q4 : -0.00228724302724}
2019-04-14 13:21:16.91: SIM {TimeUS : 54135004, Roll : 1.99, Pitch : -0.58, Yaw : 359.72, Alt : 49.0999984741, Lat : 49.2835704, Lng : -123.1150207, Q1 : 0.999832212925, Q2 : 0.0174398645759, Q3 : -0.00512452516705, Q4 : -0.00228428700939}
2019-04-14 13:21:17.01: SIM {TimeUS : 54234964, Roll : 2.96, Pitch : -0.9, Yaw : 359.71, Alt : 49.1199989319, Lat : 49.2835706, Lng : -123.1150206, Q1 : 0.999631941319, Q2 : 0.0258330050856, Q3 : -0.00797028839588, Q4 : -0.00225846748799}
2019-04-14 13:21:17.11: SIM {TimeUS : 54334924, Roll : 3.94, Pitch : -1.21, Yaw : 359.7, Alt : 49.1399993896, Lat : 49.2835706, Lng : -123.1150204, Q1 : 0.99934977293, Q2 : 0.0343748778105, Q3 : -0.0106540489942, Q4 : -0.00219446094707}
2019-04-14 13:21:17.21: SIM {TimeUS : 54434884, Roll : 4.77, Pitch : -1.47, Yaw : 359.69, Alt : 49.1599998474, Lat : 49.2835706, Lng : -123.1150202, Q1 : 0.99904602766, Q2 : 0.0416585691273, Q3 : -0.0129314437509, Q4 : -0.00210048607551}
2019-04-14 13:21:17.31: SIM {TimeUS : 54534844, Roll : 5.41, Pitch : -1.66, Yaw : 359.69, Alt : 49.1699981689, Lat : 49.2835707, Lng : -123.11502, Q1 : 0.998777985573, Q2 : 0.0471589230001, Q3 : -0.0146532123908, Q4 : -0.00197499478236}
2019-04-14 13:21:17.41: SIM {TimeUS : 54634804, Roll : 5.85, Pitch : -1.79, Yaw : 359.69, Alt : 49.1800003052, Lat : 49.2835708, Lng : -123.1150196, Q1 : 0.998569011688, Q2 : 0.0510517582297, Q3 : -0.0158206224442, Q4 : -0.00182980147656}
2019-04-14 13:21:17.51: SIM {TimeUS : 54734764, Roll : 6.2, Pitch : -1.91, Yaw : 359.7, Alt : 49.1899986267, Lat : 49.2835709, Lng : -123.115019, Q1 : 0.998394668102, Q2 : 0.0540550835431, Q3 : -0.0168305709958, Q4 : -0.00169463700149}
2019-04-14 13:21:17.61: SIM {TimeUS : 54834724, Roll : 6.54, Pitch : -2.03, Yaw : 359.7, Alt : 49.2000007629, Lat : 49.2835709, Lng : -123.1150184, Q1 : 0.998212754726, Q2 : 0.0570108965039, Q3 : -0.017851209268, Q4 : -0.00156034168322}
2019-04-14 13:21:17.71: SIM {TimeUS : 54934684, Roll : 6.92, Pitch : -2.14, Yaw : 359.7, Alt : 49.2099990845, Lat : 49.2835712, Lng : -123.1150177, Q1 : 0.998001694679, Q2 : 0.0602973625064, Q3 : -0.0188384465873, Q4 : -0.0014209538931}
2019-04-14 13:21:17.81: SIM {TimeUS : 55034644, Roll : 7.28, Pitch : -2.23, Yaw : 359.71, Alt : 49.2200012207, Lat : 49.2835713, Lng : -123.1150168, Q1 : 0.997789561749, Q2 : 0.0634746626019, Q3 : -0.0196312461048, Q4 : -0.00128337251954}
2019-04-14 13:21:17.91: SIM {TimeUS : 55134604, Roll : 7.58, Pitch : -2.31, Yaw : 359.71, Alt : 49.2200012207, Lat : 49.2835715, Lng : -123.1150158, Q1 : 0.997604906559, Q2 : 0.0661176070571, Q3 : -0.0202870443463, Q4 : -0.00115096382797}
2019-04-14 13:21:18.01: SIM {TimeUS : 55234564, Roll : 7.8, Pitch : -2.37, Yaw : 359.71, Alt : 49.2299995422, Lat : 49.2835718, Lng : -123.1150147, Q1 : 0.99746799469, Q2 : 0.0679758489132, Q3 : -0.020875049755, Q4 : -0.00105377100408}
2019-04-14 13:21:18.12: SIM {TimeUS : 55335357, Roll : 7.96, Pitch : -2.41, Yaw : 359.72, Alt : 49.2400016785, Lat : 49.283572, Lng : -123.1150135, Q1 : 0.99736648798, Q2 : 0.0693463608623, Q3 : -0.0212203487754, Q4 : -0.00097113189986}
2019-04-14 13:21:18.21: SIM {TimeUS : 55435317, Roll : 8.08, Pitch : -2.43, Yaw : 359.72, Alt : 49.2400016785, Lat : 49.2835722, Lng : -123.1150122, Q1 : 0.997286319733, Q2 : 0.0704363808036, Q3 : -0.0214000418782, Q4 : -0.000908863614313}
2019-04-14 13:21:18.31: SIM {TimeUS : 55535277, Roll : 8.2, Pitch : -2.47, Yaw : 359.72, Alt : 49.25, Lat : 49.2835725, Lng : -123.1150108, Q1 : 0.997206807137, Q2 : 0.0714698731899, Q3 : -0.0216777026653, Q4 : -0.000887689646333}
2019-04-14 13:21:18.41: SIM {TimeUS : 55635237, Roll : 8.41, Pitch : -2.42, Yaw : 359.77, Alt : 49.25, Lat : 49.2835727, Lng : -123.1150093, Q1 : 0.997085034847, Q2 : 0.0732826814055, Q3 : -0.0212341267616, Q4 : -0.000437090173364}
2019-04-14 13:21:18.51: SIM {TimeUS : 55735197, Roll : 8.81, Pitch : -2.14, Yaw : 0.27, Alt : 49.2599983215, Lat : 49.2835732, Lng : -123.1150077, Q1 : 0.996860265732, Q2 : 0.0768962278962, Q3 : -0.0184857547283, Q4 : 0.00385372503661}
2019-04-14 13:21:18.61: SIM {TimeUS : 55835157, Roll : 9.38, Pitch : -1.78, Yaw : 1.91, Alt : 49.2599983215, Lat : 49.2835734, Lng : -123.115006, Q1 : 0.996365964413, Q2 : 0.0820672959089, Q3 : -0.0141259822994, Q4 : 0.0178959369659}
2019-04-14 13:21:18.71: SIM {TimeUS : 55935117, Roll : 9.95, Pitch : -1.76, Yaw : 5.09, Alt : 49.2599983215, Lat : 49.2835738, Lng : -123.1150042, Q1 : 0.995069682598, Q2 : 0.0873318836093, Q3 : -0.011486328207, Q4 : 0.0455798655748}
2019-04-14 13:21:18.81: SIM {TimeUS : 56035077, Roll : 10.33, Pitch : -2.34, Yaw : 9.79, Alt : 49.2599983215, Lat : 49.283574, Lng : -123.1150023, Q1 : 0.991936743259, Q2 : 0.0914388820529, Q3 : -0.0126236444339, Q4 : 0.0868398174644}
2019-04-14 13:21:18.91: SIM {TimeUS : 56135037, Roll : 10.36, Pitch : -3.56, Yaw : 15.8, Alt : 49.2599983215, Lat : 49.2835745, Lng : -123.1150002, Q1 : 0.985591232777, Q2 : 0.0936840251088, Q3 : -0.0182826761156, Q4 : 0.139638900757}
2019-04-14 13:21:19.01: SIM {TimeUS : 56234997, Roll : 9.94, Pitch : -5.3, Yaw : 22.86, Alt : 49.2599983215, Lat : 49.2835747, Lng : -123.114998, Q1 : 0.97462284565, Q2 : 0.0939726755023, Q3 : -0.0280504990369, Q4 : 0.201227933168}
2019-04-14 13:21:19.11: SIM {TimeUS : 56334957, Roll : 8.99, Pitch : -7.33, Yaw : 30.75, Alt : 49.2700004578, Lat : 49.2835751, Lng : -123.1149957, Q1 : 0.957938015461, Q2 : 0.092368721962, Q3 : -0.0407254956663, Q4 : 0.26863399148}
2019-04-14 13:21:19.21: SIM {TimeUS : 56434917, Roll : 7.53, Pitch : -9.38, Yaw : 39.22, Alt : 49.2700004578, Lat : 49.2835753, Lng : -123.1149933, Q1 : 0.934996962547, Q2 : 0.0891175717115, Q3 : -0.0548723340034, Q4 : 0.33886256814}
2019-04-14 13:21:19.31: SIM {TimeUS : 56534877, Roll : 5.64, Pitch : -11.22, Yaw : 48.03, Alt : 49.2700004578, Lat : 49.2835757, Lng : -123.1149908, Q1 : 0.905966699123, Q2 : 0.0845045372844, Q3 : -0.0692867338657, Q4 : 0.409002035856}
2019-04-14 13:21:19.41: SIM {TimeUS : 56634837, Roll : 3.42, Pitch : -12.65, Yaw : 56.92, Alt : 49.2700004578, Lat : 49.2835759, Lng : -123.1149881, Q1 : 0.87181699276, Q2 : 0.078592069447, Q3 : -0.0827394202352, Q4 : 0.476353466511}
2019-04-14 13:21:19.51: SIM {TimeUS : 56734797, Roll : 1.03, Pitch : -13.58, Yaw : 65.56, Alt : 49.2700004578, Lat : 49.2835764, Lng : -123.1149853, Q1 : 0.834202885628, Q2 : 0.0715637728572, Q3 : -0.0945951119065, Q4 : 0.53854984045}
2019-04-14 13:21:19.61: SIM {TimeUS : 56834757, Roll : -1.61, Pitch : -14.01, Yaw : 73.55, Alt : 49.2799987793, Lat : 49.2835768, Lng : -123.1149824, Q1 : 0.795915722847, Q2 : 0.0618515759706, Q3 : -0.106040202081, Q4 : 0.59283053875}
2019-04-14 13:21:19.71: SIM {TimeUS : 56934717, Roll : -4.3, Pitch : -13.97, Yaw : 80.21, Alt : 49.2799987793, Lat : 49.2835773, Lng : -123.1149794, Q1 : 0.761549651623, Q2 : 0.0497845262289, Q3 : -0.117010712624, Q4 : 0.635509312153}
2019-04-14 13:21:19.81: SIM {TimeUS : 57034677, Roll : -6.54, Pitch : -13.65, Yaw : 85.0, Alt : 49.2799987793, Lat : 49.2835779, Lng : -123.1149763, Q1 : 0.735403060913, Q2 : 0.0383680425584, Q3 : -0.125819683075, Q4 : 0.66474032402}
2019-04-14 13:21:19.91: SIM {TimeUS : 57134637, Roll : -7.95, Pitch : -13.28, Yaw : 87.79, Alt : 49.2799987793, Lat : 49.2835785, Lng : -123.1149731, Q1 : 0.719594419003, Q2 : 0.0303694587201, Q3 : -0.130894675851, Q4 : 0.681269526482}
2019-04-14 13:21:20.01: SIM {TimeUS : 57234597, Roll : -8.37, Pitch : -13.04, Yaw : 88.75, Alt : 49.2799987793, Lat : 49.2835793, Lng : -123.1149697, Q1 : 0.7140224576, Q2 : 0.0273375697434, Q3 : -0.131712898612, Q4 : 0.687078118324}
2019-04-14 13:21:20.11: SIM {TimeUS : 57334557, Roll : -7.88, Pitch : -13.04, Yaw : 88.21, Alt : 49.2799987793, Lat : 49.28358, Lng : -123.1149663, Q1 : 0.717124819756, Q2 : 0.0298249889165, Q3 : -0.128960177302, Q4 : 0.684260010719}
2019-04-14 13:21:20.22: SIM {TimeUS : 57435350, Roll : -6.67, Pitch : -13.37, Yaw : 86.51, Alt : 49.2799987793, Lat : 49.283581, Lng : -123.1149628, Q1 : 0.726751923561, Q2 : 0.0375246368349, Q3 : -0.124265536666, Q4 : 0.674523234367}
2019-04-14 13:21:20.31: SIM {TimeUS : 57535310, Roll : -4.99, Pitch : -13.93, Yaw : 84.0, Alt : 49.2799987793, Lat : 49.2835818, Lng : -123.1149592, Q1 : 0.740447163582, Q2 : 0.0490000732243, Q3 : -0.118996344507, Q4 : 0.659679412842}
2019-04-14 13:21:20.41: SIM {TimeUS : 57635270, Roll : -3.06, Pitch : -14.62, Yaw : 80.99, Alt : 49.2799987793, Lat : 49.2835829, Lng : -123.1149555, Q1 : 0.756202340126, Q2 : 0.062431409955, Q3 : -0.114015489817, Q4 : 0.641296207905}
2019-04-14 13:21:20.51: SIM {TimeUS : 57735230, Roll : -1.12, Pitch : -15.27, Yaw : 77.77, Alt : 49.2799987793, Lat : 49.2835838, Lng : -123.1149518, Q1 : 0.772260427475, Q2 : 0.0758919939399, Q3 : -0.109554879367, Q4 : 0.621169805527}
2019-04-14 13:21:20.61: SIM {TimeUS : 57835190, Roll : 0.67, Pitch : -15.75, Yaw : 74.67, Alt : 49.2799987793, Lat : 49.2835849, Lng : -123.1149479, Q1 : 0.787077188492, Q2 : 0.0878024175763, Q3 : -0.105430819094, Q4 : 0.601402163506}
2019-04-14 13:21:20.71: SIM {TimeUS : 57935150, Roll : 2.16, Pitch : -16.02, Yaw : 72.0, Alt : 49.2799987793, Lat : 49.2835859, Lng : -123.1149439, Q1 : 0.79939609766, Q2 : 0.0970442742109, Q3 : -0.101772844791, Q4 : 0.584115147591}
2019-04-14 13:21:20.81: SIM {TimeUS : 58035110, Roll : 3.19, Pitch : -16.1, Yaw : 70.0, Alt : 49.2799987793, Lat : 49.2835868, Lng : -123.1149397, Q1 : 0.808487474918, Q2 : 0.102943748236, Q3 : -0.0988067835569, Q4 : 0.570953428745}
2019-04-14 13:21:20.91: SIM {TimeUS : 58135070, Roll : 3.72, Pitch : -16.06, Yaw : 68.78, Alt : 49.2799987793, Lat : 49.2835879, Lng : -123.1149356, Q1 : 0.814087033272, Q2 : 0.105416834354, Q3 : -0.0970858484507, Q4 : 0.562782287598}
2019-04-14 13:21:21.01: SIM {TimeUS : 58235030, Roll : 3.76, Pitch : -15.98, Yaw : 68.35, Alt : 49.2799987793, Lat : 49.2835887, Lng : -123.1149312, Q1 : 0.816282331944, Q2 : 0.104964666069, Q3 : -0.0966791138053, Q4 : 0.559748828411}
2019-04-14 13:21:21.11: SIM {TimeUS : 58334990, Roll : 3.41, Pitch : -15.93, Yaw : 68.6, Alt : 49.2799987793, Lat : 49.2835897, Lng : -123.1149268, Q1 : 0.815399765968, Q2 : 0.102454863489, Q3 : -0.0977813154459, Q4 : 0.561306536198}
2019-04-14 13:21:21.21: SIM {TimeUS : 58434950, Roll : 2.75, Pitch : -15.95, Yaw : 69.4, Alt : 49.2799987793, Lat : 49.2835905, Lng : -123.1149222, Q1 : 0.812006771564, Q2 : 0.0985547155142, Q3 : -0.100502595305, Q4 : 0.566419661045}
2019-04-14 13:21:21.31: SIM {TimeUS : 58534910, Roll : 1.92, Pitch : -16.05, Yaw : 70.57, Alt : 49.2799987793, Lat : 49.2835915, Lng : -123.1149176, Q1 : 0.806778669357, Q2 : 0.094196408987, Q3 : -0.104363910854, Q4 : 0.573884546757}
2019-04-14 13:21:21.41: SIM {TimeUS : 58634870, Roll : 1.05, Pitch : -16.17, Yaw : 71.93, Alt : 49.2900009155, Lat : 49.2835922, Lng : -123.1149129, Q1 : 0.800527989864, Q2 : 0.0899724662304, Q3 : -0.108541473746, Q4 : 0.582476317883}
2019-04-14 13:21:21.51: SIM {TimeUS : 58734830, Roll : 0.22, Pitch : -16.29, Yaw : 73.28, Alt : 49.2900009155, Lat : 49.2835932, Lng : -123.1149081, Q1 : 0.794094800949, Q2 : 0.0861310958862, Q3 : -0.112543158233, Q4 : 0.591040551662}
2019-04-14 13:21:21.61: SIM {TimeUS : 58834790, Roll : -0.49, Pitch : -16.4, Yaw : 74.5, Alt : 49.2900009155, Lat : 49.283594, Lng : -123.1149033, Q1 : 0.788217008114, Q2 : 0.0829308480024, Q3 : -0.116133145988, Q4 : 0.598623037338}
2019-04-14 13:21:21.71: SIM {TimeUS : 58934750, Roll : -1.04, Pitch : -16.48, Yaw : 75.46, Alt : 49.2900009155, Lat : 49.283595, Lng : -123.1148984, Q1 : 0.783464550972, Q2 : 0.0806142762303, Q3 : -0.118903160095, Q4 : 0.604604542255}
2019-04-14 13:21:21.81: SIM {TimeUS : 59034710, Roll : -1.38, Pitch : -16.55, Yaw : 76.11, Alt : 49.2900009155, Lat : 49.2835959, Lng : -123.1148934, Q1 : 0.780188798904, Q2 : 0.0793170258403, Q3 : -0.120721176267, Q4 : 0.6086384058}
2019-04-14 13:21:21.91: SIM {TimeUS : 59134670, Roll : -1.51, Pitch : -16.59, Yaw : 76.44, Alt : 49.2900009155, Lat : 49.2835969, Lng : -123.1148884, Q1 : 0.7785333395, Q2 : 0.0789579451084, Q3 : -0.121479123831, Q4 : 0.610650777817}
2019-04-14 13:21:22.01: SIM {TimeUS : 59234630, Roll : -1.45, Pitch : -16.62, Yaw : 76.45, Alt : 49.2900009155, Lat : 49.2835978, Lng : -123.1148833, Q1 : 0.778398752213, Q2 : 0.0795284286141, Q3 : -0.12132640183, Q4 : 0.610778689384}
2019-04-14 13:21:22.11: SIM {TimeUS : 59334590, Roll : -1.23, Pitch : -16.64, Yaw : 76.2, Alt : 49.2900009155, Lat : 49.2835989, Lng : -123.1148782, Q1 : 0.77953016758, Q2 : 0.0808806866407, Q3 : -0.120471544564, Q4 : 0.609325587749}
2019-04-14 13:21:22.21: SIM {TimeUS : 59434550, Roll : -0.9, Pitch : -16.66, Yaw : 75.77, Alt : 49.2900009155, Lat : 49.2835999, Lng : -123.114873, Q1 : 0.78156465292, Q2 : 0.0828104838729, Q3 : -0.11921647191, Q4 : 0.606701433659}
2019-04-14 13:21:22.32: SIM {TimeUS : 59535343, Roll : -0.52, Pitch : -16.69, Yaw : 75.22, Alt : 49.2900009155, Lat : 49.2836008, Lng : -123.1148677, Q1 : 0.784135639668, Q2 : 0.0850457400084, Q3 : -0.117783434689, Q4 : 0.60334533453}
2019-04-14 13:21:22.41: SIM {TimeUS : 59635303, Roll : -0.14, Pitch : -16.73, Yaw : 74.65, Alt : 49.2900009155, Lat : 49.2836019, Lng : -123.1148625, Q1 : 0.786825299263, Q2 : 0.0872754901648, Q3 : -0.116464868188, Q4 : 0.599770724773}
2019-04-14 13:21:22.51: SIM {TimeUS : 59735263, Roll : 0.19, Pitch : -16.77, Yaw : 74.11, Alt : 49.2900009155, Lat : 49.283603, Lng : -123.1148572, Q1 : 0.789352953434, Q2 : 0.0892116799951, Q3 : -0.115366913378, Q4 : 0.596367061138}
2019-04-14 13:21:22.61: SIM {TimeUS : 59835223, Roll : 0.45, Pitch : -16.8, Yaw : 73.65, Alt : 49.2900009155, Lat : 49.2836041, Lng : -123.1148518, Q1 : 0.791475713253, Q2 : 0.0907237753272, Q3 : -0.114639505744, Q4 : 0.593458652496}
2019-04-14 13:21:22.71: SIM {TimeUS : 59935183, Roll : 0.61, Pitch : -16.85, Yaw : 73.32, Alt : 49.2900009155, Lat : 49.283605, Lng : -123.1148464, Q1 : 0.793027281761, Q2 : 0.0917843058705, Q3 : -0.114385530353, Q4 : 0.591269314289}
2019-04-14 13:21:22.81: SIM {TimeUS : 60035143, Roll : 0.68, Pitch : -16.9, Yaw : 73.12, Alt : 49.2999992371, Lat : 49.2836061, Lng : -123.114841, Q1 : 0.793961584568, Q2 : 0.0923108905554, Q3 : -0.11457183212, Q4 : 0.589895784855}
2019-04-14 13:21:22.91: SIM {TimeUS : 60135103, Roll : 0.64, Pitch : -16.94, Yaw : 73.05, Alt : 49.2999992371, Lat : 49.2836072, Lng : -123.1148355, Q1 : 0.794319748878, Q2 : 0.0921697765589, Q3 : -0.115077316761, Q4 : 0.58933699131}
2019-04-14 13:21:23.01: SIM {TimeUS : 60235063, Roll : 0.53, Pitch : -16.96, Yaw : 73.09, Alt : 49.2999992371, Lat : 49.2836081, Lng : -123.11483, Q1 : 0.794165074825, Q2 : 0.0915769338608, Q3 : -0.115778408945, Q4 : 0.589500546455}
2019-04-14 13:21:23.11: SIM {TimeUS : 60335023, Roll : 0.38, Pitch : -16.99, Yaw : 73.21, Alt : 49.2999992371, Lat : 49.2836092, Lng : -123.1148244, Q1 : 0.793609857559, Q2 : 0.0907571613789, Q3 : -0.1166061759, Q4 : 0.590211451054}
2019-04-14 13:21:23.21: SIM {TimeUS : 60434983, Roll : 0.23, Pitch : -17.02, Yaw : 73.4, Alt : 49.2999992371, Lat : 49.2836103, Lng : -123.1148188, Q1 : 0.792755424976, Q2 : 0.0900817662477, Q3 : -0.117498740554, Q4 : 0.591285228729}
2019-04-14 13:21:23.31: SIM {TimeUS : 60534943, Roll : 0.09, Pitch : -17.07, Yaw : 73.6, Alt : 49.2999992371, Lat : 49.2836112, Lng : -123.1148132, Q1 : 0.791760444641, Q2 : 0.0895477086306, Q3 : -0.118387103081, Q4 : 0.592521011829}
2019-04-14 13:21:23.41: SIM {TimeUS : 60634903, Roll : -0.02, Pitch : -17.12, Yaw : 73.8, Alt : 49.2999992371, Lat : 49.2836123, Lng : -123.1148075, Q1 : 0.790755927563, Q2 : 0.0892589986324, Q3 : -0.119185969234, Q4 : 0.593744575977}
2019-04-14 13:21:23.51: SIM {TimeUS : 60734863, Roll : -0.09, Pitch : -17.17, Yaw : 73.97, Alt : 49.2999992371, Lat : 49.2836134, Lng : -123.1148019, Q1 : 0.789863049984, Q2 : 0.0891890153289, Q3 : -0.119780510664, Q4 : 0.594822883606}
2019-04-14 13:21:23.61: SIM {TimeUS : 60834823, Roll : -0.15, Pitch : -17.21, Yaw : 74.1, Alt : 49.2999992371, Lat : 49.2836145, Lng : -123.1147961, Q1 : 0.789201974869, Q2 : 0.0891118273139, Q3 : -0.120245017111, Q4 : 0.595617711544}
2019-04-14 13:21:23.71: SIM {TimeUS : 60934783, Roll : -0.2, Pitch : -17.23, Yaw : 74.18, Alt : 49.2999992371, Lat : 49.2836156, Lng : -123.1147904, Q1 : 0.788833975792, Q2 : 0.0889690220356, Q3 : -0.120559245348, Q4 : 0.596062898636}
2019-04-14 13:21:23.81: SIM {TimeUS : 61034743, Roll : -0.23, Pitch : -17.24, Yaw : 74.2, Alt : 49.3100013733, Lat : 49.2836166, Lng : -123.1147846, Q1 : 0.788751244545, Q2 : 0.0888320803642, Q3 : -0.120784454048, Q4 : 0.596147239208}
2019-04-14 13:21:23.91: SIM {TimeUS : 61134703, Roll : -0.22, Pitch : -17.24, Yaw : 74.16, Alt : 49.3100013733, Lat : 49.2836177, Lng : -123.1147789, Q1 : 0.788909494877, Q2 : 0.0888360291719, Q3 : -0.120813660324, Q4 : 0.595931231976}
2019-04-14 13:21:24.01: SIM {TimeUS : 61234663, Roll : -0.19, Pitch : -17.25, Yaw : 74.09, Alt : 49.3100013733, Lat : 49.2836188, Lng : -123.114773, Q1 : 0.789242684841, Q2 : 0.0890530347824, Q3 : -0.120723985136, Q4 : 0.595475673676}
2019-04-14 13:21:24.11: SIM {TimeUS : 61334623, Roll : -0.11, Pitch : -17.28, Yaw : 73.99, Alt : 49.3100013733, Lat : 49.2836199, Lng : -123.1147672, Q1 : 0.789661765099, Q2 : 0.0896523445845, Q3 : -0.120570480824, Q4 : 0.594860911369}
2019-04-14 13:21:24.21: SIM {TimeUS : 61434583, Roll : -0.01, Pitch : -17.33, Yaw : 73.88, Alt : 49.3100013733, Lat : 49.2836211, Lng : -123.1147614, Q1 : 0.790119707584, Q2 : 0.0904964134097, Q3 : -0.120552122593, Q4 : 0.59412831068}
2019-04-14 13:21:24.31: SIM {TimeUS : 61534543, Roll : 0.06, Pitch : -17.37, Yaw : 73.76, Alt : 49.3100013733, Lat : 49.2836221, Lng : -123.1147555, Q1 : 0.790615975857, Q2 : 0.0911019742489, Q3 : -0.120465822518, Q4 : 0.593392670155}
2019-04-14 13:21:24.42: SIM {TimeUS : 61635336, Roll : 0.13, Pitch : -17.37, Yaw : 73.66, Alt : 49.3100013733, Lat : 49.2836232, Lng : -123.1147494, Q1 : 0.791110277176, Q2 : 0.0914869010448, Q3 : -0.120194584131, Q4 : 0.592729270458}
2019-04-14 13:21:24.51: SIM {TimeUS : 61735296, Roll : 0.18, Pitch : -17.38, Yaw : 73.57, Alt : 49.3100013733, Lat : 49.2836244, Lng : -123.1147436, Q1 : 0.791519999504, Q2 : 0.0917986631393, Q3 : -0.120108567178, Q4 : 0.592151224613}
2019-04-14 13:21:24.61: SIM {TimeUS : 61835256, Roll : 0.19, Pitch : -17.41, Yaw : 73.5, Alt : 49.3100013733, Lat : 49.2836255, Lng : -123.1147377, Q1 : 0.791829526424, Q2 : 0.0919693559408, Q3 : -0.120315209031, Q4 : 0.591668784618}
2019-04-14 13:21:24.71: SIM {TimeUS : 61935216, Roll : 0.19, Pitch : -17.45, Yaw : 73.46, Alt : 49.3100013733, Lat : 49.2836267, Lng : -123.1147317, Q1 : 0.7920165658, Q2 : 0.0920800939202, Q3 : -0.120576411486, Q4 : 0.59134799242}
2019-04-14 13:21:24.81: SIM {TimeUS : 62035176, Roll : 0.17, Pitch : -17.48, Yaw : 73.44, Alt : 49.3100013733, Lat : 49.2836278, Lng : -123.1147257, Q1 : 0.792096793652, Q2 : 0.0921137705445, Q3 : -0.120906494558, Q4 : 0.591167867184}
2019-04-14 13:21:24.91: SIM {TimeUS : 62135136, Roll : 0.16, Pitch : -17.5, Yaw : 73.44, Alt : 49.3100013733, Lat : 49.2836288, Lng : -123.1147198, Q1 : 0.792098045349, Q2 : 0.0921072587371, Q3 : -0.121142245829, Q4 : 0.591118812561}
2019-04-14 13:21:25.01: SIM {TimeUS : 62235096, Roll : 0.14, Pitch : -17.52, Yaw : 73.45, Alt : 49.3199996948, Lat : 49.2836299, Lng : -123.1147138, Q1 : 0.792024552822, Q2 : 0.0921249166131, Q3 : -0.121384881437, Q4 : 0.591164767742}
2019-04-14 13:21:25.11: SIM {TimeUS : 62335056, Roll : 0.12, Pitch : -17.54, Yaw : 73.47, Alt : 49.3199996948, Lat : 49.2836311, Lng : -123.1147077, Q1 : 0.791930198669, Q2 : 0.0920597985387, Q3 : -0.121576346457, Q4 : 0.591262102127}
2019-04-14 13:21:25.21: SIM {TimeUS : 62435016, Roll : 0.1, Pitch : -17.56, Yaw : 73.49, Alt : 49.3199996948, Lat : 49.2836323, Lng : -123.1147017, Q1 : 0.791817724705, Q2 : 0.0920992419124, Q3 : -0.121789865196, Q4 : 0.591362595558}
2019-04-14 13:21:25.31: SIM {TimeUS : 62534976, Roll : 0.11, Pitch : -17.58, Yaw : 73.5, Alt : 49.3199996948, Lat : 49.2836335, Lng : -123.1146956, Q1 : 0.791706204414, Q2 : 0.0922642946243, Q3 : -0.121926680207, Q4 : 0.59145796299}
2019-04-14 13:21:25.41: SIM {TimeUS : 62634936, Roll : 0.1, Pitch : -17.62, Yaw : 73.51, Alt : 49.3199996948, Lat : 49.2836346, Lng : -123.1146896, Q1 : 0.791616559029, Q2 : 0.092433154583, Q3 : -0.12221352756, Q4 : 0.59149235487}
2019-04-14 13:21:25.51: SIM {TimeUS : 62734896, Roll : 0.07, Pitch : -17.67, Yaw : 73.52, Alt : 49.3199996948, Lat : 49.2836357, Lng : -123.1146835, Q1 : 0.791565775871, Q2 : 0.0924716964364, Q3 : -0.122650973499, Q4 : 0.591463804245}
2019-04-14 13:21:25.61: SIM {TimeUS : 62834856, Roll : 0.05, Pitch : -17.71, Yaw : 73.52, Alt : 49.3199996948, Lat : 49.2836369, Lng : -123.1146774, Q1 : 0.791542768478, Q2 : 0.0925498977304, Q3 : -0.123090468347, Q4 : 0.591391026974}
2019-04-14 13:21:25.71: SIM {TimeUS : 62934816, Roll : 0.06, Pitch : -17.74, Yaw : 73.51, Alt : 49.3199996948, Lat : 49.2836381, Lng : -123.1146713, Q1 : 0.791553676128, Q2 : 0.0927458629012, Q3 : -0.123273998499, Q4 : 0.591307461262}
2019-04-14 13:21:25.81: SIM {TimeUS : 63034776, Roll : 0.08, Pitch : -17.73, Yaw : 73.49, Alt : 49.3199996948, Lat : 49.2836391, Lng : -123.1146652, Q1 : 0.791630923748, Q2 : 0.0928273126483, Q3 : -0.123116187751, Q4 : 0.591224193573}
2019-04-14 13:21:25.91: SIM {TimeUS : 63134736, Roll : 0.1, Pitch : -17.7, Yaw : 73.47, Alt : 49.3199996948, Lat : 49.2836403, Lng : -123.114659, Q1 : 0.791762650013, Q2 : 0.0927983745933, Q3 : -0.122786350548, Q4 : 0.591120898724}
2019-04-14 13:21:26.01: SIM {TimeUS : 63234696, Roll : 0.11, Pitch : -17.69, Yaw : 73.44, Alt : 49.3199996948, Lat : 49.2836414, Lng : -123.1146529, Q1 : 0.791912078857, Q2 : 0.0927773714066, Q3 : -0.122642911971, Q4 : 0.590953707695}
2019-04-14 13:21:26.11: SIM {TimeUS : 63334656, Roll : 0.12, Pitch : -17.69, Yaw : 73.41, Alt : 49.3199996948, Lat : 49.2836426, Lng : -123.1146467, Q1 : 0.792065620422, Q2 : 0.0927530378103, Q3 : -0.122646659613, Q4 : 0.590750992298}
2019-04-14 13:21:26.21: SIM {TimeUS : 63434616, Roll : 0.12, Pitch : -17.69, Yaw : 73.38, Alt : 49.3199996948, Lat : 49.2836439, Lng : -123.1146405, Q1 : 0.792224109173, Q2 : 0.0927272066474, Q3 : -0.122681409121, Q4 : 0.590535283089}
2019-04-14 13:21:26.31: SIM {TimeUS : 63534576, Roll : 0.11, Pitch : -17.71, Yaw : 73.35, Alt : 49.3199996948, Lat : 49.283645, Lng : -123.1146343, Q1 : 0.792359828949, Q2 : 0.0927630141377, Q3 : -0.122859194875, Q4 : 0.590310573578}
2019-04-14 13:21:26.41: SIM {TimeUS : 63634536, Roll : 0.12, Pitch : -17.73, Yaw : 73.32, Alt : 49.3199996948, Lat : 49.2836462, Lng : -123.1146281, Q1 : 0.792470753193, Q2 : 0.0929030776024, Q3 : -0.123062357306, Q4 : 0.590097308159}
2019-04-14 13:21:26.51: SIM {TimeUS : 63735329, Roll : 0.11, Pitch : -17.78, Yaw : 73.3, Alt : 49.3199996948, Lat : 49.2836474, Lng : -123.1146218, Q1 : 0.792555689812, Q2 : 0.0930730476975, Q3 : -0.123396776617, Q4 : 0.589886546135}
2019-04-14 13:21:26.61: SIM {TimeUS : 63835289, Roll : 0.11, Pitch : -17.82, Yaw : 73.27, Alt : 49.3300018311, Lat : 49.2836486, Lng : -123.1146156, Q1 : 0.79261726141, Q2 : 0.0932751223445, Q3 : -0.123755291104, Q4 : 0.589696764946}
2019-04-14 13:21:26.71: SIM {TimeUS : 63935249, Roll : 0.11, Pitch : -17.85, Yaw : 73.26, Alt : 49.3300018311, Lat : 49.2836498, Lng : -123.1146094, Q1 : 0.792678892612, Q2 : 0.0933992639184, Q3 : -0.12394708395, Q4 : 0.589554011822}
2019-04-14 13:21:26.81: SIM {TimeUS : 64035209, Roll : 0.11, Pitch : -17.88, Yaw : 73.24, Alt : 49.3300018311, Lat : 49.2836509, Lng : -123.1146031, Q1 : 0.792726874352, Q2 : 0.0934937223792, Q3 : -0.12414342165, Q4 : 0.589433193207}
2019-04-14 13:21:26.91: SIM {TimeUS : 64135169, Roll : 0.11, Pitch : -17.89, Yaw : 73.23, Alt : 49.3300018311, Lat : 49.2836521, Lng : -123.1145969, Q1 : 0.792774498463, Q2 : 0.093535207212, Q3 : -0.124273464084, Q4 : 0.589335143566}
2019-04-14 13:21:27.01: SIM {TimeUS : 64235129, Roll : 0.12, Pitch : -17.88, Yaw : 73.22, Alt : 49.3300018311, Lat : 49.2836533, Lng : -123.1145906, Q1 : 0.792820394039, Q2 : 0.0935836210847, Q3 : -0.124142125249, Q4 : 0.589293420315}
2019-04-14 13:21:27.11: SIM {TimeUS : 64335089, Roll : 0.14, Pitch : -17.89, Yaw : 73.21, Alt : 49.3300018311, Lat : 49.2836545, Lng : -123.1145843, Q1 : 0.792826473713, Q2 : 0.0937917679548, Q3 : -0.12408683449, Q4 : 0.589263796806}
2019-04-14 13:21:27.21: SIM {TimeUS : 64435049, Roll : 0.15, Pitch : -17.91, Yaw : 73.21, Alt : 49.3300018311, Lat : 49.2836557, Lng : -123.1145781, Q1 : 0.792828202248, Q2 : 0.0939573869109, Q3 : -0.124205313623, Q4 : 0.589210093021}
2019-04-14 13:21:27.31: SIM {TimeUS : 64535009, Roll : 0.16, Pitch : -17.93, Yaw : 73.2, Alt : 49.3300018311, Lat : 49.2836568, Lng : -123.1145718, Q1 : 0.792832791805, Q2 : 0.0940996110439, Q3 : -0.124305032194, Q4 : 0.589160203934}
2019-04-14 13:21:27.41: SIM {TimeUS : 64634969, Roll : 0.17, Pitch : -17.93, Yaw : 73.2, Alt : 49.3300018311, Lat : 49.283658, Lng : -123.1145655, Q1 : 0.792859911919, Q2 : 0.0941495522857, Q3 : -0.124268241227, Q4 : 0.589123427868}
2019-04-14 13:21:27.51: SIM {TimeUS : 64734929, Roll : 0.17, Pitch : -17.93, Yaw : 73.19, Alt : 49.3300018311, Lat : 49.2836592, Lng : -123.1145591, Q1 : 0.792894244194, Q2 : 0.0941572934389, Q3 : -0.124255113304, Q4 : 0.589078783989}
2019-04-14 13:21:27.61: SIM {TimeUS : 64834889, Roll : 0.16, Pitch : -17.95, Yaw : 73.18, Alt : 49.3300018311, Lat : 49.2836604, Lng : -123.1145529, Q1 : 0.792928814888, Q2 : 0.094132207334, Q3 : -0.124457649887, Q4 : 0.588993489742}
2019-04-14 13:21:27.71: SIM {TimeUS : 64934849, Roll : 0.12, Pitch : -17.98, Yaw : 73.17, Alt : 49.3300018311, Lat : 49.2836616, Lng : -123.1145465, Q1 : 0.792966842651, Q2 : 0.0940696075559, Q3 : -0.124859131873, Q4 : 0.588867306709}
2019-04-14 13:21:27.81: SIM {TimeUS : 65034809, Roll : 0.11, Pitch : -17.99, Yaw : 73.16, Alt : 49.3300018311, Lat : 49.2836628, Lng : -123.1145402, Q1 : 0.79303085804, Q2 : 0.0939722508192, Q3 : -0.124970808625, Q4 : 0.588772952557}
2019-04-14 13:21:27.91: SIM {TimeUS : 65134769, Roll : 0.11, Pitch : -17.97, Yaw : 73.15, Alt : 49.3300018311, Lat : 49.283664, Lng : -123.1145339, Q1 : 0.793100714684, Q2 : 0.0939249619842, Q3 : -0.12484151125, Q4 : 0.588713824749}
2019-04-14 13:21:28.01: SIM {TimeUS : 65234729, Roll : 0.14, Pitch : -17.96, Yaw : 73.14, Alt : 49.3300018311, Lat : 49.2836652, Lng : -123.1145275, Q1 : 0.793155491352, Q2 : 0.0940047726035, Q3 : -0.124668098986, Q4 : 0.588664054871}
2019-04-14 13:21:28.11: SIM {TimeUS : 65334689, Roll : 0.15, Pitch : -17.97, Yaw : 73.12, Alt : 49.3400001526, Lat : 49.2836664, Lng : -123.1145212, Q1 : 0.793202579021, Q2 : 0.0941233634949, Q3 : -0.124656014144, Q4 : 0.588584184647}
2019-04-14 13:21:28.21: SIM {TimeUS : 65434649, Roll : 0.14, Pitch : -17.98, Yaw : 73.11, Alt : 49.3400001526, Lat : 49.2836676, Lng : -123.1145148, Q1 : 0.793257892132, Q2 : 0.0941333472729, Q3 : -0.124835893512, Q4 : 0.588469982147}
2019-04-14 13:21:28.31: SIM {TimeUS : 65534609, Roll : 0.12, Pitch : -18.01, Yaw : 73.1, Alt : 49.3400001526, Lat : 49.2836689, Lng : -123.1145085, Q1 : 0.793313324451, Q2 : 0.0940856039524, Q3 : -0.125104442239, Q4 : 0.588345766068}
2019-04-14 13:21:28.41: SIM {TimeUS : 65634569, Roll : 0.11, Pitch : -18.03, Yaw : 73.09, Alt : 49.3400001526, Lat : 49.2836701, Lng : -123.1145021, Q1 : 0.793358922005, Q2 : 0.094113342464, Q3 : -0.125312700868, Q4 : 0.588235497475}
2019-04-14 13:21:28.52: SIM {TimeUS : 65735362, Roll : 0.12, Pitch : -18.05, Yaw : 73.07, Alt : 49.3400001526, Lat : 49.2836713, Lng : -123.1144957, Q1 : 0.793395936489, Q2 : 0.0942584574223, Q3 : -0.125435009599, Q4 : 0.588136315346}
2019-04-14 13:21:28.61: SIM {TimeUS : 65835322, Roll : 0.13, Pitch : -18.07, Yaw : 73.06, Alt : 49.3400001526, Lat : 49.2836725, Lng : -123.1144893, Q1 : 0.793427526951, Q2 : 0.0944243744016, Q3 : -0.125490918756, Q4 : 0.58805513382}
2019-04-14 13:21:28.71: SIM {TimeUS : 65935282, Roll : 0.15, Pitch : -18.07, Yaw : 73.05, Alt : 49.3400001526, Lat : 49.2836737, Lng : -123.1144829, Q1 : 0.793451607227, Q2 : 0.0945958346128, Q3 : -0.125434502959, Q4 : 0.588007152081}
2019-04-14 13:21:28.81: SIM {TimeUS : 66035242, Roll : 0.16, Pitch : -18.09, Yaw : 73.05, Alt : 49.3400001526, Lat : 49.283675, Lng : -123.1144765, Q1 : 0.793463408947, Q2 : 0.0947439149022, Q3 : -0.125482067466, Q4 : 0.587957203388}
2019-04-14 13:21:28.91: SIM {TimeUS : 66135202, Roll : 0.18, Pitch : -18.1, Yaw : 73.04, Alt : 49.3400001526, Lat : 49.2836762, Lng : -123.1144701, Q1 : 0.793471872807, Q2 : 0.094899572432, Q3 : -0.125534430146, Q4 : 0.587909519672}
2019-04-14 13:21:29.01: SIM {TimeUS : 66235162, Roll : 0.19, Pitch : -18.12, Yaw : 73.03, Alt : 49.3400001526, Lat : 49.2836774, Lng : -123.1144636, Q1 : 0.793472111225, Q2 : 0.0951000377536, Q3 : -0.12554526329, Q4 : 0.587874472141}
2019-04-14 13:21:29.11: SIM {TimeUS : 66335122, Roll : 0.23, Pitch : -18.13, Yaw : 73.03, Alt : 49.3400001526, Lat : 49.2836786, Lng : -123.1144573, Q1 : 0.79345959425, Q2 : 0.0953760817647, Q3 : -0.125484019518, Q4 : 0.587859749794}
2019-04-14 13:21:29.21: SIM {TimeUS : 66435082, Roll : 0.25, Pitch : -18.15, Yaw : 73.02, Alt : 49.3400001526, Lat : 49.2836799, Lng : -123.1144509, Q1 : 0.793446302414, Q2 : 0.0956390053034, Q3 : -0.125458374619, Q4 : 0.587840437889}
2019-04-14 13:21:29.31: SIM {TimeUS : 66535042, Roll : 0.24, Pitch : -18.14, Yaw : 73.02, Alt : 49.3499984741, Lat : 49.2836811, Lng : -123.1144445, Q1 : 0.793481886387, Q2 : 0.0955369397998, Q3 : -0.125469386578, Q4 : 0.58780670166}
2019-04-14 13:21:29.41: SIM {TimeUS : 66635002, Roll : 0.21, Pitch : -18.14, Yaw : 73.01, Alt : 49.3499984741, Lat : 49.2836823, Lng : -123.1144381, Q1 : 0.793525755405, Q2 : 0.0953331366181, Q3 : -0.125655740499, Q4 : 0.587740659714}
