2019-04-03 20:28:10.80: SIM {TimeUS : 105016310, Roll : 0.0, Pitch : 0.0, Yaw : 353.0, Alt : 584.090026855, Lat : -35.363261, Lng : 149.1652299, Q1 : 0.998134791851, Q2 : 0.0, Q3 : 0.0, Q4 : -0.0610485821962}
2019-04-03 20:28:10.89: SIM {TimeUS : 105116270, Roll : 0.0, Pitch : 0.0, Yaw : 353.0, Alt : 584.090026855, Lat : -35.363261, Lng : 149.1652299, Q1 : 0.998134791851, Q2 : 0.0, Q3 : 0.0, Q4 : -0.0610485821962}
2019-04-03 20:28:10.99: SIM {TimeUS : 105216230, Roll : 0.0, Pitch : 0.0, Yaw : 353.0, Alt : 584.090026855, Lat : -35.363261, Lng : 149.1652299, Q1 : 0.998134791851, Q2 : 0.0, Q3 : 0.0, Q4 : -0.0610485821962}
2019-04-03 20:28:11.09: SIM {TimeUS : 105316190, Roll : 0.0, Pitch : 0.0, Yaw : 353.0, Alt : 584.090026855, Lat : -35.363261, Lng : 149.1652299, Q1 : 0.998134791851, Q2 : 0.0, Q3 : 0.0, Q4 : -0.0610485821962}
2019-04-03 20:28:11.19: SIM {TimeUS : 105416150, Roll : 0.0, Pitch : 0.0, Yaw : 353.0, Alt : 584.090026855, Lat : -35.363261, Lng : 149.1652299, Q1 : 0.998134791851, Q2 : 0.0, Q3 : 0.0, Q4 : -0.0610485821962}
2019-04-03 20:28:11.29: SIM {TimeUS : 105516110, Roll : 0.0, Pitch : 0.0, Yaw : 353.0, Alt : 584.090026855, Lat : -35.363261, Lng : 149.1652299, Q1 : 0.998134791851, Q2 : 0.0, Q3 : 0.0, Q4 : -0.0610485821962}
2019-04-03 20:28:11.39: SIM {TimeUS : 105616070, Roll : 0.0, Pitch : 0.0, Yaw : 353.0, Alt : 584.090026855, Lat : -35.363261, Lng : 149.1652299, Q1 : 0.998134791851, Q2 : 0.0, Q3 : 0.0, Q4 : -0.0610485821962}
2019-04-03 20:28:11.49: SIM {TimeUS : 105716030, Roll : 0.0, Pitch : 0.0, Yaw : 353.0, Alt : 584.090026855, Lat : -35.363261, Lng : 149.1652299, Q1 : 0.998134791851, Q2 : 0.0, Q3 : 0.0, Q4 : -0.0610485821962}
2019-04-03 20:28:11.59: SIM {TimeUS : 105815990, Roll : 0.0, Pitch : 0.0, Yaw : 353.0, Alt : 584.090026855, Lat : -35.363261, Lng : 149.1652299, Q1 : 0.998134791851, Q2 : 0.0, Q3 : 0.0, Q4 : -0.0610485821962}
2019-04-03 20:28:11.69: SIM {TimeUS : 105915950, Roll : 0.0, Pitch : 0.0, Yaw : 353.0, Alt : 584.090026855, Lat : -35.363261, Lng : 149.1652299, Q1 : 0.998134791851, Q2 : 0.0, Q3 : 0.0, Q4 : -0.0610485821962}
2019-04-03 20:28:11.79: SIM {TimeUS : 106015910, Roll : 0.0, Pitch : 0.0, Yaw : 353.0, Alt : 584.090026855, Lat : -35.363261, Lng : 149.1652299, Q1 : 0.998134791851, Q2 : 0.0, Q3 : 0.0, Q4 : -0.0610485821962}
2019-04-03 20:28:11.89: SIM {TimeUS : 106115870, Roll : 0.0, Pitch : 0.0, Yaw : 353.0, Alt : 584.090026855, Lat : -35.363261, Lng : 149.1652299, Q1 : 0.998134791851, Q2 : 0.0, Q3 : 0.0, Q4 : -0.0610485821962}
2019-04-03 20:28:11.99: SIM {TimeUS : 106215830, Roll : 0.0, Pitch : 0.0, Yaw : 353.0, Alt : 584.090026855, Lat : -35.363261, Lng : 149.1652299, Q1 : 0.998134791851, Q2 : 0.0, Q3 : 0.0, Q4 : -0.0610485821962}
2019-04-03 20:28:12.09: SIM {TimeUS : 106315790, Roll : 0.0, Pitch : 0.0, Yaw : 353.0, Alt : 584.090026855, Lat : -35.363261, Lng : 149.1652299, Q1 : 0.998134791851, Q2 : 0.0, Q3 : 0.0, Q4 : -0.0610485821962}
2019-04-03 20:28:12.19: SIM {TimeUS : 106415750, Roll : 0.0, Pitch : 0.0, Yaw : 353.0, Alt : 584.090026855, Lat : -35.363261, Lng : 149.1652299, Q1 : 0.998134791851, Q2 : 0.0, Q3 : 0.0, Q4 : -0.0610485821962}
2019-04-03 20:28:12.29: SIM {TimeUS : 106515710, Roll : 0.0, Pitch : 0.0, Yaw : 353.0, Alt : 584.090026855, Lat : -35.363261, Lng : 149.1652299, Q1 : 0.998134791851, Q2 : 0.0, Q3 : 0.0, Q4 : -0.0610485821962}
2019-04-03 20:28:12.39: SIM {TimeUS : 106615670, Roll : 0.0, Pitch : 0.0, Yaw : 353.0, Alt : 584.090026855, Lat : -35.363261, Lng : 149.1652299, Q1 : 0.998134791851, Q2 : 0.0, Q3 : 0.0, Q4 : -0.0610485821962}
2019-04-03 20:28:12.50: SIM {TimeUS : 106716463, Roll : 0.0, Pitch : 0.0, Yaw : 353.0, Alt : 584.090026855, Lat : -35.363261, Lng : 149.1652299, Q1 : 0.998134791851, Q2 : 0.0, Q3 : 0.0, Q4 : -0.0610485821962}
2019-04-03 20:28:12.60: SIM {TimeUS : 106816423, Roll : 0.0, Pitch : 0.0, Yaw : 353.0, Alt : 584.090026855, Lat : -35.363261, Lng : 149.1652299, Q1 : 0.998134791851, Q2 : 0.0, Q3 : 0.0, Q4 : -0.0610485821962}
2019-04-03 20:28:12.70: SIM {TimeUS : 106916383, Roll : 0.0, Pitch : 0.0, Yaw : 353.0, Alt : 584.090026855, Lat : -35.363261, Lng : 149.1652299, Q1 : 0.998134791851, Q2 : 0.0, Q3 : 0.0, Q4 : -0.0610485821962}
2019-04-03 20:28:12.80: SIM {TimeUS : 107016343, Roll : 0.0, Pitch : 0.0, Yaw : 353.0, Alt : 584.090026855, Lat : -35.363261, Lng : 149.1652299, Q1 : 0.998134791851, Q2 : 0.0, Q3 : 0.0, Q4 : -0.0610485821962}
2019-04-03 20:28:12.89: SIM {TimeUS : 107116303, Roll : 0.0, Pitch : 0.0, Yaw : 353.0, Alt : 584.090026855, Lat : -35.363261, Lng : 149.1652299, Q1 : 0.998134791851, Q2 : 0.0, Q3 : 0.0, Q4 : -0.0610485821962}
2019-04-03 20:28:12.99: SIM {TimeUS : 107216263, Roll : 0.0, Pitch : 0.0, Yaw : 353.0, Alt : 584.090026855, Lat : -35.363261, Lng : 149.1652299, Q1 : 0.998134791851, Q2 : 0.0, Q3 : 0.0, Q4 : -0.0610485821962}
2019-04-03 20:28:13.09: SIM {TimeUS : 107316223, Roll : 0.0, Pitch : 0.0, Yaw : 353.0, Alt : 584.090026855, Lat : -35.363261, Lng : 149.1652299, Q1 : 0.998134791851, Q2 : 0.0, Q3 : 0.0, Q4 : -0.0610485821962}
2019-04-03 20:28:13.19: SIM {TimeUS : 107416183, Roll : 0.0, Pitch : 0.0, Yaw : 353.0, Alt : 584.090026855, Lat : -35.363261, Lng : 149.1652299, Q1 : 0.998134791851, Q2 : 0.0, Q3 : 0.0, Q4 : -0.0610485821962}
2019-04-03 20:28:13.29: SIM {TimeUS : 107516143, Roll : 0.0, Pitch : 0.0, Yaw : 353.0, Alt : 584.090026855, Lat : -35.363261, Lng : 149.1652299, Q1 : 0.998134791851, Q2 : 0.0, Q3 : 0.0, Q4 : -0.0610485821962}
2019-04-03 20:28:13.39: SIM {TimeUS : 107616103, Roll : 0.0, Pitch : 0.0, Yaw : 353.0, Alt : 584.090026855, Lat : -35.363261, Lng : 149.1652299, Q1 : 0.998134791851, Q2 : 0.0, Q3 : 0.0, Q4 : -0.0610485821962}
2019-04-03 20:28:13.49: SIM {TimeUS : 107716063, Roll : 0.0, Pitch : 0.0, Yaw : 353.0, Alt : 584.090026855, Lat : -35.363261, Lng : 149.1652299, Q1 : 0.998134791851, Q2 : 0.0, Q3 : 0.0, Q4 : -0.0610485821962}
2019-04-03 20:28:13.59: SIM {TimeUS : 107816023, Roll : 0.0, Pitch : 0.0, Yaw : 353.0, Alt : 584.090026855, Lat : -35.363261, Lng : 149.1652299, Q1 : 0.998134791851, Q2 : 0.0, Q3 : 0.0, Q4 : -0.0610485821962}
2019-04-03 20:28:13.69: SIM {TimeUS : 107915983, Roll : 0.0, Pitch : 0.0, Yaw : 353.0, Alt : 584.090026855, Lat : -35.363261, Lng : 149.1652299, Q1 : 0.998134791851, Q2 : 0.0, Q3 : 0.0, Q4 : -0.0610485821962}
2019-04-03 20:28:13.79: SIM {TimeUS : 108015943, Roll : 0.0, Pitch : 0.0, Yaw : 353.0, Alt : 584.090026855, Lat : -35.363261, Lng : 149.1652299, Q1 : 0.998134791851, Q2 : 0.0, Q3 : 0.0, Q4 : -0.0610485821962}
2019-04-03 20:28:13.89: SIM {TimeUS : 108115903, Roll : 0.0, Pitch : 0.0, Yaw : 353.0, Alt : 584.090026855, Lat : -35.363261, Lng : 149.1652299, Q1 : 0.998134791851, Q2 : 0.0, Q3 : 0.0, Q4 : -0.0610485821962}
2019-04-03 20:28:13.99: SIM {TimeUS : 108215863, Roll : 0.0, Pitch : 0.0, Yaw : 353.0, Alt : 584.090026855, Lat : -35.363261, Lng : 149.1652299, Q1 : 0.998134791851, Q2 : 0.0, Q3 : 0.0, Q4 : -0.0610485821962}
2019-04-03 20:28:14.09: SIM {TimeUS : 108315823, Roll : 0.0, Pitch : 0.0, Yaw : 353.0, Alt : 584.090026855, Lat : -35.363261, Lng : 149.1652299, Q1 : 0.998134791851, Q2 : 0.0, Q3 : 0.0, Q4 : -0.0610485821962}
2019-04-03 20:28:14.19: SIM {TimeUS : 108415783, Roll : 0.0, Pitch : 0.0, Yaw : 353.0, Alt : 584.090026855, Lat : -35.363261, Lng : 149.1652299, Q1 : 0.998134791851, Q2 : 0.0, Q3 : 0.0, Q4 : -0.0610485821962}
2019-04-03 20:28:14.29: SIM {TimeUS : 108515743, Roll : 0.0, Pitch : 0.0, Yaw : 353.0, Alt : 584.090026855, Lat : -35.363261, Lng : 149.1652299, Q1 : 0.998134791851, Q2 : 0.0, Q3 : 0.0, Q4 : -0.0610485821962}
2019-04-03 20:28:14.39: SIM {TimeUS : 108615703, Roll : 0.0, Pitch : 0.0, Yaw : 353.0, Alt : 584.090026855, Lat : -35.363261, Lng : 149.1652299, Q1 : 0.998134791851, Q2 : 0.0, Q3 : 0.0, Q4 : -0.0610485821962}
2019-04-03 20:28:14.49: SIM {TimeUS : 108715663, Roll : 0.0, Pitch : 0.0, Yaw : 353.0, Alt : 584.090026855, Lat : -35.363261, Lng : 149.1652299, Q1 : 0.998134791851, Q2 : 0.0, Q3 : 0.0, Q4 : -0.0610485821962}
2019-04-03 20:28:14.60: SIM {TimeUS : 108816456, Roll : 0.0, Pitch : 0.0, Yaw : 353.0, Alt : 584.090026855, Lat : -35.363261, Lng : 149.1652299, Q1 : 0.998134791851, Q2 : 0.0, Q3 : 0.0, Q4 : -0.0610485821962}
2019-04-03 20:28:14.70: SIM {TimeUS : 108916416, Roll : 0.0, Pitch : 0.0, Yaw : 353.0, Alt : 584.090026855, Lat : -35.363261, Lng : 149.1652299, Q1 : 0.998134791851, Q2 : 0.0, Q3 : 0.0, Q4 : -0.0610485821962}
2019-04-03 20:28:14.80: SIM {TimeUS : 109016376, Roll : 0.0, Pitch : 0.0, Yaw : 353.0, Alt : 584.090026855, Lat : -35.363261, Lng : 149.1652299, Q1 : 0.998134791851, Q2 : 0.0, Q3 : 0.0, Q4 : -0.0610485821962}
2019-04-03 20:28:14.90: SIM {TimeUS : 109116336, Roll : 0.0, Pitch : 0.0, Yaw : 353.0, Alt : 584.090026855, Lat : -35.363261, Lng : 149.1652299, Q1 : 0.998134791851, Q2 : 0.0, Q3 : 0.0, Q4 : -0.0610485821962}
2019-04-03 20:28:14.99: SIM {TimeUS : 109216296, Roll : 0.0, Pitch : 0.0, Yaw : 353.0, Alt : 584.090026855, Lat : -35.363261, Lng : 149.1652299, Q1 : 0.998134791851, Q2 : 0.0, Q3 : 0.0, Q4 : -0.0610485821962}
2019-04-03 20:28:15.09: SIM {TimeUS : 109316256, Roll : 0.0, Pitch : 0.0, Yaw : 353.0, Alt : 584.090026855, Lat : -35.363261, Lng : 149.1652299, Q1 : 0.998134791851, Q2 : 0.0, Q3 : 0.0, Q4 : -0.0610486753285}
2019-04-03 20:28:15.19: SIM {TimeUS : 109416216, Roll : 0.0, Pitch : 0.0, Yaw : 353.0, Alt : 584.090026855, Lat : -35.363261, Lng : 149.1652299, Q1 : 0.998134791851, Q2 : 0.0, Q3 : 0.0, Q4 : -0.0610486641526}
2019-04-03 20:28:15.29: SIM {TimeUS : 109516176, Roll : 0.0, Pitch : 0.0, Yaw : 353.0, Alt : 584.090026855, Lat : -35.363261, Lng : 149.1652299, Q1 : 0.998134791851, Q2 : 0.0, Q3 : 0.0, Q4 : -0.0610486753285}
2019-04-03 20:28:15.39: SIM {TimeUS : 109616136, Roll : 0.0, Pitch : 0.0, Yaw : 353.0, Alt : 584.090026855, Lat : -35.363261, Lng : 149.1652299, Q1 : 0.998134791851, Q2 : 0.0, Q3 : 0.0, Q4 : -0.0610486753285}
2019-04-03 20:28:15.49: SIM {TimeUS : 109716096, Roll : 0.0, Pitch : 0.0, Yaw : 353.0, Alt : 584.090026855, Lat : -35.363261, Lng : 149.1652299, Q1 : 0.998134791851, Q2 : 0.0, Q3 : 0.0, Q4 : -0.0610486641526}
2019-04-03 20:28:15.59: SIM {TimeUS : 109816056, Roll : 0.0, Pitch : 0.0, Yaw : 353.0, Alt : 584.090026855, Lat : -35.363261, Lng : 149.1652299, Q1 : 0.998134791851, Q2 : 0.0, Q3 : 0.0, Q4 : -0.0610486753285}
2019-04-03 20:28:15.69: SIM {TimeUS : 109916016, Roll : 0.0, Pitch : 0.0, Yaw : 353.0, Alt : 584.090026855, Lat : -35.363261, Lng : 149.1652299, Q1 : 0.998134791851, Q2 : 0.0, Q3 : 0.0, Q4 : -0.0610486753285}
2019-04-03 20:28:15.79: SIM {TimeUS : 110015976, Roll : 0.0, Pitch : 0.0, Yaw : 353.0, Alt : 584.090026855, Lat : -35.363261, Lng : 149.1652299, Q1 : 0.998134791851, Q2 : 0.0, Q3 : 0.0, Q4 : -0.0610486753285}
2019-04-03 20:28:15.89: SIM {TimeUS : 110115936, Roll : 0.0, Pitch : 0.0, Yaw : 353.0, Alt : 584.099975586, Lat : -35.363261, Lng : 149.1652299, Q1 : 0.998134791851, Q2 : 0.0, Q3 : 0.0, Q4 : -0.0610486753285}
2019-04-03 20:28:15.99: SIM {TimeUS : 110215896, Roll : 0.0, Pitch : 0.0, Yaw : 353.0, Alt : 584.099975586, Lat : -35.363261, Lng : 149.1652299, Q1 : 0.998134791851, Q2 : 0.0, Q3 : 0.0, Q4 : -0.0610486753285}
2019-04-03 20:28:16.09: SIM {TimeUS : 110315856, Roll : 0.0, Pitch : 0.0, Yaw : 353.0, Alt : 584.119995117, Lat : -35.363261, Lng : 149.1652299, Q1 : 0.998134791851, Q2 : 0.0, Q3 : 0.0, Q4 : -0.0610486753285}
2019-04-03 20:28:16.19: SIM {TimeUS : 110415816, Roll : 0.0, Pitch : 0.0, Yaw : 353.0, Alt : 584.140014648, Lat : -35.363261, Lng : 149.1652299, Q1 : 0.998134791851, Q2 : 0.0, Q3 : 0.0, Q4 : -0.0610486753285}
2019-04-03 20:28:16.29: SIM {TimeUS : 110515776, Roll : 0.0, Pitch : 0.0, Yaw : 353.0, Alt : 584.16998291, Lat : -35.363261, Lng : 149.1652299, Q1 : 0.998134791851, Q2 : 0.0, Q3 : 0.0, Q4 : -0.0610486753285}
2019-04-03 20:28:16.39: SIM {TimeUS : 110615736, Roll : 0.0, Pitch : 0.0, Yaw : 353.0, Alt : 584.200012207, Lat : -35.363261, Lng : 149.1652299, Q1 : 0.998134791851, Q2 : 0.0, Q3 : 0.0, Q4 : -0.0610486753285}
2019-04-03 20:28:16.49: SIM {TimeUS : 110715696, Roll : -0.03, Pitch : -0.02, Yaw : 352.99, Alt : 584.260009766, Lat : -35.363261, Lng : 149.1652299, Q1 : 0.998134315014, Q2 : -0.000348926230799, Q3 : -0.000178234928171, Q4 : -0.0610550418496}
2019-04-03 20:28:16.60: SIM {TimeUS : 110816489, Roll : -0.12, Pitch : -0.08, Yaw : 352.99, Alt : 584.359985352, Lat : -35.363261, Lng : 149.1652299, Q1 : 0.998132169247, Q2 : -0.00111481116619, Q3 : -0.000711308966856, Q4 : -0.0610774345696}
2019-04-03 20:28:16.70: SIM {TimeUS : 110916449, Roll : -0.22, Pitch : -0.15, Yaw : 352.99, Alt : 584.510009766, Lat : -35.363261, Lng : 149.1652299, Q1 : 0.998127818108, Q2 : -0.00200791587122, Q3 : -0.00127114448696, Q4 : -0.0611164830625}
2019-04-03 20:28:16.80: SIM {TimeUS : 111016409, Roll : -0.29, Pitch : -0.2, Yaw : 352.98, Alt : 584.66998291, Lat : -35.363261, Lng : 149.1652299, Q1 : 0.99812233448, Q2 : -0.00269254366867, Q3 : -0.00161361438222, Q4 : -0.0611710697412}
2019-04-03 20:28:16.90: SIM {TimeUS : 111116369, Roll : -0.29, Pitch : -0.2, Yaw : 352.97, Alt : 584.820007324, Lat : -35.363261, Lng : 149.1652299, Q1 : 0.998118638992, Q2 : -0.00270488602109, Q3 : -0.00163623190019, Q4 : -0.0612312108278}
2019-04-03 20:28:17.00: SIM {TimeUS : 111216329, Roll : -0.23, Pitch : -0.18, Yaw : 352.97, Alt : 584.969970703, Lat : -35.363261, Lng : 149.1652299, Q1 : 0.998116791248, Q2 : -0.00212610466406, Q3 : -0.00149231043179, Q4 : -0.0612874813378}
2019-04-03 20:28:17.09: SIM {TimeUS : 111316289, Roll : -0.14, Pitch : -0.14, Yaw : 352.96, Alt : 585.119995117, Lat : -35.363261, Lng : 149.1652299, Q1 : 0.998115539551, Q2 : -0.00133469456341, Q3 : -0.00117915554438, Q4 : -0.0613364726305}
2019-04-03 20:28:17.19: SIM {TimeUS : 111416249, Roll : -0.08, Pitch : -0.11, Yaw : 352.96, Alt : 585.280029297, Lat : -35.363261, Lng : 149.1652298, Q1 : 0.998114287853, Q2 : -0.000800161971711, Q3 : -0.000957083422691, Q4 : -0.0613709017634}
2019-04-03 20:28:17.29: SIM {TimeUS : 111516209, Roll : -0.03, Pitch : -0.09, Yaw : 352.96, Alt : 585.440002441, Lat : -35.363261, Lng : 149.1652298, Q1 : 0.998113512993, Q2 : -0.000345567095792, Q3 : -0.000822667265311, Q4 : -0.0613889507949}
2019-04-03 20:28:17.39: SIM {TimeUS : 111616169, Roll : 0.0, Pitch : -0.09, Yaw : 352.96, Alt : 585.609985352, Lat : -35.363261, Lng : 149.1652298, Q1 : 0.998113393784, Q2 : 5.62936384085e-06, Q3 : -0.000855269026943, Q4 : -0.0613919943571}
2019-04-03 20:28:17.49: SIM {TimeUS : 111716129, Roll : 0.04, Pitch : -0.09, Yaw : 352.96, Alt : 585.780029297, Lat : -35.363261, Lng : 149.1652298, Q1 : 0.998113751411, Q2 : 0.000300943327602, Q3 : -0.000855835853145, Q4 : -0.0613847672939}
2019-04-03 20:28:17.59: SIM {TimeUS : 111816089, Roll : 0.04, Pitch : -0.06, Yaw : 352.96, Alt : 585.940002441, Lat : -35.363261, Lng : 149.1652298, Q1 : 0.99811476469, Q2 : 0.000339999241987, Q3 : -0.000605072185863, Q4 : -0.0613717809319}
2019-04-03 20:28:17.69: SIM {TimeUS : 111916049, Roll : -0.06, Pitch : -0.03, Yaw : 352.96, Alt : 586.090026855, Lat : -35.363261, Lng : 149.1652298, Q1 : 0.998115599155, Q2 : -0.000609528098721, Q3 : -0.000267667812295, Q4 : -0.061358705163}
2019-04-03 20:28:17.79: SIM {TimeUS : 112016009, Roll : -0.41, Pitch : -0.07, Yaw : 352.96, Alt : 586.229980469, Lat : -35.363261, Lng : 149.1652298, Q1 : 0.998109579086, Q2 : -0.0036872588098, Q3 : -0.000443088501925, Q4 : -0.0613477900624}
2019-04-03 20:28:17.89: SIM {TimeUS : 112115969, Roll : -1.03, Pitch : -0.19, Yaw : 352.96, Alt : 586.359985352, Lat : -35.3632609, Lng : 149.1652298, Q1 : 0.99807459116, Q2 : -0.0091463457793, Q3 : -0.0011373704765, Q4 : -0.0613370835781}
2019-04-03 20:28:17.99: SIM {TimeUS : 112215929, Roll : -1.89, Pitch : -0.38, Yaw : 352.97, Alt : 586.479980469, Lat : -35.3632609, Lng : 149.1652297, Q1 : 0.997974872589, Q2 : -0.0167231112719, Q3 : -0.00237057521008, Q4 : -0.0613263174891}
2019-04-03 20:28:18.09: SIM {TimeUS : 112315889, Roll : -2.89, Pitch : -0.6, Yaw : 352.98, Alt : 586.58001709, Lat : -35.3632609, Lng : 149.1652297, Q1 : 0.997784495354, Q2 : -0.0255232211202, Q3 : -0.00373708968982, Q4 : -0.0613256171346}
2019-04-03 20:28:18.19: SIM {TimeUS : 112415849, Roll : -3.88, Pitch : -0.83, Yaw : 352.99, Alt : 586.679992676, Lat : -35.3632609, Lng : 149.1652296, Q1 : 0.997513890266, Q2 : -0.0343100056052, Q3 : -0.0052045006305, Q4 : -0.0613334476948}
2019-04-03 20:28:18.29: SIM {TimeUS : 112515809, Roll : -4.72, Pitch : -1.04, Yaw : 352.99, Alt : 586.760009766, Lat : -35.3632609, Lng : 149.1652293, Q1 : 0.997222781181, Q2 : -0.0416831448674, Q3 : -0.00655099842697, Q4 : -0.061370100826}
2019-04-03 20:28:18.39: SIM {TimeUS : 112615769, Roll : -5.37, Pitch : -1.22, Yaw : 353.0, Alt : 586.83001709, Lat : -35.3632609, Lng : 149.1652291, Q1 : 0.996951460838, Q2 : -0.0474527031183, Q3 : -0.00782683398575, Q4 : -0.0614391006529}
2019-04-03 20:28:18.49: SIM {TimeUS : 112715729, Roll : -5.85, Pitch : -1.36, Yaw : 353.0, Alt : 586.890014648, Lat : -35.3632608, Lng : 149.1652288, Q1 : 0.996724903584, Q2 : -0.0517168529332, Q3 : -0.0087691899389, Q4 : -0.0615470148623}
2019-04-03 20:28:18.59: SIM {TimeUS : 112815689, Roll : -6.22, Pitch : -1.47, Yaw : 352.99, Alt : 586.940002441, Lat : -35.3632608, Lng : 149.1652284, Q1 : 0.996535181999, Q2 : -0.0549858547747, Q3 : -0.00947347935289, Q4 : -0.0616805329919}
2019-04-03 20:28:18.70: SIM {TimeUS : 112916482, Roll : -6.54, Pitch : -1.56, Yaw : 352.98, Alt : 586.989990234, Lat : -35.3632607, Lng : 149.1652279, Q1 : 0.996359944344, Q2 : -0.0578182972968, Q3 : -0.0100796334445, Q4 : -0.0618244931102}
2019-04-03 20:28:18.80: SIM {TimeUS : 113016442, Roll : -6.87, Pitch : -1.66, Yaw : 352.98, Alt : 587.030029297, Lat : -35.3632607, Lng : 149.1652273, Q1 : 0.99617177248, Q2 : -0.0607079826295, Q3 : -0.0107911415398, Q4 : -0.061967715621}
2019-04-03 20:28:18.90: SIM {TimeUS : 113116402, Roll : -7.23, Pitch : -1.77, Yaw : 352.97, Alt : 587.059997559, Lat : -35.3632605, Lng : 149.1652265, Q1 : 0.995954573154, Q2 : -0.0639028176665, Q3 : -0.0115394275635, Q4 : -0.0621113367379}
2019-04-03 20:28:19.00: SIM {TimeUS : 113216362, Roll : -7.6, Pitch : -1.88, Yaw : 352.97, Alt : 587.099975586, Lat : -35.3632605, Lng : 149.1652258, Q1 : 0.995722353458, Q2 : -0.0671528801322, Q3 : -0.0123509140685, Q4 : -0.0622492991388}
2019-04-03 20:28:19.10: SIM {TimeUS : 113316322, Roll : -7.88, Pitch : -1.99, Yaw : 352.96, Alt : 587.119995117, Lat : -35.3632604, Lng : 149.165225, Q1 : 0.995529353619, Q2 : -0.0696894824505, Q3 : -0.0131555246189, Q4 : -0.0623830966651}
2019-04-03 20:28:19.19: SIM {TimeUS : 113416282, Roll : -8.07, Pitch : -2.09, Yaw : 352.96, Alt : 587.150024414, Lat : -35.3632604, Lng : 149.165224, Q1 : 0.995390892029, Q2 : -0.0713852345943, Q3 : -0.0138809466735, Q4 : -0.0625182688236}
2019-04-03 20:28:19.29: SIM {TimeUS : 113516242, Roll : -8.2, Pitch : -2.15, Yaw : 352.94, Alt : 587.16998291, Lat : -35.3632603, Lng : 149.165223, Q1 : 0.995292842388, Q2 : -0.072539255023, Q3 : -0.0142830992118, Q4 : -0.0626593902707}
2019-04-03 20:28:19.39: SIM {TimeUS : 113616202, Roll : -8.32, Pitch : -2.18, Yaw : 352.93, Alt : 587.190002441, Lat : -35.3632602, Lng : 149.1652217, Q1 : 0.995204806328, Q2 : -0.0735804140568, Q3 : -0.0144931096584, Q4 : -0.0627950504422}
2019-04-03 20:28:19.49: SIM {TimeUS : 113716162, Roll : -8.45, Pitch : -2.2, Yaw : 352.92, Alt : 587.210021973, Lat : -35.3632601, Lng : 149.1652206, Q1 : 0.995109081268, Q2 : -0.0747360214591, Q3 : -0.0146362902597, Q4 : -0.0629149973392}
2019-04-03 20:28:19.59: SIM {TimeUS : 113816122, Roll : -8.62, Pitch : -2.22, Yaw : 352.91, Alt : 587.229980469, Lat : -35.3632598, Lng : 149.1652193, Q1 : 0.994989454746, Q2 : -0.0762155726552, Q3 : -0.0146960960701, Q4 : -0.0630173385143}
2019-04-03 20:28:19.69: SIM {TimeUS : 113916082, Roll : -8.91, Pitch : -2.09, Yaw : 352.77, Alt : 587.239990234, Lat : -35.3632598, Lng : 149.1652178, Q1 : 0.994736552238, Q2 : -0.0787393078208, Q3 : -0.0132711073384, Q4 : -0.0642125532031}
2019-04-03 20:28:19.79: SIM {TimeUS : 114016042, Roll : -9.4, Pitch : -1.75, Yaw : 351.95, Alt : 587.260009766, Lat : -35.3632596, Lng : 149.1652164, Q1 : 0.993973255157, Q2 : -0.0828231945634, Q3 : -0.00945279747248, Q4 : -0.071190841496}
2019-04-03 20:28:19.89: SIM {TimeUS : 114116002, Roll : -9.97, Pitch : -1.49, Yaw : 349.75, Alt : 587.280029297, Lat : -35.3632595, Lng : 149.1652149, Q1 : 0.992053925991, Q2 : -0.0877046659589, Q3 : -0.00515055423602, Q4 : -0.0900573432446}
2019-04-03 20:28:19.99: SIM {TimeUS : 114215962, Roll : -10.45, Pitch : -1.68, Yaw : 345.92, Alt : 587.289978027, Lat : -35.3632593, Lng : 149.1652133, Q1 : 0.988061308861, Q2 : -0.0922164022923, Q3 : -0.00339718093164, Q4 : -0.123367324471}
2019-04-03 20:28:20.09: SIM {TimeUS : 114315922, Roll : -10.67, Pitch : -2.5, Yaw : 340.57, Alt : 587.309997559, Lat : -35.3632592, Lng : 149.1652115, Q1 : 0.980821609497, Q2 : -0.0952924489975, Q3 : -0.00573956873268, Q4 : -0.169927492738}
2019-04-03 20:28:20.19: SIM {TimeUS : 114415882, Roll : -10.49, Pitch : -3.93, Yaw : 333.99, Alt : 587.320007324, Lat : -35.3632592, Lng : 149.1652097, Q1 : 0.968996882439, Q2 : -0.096754424274, Q3 : -0.0127576151863, Q4 : -0.226982027292}
2019-04-03 20:28:20.29: SIM {TimeUS : 114515842, Roll : -9.86, Pitch : -5.83, Yaw : 326.45, Alt : 587.340026855, Lat : -35.3632591, Lng : 149.1652078, Q1 : 0.95142185688, Q2 : -0.0968219712377, Q3 : -0.0237802322954, Q4 : -0.29130128026}
2019-04-03 20:28:20.39: SIM {TimeUS : 114615802, Roll : -8.74, Pitch : -7.96, Yaw : 318.22, Alt : 587.359985352, Lat : -35.3632591, Lng : 149.1652058, Q1 : 0.927424430847, Q2 : -0.0957622155547, Q3 : -0.0375302992761, Q4 : -0.359590113163}
2019-04-03 20:28:20.49: SIM {TimeUS : 114715762, Roll : -7.19, Pitch : -10.03, Yaw : 309.54, Alt : 587.380004883, Lat : -35.363259, Lng : 149.1652037, Q1 : 0.897049248219, Q2 : -0.0937115103006, Q3 : -0.0523232594132, Q4 : -0.428699374199}
2019-04-03 20:28:20.59: SIM {TimeUS : 114815722, Roll : -5.21, Pitch : -11.81, Yaw : 300.69, Alt : 587.400024414, Lat : -35.363259, Lng : 149.1652015, Q1 : 0.861209630966, Q2 : -0.0901805385947, Q3 : -0.0669660717249, Q4 : -0.495682388544}
2019-04-03 20:28:20.69: SIM {TimeUS : 114915682, Roll : -2.97, Pitch : -13.1, Yaw : 291.97, Alt : 587.41998291, Lat : -35.3632589, Lng : 149.1651991, Q1 : 0.821553528309, Q2 : -0.0851841196418, Q3 : -0.080167286098, Q4 : -0.558002412319}
2019-04-03 20:28:20.80: SIM {TimeUS : 115016475, Roll : -0.67, Pitch : -13.86, Yaw : 283.61, Alt : 587.440002441, Lat : -35.3632587, Lng : 149.1651967, Q1 : 0.779740035534, Q2 : -0.0792003124952, Q3 : -0.0912523344159, Q4 : -0.614333629608}
2019-04-03 20:28:20.90: SIM {TimeUS : 115116435, Roll : 1.68, Pitch : -14.15, Yaw : 276.06, Alt : 587.460021973, Lat : -35.3632586, Lng : 149.1651942, Q1 : 0.738994717598, Q2 : -0.0715387165546, Q3 : -0.101332746446, Q4 : -0.662193894386}
2019-04-03 20:28:21.00: SIM {TimeUS : 115216395, Roll : 4.05, Pitch : -14.09, Yaw : 269.81, Alt : 587.479980469, Lat : -35.3632585, Lng : 149.1651915, Q1 : 0.703257620335, Q2 : -0.0620494261384, Q3 : -0.111406505108, Q4 : -0.699404895306}
2019-04-03 20:28:21.10: SIM {TimeUS : 115316355, Roll : 6.02, Pitch : -13.81, Yaw : 265.36, Alt : 587.5, Lat : -35.3632582, Lng : 149.1651887, Q1 : 0.676758348942, Q2 : -0.0529174394906, Q3 : -0.119765333831, Q4 : -0.724468171597}
2019-04-03 20:28:21.20: SIM {TimeUS : 115416315, Roll : 7.28, Pitch : -13.5, Yaw : 262.86, Alt : 587.530029297, Lat : -35.3632579, Lng : 149.165186, Q1 : 0.661437392235, Q2 : -0.0462495870888, Q3 : -0.124937705696, Q4 : -0.738073289394}
2019-04-03 20:28:21.29: SIM {TimeUS : 115516275, Roll : 7.65, Pitch : -13.33, Yaw : 262.13, Alt : 587.549987793, Lat : -35.3632576, Lng : 149.1651831, Q1 : 0.656874001026, Q2 : -0.0437986478209, Q3 : -0.126052826643, Q4 : -0.7420976758}
2019-04-03 20:28:21.39: SIM {TimeUS : 115616235, Roll : 7.15, Pitch : -13.4, Yaw : 262.83, Alt : 587.570007324, Lat : -35.3632572, Lng : 149.16518, Q1 : 0.661226391792, Q2 : -0.0463258363307, Q3 : -0.123536482453, Q4 : -0.738493263721}
2019-04-03 20:28:21.49: SIM {TimeUS : 115716195, Roll : 5.92, Pitch : -13.72, Yaw : 264.62, Alt : 587.599975586, Lat : -35.3632567, Lng : 149.165177, Q1 : 0.67205619812, Q2 : -0.0536749437451, Q3 : -0.118274562061, Q4 : -0.729020297527}
2019-04-03 20:28:21.59: SIM {TimeUS : 115816155, Roll : 4.19, Pitch : -14.23, Yaw : 267.16, Alt : 587.619995117, Lat : -35.3632561, Lng : 149.1651738, Q1 : 0.686890363693, Q2 : -0.064655251801, Q3 : -0.111697643995, Q4 : -0.715209782124}
2019-04-03 20:28:21.69: SIM {TimeUS : 115916115, Roll : 2.24, Pitch : -14.8, Yaw : 270.11, Alt : 587.650024414, Lat : -35.3632555, Lng : 149.1651705, Q1 : 0.703533887863, Q2 : -0.0772607028484, Q3 : -0.104941546917, Q4 : -0.698611557484}
2019-04-03 20:28:21.79: SIM {TimeUS : 116016075, Roll : 0.35, Pitch : -15.32, Yaw : 273.14, Alt : 587.679992676, Lat : -35.3632549, Lng : 149.1651673, Q1 : 0.720054686069, Q2 : -0.0894493684173, Q3 : -0.0989091396332, Q4 : -0.680982470512}
2019-04-03 20:28:21.89: SIM {TimeUS : 116116035, Roll : -1.28, Pitch : -15.66, Yaw : 275.93, Alt : 587.710021973, Lat : -35.3632544, Lng : 149.1651638, Q1 : 0.734771728516, Q2 : -0.0994535535574, Q3 : -0.0937774777412, Q4 : -0.664398431778}
2019-04-03 20:28:21.99: SIM {TimeUS : 116215995, Roll : -2.49, Pitch : -15.82, Yaw : 278.18, Alt : 587.729980469, Lat : -35.363254, Lng : 149.1651604, Q1 : 0.74642676115, Q2 : -0.106391005218, Q3 : -0.0898678973317, Q4 : -0.650731801987}
2019-04-03 20:28:22.09: SIM {TimeUS : 116315955, Roll : -3.22, Pitch : -15.81, Yaw : 279.71, Alt : 587.760009766, Lat : -35.3632535, Lng : 149.1651568, Q1 : 0.75436013937, Q2 : -0.109978713095, Q3 : -0.0871323719621, Q4 : -0.641290426254}
2019-04-03 20:28:22.19: SIM {TimeUS : 116415915, Roll : -3.46, Pitch : -15.71, Yaw : 280.46, Alt : 587.789978027, Lat : -35.3632531, Lng : 149.1651532, Q1 : 0.758433163166, Q2 : -0.110472746193, Q3 : -0.0858879759908, Q4 : -0.63655179739}
2019-04-03 20:28:22.29: SIM {TimeUS : 116515875, Roll : -3.29, Pitch : -15.63, Yaw : 280.49, Alt : 587.820007324, Lat : -35.3632526, Lng : 149.1651494, Q1 : 0.758851349354, Q2 : -0.108874805272, Q3 : -0.0862985029817, Q4 : -0.636273145676}
2019-04-03 20:28:22.39: SIM {TimeUS : 116615835, Roll : -2.8, Pitch : -15.65, Yaw : 279.93, Alt : 587.849975586, Lat : -35.3632523, Lng : 149.1651456, Q1 : 0.756150305271, Q2 : -0.106124021113, Q3 : -0.0886307582259, Q4 : -0.63962417841}
2019-04-03 20:28:22.49: SIM {TimeUS : 116715795, Roll : -2.08, Pitch : -15.73, Yaw : 278.93, Alt : 587.869995117, Lat : -35.3632519, Lng : 149.1651417, Q1 : 0.751144647598, Q2 : -0.10265455395, Q3 : -0.0923145487905, Q4 : -0.645539999008}
2019-04-03 20:28:22.59: SIM {TimeUS : 116815755, Roll : -1.26, Pitch : -15.85, Yaw : 277.7, Alt : 587.900024414, Lat : -35.3632516, Lng : 149.1651379, Q1 : 0.744756877422, Q2 : -0.0989612340927, Q3 : -0.0966253578663, Q4 : -0.652845621109}
2019-04-03 20:28:22.69: SIM {TimeUS : 116915715, Roll : -0.48, Pitch : -15.98, Yaw : 276.4, Alt : 587.929992676, Lat : -35.3632513, Lng : 149.1651339, Q1 : 0.73788523674, Q2 : -0.0957622751594, Q3 : -0.100852973759, Q4 : -0.660442054272}
2019-04-03 20:28:22.79: SIM {TimeUS : 117015675, Roll : 0.19, Pitch : -16.08, Yaw : 275.21, Alt : 587.960021973, Lat : -35.363251, Lng : 149.1651298, Q1 : 0.731427550316, Q2 : -0.0930874124169, Q3 : -0.104465276003, Q4 : -0.667409539223}
2019-04-03 20:28:22.90: SIM {TimeUS : 117116468, Roll : 0.72, Pitch : -16.15, Yaw : 274.22, Alt : 587.989990234, Lat : -35.3632507, Lng : 149.1651258, Q1 : 0.72603726387, Q2 : -0.0910266935825, Q3 : -0.107189513743, Q4 : -0.673123002052}
2019-04-03 20:28:23.00: SIM {TimeUS : 117216428, Roll : 1.05, Pitch : -16.19, Yaw : 273.54, Alt : 588.020019531, Lat : -35.3632503, Lng : 149.1651216, Q1 : 0.722230672836, Q2 : -0.0898493081331, Q3 : -0.108865380287, Q4 : -0.677095532417}
2019-04-03 20:28:23.10: SIM {TimeUS : 117316388, Roll : 1.19, Pitch : -16.22, Yaw : 273.17, Alt : 588.039978027, Lat : -35.36325, Lng : 149.1651174, Q1 : 0.720135211945, Q2 : -0.0895005092025, Q3 : -0.109586849809, Q4 : -0.679253816605}
2019-04-03 20:28:23.20: SIM {TimeUS : 117416348, Roll : 1.16, Pitch : -16.24, Yaw : 273.1, Alt : 588.070007324, Lat : -35.3632495, Lng : 149.1651131, Q1 : 0.719698548317, Q2 : -0.0898084565997, Q3 : -0.109512202442, Q4 : -0.679687798023}
2019-04-03 20:28:23.29: SIM {TimeUS : 117516308, Roll : 0.99, Pitch : -16.24, Yaw : 273.29, Alt : 588.099975586, Lat : -35.3632493, Lng : 149.165109, Q1 : 0.720651507378, Q2 : -0.0907361283898, Q3 : -0.108681581914, Q4 : -0.678687512875}
2019-04-03 20:28:23.39: SIM {TimeUS : 117616268, Roll : 0.73, Pitch : -16.25, Yaw : 273.66, Alt : 588.130004883, Lat : -35.3632488, Lng : 149.1651047, Q1 : 0.722619771957, Q2 : -0.09209125489, Q3 : -0.107446745038, Q4 : -0.676605582237}
2019-04-03 20:28:23.49: SIM {TimeUS : 117716228, Roll : 0.42, Pitch : -16.26, Yaw : 274.14, Alt : 588.159973145, Lat : -35.3632485, Lng : 149.1651003, Q1 : 0.725178182125, Q2 : -0.0936860889196, Q3 : -0.106112480164, Q4 : -0.673854351044}
2019-04-03 20:28:23.59: SIM {TimeUS : 117816188, Roll : 0.1, Pitch : -16.29, Yaw : 274.65, Alt : 588.190002441, Lat : -35.3632481, Lng : 149.165096, Q1 : 0.727915585041, Q2 : -0.0953388512135, Q3 : -0.104808397591, Q4 : -0.670868515968}
2019-04-03 20:28:23.69: SIM {TimeUS : 117916148, Roll : -0.16, Pitch : -16.31, Yaw : 275.14, Alt : 588.219970703, Lat : -35.3632476, Lng : 149.1650915, Q1 : 0.730491518974, Q2 : -0.0968251377344, Q3 : -0.103772521019, Q4 : -0.668010771275}
2019-04-03 20:28:23.79: SIM {TimeUS : 118016108, Roll : -0.39, Pitch : -16.37, Yaw : 275.54, Alt : 588.239990234, Lat : -35.3632474, Lng : 149.1650871, Q1 : 0.732616782188, Q2 : -0.0982232987881, Q3 : -0.103139147162, Q4 : -0.665572822094}
2019-04-03 20:28:23.89: SIM {TimeUS : 118116068, Roll : -0.55, Pitch : -16.43, Yaw : 275.84, Alt : 588.270019531, Lat : -35.363247, Lng : 149.1650826, Q1 : 0.734144687653, Q2 : -0.0993332341313, Q3 : -0.10282868892, Q4 : -0.663770139217}
2019-04-03 20:28:23.99: SIM {TimeUS : 118216028, Roll : -0.6, Pitch : -16.49, Yaw : 276.01, Alt : 588.299987793, Lat : -35.3632465, Lng : 149.1650781, Q1 : 0.735054731369, Q2 : -0.0998504683375, Q3 : -0.10307867825, Q4 : -0.662645637989}
2019-04-03 20:28:24.09: SIM {TimeUS : 118315988, Roll : -0.58, Pitch : -16.53, Yaw : 276.07, Alt : 588.33001709, Lat : -35.3632463, Lng : 149.1650736, Q1 : 0.735359489918, Q2 : -0.0998915508389, Q3 : -0.103571593761, Q4 : -0.662224411964}
2019-04-03 20:28:24.19: SIM {TimeUS : 118415948, Roll : -0.51, Pitch : -16.56, Yaw : 276.02, Alt : 588.359985352, Lat : -35.3632458, Lng : 149.165069, Q1 : 0.735124528408, Q2 : -0.0996681451797, Q3 : -0.104138359427, Q4 : -0.66242992878}
2019-04-03 20:28:24.29: SIM {TimeUS : 118515908, Roll : -0.41, Pitch : -16.59, Yaw : 275.9, Alt : 588.390014648, Lat : -35.3632456, Lng : 149.1650645, Q1 : 0.734477102757, Q2 : -0.0992774292827, Q3 : -0.104740187526, Q4 : -0.663111507893}
2019-04-03 20:28:24.39: SIM {TimeUS : 118615868, Roll : -0.3, Pitch : -16.61, Yaw : 275.73, Alt : 588.41998291, Lat : -35.3632452, Lng : 149.1650598, Q1 : 0.733562409878, Q2 : -0.0988836884499, Q3 : -0.105396866798, Q4 : -0.664078116417}
2019-04-03 20:28:24.49: SIM {TimeUS : 118715828, Roll : -0.19, Pitch : -16.66, Yaw : 275.54, Alt : 588.450012207, Lat : -35.3632449, Lng : 149.1650551, Q1 : 0.73253262043, Q2 : -0.0985972434282, Q3 : -0.106180436909, Q4 : -0.665131807327}
2019-04-03 20:28:24.59: SIM {TimeUS : 118815788, Roll : -0.07, Pitch : -16.7, Yaw : 275.37, Alt : 588.479980469, Lat : -35.3632445, Lng : 149.1650505, Q1 : 0.73156452179, Q2 : -0.0982780456543, Q3 : -0.10698261112, Q4 : -0.666115283966}
2019-04-03 20:28:24.69: SIM {TimeUS : 118915748, Roll : 0.01, Pitch : -16.72, Yaw : 275.22, Alt : 588.5, Lat : -35.363244, Lng : 149.1650459, Q1 : 0.730774283409, Q2 : -0.0979454964399, Q3 : -0.10753878206, Q4 : -0.666941523552}
2019-04-03 20:28:24.79: SIM {TimeUS : 119015708, Roll : 0.08, Pitch : -16.73, Yaw : 275.12, Alt : 588.530029297, Lat : -35.3632438, Lng : 149.1650412, Q1 : 0.730223536491, Q2 : -0.0976789221168, Q3 : -0.107874535024, Q4 : -0.667529404163}
2019-04-03 20:28:24.89: SIM {TimeUS : 119115668, Roll : 0.11, Pitch : -16.73, Yaw : 275.07, Alt : 588.559997559, Lat : -35.3632434, Lng : 149.1650364, Q1 : 0.72994530201, Q2 : -0.0975167676806, Q3 : -0.108016692102, Q4 : -0.667834341526}
2019-04-03 20:28:25.00: SIM {TimeUS : 119216461, Roll : 0.11, Pitch : -16.73, Yaw : 275.06, Alt : 588.590026855, Lat : -35.3632431, Lng : 149.1650316, Q1 : 0.729925870895, Q2 : -0.0974678397179, Q3 : -0.108013413846, Q4 : -0.667863309383}
2019-04-03 20:28:25.10: SIM {TimeUS : 119316421, Roll : 0.1, Pitch : -16.73, Yaw : 275.1, Alt : 588.619995117, Lat : -35.3632427, Lng : 149.1650268, Q1 : 0.730127751827, Q2 : -0.0975841879845, Q3 : -0.108011752367, Q4 : -0.667625844479}
2019-04-03 20:28:25.20: SIM {TimeUS : 119416381, Roll : 0.06, Pitch : -16.76, Yaw : 275.17, Alt : 588.650024414, Lat : -35.3632422, Lng : 149.165022, Q1 : 0.730486631393, Q2 : -0.0979149341583, Q3 : -0.107966668904, Q4 : -0.667191982269}
2019-04-03 20:28:25.30: SIM {TimeUS : 119516341, Roll : -0.01, Pitch : -16.78, Yaw : 275.26, Alt : 588.679992676, Lat : -35.363242, Lng : 149.1650173, Q1 : 0.730943024158, Q2 : -0.098421677947, Q3 : -0.107762612402, Q4 : -0.666650354862}
2019-04-03 20:28:25.39: SIM {TimeUS : 119616301, Roll : -0.08, Pitch : -16.81, Yaw : 275.36, Alt : 588.710021973, Lat : -35.3632415, Lng : 149.1650125, Q1 : 0.731434941292, Q2 : -0.0989393815398, Q3 : -0.107600413263, Q4 : -0.66606014967}
2019-04-03 20:28:25.49: SIM {TimeUS : 119716261, Roll : -0.12, Pitch : -16.84, Yaw : 275.46, Alt : 588.739990234, Lat : -35.3632412, Lng : 149.1650076, Q1 : 0.731924653053, Q2 : -0.0993166640401, Q3 : -0.107668377459, Q4 : -0.665454745293}
2019-04-03 20:28:25.59: SIM {TimeUS : 119816221, Roll : -0.14, Pitch : -16.89, Yaw : 275.55, Alt : 588.770019531, Lat : -35.3632409, Lng : 149.1650028, Q1 : 0.732362389565, Q2 : -0.0996411591768, Q3 : -0.107929490507, Q4 : -0.664882063866}
2019-04-03 20:28:25.69: SIM {TimeUS : 119916181, Roll : -0.15, Pitch : -16.92, Yaw : 275.62, Alt : 588.789978027, Lat : -35.3632404, Lng : 149.1649979, Q1 : 0.73273396492, Q2 : -0.0998595505953, Q3 : -0.108138412237, Q4 : -0.664405882359}
2019-04-03 20:28:25.79: SIM {TimeUS : 120016141, Roll : -0.16, Pitch : -16.95, Yaw : 275.67, Alt : 588.820007324, Lat : -35.3632401, Lng : 149.1649929, Q1 : 0.733010113239, Q2 : -0.100024335086, Q3 : -0.108320392668, Q4 : -0.664046645164}
2019-04-03 20:28:25.89: SIM {TimeUS : 120116101, Roll : -0.16, Pitch : -16.97, Yaw : 275.71, Alt : 588.849975586, Lat : -35.3632397, Lng : 149.164988, Q1 : 0.73319041729, Q2 : -0.100109651685, Q3 : -0.108510479331, Q4 : -0.663803756237}
2019-04-03 20:28:25.99: SIM {TimeUS : 120216061, Roll : -0.15, Pitch : -17.0, Yaw : 275.72, Alt : 588.880004883, Lat : -35.3632394, Lng : 149.1649832, Q1 : 0.733284056187, Q2 : -0.100146487355, Q3 : -0.108764328063, Q4 : -0.6636531353}
2019-04-03 20:28:26.09: SIM {TimeUS : 120316021, Roll : -0.13, Pitch : -17.02, Yaw : 275.73, Alt : 588.909973145, Lat : -35.363239, Lng : 149.1649783, Q1 : 0.733291864395, Q2 : -0.100205585361, Q3 : -0.108969867229, Q4 : -0.66360193491}
2019-04-03 20:28:26.19: SIM {TimeUS : 120415981, Roll : -0.13, Pitch : -17.05, Yaw : 275.72, Alt : 588.940002441, Lat : -35.3632385, Lng : 149.1649733, Q1 : 0.733233988285, Q2 : -0.100344628096, Q3 : -0.109238363802, Q4 : -0.663600683212}
2019-04-03 20:28:26.29: SIM {TimeUS : 120515941, Roll : -0.13, Pitch : -17.09, Yaw : 275.71, Alt : 588.969970703, Lat : -35.3632383, Lng : 149.1649684, Q1 : 0.733143806458, Q2 : -0.100566342473, Q3 : -0.109445996583, Q4 : -0.663632571697}
2019-04-03 20:28:26.39: SIM {TimeUS : 120615901, Roll : -0.1, Pitch : -17.13, Yaw : 275.7, Alt : 589.0, Lat : -35.3632379, Lng : 149.1649635, Q1 : 0.733066082001, Q2 : -0.100681953132, Q3 : -0.109848879278, Q4 : -0.663634359837}
2019-04-03 20:28:26.49: SIM {TimeUS : 120715861, Roll : -0.07, Pitch : -17.16, Yaw : 275.7, Alt : 589.030029297, Lat : -35.3632374, Lng : 149.1649584, Q1 : 0.733037650585, Q2 : -0.100597694516, Q3 : -0.110187552869, Q4 : -0.663622379303}
2019-04-03 20:28:26.59: SIM {TimeUS : 120815821, Roll : -0.03, Pitch : -17.17, Yaw : 275.7, Alt : 589.059997559, Lat : -35.3632371, Lng : 149.1649535, Q1 : 0.733055770397, Q2 : -0.100433208048, Q3 : -0.11044985801, Q4 : -0.663583636284}
2019-04-03 20:28:26.69: SIM {TimeUS : 120915781, Roll : -0.02, Pitch : -17.18, Yaw : 275.7, Alt : 589.08001709, Lat : -35.3632367, Lng : 149.1649484, Q1 : 0.733089923859, Q2 : -0.100406706333, Q3 : -0.110626250505, Q4 : -0.663520514965}
2019-04-03 20:28:26.79: SIM {TimeUS : 121015741, Roll : -0.02, Pitch : -17.2, Yaw : 275.72, Alt : 589.109985352, Lat : -35.3632364, Lng : 149.1649435, Q1 : 0.733143270016, Q2 : -0.100547909737, Q3 : -0.110743038356, Q4 : -0.663420677185}
2019-04-03 20:28:26.89: SIM {TimeUS : 121115701, Roll : -0.04, Pitch : -17.23, Yaw : 275.74, Alt : 589.140014648, Lat : -35.363236, Lng : 149.1649385, Q1 : 0.733217597008, Q2 : -0.100783422589, Q3 : -0.110881343484, Q4 : -0.6632797122}
2019-04-03 20:28:26.99: SIM {TimeUS : 121215661, Roll : -0.05, Pitch : -17.25, Yaw : 275.76, Alt : 589.16998291, Lat : -35.3632355, Lng : 149.1649334, Q1 : 0.733329772949, Q2 : -0.100958712399, Q3 : -0.110995367169, Q4 : -0.663109958172}
2019-04-03 20:28:27.10: SIM {TimeUS : 121316454, Roll : -0.07, Pitch : -17.26, Yaw : 275.79, Alt : 589.200012207, Lat : -35.3632352, Lng : 149.1649282, Q1 : 0.733460426331, Q2 : -0.101106353104, Q3 : -0.110964328051, Q4 : -0.662948131561}
2019-04-03 20:28:27.20: SIM {TimeUS : 121416414, Roll : -0.09, Pitch : -17.27, Yaw : 275.81, Alt : 589.229980469, Lat : -35.3632348, Lng : 149.1649233, Q1 : 0.733583152294, Q2 : -0.10129018873, Q3 : -0.110905945301, Q4 : -0.662794113159}
2019-04-03 20:28:27.30: SIM {TimeUS : 121516374, Roll : -0.09, Pitch : -17.28, Yaw : 275.84, Alt : 589.260009766, Lat : -35.3632343, Lng : 149.1649182, Q1 : 0.733713448048, Q2 : -0.10135871917, Q3 : -0.110990233719, Q4 : -0.662625253201}
2019-04-03 20:28:27.40: SIM {TimeUS : 121616334, Roll : -0.07, Pitch : -17.29, Yaw : 275.86, Alt : 589.289978027, Lat : -35.363234, Lng : 149.1649131, Q1 : 0.733871221542, Q2 : -0.10121615231, Q3 : -0.111192025244, Q4 : -0.662438511848}
2019-04-03 20:28:27.49: SIM {TimeUS : 121716294, Roll : -0.04, Pitch : -17.3, Yaw : 275.89, Alt : 589.320007324, Lat : -35.3632336, Lng : 149.164908, Q1 : 0.734024465084, Q2 : -0.101016953588, Q3 : -0.111452892423, Q4 : -0.662255227566}
2019-04-03 20:28:27.59: SIM {TimeUS : 121816254, Roll : -0.03, Pitch : -17.33, Yaw : 275.91, Alt : 589.340026855, Lat : -35.3632333, Lng : 149.1649028, Q1 : 0.734121739864, Q2 : -0.101114660501, Q3 : -0.111710034311, Q4 : -0.662089109421}
2019-04-03 20:28:27.69: SIM {TimeUS : 121916214, Roll : -0.03, Pitch : -17.35, Yaw : 275.93, Alt : 589.369995117, Lat : -35.3632329, Lng : 149.1648978, Q1 : 0.73420715332, Q2 : -0.101265847683, Q3 : -0.111833386123, Q4 : -0.661950469017}
2019-04-03 20:28:27.79: SIM {TimeUS : 122016174, Roll : -0.03, Pitch : -17.38, Yaw : 275.94, Alt : 589.400024414, Lat : -35.3632324, Lng : 149.1648927, Q1 : 0.734278738499, Q2 : -0.101449266076, Q3 : -0.112058065832, Q4 : -0.661804974079}
2019-04-03 20:28:27.89: SIM {TimeUS : 122116134, Roll : -0.05, Pitch : -17.42, Yaw : 275.96, Alt : 589.429992676, Lat : -35.3632321, Lng : 149.1648875, Q1 : 0.73432636261, Q2 : -0.101780235767, Q3 : -0.112223803997, Q4 : -0.66167318821}
2019-04-03 20:28:27.99: SIM {TimeUS : 122216094, Roll : -0.08, Pitch : -17.47, Yaw : 275.98, Alt : 589.460021973, Lat : -35.3632317, Lng : 149.1648825, Q1 : 0.734351277351, Q2 : -0.102202199399, Q3 : -0.112354099751, Q4 : -0.661558389664}
2019-04-03 20:28:28.09: SIM {TimeUS : 122316054, Roll : -0.09, Pitch : -17.49, Yaw : 275.99, Alt : 589.489990234, Lat : -35.3632312, Lng : 149.1648773, Q1 : 0.734396636486, Q2 : -0.10239341855, Q3 : -0.112482585013, Q4 : -0.66145658493}
2019-04-03 20:28:28.19: SIM {TimeUS : 122416014, Roll : -0.07, Pitch : -17.51, Yaw : 276.0, Alt : 589.520019531, Lat : -35.3632309, Lng : 149.1648722, Q1 : 0.734468579292, Q2 : -0.102333948016, Q3 : -0.11267927289, Q4 : -0.661352455616}
2019-04-03 20:28:28.29: SIM {TimeUS : 122515974, Roll : -0.03, Pitch : -17.51, Yaw : 276.01, Alt : 589.549987793, Lat : -35.3632305, Lng : 149.1648669, Q1 : 0.734553515911, Q2 : -0.102123595774, Q3 : -0.112953260541, Q4 : -0.661243915558}
2019-04-03 20:28:28.39: SIM {TimeUS : 122615934, Roll : -0.02, Pitch : -17.53, Yaw : 276.02, Alt : 589.58001709, Lat : -35.36323, Lng : 149.1648617, Q1 : 0.73460406065, Q2 : -0.102121308446, Q3 : -0.113107860088, Q4 : -0.661161661148}
2019-04-03 20:28:28.49: SIM {TimeUS : 122715894, Roll : -0.05, Pitch : -17.54, Yaw : 276.03, Alt : 589.599975586, Lat : -35.3632295, Lng : 149.1648567, Q1 : 0.734615623951, Q2 : -0.102338179946, Q3 : -0.113067418337, Q4 : -0.661122202873}
2019-04-03 20:28:28.59: SIM {TimeUS : 122815854, Roll : -0.08, Pitch : -17.54, Yaw : 276.04, Alt : 589.630004883, Lat : -35.3632292, Lng : 149.1648515, Q1 : 0.73461920023, Q2 : -0.102597512305, Q3 : -0.11289370805, Q4 : -0.661107778549}
2019-04-03 20:28:28.69: SIM {TimeUS : 122915814, Roll : -0.11, Pitch : -17.55, Yaw : 276.04, Alt : 589.659973145, Lat : -35.3632288, Lng : 149.1648463, Q1 : 0.734621345997, Q2 : -0.102823339403, Q3 : -0.112814858556, Q4 : -0.661083698273}
2019-04-03 20:28:28.79: SIM {TimeUS : 123015774, Roll : -0.13, Pitch : -17.57, Yaw : 276.05, Alt : 589.690002441, Lat : -35.3632283, Lng : 149.1648411, Q1 : 0.734623491764, Q2 : -0.103018976748, Q3 : -0.112808376551, Q4 : -0.661051988602}
2019-04-03 20:28:28.89: SIM {TimeUS : 123115734, Roll : -0.11, Pitch : -17.58, Yaw : 276.06, Alt : 589.719970703, Lat : -35.363228, Lng : 149.1648358, Q1 : 0.734653174877, Q2 : -0.102992594242, Q3 : -0.112984023988, Q4 : -0.660993158817}
2019-04-03 20:28:28.99: SIM {TimeUS : 123215694, Roll : -0.08, Pitch : -17.59, Yaw : 276.06, Alt : 589.75, Lat : -35.3632276, Lng : 149.1648306, Q1 : 0.734711289406, Q2 : -0.10279969126, Q3 : -0.113236322999, Q4 : -0.660915315151}
2019-04-03 20:28:29.10: SIM {TimeUS : 123316487, Roll : -0.04, Pitch : -17.59, Yaw : 276.07, Alt : 589.780029297, Lat : -35.363227, Lng : 149.1648253, Q1 : 0.734771847725, Q2 : -0.102590367198, Q3 : -0.113477542996, Q4 : -0.66083920002}
2019-04-03 20:28:29.20: SIM {TimeUS : 123416447, Roll : -0.01, Pitch : -17.58, Yaw : 276.07, Alt : 589.809997559, Lat : -35.3632267, Lng : 149.1648201, Q1 : 0.7348498106, Q2 : -0.102319628, Q3 : -0.113614231348, Q4 : -0.660771012306}
2019-04-03 20:28:29.30: SIM {TimeUS : 123516407, Roll : 0.0, Pitch : -17.57, Yaw : 276.08, Alt : 589.840026855, Lat : -35.3632263, Lng : 149.164815, Q1 : 0.734933614731, Q2 : -0.102080531418, Q3 : -0.11366661638, Q4 : -0.66070574522}
2019-04-03 20:28:29.40: SIM {TimeUS : 123616367, Roll : 0.0, Pitch : -17.58, Yaw : 276.09, Alt : 589.869995117, Lat : -35.3632258, Lng : 149.1648097, Q1 : 0.734974324703, Q2 : -0.102134592831, Q3 : -0.113683730364, Q4 : -0.660649180412}
2019-04-03 20:28:29.50: SIM {TimeUS : 123716327, Roll : -0.01, Pitch : -17.61, Yaw : 276.1, Alt : 589.900024414, Lat : -35.3632255, Lng : 149.1648045, Q1 : 0.734970927238, Q2 : -0.102461546659, Q3 : -0.113754168153, Q4 : -0.660590171814}
2019-04-03 20:28:29.59: SIM {TimeUS : 123816287, Roll : -0.04, Pitch : -17.64, Yaw : 276.11, Alt : 589.929992676, Lat : -35.363225, Lng : 149.1647992, Q1 : 0.734962046146, Q2 : -0.102832689881, Q3 : -0.113812632859, Q4 : -0.660532295704}
2019-04-03 20:28:29.69: SIM {TimeUS : 123916247, Roll : -0.07, Pitch : -17.67, Yaw : 276.12, Alt : 589.960021973, Lat : -35.3632245, Lng : 149.164794, Q1 : 0.734959542751, Q2 : -0.10315386951, Q3 : -0.113800562918, Q4 : -0.660487115383}
2019-04-03 20:28:29.79: SIM {TimeUS : 124016207, Roll : -0.08, Pitch : -17.69, Yaw : 276.12, Alt : 589.979980469, Lat : -35.3632242, Lng : 149.1647887, Q1 : 0.734972834587, Q2 : -0.103312730789, Q3 : -0.113944590092, Q4 : -0.660422623158}
2019-04-03 20:28:29.89: SIM {TimeUS : 124116167, Roll : -0.07, Pitch : -17.69, Yaw : 276.13, Alt : 590.010009766, Lat : -35.3632237, Lng : 149.1647835, Q1 : 0.735008895397, Q2 : -0.10330928117, Q3 : -0.113994367421, Q4 : -0.660374522209}
2019-04-03 20:28:29.99: SIM {TimeUS : 124216127, Roll : -0.07, Pitch : -17.7, Yaw : 276.14, Alt : 590.039978027, Lat : -35.3632233, Lng : 149.1647782, Q1 : 0.735047638416, Q2 : -0.103264302015, Q3 : -0.114062823355, Q4 : -0.66032654047}
2019-04-03 20:28:30.09: SIM {TimeUS : 124316087, Roll : -0.05, Pitch : -17.71, Yaw : 276.14, Alt : 590.070007324, Lat : -35.3632228, Lng : 149.1647729, Q1 : 0.735075891018, Q2 : -0.10324960947, Q3 : -0.114262193441, Q4 : -0.66026288271}
2019-04-03 20:28:30.19: SIM {TimeUS : 124416047, Roll : -0.04, Pitch : -17.75, Yaw : 276.15, Alt : 590.099975586, Lat : -35.3632224, Lng : 149.1647677, Q1 : 0.735077798367, Q2 : -0.10334995389, Q3 : -0.114548273385, Q4 : -0.660195529461}
2019-04-03 20:28:30.29: SIM {TimeUS : 124516007, Roll : -0.04, Pitch : -17.76, Yaw : 276.15, Alt : 590.130004883, Lat : -35.363222, Lng : 149.1647624, Q1 : 0.735078454018, Q2 : -0.103458471596, Q3 : -0.114678651094, Q4 : -0.660155177116}
2019-04-03 20:28:30.39: SIM {TimeUS : 124615967, Roll : -0.05, Pitch : -17.77, Yaw : 276.15, Alt : 590.159973145, Lat : -35.3632215, Lng : 149.1647571, Q1 : 0.735074996948, Q2 : -0.103590242565, Q3 : -0.114602796733, Q4 : -0.660151541233}
2019-04-03 20:28:30.49: SIM {TimeUS : 124715927, Roll : -0.08, Pitch : -17.78, Yaw : 276.15, Alt : 590.190002441, Lat : -35.363221, Lng : 149.1647518, Q1 : 0.735051929951, Q2 : -0.103842332959, Q3 : -0.114564746618, Q4 : -0.660144209862}
2019-04-03 20:28:30.59: SIM {TimeUS : 124815887, Roll : -0.1, Pitch : -17.8, Yaw : 276.16, Alt : 590.219970703, Lat : -35.3632207, Lng : 149.1647465, Q1 : 0.735025107861, Q2 : -0.104095734656, Q3 : -0.11457066983, Q4 : -0.660133123398}
2019-04-03 20:28:30.69: SIM {TimeUS : 124915847, Roll : -0.11, Pitch : -17.82, Yaw : 276.16, Alt : 590.239990234, Lat : -35.3632202, Lng : 149.1647411, Q1 : 0.735013306141, Q2 : -0.104215495288, Q3 : -0.114611618221, Q4 : -0.660120248795}
2019-04-03 20:28:30.79: SIM {TimeUS : 125015807, Roll : -0.12, Pitch : -17.82, Yaw : 276.16, Alt : 590.270019531, Lat : -35.3632197, Lng : 149.1647358, Q1 : 0.734997034073, Q2 : -0.104286439717, Q3 : -0.114535696805, Q4 : -0.66014033556}
2019-04-03 20:28:30.89: SIM {TimeUS : 125115767, Roll : -0.11, Pitch : -17.8, Yaw : 276.15, Alt : 590.299987793, Lat : -35.3632193, Lng : 149.1647305, Q1 : 0.735003650188, Q2 : -0.104126766324, Q3 : -0.114460609853, Q4 : -0.660171210766}
2019-04-03 20:28:30.99: SIM {TimeUS : 125215727, Roll : -0.11, Pitch : -17.79, Yaw : 276.15, Alt : 590.33001709, Lat : -35.3632189, Lng : 149.1647252, Q1 : 0.734991252422, Q2 : -0.104056298733, Q3 : -0.114453673363, Q4 : -0.6601973176}
2019-04-03 20:28:31.09: SIM {TimeUS : 125315687, Roll : -0.12, Pitch : -17.79, Yaw : 276.15, Alt : 590.359985352, Lat : -35.3632184, Lng : 149.1647199, Q1 : 0.734962463379, Q2 : -0.104111805558, Q3 : -0.114366412163, Q4 : -0.660235702991}
2019-04-03 20:28:31.20: SIM {TimeUS : 125416480, Roll : -0.13, Pitch : -17.81, Yaw : 276.14, Alt : 590.390014648, Lat : -35.3632179, Lng : 149.1647146, Q1 : 0.734907627106, Q2 : -0.104306437075, Q3 : -0.114444032311, Q4 : -0.660252571106}
2019-04-03 20:28:31.30: SIM {TimeUS : 125516440, Roll : -0.13, Pitch : -17.84, Yaw : 276.14, Alt : 590.41998291, Lat : -35.3632175, Lng : 149.1647092, Q1 : 0.73484647274, Q2 : -0.104515582323, Q3 : -0.114619463682, Q4 : -0.660257160664}
2019-04-03 20:28:31.40: SIM {TimeUS : 125616400, Roll : -0.11, Pitch : -17.87, Yaw : 276.13, Alt : 590.450012207, Lat : -35.3632171, Lng : 149.1647039, Q1 : 0.734806478024, Q2 : -0.104561567307, Q3 : -0.114950872958, Q4 : -0.66023683548}
2019-04-03 20:28:31.50: SIM {TimeUS : 125716360, Roll : -0.07, Pitch : -17.9, Yaw : 276.13, Alt : 590.479980469, Lat : -35.3632166, Lng : 149.1646985, Q1 : 0.734790444374, Q2 : -0.104475706816, Q3 : -0.115308664739, Q4 : -0.660205841064}
2019-04-03 20:28:31.60: SIM {TimeUS : 125816320, Roll : -0.06, Pitch : -17.92, Yaw : 276.13, Alt : 590.510009766, Lat : -35.3632161, Lng : 149.1646931, Q1 : 0.734765052795, Q2 : -0.104521237314, Q3 : -0.115532159805, Q4 : -0.660187840462}
2019-04-03 20:28:31.69: SIM {TimeUS : 125916280, Roll : -0.05, Pitch : -17.94, Yaw : 276.12, Alt : 590.530029297, Lat : -35.3632158, Lng : 149.1646879, Q1 : 0.734743773937, Q2 : -0.104614175856, Q3 : -0.115715041757, Q4 : -0.660164833069}
2019-04-03 20:28:31.79: SIM {TimeUS : 126016240, Roll : -0.04, Pitch : -17.96, Yaw : 276.13, Alt : 590.559997559, Lat : -35.3632153, Lng : 149.1646825, Q1 : 0.734746336937, Q2 : -0.104604773223, Q3 : -0.115875929594, Q4 : -0.660135149956}
2019-04-03 20:28:31.89: SIM {TimeUS : 126116200, Roll : -0.03, Pitch : -17.96, Yaw : 276.13, Alt : 590.590026855, Lat : -35.3632148, Lng : 149.1646772, Q1 : 0.734763979912, Q2 : -0.104523487389, Q3 : -0.115933068097, Q4 : -0.660118401051}
2019-04-03 20:28:31.99: SIM {TimeUS : 126216160, Roll : -0.03, Pitch : -17.95, Yaw : 276.13, Alt : 590.619995117, Lat : -35.3632143, Lng : 149.1646717, Q1 : 0.73477691412, Q2 : -0.104523941875, Q3 : -0.115845181048, Q4 : -0.66011941433}
2019-04-03 20:28:32.09: SIM {TimeUS : 126316120, Roll : -0.06, Pitch : -17.93, Yaw : 276.13, Alt : 590.650024414, Lat : -35.3632139, Lng : 149.1646664, Q1 : 0.734772920609, Q2 : -0.104612156749, Q3 : -0.115587547421, Q4 : -0.660154998302}
2019-04-03 20:28:32.19: SIM {TimeUS : 126416080, Roll : -0.09, Pitch : -17.9, Yaw : 276.13, Alt : 590.679992676, Lat : -35.3632135, Lng : 149.1646611, Q1 : 0.73478448391, Q2 : -0.104598172009, Q3 : -0.115246862173, Q4 : -0.660203874111}
2019-04-03 20:28:32.29: SIM {TimeUS : 126516040, Roll : -0.09, Pitch : -17.89, Yaw : 276.13, Alt : 590.710021973, Lat : -35.363213, Lng : 149.1646557, Q1 : 0.734803557396, Q2 : -0.104520119727, Q3 : -0.115180775523, Q4 : -0.66020655632}
2019-04-03 20:28:32.39: SIM {TimeUS : 126616000, Roll : -0.08, Pitch : -17.91, Yaw : 276.13, Alt : 590.739990234, Lat : -35.3632126, Lng : 149.1646503, Q1 : 0.73479861021, Q2 : -0.104558065534, Q3 : -0.115355908871, Q4 : -0.6601755023}
2019-04-03 20:28:32.49: SIM {TimeUS : 126715960, Roll : -0.06, Pitch : -17.94, Yaw : 276.13, Alt : 590.770019531, Lat : -35.3632121, Lng : 149.164645, Q1 : 0.734795689583, Q2 : -0.10459664464, Q3 : -0.11563809216, Q4 : -0.660123229027}
2019-04-03 20:28:32.59: SIM {TimeUS : 126815920, Roll : -0.05, Pitch : -17.97, Yaw : 276.13, Alt : 590.789978027, Lat : -35.3632116, Lng : 149.1646395, Q1 : 0.7347702384, Q2 : -0.104749530554, Q3 : -0.115941114724, Q4 : -0.660074174404}
2019-04-03 20:28:32.69: SIM {TimeUS : 126915880, Roll : -0.06, Pitch : -18.0, Yaw : 276.13, Alt : 590.820007324, Lat : -35.3632111, Lng : 149.1646342, Q1 : 0.734726965427, Q2 : -0.104989878833, Q3 : -0.116085909307, Q4 : -0.660058736801}
2019-04-03 20:28:32.79: SIM {TimeUS : 127015840, Roll : -0.07, Pitch : -18.02, Yaw : 276.13, Alt : 590.849975586, Lat : -35.3632106, Lng : 149.1646288, Q1 : 0.734693408012, Q2 : -0.105156332254, Q3 : -0.116126410663, Q4 : -0.660062432289}
2019-04-03 20:28:32.89: SIM {TimeUS : 127115800, Roll : -0.06, Pitch : -18.0, Yaw : 276.13, Alt : 590.880004883, Lat : -35.3632103, Lng : 149.1646235, Q1 : 0.734709620476, Q2 : -0.105005972087, Q3 : -0.11606606096, Q4 : -0.660078942776}
2019-04-03 20:28:32.99: SIM {TimeUS : 127215760, Roll : -0.03, Pitch : -17.98, Yaw : 276.13, Alt : 590.909973145, Lat : -35.3632098, Lng : 149.164618, Q1 : 0.734745919704, Q2 : -0.104684449732, Q3 : -0.116025574505, Q4 : -0.66009670496}
2019-04-03 20:28:33.09: SIM {TimeUS : 127315720, Roll : -0.01, Pitch : -17.95, Yaw : 276.13, Alt : 590.940002441, Lat : -35.3632093, Lng : 149.1646127, Q1 : 0.734775602818, Q2 : -0.104410372674, Q3 : -0.116000168025, Q4 : -0.660111546516}
2019-04-03 20:28:33.19: SIM {TimeUS : 127415680, Roll : 0.0, Pitch : -17.96, Yaw : 276.12, Alt : 590.960021973, Lat : -35.3632088, Lng : 149.1646073, Q1 : 0.734763383865, Q2 : -0.104374200106, Q3 : -0.116067774594, Q4 : -0.660119056702}
2019-04-03 20:28:33.30: SIM {TimeUS : 127516473, Roll : 0.0, Pitch : -17.97, Yaw : 276.12, Alt : 590.989990234, Lat : -35.3632084, Lng : 149.1646017, Q1 : 0.734721660614, Q2 : -0.104479931295, Q3 : -0.116176202893, Q4 : -0.660129606724}
2019-04-03 20:28:33.40: SIM {TimeUS : 127616433, Roll : -0.02, Pitch : -17.99, Yaw : 276.11, Alt : 591.020019531, Lat : -35.363208, Lng : 149.1645964, Q1 : 0.734668076038, Q2 : -0.104677304626, Q3 : -0.116180367768, Q4 : -0.660157322884}
2019-04-03 20:28:33.50: SIM {TimeUS : 127716393, Roll : -0.03, Pitch : -18.0, Yaw : 276.11, Alt : 591.049987793, Lat : -35.3632075, Lng : 149.164591, Q1 : 0.734622120857, Q2 : -0.104797914624, Q3 : -0.116193048656, Q4 : -0.660187065601}
2019-04-03 20:28:33.60: SIM {TimeUS : 127816353, Roll : -0.02, Pitch : -18.0, Yaw : 276.1, Alt : 591.08001709, Lat : -35.3632069, Lng : 149.1645855, Q1 : 0.734603464603, Q2 : -0.104738585651, Q3 : -0.116205610335, Q4 : -0.66021502018}
2019-04-03 20:28:33.70: SIM {TimeUS : 127916313, Roll : 0.0, Pitch : -17.98, Yaw : 276.1, Alt : 591.109985352, Lat : -35.3632066, Lng : 149.1645802, Q1 : 0.734621524811, Q2 : -0.10446254909, Q3 : -0.116267159581, Q4 : -0.660227835178}
2019-04-03 20:28:33.79: SIM {TimeUS : 128016273, Roll : 0.01, Pitch : -17.97, Yaw : 276.1, Alt : 591.140014648, Lat : -35.3632061, Lng : 149.1645748, Q1 : 0.734624028206, Q2 : -0.104301854968, Q3 : -0.116248644888, Q4 : -0.660253703594}
2019-04-03 20:28:33.89: SIM {TimeUS : 128116233, Roll : 0.02, Pitch : -17.96, Yaw : 276.09, Alt : 591.16998291, Lat : -35.3632056, Lng : 149.1645694, Q1 : 0.734612226486, Q2 : -0.104250952601, Q3 : -0.11624275893, Q4 : -0.660275995731}
2019-04-03 20:28:33.99: SIM {TimeUS : 128216193, Roll : 0.02, Pitch : -17.96, Yaw : 276.09, Alt : 591.200012207, Lat : -35.3632051, Lng : 149.1645639, Q1 : 0.734598815441, Q2 : -0.104223072529, Q3 : -0.116305284202, Q4 : -0.660284221172}
2019-04-03 20:28:34.09: SIM {TimeUS : 128316153, Roll : 0.04, Pitch : -17.98, Yaw : 276.09, Alt : 591.219970703, Lat : -35.3632047, Lng : 149.1645586, Q1 : 0.73457890749, Q2 : -0.104220122099, Q3 : -0.116543449461, Q4 : -0.660264849663}
2019-04-03 20:28:34.19: SIM {TimeUS : 128416113, Roll : 0.06, Pitch : -18.01, Yaw : 276.08, Alt : 591.25, Lat : -35.3632042, Lng : 149.1645532, Q1 : 0.734559357166, Q2 : -0.104208059609, Q3 : -0.116790547967, Q4 : -0.660244762897}
2019-04-03 20:28:34.29: SIM {TimeUS : 128516073, Roll : 0.07, Pitch : -18.01, Yaw : 276.08, Alt : 591.280029297, Lat : -35.3632038, Lng : 149.1645477, Q1 : 0.734544098377, Q2 : -0.104210287333, Q3 : -0.116900116205, Q4 : -0.660242080688}
2019-04-03 20:28:34.39: SIM {TimeUS : 128616033, Roll : 0.06, Pitch : -18.01, Yaw : 276.08, Alt : 591.309997559, Lat : -35.3632032, Lng : 149.1645423, Q1 : 0.734517037868, Q2 : -0.104288868606, Q3 : -0.1168134287, Q4 : -0.660275101662}
2019-04-03 20:28:34.49: SIM {TimeUS : 128715993, Roll : 0.05, Pitch : -18.0, Yaw : 276.08, Alt : 591.340026855, Lat : -35.3632027, Lng : 149.164537, Q1 : 0.734502792358, Q2 : -0.104284137487, Q3 : -0.116631858051, Q4 : -0.660323798656}
2019-04-03 20:28:34.59: SIM {TimeUS : 128815953, Roll : 0.04, Pitch : -18.01, Yaw : 276.07, Alt : 591.369995117, Lat : -35.3632024, Lng : 149.1645316, Q1 : 0.734472572803, Q2 : -0.104344315827, Q3 : -0.11668112874, Q4 : -0.660339176655}
2019-04-03 20:28:34.69: SIM {TimeUS : 128915913, Roll : 0.05, Pitch : -18.02, Yaw : 276.07, Alt : 591.400024414, Lat : -35.3632019, Lng : 149.1645261, Q1 : 0.734437167645, Q2 : -0.104385003448, Q3 : -0.116845883429, Q4 : -0.660343050957}
2019-04-03 20:28:34.79: SIM {TimeUS : 129015873, Roll : 0.04, Pitch : -18.04, Yaw : 276.06, Alt : 591.429992676, Lat : -35.3632014, Lng : 149.1645207, Q1 : 0.734377563, Q2 : -0.104591079056, Q3 : -0.116843447089, Q4 : -0.660377144814}
2019-04-03 20:28:34.89: SIM {TimeUS : 129115833, Roll : 0.02, Pitch : -18.05, Yaw : 276.06, Alt : 591.450012207, Lat : -35.3632008, Lng : 149.1645153, Q1 : 0.734320759773, Q2 : -0.104799628258, Q3 : -0.116809472442, Q4 : -0.660413205624}
2019-04-03 20:28:34.99: SIM {TimeUS : 129215793, Roll : 0.02, Pitch : -18.07, Yaw : 276.05, Alt : 591.479980469, Lat : -35.3632005, Lng : 149.1645098, Q1 : 0.734280526638, Q2 : -0.104876980186, Q3 : -0.116887196898, Q4 : -0.660431921482}
2019-04-03 20:28:35.09: SIM {TimeUS : 129315753, Roll : 0.05, Pitch : -18.07, Yaw : 276.05, Alt : 591.510009766, Lat : -35.3632, Lng : 149.1645045, Q1 : 0.734277784824, Q2 : -0.104672320187, Q3 : -0.117084026337, Q4 : -0.660432517529}
2019-04-03 20:28:35.19: SIM {TimeUS : 129415713, Roll : 0.08, Pitch : -18.07, Yaw : 276.04, Alt : 591.539978027, Lat : -35.3631995, Lng : 149.164499, Q1 : 0.734267115593, Q2 : -0.104485876858, Q3 : -0.117254033685, Q4 : -0.660443842411}
2019-04-03 20:28:35.29: SIM {TimeUS : 129515673, Roll : 0.1, Pitch : -18.07, Yaw : 276.03, Alt : 591.570007324, Lat : -35.363199, Lng : 149.1644935, Q1 : 0.734240889549, Q2 : -0.104374952614, Q3 : -0.117340162396, Q4 : -0.660475254059}
2019-04-03 20:28:35.40: SIM {TimeUS : 129616466, Roll : 0.11, Pitch : -18.07, Yaw : 276.03, Alt : 591.599975586, Lat : -35.3631985, Lng : 149.1644881, Q1 : 0.734205067158, Q2 : -0.104329258204, Q3 : -0.117415688932, Q4 : -0.660508811474}
2019-04-03 20:28:35.50: SIM {TimeUS : 129716426, Roll : 0.11, Pitch : -18.07, Yaw : 276.02, Alt : 591.619995117, Lat : -35.3631981, Lng : 149.1644826, Q1 : 0.73416274786, Q2 : -0.104336120188, Q3 : -0.117460377514, Q4 : -0.660546839237}
2019-04-03 20:28:35.60: SIM {TimeUS : 129816386, Roll : 0.13, Pitch : -18.08, Yaw : 276.01, Alt : 591.650024414, Lat : -35.3631976, Lng : 149.1644772, Q1 : 0.734131217003, Q2 : -0.104270860553, Q3 : -0.117558754981, Q4 : -0.660574734211}
2019-04-03 20:28:35.70: SIM {TimeUS : 129916346, Roll : 0.16, Pitch : -18.07, Yaw : 276.0, Alt : 591.679992676, Lat : -35.3631972, Lng : 149.1644719, Q1 : 0.734131038189, Q2 : -0.104013904929, Q3 : -0.117661237717, Q4 : -0.660597205162}
2019-04-03 20:28:35.79: SIM {TimeUS : 130016306, Roll : 0.18, Pitch : -18.06, Yaw : 276.0, Alt : 591.710021973, Lat : -35.3631966, Lng : 149.1644663, Q1 : 0.734117925167, Q2 : -0.103857196867, Q3 : -0.117690846324, Q4 : -0.6606310606}
2019-04-03 20:28:35.89: SIM {TimeUS : 130116266, Roll : 0.16, Pitch : -18.05, Yaw : 275.99, Alt : 591.739990234, Lat : -35.3631962, Lng : 149.164461, Q1 : 0.734073162079, Q2 : -0.103941045702, Q3 : -0.11757261306, Q4 : -0.660688698292}
2019-04-03 20:28:35.99: SIM {TimeUS : 130216226, Roll : 0.13, Pitch : -18.05, Yaw : 275.99, Alt : 591.770019531, Lat : -35.3631957, Lng : 149.1644556, Q1 : 0.734021663666, Q2 : -0.104099586606, Q3 : -0.117386966944, Q4 : -0.660753965378}
2019-04-03 20:28:36.09: SIM {TimeUS : 130316186, Roll : 0.1, Pitch : -18.03, Yaw : 275.98, Alt : 591.789978027, Lat : -35.3631953, Lng : 149.16445, Q1 : 0.733977854252, Q2 : -0.104218900204, Q3 : -0.117068752646, Q4 : -0.660840332508}
2019-04-03 20:28:36.19: SIM {TimeUS : 130416146, Roll : 0.08, Pitch : -17.99, Yaw : 275.98, Alt : 591.820007324, Lat : -35.3631947, Lng : 149.1644447, Q1 : 0.733965277672, Q2 : -0.104159153998, Q3 : -0.1166883111, Q4 : -0.660930991173}
2019-04-03 20:28:36.29: SIM {TimeUS : 130516106, Roll : 0.08, Pitch : -17.96, Yaw : 275.97, Alt : 591.849975586, Lat : -35.3631942, Lng : 149.1644392, Q1 : 0.733973801136, Q2 : -0.103959091008, Q3 : -0.116511881351, Q4 : -0.660984098911}
2019-04-03 20:28:36.39: SIM {TimeUS : 130616066, Roll : 0.09, Pitch : -17.95, Yaw : 275.97, Alt : 591.880004883, Lat : -35.3631938, Lng : 149.1644337, Q1 : 0.733971238136, Q2 : -0.103816136718, Q3 : -0.116508238018, Q4 : -0.661010086536}
2019-04-03 20:28:36.49: SIM {TimeUS : 130716026, Roll : 0.11, Pitch : -17.97, Yaw : 275.96, Alt : 591.909973145, Lat : -35.3631933, Lng : 149.1644284, Q1 : 0.733933389187, Q2 : -0.103848494589, Q3 : -0.116688206792, Q4 : -0.661015272141}
