2019-04-03 19:55:47.80: SIM {TimeUS : 57416191, Roll : 0.0, Pitch : 0.0, Yaw : 353.0, Alt : 584.090026855, Lat : -35.363261, Lng : 149.1652299, Q1 : 0.998134791851, Q2 : 0.0, Q3 : 0.0, Q4 : -0.0610485821962}
2019-04-03 19:55:47.89: SIM {TimeUS : 57516151, Roll : 0.0, Pitch : 0.0, Yaw : 353.0, Alt : 584.090026855, Lat : -35.363261, Lng : 149.1652299, Q1 : 0.998134791851, Q2 : 0.0, Q3 : 0.0, Q4 : -0.0610485821962}
2019-04-03 19:55:47.99: SIM {TimeUS : 57616111, Roll : 0.0, Pitch : 0.0, Yaw : 353.0, Alt : 584.090026855, Lat : -35.363261, Lng : 149.1652299, Q1 : 0.998134791851, Q2 : 0.0, Q3 : 0.0, Q4 : -0.0610485821962}
2019-04-03 19:55:48.09: SIM {TimeUS : 57716071, Roll : 0.0, Pitch : 0.0, Yaw : 353.0, Alt : 584.090026855, Lat : -35.363261, Lng : 149.1652299, Q1 : 0.998134791851, Q2 : 0.0, Q3 : 0.0, Q4 : -0.0610485821962}
2019-04-03 19:55:48.19: SIM {TimeUS : 57816031, Roll : 0.0, Pitch : 0.0, Yaw : 353.0, Alt : 584.090026855, Lat : -35.363261, Lng : 149.1652299, Q1 : 0.998134791851, Q2 : 0.0, Q3 : 0.0, Q4 : -0.0610485821962}
2019-04-03 19:55:48.29: SIM {TimeUS : 57915991, Roll : 0.0, Pitch : 0.0, Yaw : 353.0, Alt : 584.090026855, Lat : -35.363261, Lng : 149.1652299, Q1 : 0.998134791851, Q2 : 0.0, Q3 : 0.0, Q4 : -0.0610485821962}
2019-04-03 19:55:48.39: SIM {TimeUS : 58015951, Roll : 0.0, Pitch : 0.0, Yaw : 353.0, Alt : 584.090026855, Lat : -35.363261, Lng : 149.1652299, Q1 : 0.998134791851, Q2 : 0.0, Q3 : 0.0, Q4 : -0.0610485821962}
2019-04-03 19:55:48.49: SIM {TimeUS : 58115911, Roll : 0.0, Pitch : 0.0, Yaw : 353.0, Alt : 584.090026855, Lat : -35.363261, Lng : 149.1652299, Q1 : 0.998134791851, Q2 : 0.0, Q3 : 0.0, Q4 : -0.0610485821962}
2019-04-03 19:55:48.59: SIM {TimeUS : 58215871, Roll : 0.0, Pitch : 0.0, Yaw : 353.0, Alt : 584.090026855, Lat : -35.363261, Lng : 149.1652299, Q1 : 0.998134791851, Q2 : 0.0, Q3 : 0.0, Q4 : -0.0610485821962}
2019-04-03 19:55:48.69: SIM {TimeUS : 58315831, Roll : 0.0, Pitch : 0.0, Yaw : 353.0, Alt : 584.090026855, Lat : -35.363261, Lng : 149.1652299, Q1 : 0.998134791851, Q2 : 0.0, Q3 : 0.0, Q4 : -0.0610485821962}
2019-04-03 19:55:48.79: SIM {TimeUS : 58415791, Roll : 0.0, Pitch : 0.0, Yaw : 353.0, Alt : 584.090026855, Lat : -35.363261, Lng : 149.1652299, Q1 : 0.998134791851, Q2 : 0.0, Q3 : 0.0, Q4 : -0.0610485821962}
2019-04-03 19:55:48.89: SIM {TimeUS : 58515751, Roll : 0.0, Pitch : 0.0, Yaw : 353.0, Alt : 584.090026855, Lat : -35.363261, Lng : 149.1652299, Q1 : 0.998134791851, Q2 : 0.0, Q3 : 0.0, Q4 : -0.0610485821962}
2019-04-03 19:55:48.99: SIM {TimeUS : 58615711, Roll : 0.0, Pitch : 0.0, Yaw : 353.0, Alt : 584.090026855, Lat : -35.363261, Lng : 149.1652299, Q1 : 0.998134791851, Q2 : 0.0, Q3 : 0.0, Q4 : -0.0610485821962}
2019-04-03 19:55:49.09: SIM {TimeUS : 58715671, Roll : 0.0, Pitch : 0.0, Yaw : 353.0, Alt : 584.090026855, Lat : -35.363261, Lng : 149.1652299, Q1 : 0.998134791851, Q2 : 0.0, Q3 : 0.0, Q4 : -0.0610485821962}
2019-04-03 19:55:49.20: SIM {TimeUS : 58816464, Roll : 0.0, Pitch : 0.0, Yaw : 353.0, Alt : 584.090026855, Lat : -35.363261, Lng : 149.1652299, Q1 : 0.998134791851, Q2 : 0.0, Q3 : 0.0, Q4 : -0.0610485821962}
2019-04-03 19:55:49.30: SIM {TimeUS : 58916424, Roll : 0.0, Pitch : 0.0, Yaw : 353.0, Alt : 584.090026855, Lat : -35.363261, Lng : 149.1652299, Q1 : 0.998134791851, Q2 : 0.0, Q3 : 0.0, Q4 : -0.0610485821962}
2019-04-03 19:55:49.40: SIM {TimeUS : 59016384, Roll : 0.0, Pitch : 0.0, Yaw : 353.0, Alt : 584.090026855, Lat : -35.363261, Lng : 149.1652299, Q1 : 0.998134791851, Q2 : 0.0, Q3 : 0.0, Q4 : -0.0610485821962}
2019-04-03 19:55:49.50: SIM {TimeUS : 59116344, Roll : 0.0, Pitch : 0.0, Yaw : 353.0, Alt : 584.090026855, Lat : -35.363261, Lng : 149.1652299, Q1 : 0.998134791851, Q2 : 0.0, Q3 : 0.0, Q4 : -0.0610485821962}
2019-04-03 19:55:49.60: SIM {TimeUS : 59216304, Roll : 0.0, Pitch : 0.0, Yaw : 353.0, Alt : 584.090026855, Lat : -35.363261, Lng : 149.1652299, Q1 : 0.998134791851, Q2 : 0.0, Q3 : 0.0, Q4 : -0.0610485821962}
2019-04-03 19:55:49.70: SIM {TimeUS : 59316264, Roll : 0.0, Pitch : 0.0, Yaw : 353.0, Alt : 584.090026855, Lat : -35.363261, Lng : 149.1652299, Q1 : 0.998134791851, Q2 : 0.0, Q3 : 0.0, Q4 : -0.0610485821962}
2019-04-03 19:55:49.80: SIM {TimeUS : 59416224, Roll : 0.0, Pitch : 0.0, Yaw : 353.0, Alt : 584.090026855, Lat : -35.363261, Lng : 149.1652299, Q1 : 0.998134791851, Q2 : 0.0, Q3 : 0.0, Q4 : -0.0610485821962}
2019-04-03 19:55:49.89: SIM {TimeUS : 59516184, Roll : 0.0, Pitch : 0.0, Yaw : 353.0, Alt : 584.090026855, Lat : -35.363261, Lng : 149.1652299, Q1 : 0.998134791851, Q2 : 0.0, Q3 : 0.0, Q4 : -0.0610485821962}
2019-04-03 19:55:49.99: SIM {TimeUS : 59616144, Roll : 0.0, Pitch : 0.0, Yaw : 353.0, Alt : 584.090026855, Lat : -35.363261, Lng : 149.1652299, Q1 : 0.998134791851, Q2 : 0.0, Q3 : 0.0, Q4 : -0.0610485821962}
2019-04-03 19:55:50.09: SIM {TimeUS : 59716104, Roll : 0.0, Pitch : 0.0, Yaw : 353.0, Alt : 584.090026855, Lat : -35.363261, Lng : 149.1652299, Q1 : 0.998134791851, Q2 : 0.0, Q3 : 0.0, Q4 : -0.0610485821962}
2019-04-03 19:55:50.19: SIM {TimeUS : 59816064, Roll : 0.0, Pitch : 0.0, Yaw : 353.0, Alt : 584.090026855, Lat : -35.363261, Lng : 149.1652299, Q1 : 0.998134791851, Q2 : 0.0, Q3 : 0.0, Q4 : -0.0610485821962}
2019-04-03 19:55:50.29: SIM {TimeUS : 59916024, Roll : 0.0, Pitch : 0.0, Yaw : 353.0, Alt : 584.090026855, Lat : -35.363261, Lng : 149.1652299, Q1 : 0.998134791851, Q2 : 0.0, Q3 : 0.0, Q4 : -0.0610485821962}
2019-04-03 19:55:50.39: SIM {TimeUS : 60015984, Roll : 0.0, Pitch : 0.0, Yaw : 353.0, Alt : 584.090026855, Lat : -35.363261, Lng : 149.1652299, Q1 : 0.998134791851, Q2 : 0.0, Q3 : 0.0, Q4 : -0.0610485821962}
2019-04-03 19:55:50.49: SIM {TimeUS : 60115944, Roll : 0.0, Pitch : 0.0, Yaw : 353.0, Alt : 584.090026855, Lat : -35.363261, Lng : 149.1652299, Q1 : 0.998134791851, Q2 : 0.0, Q3 : 0.0, Q4 : -0.0610485821962}
2019-04-03 19:55:50.59: SIM {TimeUS : 60215904, Roll : 0.0, Pitch : 0.0, Yaw : 353.0, Alt : 584.090026855, Lat : -35.363261, Lng : 149.1652299, Q1 : 0.998134791851, Q2 : 0.0, Q3 : 0.0, Q4 : -0.0610485821962}
2019-04-03 19:55:50.69: SIM {TimeUS : 60315864, Roll : 0.0, Pitch : 0.0, Yaw : 353.0, Alt : 584.090026855, Lat : -35.363261, Lng : 149.1652299, Q1 : 0.998134791851, Q2 : 0.0, Q3 : 0.0, Q4 : -0.0610485821962}
2019-04-03 19:55:50.79: SIM {TimeUS : 60415824, Roll : 0.0, Pitch : 0.0, Yaw : 353.0, Alt : 584.090026855, Lat : -35.363261, Lng : 149.1652299, Q1 : 0.998134791851, Q2 : 0.0, Q3 : 0.0, Q4 : -0.0610486268997}
2019-04-03 19:55:50.89: SIM {TimeUS : 60515784, Roll : 0.0, Pitch : 0.0, Yaw : 353.0, Alt : 584.090026855, Lat : -35.363261, Lng : 149.1652299, Q1 : 0.998134791851, Q2 : 0.0, Q3 : 0.0, Q4 : -0.0610486753285}
2019-04-03 19:55:50.99: SIM {TimeUS : 60615744, Roll : 0.0, Pitch : 0.0, Yaw : 353.0, Alt : 584.090026855, Lat : -35.363261, Lng : 149.1652299, Q1 : 0.998134791851, Q2 : 0.0, Q3 : 0.0, Q4 : -0.0610486753285}
2019-04-03 19:55:51.09: SIM {TimeUS : 60715704, Roll : 0.0, Pitch : 0.0, Yaw : 353.0, Alt : 584.090026855, Lat : -35.363261, Lng : 149.1652299, Q1 : 0.998134791851, Q2 : 0.0, Q3 : 0.0, Q4 : -0.0610486753285}
2019-04-03 19:55:51.19: SIM {TimeUS : 60815664, Roll : 0.0, Pitch : 0.0, Yaw : 353.0, Alt : 584.090026855, Lat : -35.363261, Lng : 149.1652299, Q1 : 0.998134791851, Q2 : 0.0, Q3 : 0.0, Q4 : -0.0610486753285}
2019-04-03 19:55:51.30: SIM {TimeUS : 60916457, Roll : 0.0, Pitch : 0.0, Yaw : 353.0, Alt : 584.090026855, Lat : -35.363261, Lng : 149.1652299, Q1 : 0.998134791851, Q2 : 0.0, Q3 : 0.0, Q4 : -0.0610486753285}
2019-04-03 19:55:51.40: SIM {TimeUS : 61016417, Roll : 0.0, Pitch : 0.0, Yaw : 353.0, Alt : 584.090026855, Lat : -35.363261, Lng : 149.1652299, Q1 : 0.998134791851, Q2 : 0.0, Q3 : 0.0, Q4 : -0.0610486641526}
2019-04-03 19:55:51.50: SIM {TimeUS : 61116377, Roll : 0.0, Pitch : 0.0, Yaw : 353.0, Alt : 584.090026855, Lat : -35.363261, Lng : 149.1652299, Q1 : 0.998134791851, Q2 : 0.0, Q3 : 0.0, Q4 : -0.0610486753285}
2019-04-03 19:55:51.60: SIM {TimeUS : 61216337, Roll : 0.0, Pitch : 0.0, Yaw : 353.0, Alt : 584.099975586, Lat : -35.363261, Lng : 149.1652299, Q1 : 0.998134791851, Q2 : 0.0, Q3 : 0.0, Q4 : -0.0610486753285}
2019-04-03 19:55:51.70: SIM {TimeUS : 61316297, Roll : 0.0, Pitch : 0.0, Yaw : 353.0, Alt : 584.099975586, Lat : -35.363261, Lng : 149.1652299, Q1 : 0.998134791851, Q2 : 0.0, Q3 : 0.0, Q4 : -0.0610486753285}
2019-04-03 19:55:51.80: SIM {TimeUS : 61416257, Roll : 0.0, Pitch : 0.0, Yaw : 353.0, Alt : 584.109985352, Lat : -35.363261, Lng : 149.1652299, Q1 : 0.998134791851, Q2 : 0.0, Q3 : 0.0, Q4 : -0.0610486641526}
2019-04-03 19:55:51.90: SIM {TimeUS : 61516217, Roll : 0.0, Pitch : 0.0, Yaw : 353.0, Alt : 584.130004883, Lat : -35.363261, Lng : 149.1652299, Q1 : 0.998134791851, Q2 : 0.0, Q3 : 0.0, Q4 : -0.0610486529768}
2019-04-03 19:55:51.99: SIM {TimeUS : 61616177, Roll : 0.0, Pitch : 0.0, Yaw : 353.0, Alt : 584.150024414, Lat : -35.363261, Lng : 149.1652299, Q1 : 0.998134791851, Q2 : 0.0, Q3 : 0.0, Q4 : -0.0610486753285}
2019-04-03 19:55:52.09: SIM {TimeUS : 61716137, Roll : 0.0, Pitch : 0.0, Yaw : 353.0, Alt : 584.179992676, Lat : -35.363261, Lng : 149.1652299, Q1 : 0.998134791851, Q2 : 0.0, Q3 : 0.0, Q4 : -0.0610486641526}
2019-04-03 19:55:52.19: SIM {TimeUS : 61816097, Roll : 0.0, Pitch : 0.0, Yaw : 353.0, Alt : 584.219970703, Lat : -35.363261, Lng : 149.1652299, Q1 : 0.998134791851, Q2 : -3.97562725993e-05, Q3 : -8.46833756896e-07, Q4 : -0.0610486716032}
2019-04-03 19:55:52.29: SIM {TimeUS : 61916057, Roll : -0.04, Pitch : -0.01, Yaw : 352.99, Alt : 584.299987793, Lat : -35.363261, Lng : 149.1652299, Q1 : 0.998134374619, Q2 : -0.000396052200813, Q3 : -7.04662961653e-05, Q4 : -0.0610546693206}
2019-04-03 19:55:52.39: SIM {TimeUS : 62016017, Roll : -0.1, Pitch : -0.04, Yaw : 352.99, Alt : 584.41998291, Lat : -35.363261, Lng : 149.1652299, Q1 : 0.998133003712, Q2 : -0.000943893857766, Q3 : -0.00032394102891, Q4 : -0.0610701590776}
2019-04-03 19:55:52.49: SIM {TimeUS : 62115977, Roll : -0.15, Pitch : -0.07, Yaw : 352.99, Alt : 584.58001709, Lat : -35.363261, Lng : 149.1652299, Q1 : 0.998130857944, Q2 : -0.00141965691, Q3 : -0.000573357916437, Q4 : -0.0610943436623}
2019-04-03 19:55:52.59: SIM {TimeUS : 62215937, Roll : -0.17, Pitch : -0.1, Yaw : 352.99, Alt : 584.729980469, Lat : -35.363261, Lng : 149.1652299, Q1 : 0.99812912941, Q2 : -0.00159905909095, Q3 : -0.000784069707152, Q4 : -0.0611158646643}
2019-04-03 19:55:52.69: SIM {TimeUS : 62315897, Roll : -0.16, Pitch : -0.09, Yaw : 352.99, Alt : 584.890014648, Lat : -35.363261, Lng : 149.1652299, Q1 : 0.998128056526, Q2 : -0.00148572691251, Q3 : -0.000744584482163, Q4 : -0.0611364543438}
2019-04-03 19:55:52.79: SIM {TimeUS : 62415857, Roll : -0.11, Pitch : -0.06, Yaw : 352.98, Alt : 585.039978027, Lat : -35.363261, Lng : 149.1652299, Q1 : 0.998127400875, Q2 : -0.00105254282244, Q3 : -0.000524842413142, Q4 : -0.0611588545144}
2019-04-03 19:55:52.89: SIM {TimeUS : 62515817, Roll : -0.05, Pitch : -0.03, Yaw : 352.98, Alt : 585.190002441, Lat : -35.363261, Lng : 149.1652299, Q1 : 0.998126745224, Q2 : -0.000485041557113, Q3 : -0.000272088334896, Q4 : -0.0611777417362}
2019-04-03 19:55:52.99: SIM {TimeUS : 62615777, Roll : -0.01, Pitch : -0.01, Yaw : 352.98, Alt : 585.349975586, Lat : -35.363261, Lng : 149.1652299, Q1 : 0.998126029968, Q2 : -0.000102008641989, Q3 : -0.000142382181366, Q4 : -0.0611923970282}
2019-04-03 19:55:53.09: SIM {TimeUS : 62715737, Roll : 0.0, Pitch : -0.02, Yaw : 352.98, Alt : 585.520019531, Lat : -35.363261, Lng : 149.1652299, Q1 : 0.998125255108, Q2 : -2.68609182967e-05, Q3 : -0.000220673682634, Q4 : -0.061204534024}
2019-04-03 19:55:53.19: SIM {TimeUS : 62815697, Roll : 0.0, Pitch : -0.04, Yaw : 352.98, Alt : 585.700012207, Lat : -35.363261, Lng : 149.1652298, Q1 : 0.998124778271, Q2 : -9.34251147555e-05, Q3 : -0.000366115244105, Q4 : -0.0612117312849}
2019-04-03 19:55:53.30: SIM {TimeUS : 62916490, Roll : 0.0, Pitch : -0.05, Yaw : 352.98, Alt : 585.880004883, Lat : -35.363261, Lng : 149.1652298, Q1 : 0.998124778271, Q2 : -2.57732826867e-05, Q3 : -0.00049888092326, Q4 : -0.0612104609609}
2019-04-03 19:55:53.40: SIM {TimeUS : 63016450, Roll : 0.01, Pitch : -0.05, Yaw : 352.98, Alt : 586.059997559, Lat : -35.363261, Lng : 149.1652298, Q1 : 0.998124480247, Q2 : 9.28308363655e-05, Q3 : -0.000443955592345, Q4 : -0.0612153783441}
2019-04-03 19:55:53.50: SIM {TimeUS : 63116410, Roll : 0.03, Pitch : -0.01, Yaw : 352.97, Alt : 586.25, Lat : -35.363261, Lng : 149.1652298, Q1 : 0.998123526573, Q2 : 0.000273083132925, Q3 : -0.000122504454339, Q4 : -0.061231739819}
2019-04-03 19:55:53.60: SIM {TimeUS : 63216370, Roll : 0.02, Pitch : 0.02, Yaw : 352.97, Alt : 586.440002441, Lat : -35.363261, Lng : 149.1652298, Q1 : 0.998123466969, Q2 : 0.000220335015911, Q3 : 0.000230801480939, Q4 : -0.0612323321402}
2019-04-03 19:55:53.70: SIM {TimeUS : 63316330, Roll : 0.01, Pitch : 0.06, Yaw : 352.97, Alt : 586.630004883, Lat : -35.363261, Lng : 149.1652298, Q1 : 0.998123586178, Q2 : 0.000133377194288, Q3 : 0.000556818267796, Q4 : -0.0612285025418}
2019-04-03 19:55:53.80: SIM {TimeUS : 63416290, Roll : 0.01, Pitch : 0.11, Yaw : 352.98, Alt : 586.83001709, Lat : -35.363261, Lng : 149.1652298, Q1 : 0.998123705387, Q2 : 0.000201471164473, Q3 : 0.000955938361585, Q4 : -0.0612212382257}
2019-04-03 19:55:53.90: SIM {TimeUS : 63516250, Roll : 0.02, Pitch : 0.13, Yaw : 352.98, Alt : 587.020019531, Lat : -35.363261, Lng : 149.1652298, Q1 : 0.998123943806, Q2 : 0.000291587377433, Q3 : 0.00115064717829, Q4 : -0.06121417135}
2019-04-03 19:55:54.00: SIM {TimeUS : 63616210, Roll : 0.04, Pitch : 0.13, Yaw : 352.98, Alt : 587.200012207, Lat : -35.363261, Lng : 149.1652298, Q1 : 0.99812412262, Q2 : 0.00047856773017, Q3 : 0.00115925294813, Q4 : -0.0612104348838}
2019-04-03 19:55:54.09: SIM {TimeUS : 63716170, Roll : 0.05, Pitch : 0.11, Yaw : 352.98, Alt : 587.369995117, Lat : -35.363261, Lng : 149.1652298, Q1 : 0.998124361038, Q2 : 0.000515385298058, Q3 : 0.000961957324762, Q4 : -0.0612092614174}
2019-04-03 19:55:54.19: SIM {TimeUS : 63816130, Roll : 0.0, Pitch : 0.06, Yaw : 352.98, Alt : 587.539978027, Lat : -35.363261, Lng : 149.1652298, Q1 : 0.998124539852, Q2 : -7.59267720696e-07, Q3 : 0.000592570577282, Q4 : -0.0612136423588}
2019-04-03 19:55:54.29: SIM {TimeUS : 63916090, Roll : -0.31, Pitch : 0.03, Yaw : 352.98, Alt : 587.690002441, Lat : -35.363261, Lng : 149.1652298, Q1 : 0.99812066555, Q2 : -0.00268760765903, Q3 : 0.000467941747047, Q4 : -0.061218559742}
2019-04-03 19:55:54.39: SIM {TimeUS : 64016050, Roll : -0.96, Pitch : 0.01, Yaw : 352.97, Alt : 587.83001709, Lat : -35.363261, Lng : 149.1652298, Q1 : 0.998088657856, Q2 : -0.00839163921773, Q3 : 0.000627784756944, Q4 : -0.0612228997052}
2019-04-03 19:55:54.49: SIM {TimeUS : 64116010, Roll : -1.89, Pitch : 0.0, Yaw : 352.97, Alt : 587.960021973, Lat : -35.363261, Lng : 149.1652298, Q1 : 0.997987031937, Q2 : -0.0165085345507, Q3 : 0.000926228472963, Q4 : -0.0612251870334}
2019-04-03 19:55:54.59: SIM {TimeUS : 64215970, Roll : -2.98, Pitch : 0.0, Yaw : 352.97, Alt : 588.070007324, Lat : -35.363261, Lng : 149.1652297, Q1 : 0.997784793377, Q2 : -0.0259689092636, Q3 : 0.00150778261013, Q4 : -0.0612279772758}
2019-04-03 19:55:54.69: SIM {TimeUS : 64315930, Roll : -4.1, Pitch : -0.02, Yaw : 352.97, Alt : 588.16998291, Lat : -35.363261, Lng : 149.1652296, Q1 : 0.997482120991, Q2 : -0.035721514374, Q3 : 0.00198976020329, Q4 : -0.0612333603203}
2019-04-03 19:55:54.79: SIM {TimeUS : 64415890, Roll : -5.11, Pitch : -0.05, Yaw : 352.97, Alt : 588.260009766, Lat : -35.363261, Lng : 149.1652294, Q1 : 0.997125327587, Q2 : -0.0445786267519, Q3 : 0.00222865096293, Q4 : -0.0612289980054}
2019-04-03 19:55:54.89: SIM {TimeUS : 64515850, Roll : -5.9, Pitch : -0.08, Yaw : 352.97, Alt : 588.340026855, Lat : -35.363261, Lng : 149.1652292, Q1 : 0.996791899204, Q2 : -0.0514838472009, Q3 : 0.00242546875961, Q4 : -0.0612329244614}
2019-04-03 19:55:54.99: SIM {TimeUS : 64615810, Roll : -6.47, Pitch : -0.08, Yaw : 352.97, Alt : 588.409973145, Lat : -35.363261, Lng : 149.1652289, Q1 : 0.996521234512, Q2 : -0.0564485266805, Q3 : 0.00271203764714, Q4 : -0.0612508133054}
2019-04-03 19:55:55.09: SIM {TimeUS : 64715770, Roll : -6.9, Pitch : -0.07, Yaw : 352.96, Alt : 588.469970703, Lat : -35.363261, Lng : 149.1652284, Q1 : 0.996303260326, Q2 : -0.0601389221847, Q3 : 0.00301515404135, Q4 : -0.061270352453}
2019-04-03 19:55:55.19: SIM {TimeUS : 64815730, Roll : -7.27, Pitch : -0.08, Yaw : 352.96, Alt : 588.530029297, Lat : -35.363261, Lng : 149.1652279, Q1 : 0.996099829674, Q2 : -0.063401915133, Q3 : 0.00319810840301, Q4 : -0.0612794235349}
2019-04-03 19:55:55.29: SIM {TimeUS : 64915690, Roll : -7.65, Pitch : -0.1, Yaw : 352.96, Alt : 588.58001709, Lat : -35.363261, Lng : 149.1652273, Q1 : 0.995883584023, Q2 : -0.0667142271996, Q3 : 0.00322150951251, Q4 : -0.0612759180367}
2019-04-03 19:55:55.40: SIM {TimeUS : 65016483, Roll : -8.02, Pitch : -0.1, Yaw : 352.96, Alt : 588.619995117, Lat : -35.363261, Lng : 149.1652265, Q1 : 0.995664000511, Q2 : -0.0699007809162, Q3 : 0.00334297004156, Q4 : -0.0612853392959}
2019-04-03 19:55:55.50: SIM {TimeUS : 65116443, Roll : -8.3, Pitch : -0.09, Yaw : 352.95, Alt : 588.659973145, Lat : -35.3632611, Lng : 149.1652258, Q1 : 0.995491027832, Q2 : -0.0722880512476, Q3 : 0.00362129835412, Q4 : -0.0613097138703}
2019-04-03 19:55:55.60: SIM {TimeUS : 65216403, Roll : -8.47, Pitch : -0.09, Yaw : 352.95, Alt : 588.700012207, Lat : -35.3632613, Lng : 149.1652248, Q1 : 0.995381295681, Q2 : -0.0737646371126, Q3 : 0.00374748930335, Q4 : -0.0613259933889}
2019-04-03 19:55:55.70: SIM {TimeUS : 65316363, Roll : -8.58, Pitch : -0.09, Yaw : 352.95, Alt : 588.739990234, Lat : -35.3632614, Lng : 149.1652238, Q1 : 0.995306372643, Q2 : -0.0747571960092, Q3 : 0.00379448034801, Q4 : -0.061337120831}
2019-04-03 19:55:55.80: SIM {TimeUS : 65416323, Roll : -8.69, Pitch : -0.1, Yaw : 352.95, Alt : 588.770019531, Lat : -35.3632615, Lng : 149.1652226, Q1 : 0.995236098766, Q2 : -0.0756853744388, Q3 : 0.0037634356413, Q4 : -0.0613412968814}
2019-04-03 19:55:55.90: SIM {TimeUS : 65516283, Roll : -8.83, Pitch : -0.11, Yaw : 352.95, Alt : 588.799987793, Lat : -35.3632616, Lng : 149.1652215, Q1 : 0.995141923428, Q2 : -0.0769034028053, Q3 : 0.00376439536922, Q4 : -0.0613541342318}
2019-04-03 19:55:56.00: SIM {TimeUS : 65616243, Roll : -9.01, Pitch : -0.05, Yaw : 352.92, Alt : 588.83001709, Lat : -35.3632616, Lng : 149.1652202, Q1 : 0.995004475117, Q2 : -0.078474342823, Q3 : 0.00437428569421, Q4 : -0.0615534670651}
2019-04-03 19:55:56.10: SIM {TimeUS : 65716203, Roll : -9.27, Pitch : 0.25, Yaw : 352.55, Alt : 588.859985352, Lat : -35.3632617, Lng : 149.1652188, Q1 : 0.99463391304, Q2 : -0.0805134475231, Q3 : 0.00742683140561, Q4 : -0.0645434707403}
2019-04-03 19:55:56.19: SIM {TimeUS : 65816163, Roll : -9.64, Pitch : 0.72, Yaw : 351.17, Alt : 588.890014648, Lat : -35.363262, Lng : 149.1652174, Q1 : 0.993524730206, Q2 : -0.0833352059126, Q3 : 0.0127982143313, Q4 : -0.076157964766}
2019-04-03 19:55:56.29: SIM {TimeUS : 65916123, Roll : -10.1, Pitch : 0.96, Yaw : 348.23, Alt : 588.91998291, Lat : -35.3632621, Lng : 149.1652159, Q1 : 0.990912497044, Q2 : -0.0867196321487, Q3 : 0.0173507686704, Q4 : -0.101346336305}
2019-04-03 19:55:56.39: SIM {TimeUS : 66016083, Roll : -10.55, Pitch : 0.61, Yaw : 343.7, Alt : 588.950012207, Lat : -35.3632622, Lng : 149.1652143, Q1 : 0.985758244991, Q2 : -0.0903293341398, Q3 : 0.0183462481946, Q4 : -0.140658557415}
2019-04-03 19:55:56.49: SIM {TimeUS : 66116043, Roll : -10.87, Pitch : -0.43, Yaw : 337.79, Alt : 588.979980469, Lat : -35.3632626, Lng : 149.1652126, Q1 : 0.976788818836, Q2 : -0.0937477126718, Q3 : 0.0145467128605, Q4 : -0.192050665617}
2019-04-03 19:55:56.59: SIM {TimeUS : 66216003, Roll : -10.92, Pitch : -2.13, Yaw : 330.8, Alt : 589.010009766, Lat : -35.3632628, Lng : 149.1652107, Q1 : 0.962713479996, Q2 : -0.0967353507876, Q3 : 0.00605194596574, Q4 : -0.252563565969}
2019-04-03 19:55:56.69: SIM {TimeUS : 66315963, Roll : -10.55, Pitch : -4.28, Yaw : 322.99, Alt : 589.039978027, Lat : -35.3632632, Lng : 149.1652088, Q1 : 0.942557096481, Q2 : -0.0989394709468, Q3 : -0.00612182263285, Q4 : -0.318997830153}
2019-04-03 19:55:56.79: SIM {TimeUS : 66415923, Roll : -9.71, Pitch : -6.63, Yaw : 314.62, Alt : 589.08001709, Lat : -35.3632634, Lng : 149.1652068, Q1 : 0.915885090828, Q2 : -0.100206725299, Q3 : -0.0206193719059, Q4 : -0.388185471296}
2019-04-03 19:55:56.89: SIM {TimeUS : 66515883, Roll : -8.43, Pitch : -8.9, Yaw : 305.91, Alt : 589.119995117, Lat : -35.3632639, Lng : 149.1652048, Q1 : 0.882974863052, Q2 : -0.100510254502, Q3 : -0.0356111973524, Q4 : -0.457148700953}
2019-04-03 19:55:56.99: SIM {TimeUS : 66615843, Roll : -6.78, Pitch : -10.87, Yaw : 297.12, Alt : 589.159973145, Lat : -35.3632641, Lng : 149.1652025, Q1 : 0.844949781895, Q2 : -0.0996270254254, Q3 : -0.0499646067619, Q4 : -0.523104071617}
2019-04-03 19:55:57.09: SIM {TimeUS : 66715803, Roll : -4.87, Pitch : -12.39, Yaw : 288.54, Alt : 589.200012207, Lat : -35.3632646, Lng : 149.1652004, Q1 : 0.80364793539, Q2 : -0.0972927436233, Q3 : -0.0628681629896, Q4 : -0.583722293377}
2019-04-03 19:55:57.19: SIM {TimeUS : 66815763, Roll : -2.88, Pitch : -13.39, Yaw : 280.43, Alt : 589.239990234, Lat : -35.3632649, Lng : 149.165198, Q1 : 0.761105597019, Q2 : -0.0938008949161, Q3 : -0.0735818594694, Q4 : -0.637577772141}
2019-04-03 19:55:57.29: SIM {TimeUS : 66915723, Roll : -0.99, Pitch : -13.93, Yaw : 272.97, Alt : 589.280029297, Lat : -35.3632653, Lng : 149.1651953, Q1 : 0.719084978104, Q2 : -0.0897837951779, Q3 : -0.0820278003812, Q4 : -0.684198200703}
2019-04-03 19:55:57.39: SIM {TimeUS : 67015683, Roll : 0.71, Pitch : -14.15, Yaw : 266.23, Alt : 589.33001709, Lat : -35.3632656, Lng : 149.1651928, Q1 : 0.678842425346, Q2 : -0.0856688842177, Q3 : -0.0887314751744, Q4 : -0.723851203918}
2019-04-03 19:55:57.50: SIM {TimeUS : 67116476, Roll : 2.49, Pitch : -14.16, Yaw : 260.33, Alt : 589.380004883, Lat : -35.3632659, Lng : 149.1651901, Q1 : 0.642030954361, Q2 : -0.0802396908402, Q3 : -0.0959846526384, Q4 : -0.756402552128}
2019-04-03 19:55:57.60: SIM {TimeUS : 67216436, Roll : 4.2, Pitch : -13.99, Yaw : 255.79, Alt : 589.41998291, Lat : -35.3632661, Lng : 149.1651872, Q1 : 0.612762391567, Q2 : -0.0737580657005, Q3 : -0.10351113975, Q4 : -0.779979169369}
2019-04-03 19:55:57.70: SIM {TimeUS : 67316396, Roll : 5.54, Pitch : -13.77, Yaw : 252.82, Alt : 589.469970703, Lat : -35.3632664, Lng : 149.1651843, Q1 : 0.593277275562, Q2 : -0.0679211243987, Q3 : -0.109724871814, Q4 : -0.794587552547}
2019-04-03 19:55:57.80: SIM {TimeUS : 67416356, Roll : 6.26, Pitch : -13.61, Yaw : 251.44, Alt : 589.530029297, Lat : -35.3632665, Lng : 149.1651812, Q1 : 0.58413028717, Q2 : -0.0644319504499, Q3 : -0.113190978765, Q4 : -0.801141798496}
2019-04-03 19:55:57.90: SIM {TimeUS : 67516316, Roll : 6.26, Pitch : -13.59, Yaw : 251.46, Alt : 589.58001709, Lat : -35.3632668, Lng : 149.1651781, Q1 : 0.584290325642, Q2 : -0.0642796978354, Q3 : -0.113040223718, Q4 : -0.801058590412}
2019-04-03 19:55:58.00: SIM {TimeUS : 67616276, Roll : 5.53, Pitch : -13.75, Yaw : 252.6, Alt : 589.630004883, Lat : -35.3632669, Lng : 149.1651748, Q1 : 0.591793119907, Q2 : -0.0679709762335, Q3 : -0.10946123302, Q4 : -0.795725524426}
2019-04-03 19:55:58.10: SIM {TimeUS : 67716236, Roll : 4.25, Pitch : -14.07, Yaw : 254.56, Alt : 589.690002441, Lat : -35.363267, Lng : 149.1651714, Q1 : 0.604365468025, Q2 : -0.0751463547349, Q3 : -0.103468067944, Q4 : -0.786377608776}
2019-04-03 19:55:58.20: SIM {TimeUS : 67816196, Roll : 2.63, Pitch : -14.5, Yaw : 257.02, Alt : 589.75, Lat : -35.3632671, Lng : 149.1651681, Q1 : 0.619800329208, Q2 : -0.0845715478063, Q3 : -0.0964495763183, Q4 : -0.774204611778}
2019-04-03 19:55:58.29: SIM {TimeUS : 67916156, Roll : 0.94, Pitch : -14.92, Yaw : 259.68, Alt : 589.799987793, Lat : -35.3632671, Lng : 149.1651646, Q1 : 0.636073231697, Q2 : -0.0944832116365, Q3 : -0.0894762575626, Q4 : -0.760577261448}
2019-04-03 19:55:58.39: SIM {TimeUS : 68016116, Roll : -0.59, Pitch : -15.24, Yaw : 262.24, Alt : 589.859985352, Lat : -35.3632672, Lng : 149.1651611, Q1 : 0.651313126087, Q2 : -0.103306375444, Q3 : -0.0833398848772, Q4 : -0.747110068798}
2019-04-03 19:55:58.49: SIM {TimeUS : 68116076, Roll : -1.81, Pitch : -15.42, Yaw : 264.4, Alt : 589.91998291, Lat : -35.3632674, Lng : 149.1651575, Q1 : 0.664026081562, Q2 : -0.109940901399, Q3 : -0.0785589814186, Q4 : -0.735398471355}
2019-04-03 19:55:58.59: SIM {TimeUS : 68216036, Roll : -2.61, Pitch : -15.49, Yaw : 265.98, Alt : 589.979980469, Lat : -35.3632676, Lng : 149.1651537, Q1 : 0.673275530338, Q2 : -0.113988362253, Q3 : -0.0753606036305, Q4 : -0.726655066013}
2019-04-03 19:55:58.69: SIM {TimeUS : 68315996, Roll : -2.99, Pitch : -15.47, Yaw : 266.9, Alt : 590.039978027, Lat : -35.3632678, Lng : 149.1651501, Q1 : 0.678684651852, Q2 : -0.115519203246, Q3 : -0.0738043263555, Q4 : -0.721522986889}
2019-04-03 19:55:58.79: SIM {TimeUS : 68415956, Roll : -2.96, Pitch : -15.44, Yaw : 267.15, Alt : 590.099975586, Lat : -35.3632682, Lng : 149.1651463, Q1 : 0.680338740349, Q2 : -0.114977955818, Q3 : -0.0740020126104, Q4 : -0.720029890537}
2019-04-03 19:55:58.89: SIM {TimeUS : 68515916, Roll : -2.62, Pitch : -15.42, Yaw : 266.83, Alt : 590.159973145, Lat : -35.3632684, Lng : 149.1651423, Q1 : 0.678682148457, Q2 : -0.113050408661, Q3 : -0.0757709667087, Q4 : -0.721712470055}
2019-04-03 19:55:58.99: SIM {TimeUS : 68615876, Roll : -2.04, Pitch : -15.46, Yaw : 266.07, Alt : 590.219970703, Lat : -35.3632689, Lng : 149.1651384, Q1 : 0.674430847168, Q2 : -0.11037709564, Q3 : -0.078910395503, Q4 : -0.725763857365}
2019-04-03 19:55:59.09: SIM {TimeUS : 68715836, Roll : -1.34, Pitch : -15.55, Yaw : 265.04, Alt : 590.280029297, Lat : -35.3632693, Lng : 149.1651345, Q1 : 0.668450534344, Q2 : -0.107556417584, Q3 : -0.0829013437033, Q4 : -0.731254339218}
2019-04-03 19:55:59.19: SIM {TimeUS : 68815796, Roll : -0.6, Pitch : -15.66, Yaw : 263.89, Alt : 590.340026855, Lat : -35.3632696, Lng : 149.1651305, Q1 : 0.661689758301, Q2 : -0.104888439178, Q3 : -0.0872155204415, Q4 : -0.737264275551}
2019-04-03 19:55:59.29: SIM {TimeUS : 68915756, Roll : 0.05, Pitch : -15.77, Yaw : 262.78, Alt : 590.400024414, Lat : -35.3632701, Lng : 149.1651264, Q1 : 0.655031681061, Q2 : -0.102600008249, Q3 : -0.0910819023848, Q4 : -0.74304163456}
2019-04-03 19:55:59.39: SIM {TimeUS : 69015716, Roll : 0.58, Pitch : -15.85, Yaw : 261.83, Alt : 590.460021973, Lat : -35.3632705, Lng : 149.1651224, Q1 : 0.649209499359, Q2 : -0.100924238563, Q3 : -0.0941670164466, Q4 : -0.747979879379}
2019-04-03 19:55:59.49: SIM {TimeUS : 69115676, Roll : 0.93, Pitch : -15.9, Yaw : 261.1, Alt : 590.520019531, Lat : -35.3632708, Lng : 149.1651182, Q1 : 0.644759893417, Q2 : -0.0998264178634, Q3 : -0.0960937589407, Q4 : -0.75172162056}
2019-04-03 19:55:59.60: SIM {TimeUS : 69216469, Roll : 1.11, Pitch : -15.93, Yaw : 260.65, Alt : 590.58001709, Lat : -35.3632713, Lng : 149.165114, Q1 : 0.641927480698, Q2 : -0.0994171872735, Q3 : -0.0970695391297, Q4 : -0.754070818424}
2019-04-03 19:55:59.70: SIM {TimeUS : 69316429, Roll : 1.13, Pitch : -15.95, Yaw : 260.48, Alt : 590.640014648, Lat : -35.3632718, Lng : 149.1651096, Q1 : 0.640792012215, Q2 : -0.0996167734265, Q3 : -0.0971164032817, Q4 : -0.75500369072}
2019-04-03 19:55:59.80: SIM {TimeUS : 69416389, Roll : 1.0, Pitch : -15.99, Yaw : 260.55, Alt : 590.700012207, Lat : -35.3632722, Lng : 149.1651054, Q1 : 0.641118347645, Q2 : -0.100551240146, Q3 : -0.0965458452702, Q4 : -0.754675865173}
2019-04-03 19:55:59.90: SIM {TimeUS : 69516349, Roll : 0.77, Pitch : -16.04, Yaw : 260.81, Alt : 590.760009766, Lat : -35.3632726, Lng : 149.165101, Q1 : 0.642604589462, Q2 : -0.101916991174, Q3 : -0.0955855622888, Q4 : -0.753349661827}
2019-04-03 19:56:00.00: SIM {TimeUS : 69616309, Roll : 0.5, Pitch : -16.09, Yaw : 261.2, Alt : 590.820007324, Lat : -35.363273, Lng : 149.1650967, Q1 : 0.644865870476, Q2 : -0.103467158973, Q3 : -0.0944289118052, Q4 : -0.751349270344}
2019-04-03 19:56:00.10: SIM {TimeUS : 69716269, Roll : 0.23, Pitch : -16.13, Yaw : 261.65, Alt : 590.880004883, Lat : -35.3632734, Lng : 149.1650924, Q1 : 0.647516429424, Q2 : -0.104879073799, Q3 : -0.0933280363679, Q4 : -0.749007821083}
2019-04-03 19:56:00.20: SIM {TimeUS : 69816229, Roll : 0.0, Pitch : -16.17, Yaw : 262.09, Alt : 590.940002441, Lat : -35.3632738, Lng : 149.165088, Q1 : 0.650172114372, Q2 : -0.106097735465, Q3 : -0.0923715233803, Q4 : -0.746650576591}
2019-04-03 19:56:00.29: SIM {TimeUS : 69916189, Roll : -0.2, Pitch : -16.19, Yaw : 262.49, Alt : 591.0, Lat : -35.3632743, Lng : 149.1650834, Q1 : 0.652524888515, Q2 : -0.107054673135, Q3 : -0.0915122330189, Q4 : -0.744564414024}
2019-04-03 19:56:00.39: SIM {TimeUS : 70016149, Roll : -0.35, Pitch : -16.19, Yaw : 262.79, Alt : 591.059997559, Lat : -35.3632748, Lng : 149.165079, Q1 : 0.654362618923, Q2 : -0.107707314193, Q3 : -0.0908217951655, Q4 : -0.742940187454}
2019-04-03 19:56:00.49: SIM {TimeUS : 70116109, Roll : -0.44, Pitch : -16.2, Yaw : 262.99, Alt : 591.119995117, Lat : -35.3632751, Lng : 149.1650745, Q1 : 0.655573904514, Q2 : -0.108109667897, Q3 : -0.0904618427157, Q4 : -0.741857051849}
2019-04-03 19:56:00.59: SIM {TimeUS : 70216069, Roll : -0.47, Pitch : -16.22, Yaw : 263.09, Alt : 591.190002441, Lat : -35.3632756, Lng : 149.1650699, Q1 : 0.656148135662, Q2 : -0.108281970024, Q3 : -0.0905225798488, Q4 : -0.74131667614}
2019-04-03 19:56:00.69: SIM {TimeUS : 70316029, Roll : -0.43, Pitch : -16.23, Yaw : 263.08, Alt : 591.25, Lat : -35.3632762, Lng : 149.1650654, Q1 : 0.656154990196, Q2 : -0.108172401786, Q3 : -0.0908300876617, Q4 : -0.74128895998}
2019-04-03 19:56:00.79: SIM {TimeUS : 70415989, Roll : -0.36, Pitch : -16.25, Yaw : 263.0, Alt : 591.309997559, Lat : -35.3632766, Lng : 149.1650608, Q1 : 0.655681371689, Q2 : -0.107960306108, Q3 : -0.0913745835423, Q4 : -0.741671919823}
2019-04-03 19:56:00.89: SIM {TimeUS : 70515949, Roll : -0.26, Pitch : -16.29, Yaw : 262.87, Alt : 591.369995117, Lat : -35.3632771, Lng : 149.165056, Q1 : 0.654864788055, Q2 : -0.107769094408, Q3 : -0.0920561105013, Q4 : -0.742336630821}
2019-04-03 19:56:00.99: SIM {TimeUS : 70615909, Roll : -0.15, Pitch : -16.34, Yaw : 262.71, Alt : 591.429992676, Lat : -35.3632775, Lng : 149.1650515, Q1 : 0.653870761395, Q2 : -0.107609793544, Q3 : -0.092914506793, Q4 : -0.743128597736}
2019-04-03 19:56:01.09: SIM {TimeUS : 70715869, Roll : -0.03, Pitch : -16.39, Yaw : 262.54, Alt : 591.489990234, Lat : -35.363278, Lng : 149.1650468, Q1 : 0.652880847454, Q2 : -0.107326425612, Q3 : -0.0938477367163, Q4 : -0.743922233582}
2019-04-03 19:56:01.19: SIM {TimeUS : 70815829, Roll : 0.09, Pitch : -16.43, Yaw : 262.39, Alt : 591.559997559, Lat : -35.3632786, Lng : 149.1650421, Q1 : 0.652010083199, Q2 : -0.10703343153, Q3 : -0.0947771966457, Q4 : -0.744609951973}
2019-04-03 19:56:01.29: SIM {TimeUS : 70915789, Roll : 0.19, Pitch : -16.46, Yaw : 262.28, Alt : 591.619995117, Lat : -35.3632791, Lng : 149.1650374, Q1 : 0.651353240013, Q2 : -0.106740035117, Q3 : -0.0955042466521, Q4 : -0.745133876801}
2019-04-03 19:56:01.39: SIM {TimeUS : 71015749, Roll : 0.23, Pitch : -16.48, Yaw : 262.21, Alt : 591.679992676, Lat : -35.3632796, Lng : 149.1650326, Q1 : 0.650930583477, Q2 : -0.106669068336, Q3 : -0.0958074182272, Q4 : -0.745474398136}
2019-04-03 19:56:01.49: SIM {TimeUS : 71115709, Roll : 0.21, Pitch : -16.49, Yaw : 262.19, Alt : 591.739990234, Lat : -35.3632801, Lng : 149.1650278, Q1 : 0.650741398335, Q2 : -0.106870241463, Q3 : -0.0956793054938, Q4 : -0.745627164841}
2019-04-03 19:56:01.59: SIM {TimeUS : 71215669, Roll : 0.16, Pitch : -16.5, Yaw : 262.2, Alt : 591.799987793, Lat : -35.3632807, Lng : 149.165023, Q1 : 0.650778412819, Q2 : -0.107213757932, Q3 : -0.0954039767385, Q4 : -0.745580852032}
2019-04-03 19:56:01.70: SIM {TimeUS : 71316462, Roll : 0.11, Pitch : -16.52, Yaw : 262.25, Alt : 591.869995117, Lat : -35.3632811, Lng : 149.1650182, Q1 : 0.651025474072, Q2 : -0.107604168355, Q3 : -0.0952816307545, Q4 : -0.745324552059}
2019-04-03 19:56:01.80: SIM {TimeUS : 71416422, Roll : 0.07, Pitch : -16.57, Yaw : 262.32, Alt : 591.929992676, Lat : -35.3632817, Lng : 149.1650134, Q1 : 0.651413798332, Q2 : -0.108121439815, Q3 : -0.0953872948885, Q4 : -0.744896709919}
2019-04-03 19:56:01.90: SIM {TimeUS : 71516382, Roll : 0.02, Pitch : -16.64, Yaw : 262.41, Alt : 591.989990234, Lat : -35.3632822, Lng : 149.1650086, Q1 : 0.651872813702, Q2 : -0.108730517328, Q3 : -0.095515280962, Q4 : -0.744389891624}
2019-04-03 19:56:02.00: SIM {TimeUS : 71616342, Roll : -0.02, Pitch : -16.68, Yaw : 262.5, Alt : 592.049987793, Lat : -35.3632827, Lng : 149.1650038, Q1 : 0.652358412743, Q2 : -0.109252355993, Q3 : -0.0954876691103, Q4 : -0.743891477585}
2019-04-03 19:56:02.10: SIM {TimeUS : 71716302, Roll : -0.06, Pitch : -16.68, Yaw : 262.58, Alt : 592.109985352, Lat : -35.3632832, Lng : 149.164999, Q1 : 0.652852714062, Q2 : -0.109417378902, Q3 : -0.0952956601977, Q4 : -0.743458151817}
2019-04-03 19:56:02.20: SIM {TimeUS : 71816262, Roll : -0.08, Pitch : -16.68, Yaw : 262.65, Alt : 592.16998291, Lat : -35.3632836, Lng : 149.1649941, Q1 : 0.653300642967, Q2 : -0.109380230308, Q3 : -0.095265455544, Q4 : -0.743073880672}
2019-04-03 19:56:02.30: SIM {TimeUS : 71916222, Roll : -0.08, Pitch : -16.67, Yaw : 262.7, Alt : 592.239990234, Lat : -35.3632841, Lng : 149.1649891, Q1 : 0.653649330139, Q2 : -0.109303027391, Q3 : -0.0952631309628, Q4 : -0.742778837681}
2019-04-03 19:56:02.39: SIM {TimeUS : 72016182, Roll : -0.08, Pitch : -16.65, Yaw : 262.74, Alt : 592.299987793, Lat : -35.3632847, Lng : 149.1649842, Q1 : 0.653895974159, Q2 : -0.10916351527, Q3 : -0.0951730310917, Q4 : -0.742593765259}
2019-04-03 19:56:02.49: SIM {TimeUS : 72116142, Roll : -0.07, Pitch : -16.64, Yaw : 262.76, Alt : 592.359985352, Lat : -35.3632853, Lng : 149.1649794, Q1 : 0.654050529003, Q2 : -0.109049096704, Q3 : -0.0952305868268, Q4 : -0.742467105389}
2019-04-03 19:56:02.59: SIM {TimeUS : 72216102, Roll : -0.05, Pitch : -16.67, Yaw : 262.77, Alt : 592.41998291, Lat : -35.3632858, Lng : 149.1649745, Q1 : 0.654092907906, Q2 : -0.109100781381, Q3 : -0.0954607054591, Q4 : -0.742392599583}
2019-04-03 19:56:02.69: SIM {TimeUS : 72316062, Roll : -0.04, Pitch : -16.71, Yaw : 262.76, Alt : 592.479980469, Lat : -35.3632863, Lng : 149.1649694, Q1 : 0.654047906399, Q2 : -0.109293140471, Q3 : -0.0958410054445, Q4 : -0.742354989052}
2019-04-03 19:56:02.79: SIM {TimeUS : 72416022, Roll : -0.01, Pitch : -16.76, Yaw : 262.76, Alt : 592.539978027, Lat : -35.3632869, Lng : 149.1649646, Q1 : 0.653977453709, Q2 : -0.109465412796, Q3 : -0.096290923655, Q4 : -0.74233341217}
2019-04-03 19:56:02.89: SIM {TimeUS : 72515982, Roll : 0.01, Pitch : -16.8, Yaw : 262.75, Alt : 592.609985352, Lat : -35.3632874, Lng : 149.1649596, Q1 : 0.653911232948, Q2 : -0.109526894987, Q3 : -0.0966863632202, Q4 : -0.742331326008}
2019-04-03 19:56:02.99: SIM {TimeUS : 72615942, Roll : 0.03, Pitch : -16.85, Yaw : 262.74, Alt : 592.66998291, Lat : -35.3632878, Lng : 149.1649545, Q1 : 0.653823971748, Q2 : -0.109760783613, Q3 : -0.0971214473248, Q4 : -0.742316842079}
2019-04-03 19:56:03.09: SIM {TimeUS : 72715902, Roll : 0.04, Pitch : -16.9, Yaw : 262.73, Alt : 592.729980469, Lat : -35.3632884, Lng : 149.1649496, Q1 : 0.653755784035, Q2 : -0.110066868365, Q3 : -0.0974661782384, Q4 : -0.742286384106}
2019-04-03 19:56:03.19: SIM {TimeUS : 72815862, Roll : 0.04, Pitch : -16.92, Yaw : 262.73, Alt : 592.789978027, Lat : -35.363289, Lng : 149.1649445, Q1 : 0.653753042221, Q2 : -0.11016792804, Q3 : -0.0975554510951, Q4 : -0.742262065411}
2019-04-03 19:56:03.29: SIM {TimeUS : 72915822, Roll : 0.04, Pitch : -16.91, Yaw : 262.74, Alt : 592.849975586, Lat : -35.3632895, Lng : 149.1649396, Q1 : 0.653813838959, Q2 : -0.110104978085, Q3 : -0.0974715054035, Q4 : -0.742228865623}
2019-04-03 19:56:03.39: SIM {TimeUS : 73015782, Roll : 0.04, Pitch : -16.9, Yaw : 262.75, Alt : 592.909973145, Lat : -35.36329, Lng : 149.1649345, Q1 : 0.653915166855, Q2 : -0.110001564026, Q3 : -0.0974817425013, Q4 : -0.742153584957}
2019-04-03 19:56:03.49: SIM {TimeUS : 73115742, Roll : 0.06, Pitch : -16.9, Yaw : 262.77, Alt : 592.969970703, Lat : -35.3632906, Lng : 149.1649295, Q1 : 0.65405279398, Q2 : -0.109911479056, Q3 : -0.0976252704859, Q4 : -0.742026805878}
2019-04-03 19:56:03.59: SIM {TimeUS : 73215702, Roll : 0.07, Pitch : -16.93, Yaw : 262.8, Alt : 593.039978027, Lat : -35.3632911, Lng : 149.1649244, Q1 : 0.654186189175, Q2 : -0.110000349581, Q3 : -0.0978676304221, Q4 : -0.741864085197}
2019-04-03 19:56:03.69: SIM {TimeUS : 73315662, Roll : 0.06, Pitch : -16.96, Yaw : 262.82, Alt : 593.099975586, Lat : -35.3632915, Lng : 149.1649194, Q1 : 0.654301464558, Q2 : -0.110280379653, Q3 : -0.0980177074671, Q4 : -0.741701006889}
2019-04-03 19:56:03.80: SIM {TimeUS : 73416455, Roll : 0.03, Pitch : -16.99, Yaw : 262.85, Alt : 593.159973145, Lat : -35.363292, Lng : 149.1649143, Q1 : 0.654411673546, Q2 : -0.110629200935, Q3 : -0.0979948267341, Q4 : -0.741554915905}
2019-04-03 19:56:03.90: SIM {TimeUS : 73516415, Roll : 0.0, Pitch : -17.01, Yaw : 262.87, Alt : 593.219970703, Lat : -35.3632926, Lng : 149.1649093, Q1 : 0.65452760458, Q2 : -0.110886313021, Q3 : -0.0978736653924, Q4 : -0.741430103779}
2019-04-03 19:56:04.00: SIM {TimeUS : 73616375, Roll : -0.02, Pitch : -17.0, Yaw : 262.89, Alt : 593.280029297, Lat : -35.3632932, Lng : 149.1649042, Q1 : 0.654654681683, Q2 : -0.110959537327, Q3 : -0.0977533459663, Q4 : -0.741322815418}
2019-04-03 19:56:04.10: SIM {TimeUS : 73716335, Roll : -0.01, Pitch : -17.0, Yaw : 262.91, Alt : 593.340026855, Lat : -35.3632937, Lng : 149.164899, Q1 : 0.654781937599, Q2 : -0.11090798676, Q3 : -0.0977990999818, Q4 : -0.741212129593}
2019-04-03 19:56:04.20: SIM {TimeUS : 73816295, Roll : 0.0, Pitch : -17.02, Yaw : 262.92, Alt : 593.400024414, Lat : -35.3632943, Lng : 149.164894, Q1 : 0.654866099358, Q2 : -0.11089977622, Q3 : -0.098048992455, Q4 : -0.741105914116}
2019-04-03 19:56:04.30: SIM {TimeUS : 73916255, Roll : 0.02, Pitch : -17.06, Yaw : 262.93, Alt : 593.469970703, Lat : -35.3632948, Lng : 149.1648888, Q1 : 0.654904127121, Q2 : -0.111037716269, Q3 : -0.0983689203858, Q4 : -0.741009294987}
2019-04-03 19:56:04.40: SIM {TimeUS : 74016215, Roll : 0.03, Pitch : -17.09, Yaw : 262.94, Alt : 593.530029297, Lat : -35.3632953, Lng : 149.1648837, Q1 : 0.654915869236, Q2 : -0.111204192042, Q3 : -0.0986404418945, Q4 : -0.740937888622}
2019-04-03 19:56:04.49: SIM {TimeUS : 74116175, Roll : 0.03, Pitch : -17.12, Yaw : 262.94, Alt : 593.590026855, Lat : -35.3632959, Lng : 149.1648785, Q1 : 0.654925763607, Q2 : -0.111326888204, Q3 : -0.0988359972835, Q4 : -0.74088460207}
2019-04-03 19:56:04.59: SIM {TimeUS : 74216135, Roll : 0.04, Pitch : -17.13, Yaw : 262.95, Alt : 593.650024414, Lat : -35.3632963, Lng : 149.1648735, Q1 : 0.65495288372, Q2 : -0.111360155046, Q3 : -0.0989489480853, Q4 : -0.740840673447}
2019-04-03 19:56:04.69: SIM {TimeUS : 74316095, Roll : 0.05, Pitch : -17.14, Yaw : 262.95, Alt : 593.710021973, Lat : -35.3632969, Lng : 149.1648683, Q1 : 0.654983758926, Q2 : -0.111389793456, Q3 : -0.0991143807769, Q4 : -0.740786731243}
2019-04-03 19:56:04.79: SIM {TimeUS : 74416055, Roll : 0.06, Pitch : -17.15, Yaw : 262.96, Alt : 593.770019531, Lat : -35.3632975, Lng : 149.1648631, Q1 : 0.655025780201, Q2 : -0.111350141466, Q3 : -0.0992179587483, Q4 : -0.740741670132}
2019-04-03 19:56:04.89: SIM {TimeUS : 74516015, Roll : 0.06, Pitch : -17.15, Yaw : 262.96, Alt : 593.83001709, Lat : -35.363298, Lng : 149.1648579, Q1 : 0.655069410801, Q2 : -0.111322708428, Q3 : -0.0992298871279, Q4 : -0.740705609322}
2019-04-03 19:56:04.99: SIM {TimeUS : 74615975, Roll : 0.07, Pitch : -17.17, Yaw : 262.97, Alt : 593.890014648, Lat : -35.3632985, Lng : 149.1648529, Q1 : 0.655095338821, Q2 : -0.111444272101, Q3 : -0.0993752032518, Q4 : -0.740644872189}
2019-04-03 19:56:05.09: SIM {TimeUS : 74715935, Roll : 0.08, Pitch : -17.21, Yaw : 262.98, Alt : 593.960021973, Lat : -35.3632991, Lng : 149.1648477, Q1 : 0.655113935471, Q2 : -0.111647211015, Q3 : -0.0996911302209, Q4 : -0.740555465221}
2019-04-03 19:56:05.19: SIM {TimeUS : 74815895, Roll : 0.08, Pitch : -17.25, Yaw : 262.98, Alt : 594.020019531, Lat : -35.3632996, Lng : 149.1648425, Q1 : 0.65512752533, Q2 : -0.11189751327, Q3 : -0.0999383628368, Q4 : -0.740472316742}
2019-04-03 19:56:05.29: SIM {TimeUS : 74915855, Roll : 0.06, Pitch : -17.28, Yaw : 262.99, Alt : 594.08001709, Lat : -35.3633, Lng : 149.1648372, Q1 : 0.655135452747, Q2 : -0.112164735794, Q3 : -0.0999876111746, Q4 : -0.740418195724}
2019-04-03 19:56:05.39: SIM {TimeUS : 75015815, Roll : 0.01, Pitch : -17.29, Yaw : 263.0, Alt : 594.140014648, Lat : -35.3633005, Lng : 149.164832, Q1 : 0.655135691166, Q2 : -0.112509489059, Q3 : -0.0997564867139, Q4 : -0.740396857262}
2019-04-03 19:56:05.49: SIM {TimeUS : 75115775, Roll : -0.01, Pitch : -17.29, Yaw : 263.01, Alt : 594.200012207, Lat : -35.3633011, Lng : 149.1648268, Q1 : 0.655158758163, Q2 : -0.112693294883, Q3 : -0.0995611026883, Q4 : -0.740374803543}
2019-04-03 19:56:05.59: SIM {TimeUS : 75215735, Roll : -0.01, Pitch : -17.3, Yaw : 263.02, Alt : 594.260009766, Lat : -35.3633017, Lng : 149.1648217, Q1 : 0.655201494694, Q2 : -0.112738274038, Q3 : -0.099597685039, Q4 : -0.740325212479}
2019-04-03 19:56:05.69: SIM {TimeUS : 75315695, Roll : 0.0, Pitch : -17.32, Yaw : 263.02, Alt : 594.320007324, Lat : -35.3633022, Lng : 149.1648165, Q1 : 0.655238687992, Q2 : -0.112822145224, Q3 : -0.0997875407338, Q4 : -0.740253984928}
2019-04-03 19:56:05.80: SIM {TimeUS : 75416488, Roll : 0.01, Pitch : -17.34, Yaw : 263.03, Alt : 594.390014648, Lat : -35.3633028, Lng : 149.1648113, Q1 : 0.655282855034, Q2 : -0.112821772695, Q3 : -0.10005004704, Q4 : -0.740179419518}
2019-04-03 19:56:05.90: SIM {TimeUS : 75516448, Roll : 0.04, Pitch : -17.34, Yaw : 263.04, Alt : 594.450012207, Lat : -35.3633033, Lng : 149.164806, Q1 : 0.655347943306, Q2 : -0.11264642328, Q3 : -0.10022239387, Q4 : -0.740125238895}
2019-04-03 19:56:06.00: SIM {TimeUS : 75616408, Roll : 0.05, Pitch : -17.34, Yaw : 263.04, Alt : 594.510009766, Lat : -35.3633038, Lng : 149.1648008, Q1 : 0.655395567417, Q2 : -0.112554468215, Q3 : -0.100310824811, Q4 : -0.740085065365}
2019-04-03 19:56:06.10: SIM {TimeUS : 75716368, Roll : 0.05, Pitch : -17.34, Yaw : 263.05, Alt : 594.570007324, Lat : -35.3633042, Lng : 149.1647956, Q1 : 0.655420899391, Q2 : -0.112580910325, Q3 : -0.10036084801, Q4 : -0.740051805973}
2019-04-03 19:56:06.20: SIM {TimeUS : 75816328, Roll : 0.04, Pitch : -17.36, Yaw : 263.05, Alt : 594.630004883, Lat : -35.3633048, Lng : 149.1647903, Q1 : 0.655413210392, Q2 : -0.112764410675, Q3 : -0.10036996007, Q4 : -0.740029513836}
2019-04-03 19:56:06.30: SIM {TimeUS : 75916288, Roll : 0.01, Pitch : -17.39, Yaw : 263.05, Alt : 594.690002441, Lat : -35.3633054, Lng : 149.1647851, Q1 : 0.655381321907, Q2 : -0.11307567358, Q3 : -0.100338205695, Q4 : -0.74001455307}
2019-04-03 19:56:06.40: SIM {TimeUS : 76016248, Roll : -0.03, Pitch : -17.4, Yaw : 263.05, Alt : 594.75, Lat : -35.3633059, Lng : 149.1647798, Q1 : 0.655337810516, Q2 : -0.113440588117, Q3 : -0.100102707744, Q4 : -0.740029096603}
2019-04-03 19:56:06.50: SIM {TimeUS : 76116208, Roll : -0.05, Pitch : -17.42, Yaw : 263.06, Alt : 594.820007324, Lat : -35.3633065, Lng : 149.1647745, Q1 : 0.655316829681, Q2 : -0.113681614399, Q3 : -0.100052565336, Q4 : -0.740017473698}
2019-04-03 19:56:06.59: SIM {TimeUS : 76216168, Roll : -0.05, Pitch : -17.44, Yaw : 263.05, Alt : 594.880004883, Lat : -35.363307, Lng : 149.1647693, Q1 : 0.655286192894, Q2 : -0.11385114491, Q3 : -0.10018107295, Q4 : -0.740001142025}
2019-04-03 19:56:06.69: SIM {TimeUS : 76316128, Roll : -0.03, Pitch : -17.45, Yaw : 263.05, Alt : 594.940002441, Lat : -35.3633075, Lng : 149.164764, Q1 : 0.655275404453, Q2 : -0.113846518099, Q3 : -0.100374221802, Q4 : -0.739985227585}
2019-04-03 19:56:06.79: SIM {TimeUS : 76416088, Roll : -0.01, Pitch : -17.46, Yaw : 263.05, Alt : 595.0, Lat : -35.3633079, Lng : 149.1647587, Q1 : 0.655274808407, Q2 : -0.113747484982, Q3 : -0.100556604564, Q4 : -0.739976227283}
2019-04-03 19:56:06.89: SIM {TimeUS : 76516048, Roll : 0.0, Pitch : -17.46, Yaw : 263.05, Alt : 595.059997559, Lat : -35.3633085, Lng : 149.1647534, Q1 : 0.655275046825, Q2 : -0.113662391901, Q3 : -0.100667215884, Q4 : -0.739974081516}
2019-04-03 19:56:06.99: SIM {TimeUS : 76616008, Roll : 0.0, Pitch : -17.47, Yaw : 263.05, Alt : 595.119995117, Lat : -35.363309, Lng : 149.1647482, Q1 : 0.655255138874, Q2 : -0.113719277084, Q3 : -0.100702419877, Q4 : -0.739978134632}
2019-04-03 19:56:07.09: SIM {TimeUS : 76715968, Roll : -0.01, Pitch : -17.47, Yaw : 263.04, Alt : 595.179992676, Lat : -35.3633096, Lng : 149.1647429, Q1 : 0.655235946178, Q2 : -0.113768652081, Q3 : -0.100619517267, Q4 : -0.739998936653}
2019-04-03 19:56:07.19: SIM {TimeUS : 76815928, Roll : -0.01, Pitch : -17.47, Yaw : 263.04, Alt : 595.239990234, Lat : -35.3633102, Lng : 149.1647376, Q1 : 0.655226349831, Q2 : -0.113797686994, Q3 : -0.100580476224, Q4 : -0.740008234978}
2019-04-03 19:56:07.29: SIM {TimeUS : 76915888, Roll : 0.0, Pitch : -17.49, Yaw : 263.04, Alt : 595.309997559, Lat : -35.3633107, Lng : 149.1647323, Q1 : 0.65521979332, Q2 : -0.113874681294, Q3 : -0.100761063397, Q4 : -0.73997759819}
2019-04-03 19:56:07.39: SIM {TimeUS : 77015848, Roll : 0.03, Pitch : -17.52, Yaw : 263.04, Alt : 595.369995117, Lat : -35.3633112, Lng : 149.1647269, Q1 : 0.655238032341, Q2 : -0.113853558898, Q3 : -0.101180642843, Q4 : -0.739907443523}
2019-04-03 19:56:07.49: SIM {TimeUS : 77115808, Roll : 0.07, Pitch : -17.52, Yaw : 263.05, Alt : 595.429992676, Lat : -35.3633118, Lng : 149.1647216, Q1 : 0.655299246311, Q2 : -0.11358576268, Q3 : -0.1014906317, Q4 : -0.739851951599}
2019-04-03 19:56:07.59: SIM {TimeUS : 77215768, Roll : 0.11, Pitch : -17.5, Yaw : 263.05, Alt : 595.489990234, Lat : -35.3633122, Lng : 149.1647162, Q1 : 0.655373632908, Q2 : -0.113259762526, Q3 : -0.101577959955, Q4 : -0.739824056625}
2019-04-03 19:56:07.69: SIM {TimeUS : 77315728, Roll : 0.12, Pitch : -17.47, Yaw : 263.06, Alt : 595.549987793, Lat : -35.3633127, Lng : 149.1647109, Q1 : 0.655441462994, Q2 : -0.113044314086, Q3 : -0.101507872343, Q4 : -0.739806473255}
2019-04-03 19:56:07.79: SIM {TimeUS : 77415688, Roll : 0.09, Pitch : -17.49, Yaw : 263.06, Alt : 595.609985352, Lat : -35.3633133, Lng : 149.1647056, Q1 : 0.655451774597, Q2 : -0.11327701807, Q3 : -0.101425230503, Q4 : -0.739773094654}
2019-04-03 19:56:07.90: SIM {TimeUS : 77516481, Roll : 0.06, Pitch : -17.53, Yaw : 263.07, Alt : 595.66998291, Lat : -35.3633139, Lng : 149.1647003, Q1 : 0.65544128418, Q2 : -0.113754972816, Q3 : -0.101497262716, Q4 : -0.739699184895}
2019-04-03 19:56:08.00: SIM {TimeUS : 77616441, Roll : 0.03, Pitch : -17.59, Yaw : 263.08, Alt : 595.739990234, Lat : -35.3633144, Lng : 149.164695, Q1 : 0.655427753925, Q2 : -0.114239923656, Q3 : -0.101631104946, Q4 : -0.739618003368}
2019-04-03 19:56:08.10: SIM {TimeUS : 77716401, Roll : 0.02, Pitch : -17.6, Yaw : 263.09, Alt : 595.799987793, Lat : -35.363315, Lng : 149.1646896, Q1 : 0.655445218086, Q2 : -0.114426165819, Q3 : -0.101654700935, Q4 : -0.739570617676}
2019-04-03 19:56:08.20: SIM {TimeUS : 77816361, Roll : 0.0, Pitch : -17.6, Yaw : 263.09, Alt : 595.859985352, Lat : -35.3633155, Lng : 149.1646843, Q1 : 0.655460298061, Q2 : -0.114453405142, Q3 : -0.101516589522, Q4 : -0.739571869373}
2019-04-03 19:56:08.30: SIM {TimeUS : 77916321, Roll : -0.01, Pitch : -17.56, Yaw : 263.09, Alt : 595.91998291, Lat : -35.363316, Lng : 149.1646788, Q1 : 0.65546631813, Q2 : -0.114389762282, Q3 : -0.101190850139, Q4 : -0.73962110281}
2019-04-03 19:56:08.40: SIM {TimeUS : 78016281, Roll : -0.03, Pitch : -17.54, Yaw : 263.09, Alt : 595.979980469, Lat : -35.3633166, Lng : 149.1646735, Q1 : 0.655462265015, Q2 : -0.114282801747, Q3 : -0.100931420922, Q4 : -0.739676654339}
2019-04-03 19:56:08.50: SIM {TimeUS : 78116241, Roll : -0.01, Pitch : -17.51, Yaw : 263.09, Alt : 596.039978027, Lat : -35.363317, Lng : 149.1646682, Q1 : 0.655470132828, Q2 : -0.114025264978, Q3 : -0.100921027362, Q4 : -0.739710867405}
2019-04-03 19:56:08.60: SIM {TimeUS : 78216201, Roll : 0.01, Pitch : -17.49, Yaw : 263.08, Alt : 596.099975586, Lat : -35.3633175, Lng : 149.1646629, Q1 : 0.655478596687, Q2 : -0.113723397255, Q3 : -0.100976087153, Q4 : -0.739742279053}
2019-04-03 19:56:08.69: SIM {TimeUS : 78316161, Roll : 0.03, Pitch : -17.48, Yaw : 263.07, Alt : 596.16998291, Lat : -35.3633181, Lng : 149.1646575, Q1 : 0.655466079712, Q2 : -0.113575346768, Q3 : -0.101007863879, Q4 : -0.739771723747}
2019-04-03 19:56:08.79: SIM {TimeUS : 78416121, Roll : 0.03, Pitch : -17.5, Yaw : 263.07, Alt : 596.229980469, Lat : -35.3633187, Lng : 149.1646522, Q1 : 0.655420184135, Q2 : -0.113688103855, Q3 : -0.101103529334, Q4 : -0.739782094955}
2019-04-03 19:56:08.89: SIM {TimeUS : 78516081, Roll : 0.0, Pitch : -17.52, Yaw : 263.07, Alt : 596.289978027, Lat : -35.3633192, Lng : 149.1646467, Q1 : 0.655354499817, Q2 : -0.114005580544, Q3 : -0.101047620177, Q4 : -0.739799022675}
2019-04-03 19:56:08.99: SIM {TimeUS : 78616041, Roll : -0.02, Pitch : -17.53, Yaw : 263.07, Alt : 596.349975586, Lat : -35.3633197, Lng : 149.1646414, Q1 : 0.655305922031, Q2 : -0.114248968661, Q3 : -0.100925840437, Q4 : -0.739821135998}
2019-04-03 19:56:09.09: SIM {TimeUS : 78716001, Roll : -0.06, Pitch : -17.53, Yaw : 263.06, Alt : 596.409973145, Lat : -35.3633203, Lng : 149.1646361, Q1 : 0.655259072781, Q2 : -0.114467702806, Q3 : -0.100683674216, Q4 : -0.73986184597}
2019-04-03 19:56:09.19: SIM {TimeUS : 78815961, Roll : -0.08, Pitch : -17.55, Yaw : 263.06, Alt : 596.469970703, Lat : -35.3633207, Lng : 149.1646307, Q1 : 0.655209422112, Q2 : -0.114716231823, Q3 : -0.100598081946, Q4 : -0.739878952503}
2019-04-03 19:56:09.29: SIM {TimeUS : 78915921, Roll : -0.08, Pitch : -17.58, Yaw : 263.06, Alt : 596.539978027, Lat : -35.3633212, Lng : 149.1646254, Q1 : 0.655175328255, Q2 : -0.114913068712, Q3 : -0.100763753057, Q4 : -0.73985606432}
2019-04-03 19:56:09.39: SIM {TimeUS : 79015881, Roll : -0.07, Pitch : -17.6, Yaw : 263.06, Alt : 596.599975586, Lat : -35.3633218, Lng : 149.1646199, Q1 : 0.65515345335, Q2 : -0.114960968494, Q3 : -0.100955091417, Q4 : -0.739841878414}
2019-04-03 19:56:09.49: SIM {TimeUS : 79115841, Roll : -0.05, Pitch : -17.6, Yaw : 263.05, Alt : 596.659973145, Lat : -35.3633224, Lng : 149.1646146, Q1 : 0.655139327049, Q2 : -0.114900745451, Q3 : -0.101090438664, Q4 : -0.739845275879}
2019-04-03 19:56:09.59: SIM {TimeUS : 79215801, Roll : -0.02, Pitch : -17.61, Yaw : 263.05, Alt : 596.719970703, Lat : -35.3633229, Lng : 149.1646092, Q1 : 0.65512907505, Q2 : -0.114792898297, Q3 : -0.101362012327, Q4 : -0.739833950996}
2019-04-03 19:56:09.69: SIM {TimeUS : 79315761, Roll : 0.0, Pitch : -17.62, Yaw : 263.04, Alt : 596.780029297, Lat : -35.3633234, Lng : 149.1646039, Q1 : 0.655123114586, Q2 : -0.114634469151, Q3 : -0.101600632071, Q4 : -0.739831030369}
2019-04-03 19:56:09.79: SIM {TimeUS : 79415721, Roll : 0.02, Pitch : -17.61, Yaw : 263.04, Alt : 596.840026855, Lat : -35.363324, Lng : 149.1645984, Q1 : 0.655108034611, Q2 : -0.114519156516, Q3 : -0.10166310519, Q4 : -0.739853680134}
2019-04-03 19:56:09.89: SIM {TimeUS : 79515681, Roll : 0.01, Pitch : -17.6, Yaw : 263.03, Alt : 596.900024414, Lat : -35.3633245, Lng : 149.1645931, Q1 : 0.655091941357, Q2 : -0.114441543818, Q3 : -0.101536035538, Q4 : -0.739897429943}
2019-04-03 19:56:10.00: SIM {TimeUS : 79616474, Roll : 0.01, Pitch : -17.6, Yaw : 263.03, Alt : 596.960021973, Lat : -35.3633251, Lng : 149.1645877, Q1 : 0.655074357986, Q2 : -0.114461012185, Q3 : -0.101517729461, Q4 : -0.739912509918}
2019-04-03 19:56:10.10: SIM {TimeUS : 79716434, Roll : 0.02, Pitch : -17.62, Yaw : 263.03, Alt : 597.030029297, Lat : -35.3633255, Lng : 149.1645823, Q1 : 0.655051708221, Q2 : -0.114582747221, Q3 : -0.101673945785, Q4 : -0.739892184734}
2019-04-03 19:56:10.20: SIM {TimeUS : 79816394, Roll : 0.02, Pitch : -17.64, Yaw : 263.03, Alt : 597.090026855, Lat : -35.3633261, Lng : 149.1645768, Q1 : 0.655028581619, Q2 : -0.114702105522, Q3 : -0.10185213387, Q4 : -0.739869713783}
2019-04-03 19:56:10.30: SIM {TimeUS : 79916354, Roll : 0.02, Pitch : -17.66, Yaw : 263.03, Alt : 597.150024414, Lat : -35.3633267, Lng : 149.1645715, Q1 : 0.655003428459, Q2 : -0.114827163517, Q3 : -0.101890429854, Q4 : -0.739867329597}
2019-04-03 19:56:10.40: SIM {TimeUS : 80016314, Roll : 0.0, Pitch : -17.64, Yaw : 263.03, Alt : 597.210021973, Lat : -35.3633272, Lng : 149.1645661, Q1 : 0.65498238802, Q2 : -0.114862777293, Q3 : -0.101695664227, Q4 : -0.739907205105}
2019-04-03 19:56:10.50: SIM {TimeUS : 80116274, Roll : 0.0, Pitch : -17.62, Yaw : 263.03, Alt : 597.270019531, Lat : -35.3633277, Lng : 149.1645606, Q1 : 0.654993355274, Q2 : -0.114745520055, Q3 : -0.101566597819, Q4 : -0.739933371544}
2019-04-03 19:56:10.60: SIM {TimeUS : 80216234, Roll : 0.01, Pitch : -17.6, Yaw : 263.03, Alt : 597.33001709, Lat : -35.3633283, Lng : 149.1645553, Q1 : 0.655032873154, Q2 : -0.114474907517, Q3 : -0.101506255567, Q4 : -0.739948630333}
2019-04-03 19:56:10.70: SIM {TimeUS : 80316194, Roll : 0.02, Pitch : -17.59, Yaw : 263.03, Alt : 597.400024414, Lat : -35.3633288, Lng : 149.1645499, Q1 : 0.655054271221, Q2 : -0.114340111613, Q3 : -0.101558238268, Q4 : -0.739943385124}
2019-04-03 19:56:10.79: SIM {TimeUS : 80416154, Roll : 0.02, Pitch : -17.61, Yaw : 263.03, Alt : 597.460021973, Lat : -35.3633292, Lng : 149.1645445, Q1 : 0.655028164387, Q2 : -0.114537708461, Q3 : -0.101621627808, Q4 : -0.739927232265}
2019-04-03 19:56:10.89: SIM {TimeUS : 80516114, Roll : 0.02, Pitch : -17.66, Yaw : 263.03, Alt : 597.520019531, Lat : -35.3633298, Lng : 149.164539, Q1 : 0.654996991158, Q2 : -0.114811696112, Q3 : -0.101909711957, Q4 : -0.739872694016}
2019-04-03 19:56:10.99: SIM {TimeUS : 80616074, Roll : 0.03, Pitch : -17.69, Yaw : 263.03, Alt : 597.58001709, Lat : -35.3633303, Lng : 149.1645337, Q1 : 0.654981017113, Q2 : -0.114970639348, Q3 : -0.102156311274, Q4 : -0.739828169346}
2019-04-03 19:56:11.09: SIM {TimeUS : 80716034, Roll : 0.04, Pitch : -17.71, Yaw : 263.03, Alt : 597.640014648, Lat : -35.3633309, Lng : 149.1645283, Q1 : 0.654985547066, Q2 : -0.115008018911, Q3 : -0.102324642241, Q4 : -0.739795148373}
2019-04-03 19:56:11.19: SIM {TimeUS : 80815994, Roll : 0.06, Pitch : -17.71, Yaw : 263.03, Alt : 597.710021973, Lat : -35.3633315, Lng : 149.1645227, Q1 : 0.655001044273, Q2 : -0.114973954856, Q3 : -0.102484233677, Q4 : -0.739764511585}
2019-04-03 19:56:11.29: SIM {TimeUS : 80915954, Roll : 0.06, Pitch : -17.7, Yaw : 263.03, Alt : 597.770019531, Lat : -35.363332, Lng : 149.1645174, Q1 : 0.655024886131, Q2 : -0.114852748811, Q3 : -0.10241523385, Q4 : -0.739771842957}
2019-04-03 19:56:11.39: SIM {TimeUS : 81015914, Roll : 0.06, Pitch : -17.65, Yaw : 263.03, Alt : 597.83001709, Lat : -35.3633325, Lng : 149.164512, Q1 : 0.655056715012, Q2 : -0.114573612809, Q3 : -0.102139204741, Q4 : -0.739825069904}
2019-04-03 19:56:11.49: SIM {TimeUS : 81115874, Roll : 0.06, Pitch : -17.61, Yaw : 263.03, Alt : 597.890014648, Lat : -35.3633331, Lng : 149.1645065, Q1 : 0.655085742474, Q2 : -0.114282108843, Q3 : -0.101881168783, Q4 : -0.739880084991}
2019-04-03 19:56:11.59: SIM {TimeUS : 81215834, Roll : 0.05, Pitch : -17.58, Yaw : 263.03, Alt : 597.950012207, Lat : -35.3633336, Lng : 149.1645012, Q1 : 0.655091762543, Q2 : -0.114102251828, Q3 : -0.101666904986, Q4 : -0.739931941032}
2019-04-03 19:56:11.69: SIM {TimeUS : 81315794, Roll : 0.05, Pitch : -17.57, Yaw : 263.02, Alt : 598.010009766, Lat : -35.363334, Lng : 149.1644957, Q1 : 0.655075550079, Q2 : -0.114067494869, Q3 : -0.101586446166, Q4 : -0.739962756634}
2019-04-03 19:56:11.79: SIM {TimeUS : 81415754, Roll : 0.08, Pitch : -17.6, Yaw : 263.02, Alt : 598.070007324, Lat : -35.3633346, Lng : 149.1644902, Q1 : 0.655054688454, Q2 : -0.114114403725, Q3 : -0.101940184832, Q4 : -0.739925324917}
2019-04-03 19:56:11.89: SIM {TimeUS : 81515714, Roll : 0.11, Pitch : -17.64, Yaw : 263.02, Alt : 598.140014648, Lat : -35.3633352, Lng : 149.1644849, Q1 : 0.655034959316, Q2 : -0.114192970097, Q3 : -0.102365024388, Q4 : -0.73987197876}
2019-04-03 19:56:11.99: SIM {TimeUS : 81615674, Roll : 0.13, Pitch : -17.65, Yaw : 263.02, Alt : 598.200012207, Lat : -35.3633357, Lng : 149.1644795, Q1 : 0.65504783392, Q2 : -0.114116460085, Q3 : -0.102551013231, Q4 : -0.73984670639}
2019-04-03 19:56:12.10: SIM {TimeUS : 81716467, Roll : 0.12, Pitch : -17.63, Yaw : 263.02, Alt : 598.260009766, Lat : -35.3633363, Lng : 149.1644739, Q1 : 0.655050635338, Q2 : -0.114055149257, Q3 : -0.10244089365, Q4 : -0.739868879318}
2019-04-03 19:56:12.20: SIM {TimeUS : 81816427, Roll : 0.1, Pitch : -17.61, Yaw : 263.01, Alt : 598.320007324, Lat : -35.3633368, Lng : 149.1644686, Q1 : 0.655031561852, Q2 : -0.114055782557, Q3 : -0.10217461735, Q4 : -0.739922523499}
2019-04-03 19:56:12.30: SIM {TimeUS : 81916387, Roll : 0.1, Pitch : -17.6, Yaw : 263.01, Alt : 598.380004883, Lat : -35.3633373, Lng : 149.1644632, Q1 : 0.655013620853, Q2 : -0.114025741816, Q3 : -0.102074630558, Q4 : -0.739956855774}
2019-04-03 19:56:12.40: SIM {TimeUS : 82016347, Roll : 0.08, Pitch : -17.61, Yaw : 263.01, Alt : 598.440002441, Lat : -35.3633377, Lng : 149.1644577, Q1 : 0.654967010021, Q2 : -0.11418017745, Q3 : -0.101964235306, Q4 : -0.739989459515}
2019-04-03 19:56:12.50: SIM {TimeUS : 82116307, Roll : 0.06, Pitch : -17.62, Yaw : 263.0, Alt : 598.5, Lat : -35.3633383, Lng : 149.1644523, Q1 : 0.6549218297, Q2 : -0.114334069192, Q3 : -0.101920023561, Q4 : -0.740011751652}
2019-04-03 19:56:12.60: SIM {TimeUS : 82216267, Roll : 0.05, Pitch : -17.62, Yaw : 263.0, Alt : 598.559997559, Lat : -35.3633388, Lng : 149.1644469, Q1 : 0.654891014099, Q2 : -0.114414520562, Q3 : -0.101849317551, Q4 : -0.74003636837}
2019-04-03 19:56:12.70: SIM {TimeUS : 82316227, Roll : 0.06, Pitch : -17.6, Yaw : 263.0, Alt : 598.619995117, Lat : -35.3633394, Lng : 149.1644414, Q1 : 0.654901087284, Q2 : -0.114257484674, Q3 : -0.101862341166, Q4 : -0.740049898624}
2019-04-03 19:56:12.79: SIM {TimeUS : 82416187, Roll : 0.08, Pitch : -17.58, Yaw : 263.0, Alt : 598.679992676, Lat : -35.3633399, Lng : 149.164436, Q1 : 0.654922664165, Q2 : -0.113990575075, Q3 : -0.101799450815, Q4 : -0.740080654621}
2019-04-03 19:56:12.89: SIM {TimeUS : 82516147, Roll : 0.1, Pitch : -17.56, Yaw : 262.99, Alt : 598.739990234, Lat : -35.3633405, Lng : 149.1644306, Q1 : 0.654931664467, Q2 : -0.11378711462, Q3 : -0.101851679385, Q4 : -0.74009680748}
2019-04-03 19:56:12.99: SIM {TimeUS : 82616107, Roll : 0.11, Pitch : -17.56, Yaw : 262.99, Alt : 598.809997559, Lat : -35.363341, Lng : 149.1644251, Q1 : 0.654914677143, Q2 : -0.11373129487, Q3 : -0.101932398975, Q4 : -0.740109264851}
2019-04-03 19:56:13.09: SIM {TimeUS : 82716067, Roll : 0.12, Pitch : -17.57, Yaw : 262.98, Alt : 598.869995117, Lat : -35.3633415, Lng : 149.1644198, Q1 : 0.654889166355, Q2 : -0.11372513324, Q3 : -0.102002367377, Q4 : -0.740123152733}
2019-04-03 19:56:13.19: SIM {TimeUS : 82816027, Roll : 0.1, Pitch : -17.58, Yaw : 262.98, Alt : 598.929992676, Lat : -35.3633419, Lng : 149.1644143, Q1 : 0.654831409454, Q2 : -0.113925792277, Q3 : -0.101952426136, Q4 : -0.740150332451}
2019-04-03 19:56:13.29: SIM {TimeUS : 82915987, Roll : 0.09, Pitch : -17.58, Yaw : 262.98, Alt : 598.989990234, Lat : -35.3633425, Lng : 149.1644088, Q1 : 0.654798328876, Q2 : -0.113990090787, Q3 : -0.101894184947, Q4 : -0.740177690983}
2019-04-03 19:56:13.39: SIM {TimeUS : 83015947, Roll : 0.1, Pitch : -17.57, Yaw : 262.97, Alt : 599.049987793, Lat : -35.3633431, Lng : 149.1644035, Q1 : 0.654806613922, Q2 : -0.113801710308, Q3 : -0.101906053722, Q4 : -0.740197718143}
2019-04-03 19:56:13.49: SIM {TimeUS : 83115907, Roll : 0.12, Pitch : -17.56, Yaw : 262.97, Alt : 599.109985352, Lat : -35.3633436, Lng : 149.1643981, Q1 : 0.654812276363, Q2 : -0.113639488816, Q3 : -0.101958245039, Q4 : -0.740210473537}
