2019-04-03 20:07:50.10: SIM {TimeUS : 115716195, Roll : 0.0, Pitch : 0.0, Yaw : 353.0, Alt : 584.090026855, Lat : -35.363261, Lng : 149.1652299, Q1 : 0.998134791851, Q2 : 0.0, Q3 : 0.0, Q4 : -0.0610485821962}
2019-04-03 20:07:50.20: SIM {TimeUS : 115816155, Roll : 0.0, Pitch : 0.0, Yaw : 353.0, Alt : 584.090026855, Lat : -35.363261, Lng : 149.1652299, Q1 : 0.998134791851, Q2 : 0.0, Q3 : 0.0, Q4 : -0.0610485821962}
2019-04-03 20:07:50.29: SIM {TimeUS : 115916115, Roll : 0.0, Pitch : 0.0, Yaw : 353.0, Alt : 584.090026855, Lat : -35.363261, Lng : 149.1652299, Q1 : 0.998134791851, Q2 : 0.0, Q3 : 0.0, Q4 : -0.0610485821962}
2019-04-03 20:07:50.39: SIM {TimeUS : 116016075, Roll : 0.0, Pitch : 0.0, Yaw : 353.0, Alt : 584.090026855, Lat : -35.363261, Lng : 149.1652299, Q1 : 0.998134791851, Q2 : 0.0, Q3 : 0.0, Q4 : -0.0610485821962}
2019-04-03 20:07:50.49: SIM {TimeUS : 116116035, Roll : 0.0, Pitch : 0.0, Yaw : 353.0, Alt : 584.090026855, Lat : -35.363261, Lng : 149.1652299, Q1 : 0.998134791851, Q2 : 0.0, Q3 : 0.0, Q4 : -0.0610485821962}
2019-04-03 20:07:50.59: SIM {TimeUS : 116215995, Roll : 0.0, Pitch : 0.0, Yaw : 353.0, Alt : 584.090026855, Lat : -35.363261, Lng : 149.1652299, Q1 : 0.998134791851, Q2 : 0.0, Q3 : 0.0, Q4 : -0.0610485821962}
2019-04-03 20:07:50.69: SIM {TimeUS : 116315955, Roll : 0.0, Pitch : 0.0, Yaw : 353.0, Alt : 584.090026855, Lat : -35.363261, Lng : 149.1652299, Q1 : 0.998134791851, Q2 : 0.0, Q3 : 0.0, Q4 : -0.0610485821962}
2019-04-03 20:07:50.79: SIM {TimeUS : 116415915, Roll : 0.0, Pitch : 0.0, Yaw : 353.0, Alt : 584.090026855, Lat : -35.363261, Lng : 149.1652299, Q1 : 0.998134791851, Q2 : 0.0, Q3 : 0.0, Q4 : -0.0610485821962}
2019-04-03 20:07:50.89: SIM {TimeUS : 116515875, Roll : 0.0, Pitch : 0.0, Yaw : 353.0, Alt : 584.090026855, Lat : -35.363261, Lng : 149.1652299, Q1 : 0.998134791851, Q2 : 0.0, Q3 : 0.0, Q4 : -0.0610485821962}
2019-04-03 20:07:50.99: SIM {TimeUS : 116615835, Roll : 0.0, Pitch : 0.0, Yaw : 353.0, Alt : 584.090026855, Lat : -35.363261, Lng : 149.1652299, Q1 : 0.998134791851, Q2 : 0.0, Q3 : 0.0, Q4 : -0.0610485821962}
2019-04-03 20:07:51.09: SIM {TimeUS : 116715795, Roll : 0.0, Pitch : 0.0, Yaw : 353.0, Alt : 584.090026855, Lat : -35.363261, Lng : 149.1652299, Q1 : 0.998134791851, Q2 : 0.0, Q3 : 0.0, Q4 : -0.0610485821962}
2019-04-03 20:07:51.19: SIM {TimeUS : 116815755, Roll : 0.0, Pitch : 0.0, Yaw : 353.0, Alt : 584.090026855, Lat : -35.363261, Lng : 149.1652299, Q1 : 0.998134791851, Q2 : 0.0, Q3 : 0.0, Q4 : -0.0610485821962}
2019-04-03 20:07:51.29: SIM {TimeUS : 116915715, Roll : 0.0, Pitch : 0.0, Yaw : 353.0, Alt : 584.090026855, Lat : -35.363261, Lng : 149.1652299, Q1 : 0.998134791851, Q2 : 0.0, Q3 : 0.0, Q4 : -0.0610485821962}
2019-04-03 20:07:51.39: SIM {TimeUS : 117015675, Roll : 0.0, Pitch : 0.0, Yaw : 353.0, Alt : 584.090026855, Lat : -35.363261, Lng : 149.1652299, Q1 : 0.998134791851, Q2 : 0.0, Q3 : 0.0, Q4 : -0.0610485821962}
2019-04-03 20:07:51.50: SIM {TimeUS : 117116468, Roll : 0.0, Pitch : 0.0, Yaw : 353.0, Alt : 584.090026855, Lat : -35.363261, Lng : 149.1652299, Q1 : 0.998134791851, Q2 : 0.0, Q3 : 0.0, Q4 : -0.0610485821962}
2019-04-03 20:07:51.60: SIM {TimeUS : 117216428, Roll : 0.0, Pitch : 0.0, Yaw : 353.0, Alt : 584.090026855, Lat : -35.363261, Lng : 149.1652299, Q1 : 0.998134791851, Q2 : 0.0, Q3 : 0.0, Q4 : -0.0610485821962}
2019-04-03 20:07:51.70: SIM {TimeUS : 117316388, Roll : 0.0, Pitch : 0.0, Yaw : 353.0, Alt : 584.090026855, Lat : -35.363261, Lng : 149.1652299, Q1 : 0.998134791851, Q2 : 0.0, Q3 : 0.0, Q4 : -0.0610485821962}
2019-04-03 20:07:51.80: SIM {TimeUS : 117416348, Roll : 0.0, Pitch : 0.0, Yaw : 353.0, Alt : 584.090026855, Lat : -35.363261, Lng : 149.1652299, Q1 : 0.998134791851, Q2 : 0.0, Q3 : 0.0, Q4 : -0.0610485821962}
2019-04-03 20:07:51.90: SIM {TimeUS : 117516308, Roll : 0.0, Pitch : 0.0, Yaw : 353.0, Alt : 584.090026855, Lat : -35.363261, Lng : 149.1652299, Q1 : 0.998134791851, Q2 : 0.0, Q3 : 0.0, Q4 : -0.0610485821962}
2019-04-03 20:07:52.00: SIM {TimeUS : 117616268, Roll : 0.0, Pitch : 0.0, Yaw : 353.0, Alt : 584.090026855, Lat : -35.363261, Lng : 149.1652299, Q1 : 0.998134791851, Q2 : 0.0, Q3 : 0.0, Q4 : -0.0610485821962}
2019-04-03 20:07:52.10: SIM {TimeUS : 117716228, Roll : 0.0, Pitch : 0.0, Yaw : 353.0, Alt : 584.090026855, Lat : -35.363261, Lng : 149.1652299, Q1 : 0.998134791851, Q2 : 0.0, Q3 : 0.0, Q4 : -0.0610485821962}
2019-04-03 20:07:52.20: SIM {TimeUS : 117816188, Roll : 0.0, Pitch : 0.0, Yaw : 353.0, Alt : 584.090026855, Lat : -35.363261, Lng : 149.1652299, Q1 : 0.998134791851, Q2 : 0.0, Q3 : 0.0, Q4 : -0.0610485821962}
2019-04-03 20:07:52.29: SIM {TimeUS : 117916148, Roll : 0.0, Pitch : 0.0, Yaw : 353.0, Alt : 584.090026855, Lat : -35.363261, Lng : 149.1652299, Q1 : 0.998134791851, Q2 : 0.0, Q3 : 0.0, Q4 : -0.0610485821962}
2019-04-03 20:07:52.39: SIM {TimeUS : 118016108, Roll : 0.0, Pitch : 0.0, Yaw : 353.0, Alt : 584.090026855, Lat : -35.363261, Lng : 149.1652299, Q1 : 0.998134791851, Q2 : 0.0, Q3 : 0.0, Q4 : -0.0610485821962}
2019-04-03 20:07:52.49: SIM {TimeUS : 118116068, Roll : 0.0, Pitch : 0.0, Yaw : 353.0, Alt : 584.090026855, Lat : -35.363261, Lng : 149.1652299, Q1 : 0.998134791851, Q2 : 0.0, Q3 : 0.0, Q4 : -0.0610485821962}
2019-04-03 20:07:52.59: SIM {TimeUS : 118216028, Roll : 0.0, Pitch : 0.0, Yaw : 353.0, Alt : 584.090026855, Lat : -35.363261, Lng : 149.1652299, Q1 : 0.998134791851, Q2 : 0.0, Q3 : 0.0, Q4 : -0.0610485821962}
2019-04-03 20:07:52.69: SIM {TimeUS : 118315988, Roll : 0.0, Pitch : 0.0, Yaw : 353.0, Alt : 584.090026855, Lat : -35.363261, Lng : 149.1652299, Q1 : 0.998134791851, Q2 : 0.0, Q3 : 0.0, Q4 : -0.0610485821962}
2019-04-03 20:07:52.79: SIM {TimeUS : 118415948, Roll : 0.0, Pitch : 0.0, Yaw : 353.0, Alt : 584.090026855, Lat : -35.363261, Lng : 149.1652299, Q1 : 0.998134791851, Q2 : 0.0, Q3 : 0.0, Q4 : -0.0610485821962}
2019-04-03 20:07:52.89: SIM {TimeUS : 118515908, Roll : 0.0, Pitch : 0.0, Yaw : 353.0, Alt : 584.090026855, Lat : -35.363261, Lng : 149.1652299, Q1 : 0.998134791851, Q2 : 0.0, Q3 : 0.0, Q4 : -0.0610485821962}
2019-04-03 20:07:52.99: SIM {TimeUS : 118615868, Roll : 0.0, Pitch : 0.0, Yaw : 353.0, Alt : 584.090026855, Lat : -35.363261, Lng : 149.1652299, Q1 : 0.998134791851, Q2 : 0.0, Q3 : 0.0, Q4 : -0.0610485821962}
2019-04-03 20:07:53.09: SIM {TimeUS : 118715828, Roll : 0.0, Pitch : 0.0, Yaw : 353.0, Alt : 584.090026855, Lat : -35.363261, Lng : 149.1652299, Q1 : 0.998134791851, Q2 : 0.0, Q3 : 0.0, Q4 : -0.0610485821962}
2019-04-03 20:07:53.19: SIM {TimeUS : 118815788, Roll : 0.0, Pitch : 0.0, Yaw : 353.0, Alt : 584.090026855, Lat : -35.363261, Lng : 149.1652299, Q1 : 0.998134791851, Q2 : 0.0, Q3 : 0.0, Q4 : -0.0610485821962}
2019-04-03 20:07:53.29: SIM {TimeUS : 118915748, Roll : 0.0, Pitch : 0.0, Yaw : 353.0, Alt : 584.090026855, Lat : -35.363261, Lng : 149.1652299, Q1 : 0.998134791851, Q2 : 0.0, Q3 : 0.0, Q4 : -0.0610485821962}
2019-04-03 20:07:53.39: SIM {TimeUS : 119015708, Roll : 0.0, Pitch : 0.0, Yaw : 353.0, Alt : 584.090026855, Lat : -35.363261, Lng : 149.1652299, Q1 : 0.998134791851, Q2 : 0.0, Q3 : 0.0, Q4 : -0.0610485821962}
2019-04-03 20:07:53.49: SIM {TimeUS : 119115668, Roll : 0.0, Pitch : 0.0, Yaw : 353.0, Alt : 584.090026855, Lat : -35.363261, Lng : 149.1652299, Q1 : 0.998134791851, Q2 : 0.0, Q3 : 0.0, Q4 : -0.0610485821962}
2019-04-03 20:07:53.60: SIM {TimeUS : 119216461, Roll : 0.0, Pitch : 0.0, Yaw : 353.0, Alt : 584.090026855, Lat : -35.363261, Lng : 149.1652299, Q1 : 0.998134791851, Q2 : 0.0, Q3 : 0.0, Q4 : -0.0610485821962}
2019-04-03 20:07:53.70: SIM {TimeUS : 119316421, Roll : 0.0, Pitch : 0.0, Yaw : 353.0, Alt : 584.090026855, Lat : -35.363261, Lng : 149.1652299, Q1 : 0.998134791851, Q2 : 0.0, Q3 : 0.0, Q4 : -0.0610485821962}
2019-04-03 20:07:53.80: SIM {TimeUS : 119416381, Roll : 0.0, Pitch : 0.0, Yaw : 353.0, Alt : 584.090026855, Lat : -35.363261, Lng : 149.1652299, Q1 : 0.998134791851, Q2 : 0.0, Q3 : 0.0, Q4 : -0.0610485821962}
2019-04-03 20:07:53.90: SIM {TimeUS : 119516341, Roll : 0.0, Pitch : 0.0, Yaw : 353.0, Alt : 584.090026855, Lat : -35.363261, Lng : 149.1652299, Q1 : 0.998134791851, Q2 : 0.0, Q3 : 0.0, Q4 : -0.0610486604273}
2019-04-03 20:07:54.00: SIM {TimeUS : 119616301, Roll : 0.0, Pitch : 0.0, Yaw : 353.0, Alt : 584.090026855, Lat : -35.363261, Lng : 149.1652299, Q1 : 0.998134791851, Q2 : 0.0, Q3 : 0.0, Q4 : -0.0610486753285}
2019-04-03 20:07:54.10: SIM {TimeUS : 119716261, Roll : 0.0, Pitch : 0.0, Yaw : 353.0, Alt : 584.090026855, Lat : -35.363261, Lng : 149.1652299, Q1 : 0.998134791851, Q2 : 0.0, Q3 : 0.0, Q4 : -0.0610486641526}
2019-04-03 20:07:54.20: SIM {TimeUS : 119816221, Roll : 0.0, Pitch : 0.0, Yaw : 353.0, Alt : 584.090026855, Lat : -35.363261, Lng : 149.1652299, Q1 : 0.998134791851, Q2 : 0.0, Q3 : 0.0, Q4 : -0.0610486753285}
2019-04-03 20:07:54.30: SIM {TimeUS : 119916181, Roll : 0.0, Pitch : 0.0, Yaw : 353.0, Alt : 584.090026855, Lat : -35.363261, Lng : 149.1652299, Q1 : 0.998134791851, Q2 : 0.0, Q3 : 0.0, Q4 : -0.0610486753285}
2019-04-03 20:07:54.39: SIM {TimeUS : 120016141, Roll : 0.0, Pitch : 0.0, Yaw : 353.0, Alt : 584.090026855, Lat : -35.363261, Lng : 149.1652299, Q1 : 0.998134791851, Q2 : 0.0, Q3 : 0.0, Q4 : -0.0610486753285}
2019-04-03 20:07:54.49: SIM {TimeUS : 120116101, Roll : 0.0, Pitch : 0.0, Yaw : 353.0, Alt : 584.090026855, Lat : -35.363261, Lng : 149.1652299, Q1 : 0.998134791851, Q2 : 0.0, Q3 : 0.0, Q4 : -0.0610486753285}
2019-04-03 20:07:54.59: SIM {TimeUS : 120216061, Roll : 0.0, Pitch : 0.0, Yaw : 353.0, Alt : 584.090026855, Lat : -35.363261, Lng : 149.1652299, Q1 : 0.998134791851, Q2 : 0.0, Q3 : 0.0, Q4 : -0.0610486753285}
2019-04-03 20:07:54.69: SIM {TimeUS : 120316021, Roll : 0.0, Pitch : 0.0, Yaw : 353.0, Alt : 584.099975586, Lat : -35.363261, Lng : 149.1652299, Q1 : 0.998134791851, Q2 : 0.0, Q3 : 0.0, Q4 : -0.0610486753285}
2019-04-03 20:07:54.79: SIM {TimeUS : 120415981, Roll : 0.0, Pitch : 0.0, Yaw : 353.0, Alt : 584.099975586, Lat : -35.363261, Lng : 149.1652299, Q1 : 0.998134791851, Q2 : 0.0, Q3 : 0.0, Q4 : -0.0610486753285}
2019-04-03 20:07:54.89: SIM {TimeUS : 120515941, Roll : 0.0, Pitch : 0.0, Yaw : 353.0, Alt : 584.109985352, Lat : -35.363261, Lng : 149.1652299, Q1 : 0.998134791851, Q2 : 0.0, Q3 : 0.0, Q4 : -0.0610486753285}
2019-04-03 20:07:54.99: SIM {TimeUS : 120615901, Roll : 0.0, Pitch : 0.0, Yaw : 353.0, Alt : 584.119995117, Lat : -35.363261, Lng : 149.1652299, Q1 : 0.998134791851, Q2 : 0.0, Q3 : 0.0, Q4 : -0.0610486790538}
2019-04-03 20:07:55.09: SIM {TimeUS : 120715861, Roll : 0.0, Pitch : 0.0, Yaw : 353.0, Alt : 584.150024414, Lat : -35.363261, Lng : 149.1652299, Q1 : 0.998134791851, Q2 : 0.0, Q3 : 0.0, Q4 : -0.0610486753285}
2019-04-03 20:07:55.19: SIM {TimeUS : 120815821, Roll : 0.0, Pitch : 0.0, Yaw : 353.0, Alt : 584.179992676, Lat : -35.363261, Lng : 149.1652299, Q1 : 0.998134791851, Q2 : 0.0, Q3 : 0.0, Q4 : -0.0610486753285}
2019-04-03 20:07:55.29: SIM {TimeUS : 120915781, Roll : 0.0, Pitch : 0.0, Yaw : 352.99, Alt : 584.219970703, Lat : -35.363261, Lng : 149.1652299, Q1 : 0.998134732246, Q2 : -3.96775249101e-05, Q3 : -2.4818109523e-05, Q4 : -0.0610497631133}
2019-04-03 20:07:55.39: SIM {TimeUS : 121015741, Roll : -0.06, Pitch : -0.06, Yaw : 352.99, Alt : 584.289978027, Lat : -35.363261, Lng : 149.1652299, Q1 : 0.998133301735, Q2 : -0.000585110625252, Q3 : -0.000542909197975, Q4 : -0.0610681883991}
2019-04-03 20:07:55.49: SIM {TimeUS : 121115701, Roll : -0.13, Pitch : -0.17, Yaw : 352.99, Alt : 584.409973145, Lat : -35.363261, Lng : 149.1652299, Q1 : 0.998129546642, Q2 : -0.00127349386457, Q3 : -0.00149213895202, Q4 : -0.0611036196351}
2019-04-03 20:07:55.59: SIM {TimeUS : 121215661, Roll : -0.18, Pitch : -0.26, Yaw : 352.98, Alt : 584.570007324, Lat : -35.363261, Lng : 149.1652299, Q1 : 0.998124420643, Q2 : -0.00176286767237, Q3 : -0.00224684271961, Q4 : -0.0611515380442}
2019-04-03 20:07:55.70: SIM {TimeUS : 121316454, Roll : -0.21, Pitch : -0.28, Yaw : 352.98, Alt : 584.719970703, Lat : -35.363261, Lng : 149.1652299, Q1 : 0.99811989069, Q2 : -0.00202470319346, Q3 : -0.00237638992257, Q4 : -0.0612127631903}
2019-04-03 20:07:55.80: SIM {TimeUS : 121416414, Roll : -0.22, Pitch : -0.24, Yaw : 352.97, Alt : 584.880004883, Lat : -35.363261, Lng : 149.1652299, Q1 : 0.998116374016, Q2 : -0.0021180966869, Q3 : -0.00204999372363, Q4 : -0.0612781122327}
2019-04-03 20:07:55.90: SIM {TimeUS : 121516374, Roll : -0.19, Pitch : -0.18, Yaw : 352.96, Alt : 585.030029297, Lat : -35.363261, Lng : 149.1652299, Q1 : 0.998114168644, Q2 : -0.00183483737055, Q3 : -0.00149595667608, Q4 : -0.0613390915096}
2019-04-03 20:07:56.00: SIM {TimeUS : 121616334, Roll : -0.19, Pitch : -0.12, Yaw : 352.96, Alt : 585.179992676, Lat : -35.363261, Lng : 149.1652299, Q1 : 0.998112142086, Q2 : -0.00177171267569, Q3 : -0.000957228126936, Q4 : -0.0613849312067}
2019-04-03 20:07:56.10: SIM {TimeUS : 121716294, Roll : -0.21, Pitch : 0.24, Yaw : 352.95, Alt : 585.320007324, Lat : -35.363261, Lng : 149.1652299, Q1 : 0.998108148575, Q2 : -0.00171362492256, Q3 : 0.00223335786723, Q4 : -0.061418492347}
2019-04-03 20:07:56.20: SIM {TimeUS : 121816254, Roll : -0.29, Pitch : 0.99, Yaw : 352.95, Alt : 585.469970703, Lat : -35.363261, Lng : 149.1652298, Q1 : 0.998069703579, Q2 : -0.00206629442982, Q3 : 0.0088010057807, Q4 : -0.0614428445697}
2019-04-03 20:07:56.30: SIM {TimeUS : 121916214, Roll : -0.44, Pitch : 2.05, Yaw : 352.94, Alt : 585.609985352, Lat : -35.363261, Lng : 149.1652298, Q1 : 0.99794203043, Q2 : -0.00280706305057, Q3 : 0.018097018823, Q4 : -0.0614515095949}
2019-04-03 20:07:56.40: SIM {TimeUS : 122016174, Roll : -0.63, Pitch : 3.23, Yaw : 352.93, Alt : 585.739990234, Lat : -35.363261, Lng : 149.1652298, Q1 : 0.997695446014, Q2 : -0.00381837249734, Q3 : 0.0285467859358, Q4 : -0.0614353083074}
2019-04-03 20:07:56.49: SIM {TimeUS : 122116134, Roll : -0.86, Pitch : 4.43, Yaw : 352.92, Alt : 585.849975586, Lat : -35.363261, Lng : 149.1652298, Q1 : 0.997337520123, Q2 : -0.00511677190661, Q3 : 0.0390386395156, Q4 : -0.0613822452724}
2019-04-03 20:07:56.59: SIM {TimeUS : 122216094, Roll : -1.09, Pitch : 5.51, Yaw : 352.91, Alt : 585.960021973, Lat : -35.363261, Lng : 149.1652298, Q1 : 0.996914088726, Q2 : -0.00653815222904, Q3 : 0.0486203767359, Q4 : -0.0612830109894}
2019-04-03 20:07:56.69: SIM {TimeUS : 122316054, Roll : -1.27, Pitch : 6.41, Yaw : 352.9, Alt : 586.059997559, Lat : -35.3632613, Lng : 149.1652297, Q1 : 0.996495246887, Q2 : -0.00764362327754, Q3 : 0.0565580278635, Q4 : -0.0611554719508}
2019-04-03 20:07:56.79: SIM {TimeUS : 122416014, Roll : -1.4, Pitch : 7.09, Yaw : 352.9, Alt : 586.150024414, Lat : -35.3632616, Lng : 149.1652297, Q1 : 0.996140003204, Q2 : -0.00834459345788, Q3 : 0.0625509694219, Q4 : -0.0610158778727}
2019-04-03 20:07:56.89: SIM {TimeUS : 122515974, Roll : -1.47, Pitch : 7.61, Yaw : 352.9, Alt : 586.229980469, Lat : -35.363262, Lng : 149.1652296, Q1 : 0.995854496956, Q2 : -0.00867729634047, Q3 : 0.067023858428, Q4 : -0.0608797296882}
2019-04-03 20:07:56.99: SIM {TimeUS : 122615934, Roll : -1.54, Pitch : 8.0, Yaw : 352.91, Alt : 586.299987793, Lat : -35.3632625, Lng : 149.1652296, Q1 : 0.995623469353, Q2 : -0.00910427607596, Q3 : 0.0704500004649, Q4 : -0.0607272982597}
2019-04-03 20:07:57.09: SIM {TimeUS : 122715894, Roll : -1.63, Pitch : 8.27, Yaw : 352.92, Alt : 586.369995117, Lat : -35.3632631, Lng : 149.1652294, Q1 : 0.995450735092, Q2 : -0.00976877845824, Q3 : 0.0729129910469, Q4 : -0.060548234731}
2019-04-03 20:07:57.19: SIM {TimeUS : 122815854, Roll : -1.73, Pitch : 8.44, Yaw : 352.93, Alt : 586.429992676, Lat : -35.3632637, Lng : 149.1652293, Q1 : 0.995341718197, Q2 : -0.0105059100315, Q3 : 0.0744297578931, Q4 : -0.0603715516627}
2019-04-03 20:07:57.29: SIM {TimeUS : 122915814, Roll : -1.8, Pitch : 8.53, Yaw : 352.93, Alt : 586.489990234, Lat : -35.3632644, Lng : 149.1652293, Q1 : 0.995281040668, Q2 : -0.0110545307398, Q3 : 0.075270280242, Q4 : -0.0602320507169}
2019-04-03 20:07:57.39: SIM {TimeUS : 123015774, Roll : -1.85, Pitch : 8.59, Yaw : 352.94, Alt : 586.549987793, Lat : -35.3632653, Lng : 149.1652292, Q1 : 0.995242536068, Q2 : -0.0115041201934, Q3 : 0.0757898911834, Q4 : -0.0601321458817}
2019-04-03 20:07:57.49: SIM {TimeUS : 123115734, Roll : -1.87, Pitch : 8.69, Yaw : 352.94, Alt : 586.599975586, Lat : -35.3632662, Lng : 149.1652291, Q1 : 0.995178699493, Q2 : -0.0116490861401, Q3 : 0.0766232088208, Q4 : -0.0601042062044}
2019-04-03 20:07:57.59: SIM {TimeUS : 123215694, Roll : -1.7, Pitch : 8.9, Yaw : 352.8, Alt : 586.650024414, Lat : -35.3632671, Lng : 149.1652289, Q1 : 0.994979143143, Q2 : -0.0099514843896, Q3 : 0.0784319639206, Q4 : -0.0613669939339}
2019-04-03 20:07:57.70: SIM {TimeUS : 123316487, Roll : -1.31, Pitch : 9.29, Yaw : 351.98, Alt : 586.700012207, Lat : -35.3632682, Lng : 149.1652289, Q1 : 0.994274795055, Q2 : -0.00576318847016, Q3 : 0.0816161856055, Q4 : -0.0687258765101}
2019-04-03 20:07:57.80: SIM {TimeUS : 123416447, Roll : -1.02, Pitch : 9.78, Yaw : 349.78, Alt : 586.739990234, Lat : -35.3632693, Lng : 149.1652288, Q1 : 0.992428600788, Q2 : -0.0012633780716, Q3 : 0.0857193693519, Q4 : -0.0879552364349}
2019-04-03 20:07:57.90: SIM {TimeUS : 123516407, Roll : -1.24, Pitch : 10.22, Yaw : 345.9, Alt : 586.789978027, Lat : -35.3632706, Lng : 149.1652287, Q1 : 0.988551616669, Q2 : 0.000180457049282, Q3 : 0.0897747576237, Q4 : -0.121269010007}
2019-04-03 20:07:58.00: SIM {TimeUS : 123616367, Roll : -2.15, Pitch : 10.43, Yaw : 340.45, Alt : 586.840026855, Lat : -35.3632718, Lng : 149.1652286, Q1 : 0.981519758701, Q2 : -0.0030479922425, Q3 : 0.0928254425526, Q4 : -0.167311549187}
2019-04-03 20:07:58.10: SIM {TimeUS : 123716327, Roll : -3.68, Pitch : 10.26, Yaw : 333.73, Alt : 586.890014648, Lat : -35.3632732, Lng : 149.1652286, Q1 : 0.970099687576, Q2 : -0.0108502255753, Q3 : 0.094363860786, Q4 : -0.223347917199}
2019-04-03 20:07:58.20: SIM {TimeUS : 123816287, Roll : -5.62, Pitch : 9.61, Yaw : 326.09, Alt : 586.940002441, Lat : -35.3632747, Lng : 149.1652286, Q1 : 0.953233063221, Q2 : -0.0223145056516, Q3 : 0.0943535640836, Q4 : -0.286262392998}
2019-04-03 20:07:58.30: SIM {TimeUS : 123916247, Roll : -7.71, Pitch : 8.47, Yaw : 317.87, Alt : 586.989990234, Lat : -35.3632762, Lng : 149.1652286, Q1 : 0.930300295353, Q2 : -0.0361067466438, Q3 : 0.092953518033, Q4 : -0.352983474731}
2019-04-03 20:07:58.40: SIM {TimeUS : 124016207, Roll : -9.67, Pitch : 6.88, Yaw : 309.37, Alt : 587.049987793, Lat : -35.3632779, Lng : 149.1652286, Q1 : 0.901293635368, Q2 : -0.0505204312503, Q3 : 0.0901038348675, Q4 : -0.42071223259}
2019-04-03 20:07:58.50: SIM {TimeUS : 124116167, Roll : -11.3, Pitch : 4.97, Yaw : 300.85, Alt : 587.109985352, Lat : -35.3632796, Lng : 149.1652286, Q1 : 0.866816699505, Q2 : -0.0642153695226, Q3 : 0.0861429795623, Q4 : -0.486913353205}
2019-04-03 20:07:58.59: SIM {TimeUS : 124216127, Roll : -12.44, Pitch : 2.9, Yaw : 292.56, Alt : 587.16998291, Lat : -35.3632814, Lng : 149.1652286, Q1 : 0.828135609627, Q2 : -0.0761723592877, Q3 : 0.0811111107469, Q4 : -0.549372553825}
2019-04-03 20:07:58.69: SIM {TimeUS : 124316087, Roll : -13.1, Pitch : 0.82, Yaw : 284.65, Alt : 587.239990234, Lat : -35.3632833, Lng : 149.1652284, Q1 : 0.786834716797, Q2 : -0.0859994739294, Q3 : 0.0754017010331, Q4 : -0.606473326683}
2019-04-03 20:07:58.79: SIM {TimeUS : 124416047, Roll : -13.35, Pitch : -1.13, Yaw : 277.24, Alt : 587.309997559, Lat : -35.3632853, Lng : 149.1652284, Q1 : 0.744459331036, Q2 : -0.0937283188105, Q3 : 0.0695202574134, Q4 : -0.657390475273}
2019-04-03 20:07:58.89: SIM {TimeUS : 124516007, Roll : -13.32, Pitch : -2.83, Yaw : 270.34, Alt : 587.380004883, Lat : -35.3632874, Lng : 149.1652282, Q1 : 0.702215969563, Q2 : -0.0995871052146, Q3 : 0.0642940700054, Q4 : -0.702026665211}
2019-04-03 20:07:58.99: SIM {TimeUS : 124615967, Roll : -13.11, Pitch : -4.29, Yaw : 263.96, Alt : 587.460021973, Lat : -35.3632895, Lng : 149.1652279, Q1 : 0.660907149315, Q2 : -0.104025810957, Q3 : 0.0599381290376, Q4 : -0.740802168846}
2019-04-03 20:07:59.09: SIM {TimeUS : 124715927, Roll : -12.81, Pitch : -5.54, Yaw : 258.05, Alt : 587.530029297, Lat : -35.3632918, Lng : 149.1652277, Q1 : 0.620848536491, Q2 : -0.107536286116, Q3 : 0.0563234426081, Q4 : -0.77447450161}
2019-04-03 20:07:59.19: SIM {TimeUS : 124815887, Roll : -12.43, Pitch : -6.62, Yaw : 252.51, Alt : 587.609985352, Lat : -35.3632941, Lng : 149.1652274, Q1 : 0.581910014153, Q2 : -0.110267564654, Q3 : 0.0532095804811, Q4 : -0.803984165192}
2019-04-03 20:07:59.29: SIM {TimeUS : 124915847, Roll : -11.99, Pitch : -7.57, Yaw : 247.22, Alt : 587.700012207, Lat : -35.3632965, Lng : 149.165227, Q1 : 0.543624520302, Q2 : -0.112409807742, Q3 : 0.0504432395101, Q4 : -0.830236077309}
2019-04-03 20:07:59.39: SIM {TimeUS : 125015807, Roll : -11.51, Pitch : -8.44, Yaw : 242.07, Alt : 587.780029297, Lat : -35.363299, Lng : 149.1652267, Q1 : 0.505303263664, Q2 : -0.114313296974, Q3 : 0.0479520782828, Q4 : -0.853991746902}
2019-04-03 20:07:59.49: SIM {TimeUS : 125115767, Roll : -10.96, Pitch : -9.26, Yaw : 236.94, Alt : 587.869995117, Lat : -35.3633016, Lng : 149.1652263, Q1 : -0.466235876083, Q2 : 0.116121776402, Q3 : -0.0453992858529, Q4 : 0.875830352306}
2019-04-03 20:07:59.59: SIM {TimeUS : 125215727, Roll : -10.33, Pitch : -10.11, Yaw : 231.74, Alt : 587.960021973, Lat : -35.3633042, Lng : 149.165226, Q1 : -0.425772368908, Q2 : 0.118163332343, Q3 : -0.0423720665276, Q4 : 0.896080315113}
2019-04-03 20:07:59.69: SIM {TimeUS : 125315687, Roll : -9.58, Pitch : -11.0, Yaw : 226.39, Alt : 588.049987793, Lat : -35.3633069, Lng : 149.1652255, Q1 : -0.383371204138, Q2 : 0.12054219842, Q3 : -0.0387961864471, Q4 : 0.91487210989}
2019-04-03 20:07:59.80: SIM {TimeUS : 125416480, Roll : -8.64, Pitch : -11.92, Yaw : 220.8, Alt : 588.140014648, Lat : -35.3633096, Lng : 149.1652251, Q1 : -0.338370531797, Q2 : 0.123215451837, Q3 : -0.0341731272638, Q4 : 0.932285130024}
2019-04-03 20:07:59.90: SIM {TimeUS : 125516440, Roll : -7.5, Pitch : -12.81, Yaw : 215.03, Alt : 588.229980469, Lat : -35.3633125, Lng : 149.1652248, Q1 : -0.291467994452, Q2 : 0.125791981816, Q3 : -0.0285173039883, Q4 : 0.947844684124}
2019-04-03 20:08:00.00: SIM {TimeUS : 125616400, Roll : -6.13, Pitch : -13.63, Yaw : 209.04, Alt : 588.33001709, Lat : -35.3633154, Lng : 149.1652244, Q1 : -0.242501676083, Q2 : 0.128089591861, Q3 : -0.0216942895204, Q4 : 0.96141320467}
2019-04-03 20:08:00.10: SIM {TimeUS : 125716360, Roll : -4.58, Pitch : -14.31, Yaw : 202.88, Alt : 588.41998291, Lat : -35.3633182, Lng : 149.165224, Q1 : -0.191798597574, Q2 : 0.129895046353, Q3 : -0.0141629045829, Q4 : 0.972697257996}
2019-04-03 20:08:00.20: SIM {TimeUS : 125816320, Roll : -2.91, Pitch : -14.82, Yaw : 196.59, Alt : 588.520019531, Lat : -35.3633212, Lng : 149.1652236, Q1 : -0.139823690057, Q2 : 0.131241425872, Q3 : -0.00635622348636, Q4 : 0.981419682503}
2019-04-03 20:08:00.30: SIM {TimeUS : 125916280, Roll : -0.99, Pitch : -15.15, Yaw : 190.29, Alt : 588.609985352, Lat : -35.3633243, Lng : 149.1652231, Q1 : -0.0877706483006, Q2 : 0.132078677416, Q3 : 0.00323689798824, Q4 : 0.987340390682}
2019-04-03 20:08:00.40: SIM {TimeUS : 126016240, Roll : 1.32, Pitch : -15.24, Yaw : 184.4, Alt : 588.710021973, Lat : -35.3633274, Lng : 149.1652227, Q1 : -0.0396621339023, Q2 : 0.132057532668, Q3 : 0.0165638923645, Q4 : 0.990309774876}
2019-04-03 20:08:00.50: SIM {TimeUS : 126116200, Roll : 3.65, Pitch : -15.06, Yaw : 179.55, Alt : 588.799987793, Lat : -35.3633306, Lng : 149.1652224, Q1 : -0.000301065651001, Q2 : 0.131172016263, Q3 : 0.0311126075685, Q4 : 0.990871250629}
2019-04-03 20:08:00.60: SIM {TimeUS : 126216160, Roll : 5.5, Pitch : -14.73, Yaw : 176.13, Alt : 588.900024414, Lat : -35.3633338, Lng : 149.1652219, Q1 : 0.0272489413619, Q2 : 0.129640460014, Q3 : 0.0432810485363, Q4 : 0.99024116993}
2019-04-03 20:08:00.69: SIM {TimeUS : 126316120, Roll : 6.52, Pitch : -14.42, Yaw : 174.26, Alt : 589.0, Lat : -35.363337, Lng : 149.1652214, Q1 : 0.0423926487565, Q2 : 0.12800462544, Q3 : 0.0501166321337, Q4 : 0.989598929882}
2019-04-03 20:08:00.79: SIM {TimeUS : 126416080, Roll : 6.63, Pitch : -14.25, Yaw : 173.81, Alt : 589.090026855, Lat : -35.3633404, Lng : 149.1652207, Q1 : 0.0463013760746, Q2 : 0.126772090793, Q3 : 0.0506422035396, Q4 : 0.98955565691}
2019-04-03 20:08:00.89: SIM {TimeUS : 126516040, Roll : 5.92, Pitch : -14.31, Yaw : 174.51, Alt : 589.190002441, Lat : -35.3633437, Lng : 149.1652201, Q1 : 0.041021425277, Q2 : 0.126708522439, Q3 : 0.0452340953052, Q4 : 0.990058600903}
2019-04-03 20:08:00.99: SIM {TimeUS : 126616000, Roll : 4.6, Pitch : -14.57, Yaw : 176.07, Alt : 589.289978027, Lat : -35.363347, Lng : 149.1652193, Q1 : 0.0288104861975, Q2 : 0.128048077226, Q3 : 0.035485137254, Q4 : 0.990714132786}
2019-04-03 20:08:01.09: SIM {TimeUS : 126715960, Roll : 2.95, Pitch : -14.97, Yaw : 178.22, Alt : 589.380004883, Lat : -35.3633504, Lng : 149.1652186, Q1 : 0.0119504015893, Q2 : 0.130661264062, Q3 : 0.0235547441989, Q4 : 0.991075217724}
2019-04-03 20:08:01.19: SIM {TimeUS : 126815920, Roll : 1.23, Pitch : -15.39, Yaw : 180.67, Alt : 589.479980469, Lat : -35.3633538, Lng : 149.1652178, Q1 : -0.00727462628856, Q2 : 0.133845612407, Q3 : 0.011464103125, Q4 : 0.990909218788}
2019-04-03 20:08:01.29: SIM {TimeUS : 126915880, Roll : -0.35, Pitch : -15.71, Yaw : 183.11, Alt : 589.58001709, Lat : -35.3633572, Lng : 149.1652171, Q1 : -0.0264992155135, Q2 : 0.136698156595, Q3 : 0.000685540027916, Q4 : 0.990258038044}
2019-04-03 20:08:01.39: SIM {TimeUS : 127015840, Roll : -1.61, Pitch : -15.87, Yaw : 185.26, Alt : 589.679992676, Lat : -35.3633607, Lng : 149.1652164, Q1 : -0.0435698218644, Q2 : 0.138611555099, Q3 : -0.00761894835159, Q4 : 0.989358663559}
2019-04-03 20:08:01.49: SIM {TimeUS : 127115800, Roll : -2.47, Pitch : -15.9, Yaw : 186.93, Alt : 589.770019531, Lat : -35.3633643, Lng : 149.1652158, Q1 : -0.0568831898272, Q2 : 0.139388054609, Q3 : -0.0129546830431, Q4 : 0.988517820835}
2019-04-03 20:08:01.59: SIM {TimeUS : 127215760, Roll : -2.89, Pitch : -15.85, Yaw : 187.99, Alt : 589.869995117, Lat : -35.3633678, Lng : 149.1652152, Q1 : -0.0655415430665, Q2 : 0.139285221696, Q3 : -0.0153068285435, Q4 : 0.98796236515}
2019-04-03 20:08:01.69: SIM {TimeUS : 127315720, Roll : -2.93, Pitch : -15.78, Yaw : 188.43, Alt : 589.969970703, Lat : -35.3633714, Lng : 149.1652147, Q1 : -0.0693141147494, Q2 : 0.138787016273, Q3 : -0.0151889491826, Q4 : 0.987776815891}
2019-04-03 20:08:01.79: SIM {TimeUS : 127415680, Roll : -2.67, Pitch : -15.76, Yaw : 188.31, Alt : 590.070007324, Lat : -35.363375, Lng : 149.1652141, Q1 : -0.0685857236385, Q2 : 0.138453483582, Q3 : -0.0131486952305, Q4 : 0.98790371418}
2019-04-03 20:08:01.90: SIM {TimeUS : 127516473, Roll : -2.21, Pitch : -15.8, Yaw : 187.73, Alt : 590.159973145, Lat : -35.3633787, Lng : 149.1652136, Q1 : -0.0641296058893, Q2 : 0.138466820121, Q3 : -0.00980827771127, Q4 : 0.988239943981}
2019-04-03 20:08:02.00: SIM {TimeUS : 127616433, Roll : -1.62, Pitch : -15.88, Yaw : 186.84, Alt : 590.260009766, Lat : -35.3633824, Lng : 149.1652133, Q1 : -0.0571362376213, Q2 : 0.138742119074, Q3 : -0.00578387780115, Q4 : 0.988662064075}
2019-04-03 20:08:02.10: SIM {TimeUS : 127716393, Roll : -0.99, Pitch : -15.98, Yaw : 185.78, Alt : 590.359985352, Lat : -35.3633861, Lng : 149.1652128, Q1 : -0.048792861402, Q2 : 0.13926705718, Q3 : -0.00156496430282, Q4 : 0.989050805569}
2019-04-03 20:08:02.20: SIM {TimeUS : 127816353, Roll : -0.37, Pitch : -16.06, Yaw : 184.71, Alt : 590.460021973, Lat : -35.3633898, Lng : 149.1652125, Q1 : -0.0402694419026, Q2 : 0.139786317945, Q3 : 0.00250346469693, Q4 : 0.98935931921}
2019-04-03 20:08:02.30: SIM {TimeUS : 127916313, Roll : 0.17, Pitch : -16.13, Yaw : 183.74, Alt : 590.559997559, Lat : -35.3633935, Lng : 149.1652121, Q1 : -0.0325424037874, Q2 : 0.140193715692, Q3 : 0.00608258787543, Q4 : 0.989570498466}
2019-04-03 20:08:02.40: SIM {TimeUS : 128016273, Roll : 0.58, Pitch : -16.16, Yaw : 182.96, Alt : 590.650024414, Lat : -35.3633973, Lng : 149.1652116, Q1 : -0.0263004042208, Q2 : 0.14046138525, Q3 : 0.00865034852177, Q4 : 0.989698946476}
2019-04-03 20:08:02.50: SIM {TimeUS : 128116233, Roll : 0.82, Pitch : -16.18, Yaw : 182.42, Alt : 590.75, Lat : -35.3634012, Lng : 149.1652112, Q1 : -0.021973785013, Q2 : 0.140616744757, Q3 : 0.0101034147665, Q4 : 0.989768624306}
2019-04-03 20:08:02.60: SIM {TimeUS : 128216193, Roll : 0.92, Pitch : -16.19, Yaw : 182.14, Alt : 590.849975586, Lat : -35.363405, Lng : 149.1652109, Q1 : -0.0197071321309, Q2 : 0.140689536929, Q3 : 0.0106278341264, Q4 : 0.989800512791}
2019-04-03 20:08:02.69: SIM {TimeUS : 128316153, Roll : 0.89, Pitch : -16.21, Yaw : 182.11, Alt : 590.950012207, Lat : -35.3634088, Lng : 149.1652105, Q1 : -0.0193948112428, Q2 : 0.140849098563, Q3 : 0.0103608705103, Q4 : 0.989786863327}
2019-04-03 20:08:02.79: SIM {TimeUS : 128416113, Roll : 0.77, Pitch : -16.24, Yaw : 182.29, Alt : 591.049987793, Lat : -35.3634127, Lng : 149.1652101, Q1 : -0.0207371413708, Q2 : 0.141144037247, Q3 : 0.00949293095618, Q4 : 0.989726364613}
2019-04-03 20:08:02.89: SIM {TimeUS : 128516073, Roll : 0.54, Pitch : -16.28, Yaw : 182.61, Alt : 591.150024414, Lat : -35.3634166, Lng : 149.1652097, Q1 : -0.0232596024871, Q2 : 0.141530483961, Q3 : 0.00796763785183, Q4 : 0.989628493786}
2019-04-03 20:08:02.99: SIM {TimeUS : 128616033, Roll : 0.26, Pitch : -16.32, Yaw : 183.02, Alt : 591.239990234, Lat : -35.3634204, Lng : 149.1652092, Q1 : -0.0264865197241, Q2 : 0.14188683033, Q3 : 0.00606716331095, Q4 : 0.989509880543}
2019-04-03 20:08:03.09: SIM {TimeUS : 128715993, Roll : -0.02, Pitch : -16.34, Yaw : 183.47, Alt : 591.340026855, Lat : -35.3634245, Lng : 149.1652088, Q1 : -0.0299487374723, Q2 : 0.142126992345, Q3 : 0.00411635544151, Q4 : 0.989386737347}
2019-04-03 20:08:03.19: SIM {TimeUS : 128815953, Roll : -0.26, Pitch : -16.38, Yaw : 183.88, Alt : 591.440002441, Lat : -35.3634283, Lng : 149.1652085, Q1 : -0.0332584939897, Q2 : 0.142512634397, Q3 : 0.00253702979535, Q4 : 0.989230811596}
2019-04-03 20:08:03.29: SIM {TimeUS : 128915913, Roll : -0.44, Pitch : -16.43, Yaw : 184.24, Alt : 591.539978027, Lat : -35.3634324, Lng : 149.1652081, Q1 : -0.0361010283232, Q2 : 0.142976686358, Q3 : 0.00146653549746, Q4 : 0.989066362381}
2019-04-03 20:08:03.39: SIM {TimeUS : 129015873, Roll : -0.57, Pitch : -16.46, Yaw : 184.51, Alt : 591.640014648, Lat : -35.3634362, Lng : 149.1652077, Q1 : -0.038217548281, Q2 : 0.143307909369, Q3 : 0.00063654477708, Q4 : 0.988939762115}
2019-04-03 20:08:03.49: SIM {TimeUS : 129115833, Roll : -0.65, Pitch : -16.49, Yaw : 184.67, Alt : 591.729980469, Lat : -35.3634403, Lng : 149.1652073, Q1 : -0.0395433679223, Q2 : 0.143588170409, Q3 : 0.000195159649593, Q4 : 0.988847196102}
2019-04-03 20:08:03.59: SIM {TimeUS : 129215793, Roll : -0.64, Pitch : -16.52, Yaw : 184.74, Alt : 591.83001709, Lat : -35.3634443, Lng : 149.1652069, Q1 : -0.0401277914643, Q2 : 0.143829062581, Q3 : 0.000344306055922, Q4 : 0.988788604736}
2019-04-03 20:08:03.69: SIM {TimeUS : 129315753, Roll : -0.56, Pitch : -16.55, Yaw : 184.72, Alt : 591.929992676, Lat : -35.3634483, Lng : 149.1652066, Q1 : -0.0400880277157, Q2 : 0.144051656127, Q3 : 0.00108630314935, Q4 : 0.988757252693}
2019-04-03 20:08:03.79: SIM {TimeUS : 129415713, Roll : -0.43, Pitch : -16.58, Yaw : 184.64, Alt : 592.030029297, Lat : -35.3634524, Lng : 149.1652063, Q1 : -0.0395394414663, Q2 : 0.144244760275, Q3 : 0.00212465017103, Q4 : 0.988749504089}
2019-04-03 20:08:03.89: SIM {TimeUS : 129515673, Roll : -0.29, Pitch : -16.6, Yaw : 184.52, Alt : 592.130004883, Lat : -35.3634563, Lng : 149.1652059, Q1 : -0.0386691018939, Q2 : 0.14441858232, Q3 : 0.00318789249286, Q4 : 0.988755702972}
2019-04-03 20:08:04.00: SIM {TimeUS : 129616466, Roll : -0.16, Pitch : -16.63, Yaw : 184.38, Alt : 592.219970703, Lat : -35.3634604, Lng : 149.1652056, Q1 : -0.0376443825662, Q2 : 0.144571915269, Q3 : 0.00414640363306, Q4 : 0.988769292831}
2019-04-03 20:08:04.10: SIM {TimeUS : 129716426, Roll : -0.05, Pitch : -16.65, Yaw : 184.25, Alt : 592.320007324, Lat : -35.3634646, Lng : 149.1652053, Q1 : -0.0366674102843, Q2 : 0.144737824798, Q3 : 0.00490313442424, Q4 : 0.988778293133}
2019-04-03 20:08:04.20: SIM {TimeUS : 129816386, Roll : 0.03, Pitch : -16.67, Yaw : 184.15, Alt : 592.41998291, Lat : -35.3634687, Lng : 149.1652049, Q1 : -0.0358997806907, Q2 : 0.144928634167, Q3 : 0.0055460142903, Q4 : 0.988775074482}
2019-04-03 20:08:04.30: SIM {TimeUS : 129916346, Roll : 0.1, Pitch : -16.69, Yaw : 184.09, Alt : 592.520019531, Lat : -35.3634727, Lng : 149.1652045, Q1 : -0.0354467406869, Q2 : 0.145051345229, Q3 : 0.00606824271381, Q4 : 0.988770365715}
2019-04-03 20:08:04.40: SIM {TimeUS : 130016306, Roll : 0.12, Pitch : -16.7, Yaw : 184.07, Alt : 592.609985352, Lat : -35.3634768, Lng : 149.1652043, Q1 : -0.035318389535, Q2 : 0.145123228431, Q3 : 0.00628003664315, Q4 : 0.988763093948}
2019-04-03 20:08:04.50: SIM {TimeUS : 130116266, Roll : 0.12, Pitch : -16.7, Yaw : 184.09, Alt : 592.710021973, Lat : -35.363481, Lng : 149.1652039, Q1 : -0.0354974493384, Q2 : 0.145153224468, Q3 : 0.00624038698152, Q4 : 0.988752543926}
2019-04-03 20:08:04.60: SIM {TimeUS : 130216226, Roll : 0.07, Pitch : -16.7, Yaw : 184.15, Alt : 592.809997559, Lat : -35.3634852, Lng : 149.1652035, Q1 : -0.0359372869134, Q2 : 0.145142838359, Q3 : 0.00591360824183, Q4 : 0.98874014616}
2019-04-03 20:08:04.70: SIM {TimeUS : 130316186, Roll : 0.0, Pitch : -16.69, Yaw : 184.23, Alt : 592.909973145, Lat : -35.3634893, Lng : 149.1652031, Q1 : -0.0365916974843, Q2 : 0.145072251558, Q3 : 0.00544424168766, Q4 : 0.988729178905}
2019-04-03 20:08:04.79: SIM {TimeUS : 130416146, Roll : -0.05, Pitch : -16.67, Yaw : 184.34, Alt : 593.010009766, Lat : -35.3634935, Lng : 149.1652029, Q1 : -0.0374019369483, Q2 : 0.144929885864, Q3 : 0.00500619411469, Q4 : 0.988722085953}
2019-04-03 20:08:04.89: SIM {TimeUS : 130516106, Roll : -0.1, Pitch : -16.66, Yaw : 184.45, Alt : 593.099975586, Lat : -35.3634976, Lng : 149.1652025, Q1 : -0.0383034162223, Q2 : 0.144843220711, Q3 : 0.00475849583745, Q4 : 0.98870152235}
2019-04-03 20:08:04.99: SIM {TimeUS : 130616066, Roll : -0.13, Pitch : -16.68, Yaw : 184.56, Alt : 593.200012207, Lat : -35.3635018, Lng : 149.1652021, Q1 : -0.039210870862, Q2 : 0.145022019744, Q3 : 0.00463698431849, Q4 : 0.98864030838}
2019-04-03 20:08:05.09: SIM {TimeUS : 130716026, Roll : -0.15, Pitch : -16.73, Yaw : 184.66, Alt : 593.299987793, Lat : -35.363506, Lng : 149.1652018, Q1 : -0.0400508195162, Q2 : 0.145438537002, Q3 : 0.00459047593176, Q4 : 0.988545656204}
2019-04-03 20:08:05.19: SIM {TimeUS : 130815986, Roll : -0.16, Pitch : -16.78, Yaw : 184.74, Alt : 593.400024414, Lat : -35.3635102, Lng : 149.1652015, Q1 : -0.0407867357135, Q2 : 0.14592602849, Q3 : 0.00464179925621, Q4 : 0.988443493843}
2019-04-03 20:08:05.29: SIM {TimeUS : 130915946, Roll : -0.17, Pitch : -16.81, Yaw : 184.82, Alt : 593.489990234, Lat : -35.3635144, Lng : 149.1652011, Q1 : -0.0413763970137, Q2 : 0.146148532629, Q3 : 0.00464718136936, Q4 : 0.98838609457}
2019-04-03 20:08:05.39: SIM {TimeUS : 131015906, Roll : -0.18, Pitch : -16.81, Yaw : 184.87, Alt : 593.590026855, Lat : -35.3635186, Lng : 149.1652006, Q1 : -0.0418226197362, Q2 : 0.146160677075, Q3 : 0.00463935127482, Q4 : 0.988365530968}
2019-04-03 20:08:05.49: SIM {TimeUS : 131115866, Roll : -0.2, Pitch : -16.82, Yaw : 184.91, Alt : 593.690002441, Lat : -35.3635228, Lng : 149.1652004, Q1 : -0.0421213544905, Q2 : 0.146234408021, Q3 : 0.00449210125953, Q4 : 0.988342642784}
2019-04-03 20:08:05.59: SIM {TimeUS : 131215826, Roll : -0.23, Pitch : -16.82, Yaw : 184.93, Alt : 593.789978027, Lat : -35.363527, Lng : 149.1652, Q1 : -0.0422942340374, Q2 : 0.146292120218, Q3 : 0.0042826407589, Q4 : 0.988327622414}
2019-04-03 20:08:05.69: SIM {TimeUS : 131315786, Roll : -0.24, Pitch : -16.83, Yaw : 184.94, Alt : 593.890014648, Lat : -35.3635313, Lng : 149.1651996, Q1 : -0.0424012169242, Q2 : 0.146377161145, Q3 : 0.00424091238528, Q4 : 0.98831063509}
2019-04-03 20:08:05.79: SIM {TimeUS : 131415746, Roll : -0.23, Pitch : -16.86, Yaw : 184.95, Alt : 593.989990234, Lat : -35.3635355, Lng : 149.1651992, Q1 : -0.0424685031176, Q2 : 0.146631479263, Q3 : 0.00427725957707, Q4 : 0.988269865513}
2019-04-03 20:08:05.89: SIM {TimeUS : 131515706, Roll : -0.21, Pitch : -16.89, Yaw : 184.96, Alt : 594.08001709, Lat : -35.3635398, Lng : 149.1651989, Q1 : -0.0425407141447, Q2 : 0.14681994915, Q3 : 0.004517049063, Q4 : 0.988237738609}
2019-04-03 20:08:05.99: SIM {TimeUS : 131615666, Roll : -0.17, Pitch : -16.91, Yaw : 184.96, Alt : 594.179992676, Lat : -35.363544, Lng : 149.1651985, Q1 : -0.0426388010383, Q2 : 0.146989449859, Q3 : 0.00487379264086, Q4 : 0.988206624985}
2019-04-03 20:08:06.10: SIM {TimeUS : 131716459, Roll : -0.12, Pitch : -16.94, Yaw : 184.97, Alt : 594.280029297, Lat : -35.3635483, Lng : 149.1651981, Q1 : -0.0427644997835, Q2 : 0.147228077054, Q3 : 0.00527638569474, Q4 : 0.988163590431}
2019-04-03 20:08:06.20: SIM {TimeUS : 131816419, Roll : -0.09, Pitch : -16.98, Yaw : 184.98, Alt : 594.380004883, Lat : -35.3635526, Lng : 149.1651977, Q1 : -0.0429087243974, Q2 : 0.147543311119, Q3 : 0.00559026421979, Q4 : 0.988108634949}
2019-04-03 20:08:06.30: SIM {TimeUS : 131916379, Roll : -0.08, Pitch : -16.99, Yaw : 185.0, Alt : 594.479980469, Lat : -35.3635568, Lng : 149.1651973, Q1 : -0.0430962480605, Q2 : 0.147655203938, Q3 : 0.00570722157136, Q4 : 0.988083064556}
2019-04-03 20:08:06.40: SIM {TimeUS : 132016339, Roll : -0.09, Pitch : -16.97, Yaw : 185.03, Alt : 594.58001709, Lat : -35.3635611, Lng : 149.165197, Q1 : -0.0433319620788, Q2 : 0.147461980581, Q3 : 0.00569870509207, Q4 : 0.988101661205}
2019-04-03 20:08:06.50: SIM {TimeUS : 132116299, Roll : -0.1, Pitch : -16.94, Yaw : 185.07, Alt : 594.66998291, Lat : -35.3635654, Lng : 149.1651966, Q1 : -0.0436169356108, Q2 : 0.147220015526, Q3 : 0.00561296753585, Q4 : 0.988125681877}
2019-04-03 20:08:06.60: SIM {TimeUS : 132216259, Roll : -0.11, Pitch : -16.92, Yaw : 185.11, Alt : 594.770019531, Lat : -35.3635697, Lng : 149.1651962, Q1 : -0.0439615957439, Q2 : 0.147048741579, Q3 : 0.00559120811522, Q4 : 0.988135993481}
2019-04-03 20:08:06.70: SIM {TimeUS : 132316219, Roll : -0.1, Pitch : -16.93, Yaw : 185.15, Alt : 594.869995117, Lat : -35.363574, Lng : 149.1651958, Q1 : -0.0443401373923, Q2 : 0.147137820721, Q3 : 0.0057045086287, Q4 : 0.988105237484}
2019-04-03 20:08:06.80: SIM {TimeUS : 132416179, Roll : -0.11, Pitch : -16.97, Yaw : 185.19, Alt : 594.969970703, Lat : -35.3635783, Lng : 149.1651953, Q1 : -0.0446911156178, Q2 : 0.147454872727, Q3 : 0.00570243736729, Q4 : 0.98804217577}
2019-04-03 20:08:06.89: SIM {TimeUS : 132516139, Roll : -0.16, Pitch : -17.01, Yaw : 185.23, Alt : 595.070007324, Lat : -35.3635826, Lng : 149.1651949, Q1 : -0.0449738539755, Q2 : 0.147819325328, Q3 : 0.00537353754044, Q4 : 0.98797672987}
2019-04-03 20:08:06.99: SIM {TimeUS : 132616099, Roll : -0.19, Pitch : -17.05, Yaw : 185.27, Alt : 595.16998291, Lat : -35.3635869, Lng : 149.1651946, Q1 : -0.0452416725457, Q2 : 0.148231565952, Q3 : 0.00511093065143, Q4 : 0.987904071808}
2019-04-03 20:08:07.09: SIM {TimeUS : 132716059, Roll : -0.21, Pitch : -17.08, Yaw : 185.3, Alt : 595.260009766, Lat : -35.3635912, Lng : 149.1651942, Q1 : -0.0455086044967, Q2 : 0.148476630449, Q3 : 0.00504286307842, Q4 : 0.987855374813}
2019-04-03 20:08:07.19: SIM {TimeUS : 132816019, Roll : -0.21, Pitch : -17.08, Yaw : 185.33, Alt : 595.359985352, Lat : -35.3635954, Lng : 149.1651938, Q1 : -0.0457486249506, Q2 : 0.148428469896, Q3 : 0.00501682702452, Q4 : 0.98785161972}
2019-04-03 20:08:07.29: SIM {TimeUS : 132915979, Roll : -0.23, Pitch : -17.06, Yaw : 185.35, Alt : 595.460021973, Lat : -35.3635997, Lng : 149.1651934, Q1 : -0.0459280312061, Q2 : 0.148265585303, Q3 : 0.00494916224852, Q4 : 0.987868130207}
2019-04-03 20:08:07.39: SIM {TimeUS : 133015939, Roll : -0.24, Pitch : -17.04, Yaw : 185.37, Alt : 595.559997559, Lat : -35.363604, Lng : 149.1651929, Q1 : -0.0460717454553, Q2 : 0.14811219275, Q3 : 0.00484375050291, Q4 : 0.987884998322}
2019-04-03 20:08:07.49: SIM {TimeUS : 133115899, Roll : -0.23, Pitch : -17.05, Yaw : 185.39, Alt : 595.659973145, Lat : -35.3636085, Lng : 149.1651925, Q1 : -0.0462255291641, Q2 : 0.148225277662, Q3 : 0.0049354811199, Q4 : 0.987860381603}
2019-04-03 20:08:07.59: SIM {TimeUS : 133215859, Roll : -0.22, Pitch : -17.08, Yaw : 185.4, Alt : 595.760009766, Lat : -35.3636128, Lng : 149.165192, Q1 : -0.0463680289686, Q2 : 0.14843724668, Q3 : 0.00502755539492, Q4 : 0.987821400166}
2019-04-03 20:08:07.69: SIM {TimeUS : 133315819, Roll : -0.21, Pitch : -17.1, Yaw : 185.42, Alt : 595.849975586, Lat : -35.3636171, Lng : 149.1651916, Q1 : -0.0465241447091, Q2 : 0.14862921834, Q3 : 0.00521605694667, Q4 : 0.987784206867}
2019-04-03 20:08:07.79: SIM {TimeUS : 133415779, Roll : -0.19, Pitch : -17.12, Yaw : 185.44, Alt : 595.950012207, Lat : -35.3636215, Lng : 149.1651913, Q1 : -0.0466820783913, Q2 : 0.148760825396, Q3 : 0.0054002632387, Q4 : 0.987755954266}
2019-04-03 20:08:07.89: SIM {TimeUS : 133515739, Roll : -0.18, Pitch : -17.12, Yaw : 185.45, Alt : 596.049987793, Lat : -35.3636258, Lng : 149.1651908, Q1 : -0.0468281880021, Q2 : 0.148810386658, Q3 : 0.00549420900643, Q4 : 0.987741053104}
2019-04-03 20:08:07.99: SIM {TimeUS : 133615699, Roll : -0.18, Pitch : -17.11, Yaw : 185.47, Alt : 596.150024414, Lat : -35.3636301, Lng : 149.1651904, Q1 : -0.0469692088664, Q2 : 0.148728892207, Q3 : 0.00550593063235, Q4 : 0.987746596336}
2019-04-03 20:08:08.09: SIM {TimeUS : 133715659, Roll : -0.16, Pitch : -17.09, Yaw : 185.48, Alt : 596.25, Lat : -35.3636344, Lng : 149.16519, Q1 : -0.0471275001764, Q2 : 0.148525729775, Q3 : 0.00567099265754, Q4 : 0.98776870966}
2019-04-03 20:08:08.20: SIM {TimeUS : 133816452, Roll : -0.15, Pitch : -17.08, Yaw : 185.5, Alt : 596.349975586, Lat : -35.3636389, Lng : 149.1651895, Q1 : -0.0472790412605, Q2 : 0.148429661989, Q3 : 0.00577276293188, Q4 : 0.987775266171}
2019-04-03 20:08:08.30: SIM {TimeUS : 133916412, Roll : -0.15, Pitch : -17.08, Yaw : 185.52, Alt : 596.450012207, Lat : -35.3636433, Lng : 149.1651891, Q1 : -0.0474180988967, Q2 : 0.14842505753, Q3 : 0.00580585608259, Q4 : 0.987769126892}
2019-04-03 20:08:08.40: SIM {TimeUS : 134016372, Roll : -0.16, Pitch : -17.1, Yaw : 185.53, Alt : 596.549987793, Lat : -35.3636477, Lng : 149.1651886, Q1 : -0.0475450977683, Q2 : 0.148584604263, Q3 : 0.00579786580056, Q4 : 0.987739026546}
2019-04-03 20:08:08.50: SIM {TimeUS : 134116332, Roll : -0.16, Pitch : -17.13, Yaw : 185.55, Alt : 596.640014648, Lat : -35.363652, Lng : 149.1651882, Q1 : -0.0476814508438, Q2 : 0.148851752281, Q3 : 0.00580849219114, Q4 : 0.9876922369}
2019-04-03 20:08:08.60: SIM {TimeUS : 134216292, Roll : -0.15, Pitch : -17.15, Yaw : 185.56, Alt : 596.739990234, Lat : -35.3636563, Lng : 149.1651877, Q1 : -0.0478346906602, Q2 : 0.149059206247, Q3 : 0.00590425822884, Q4 : 0.987652957439}
2019-04-03 20:08:08.70: SIM {TimeUS : 134316252, Roll : -0.16, Pitch : -17.16, Yaw : 185.58, Alt : 596.840026855, Lat : -35.3636608, Lng : 149.1651873, Q1 : -0.0479787774384, Q2 : 0.14915843308, Q3 : 0.00585093349218, Q4 : 0.987631320953}
2019-04-03 20:08:08.80: SIM {TimeUS : 134416212, Roll : -0.18, Pitch : -17.15, Yaw : 185.6, Alt : 596.940002441, Lat : -35.3636651, Lng : 149.1651868, Q1 : -0.0481179654598, Q2 : 0.14908733964, Q3 : 0.00568776158616, Q4 : 0.987636208534}
2019-04-03 20:08:08.90: SIM {TimeUS : 134516172, Roll : -0.2, Pitch : -17.14, Yaw : 185.62, Alt : 597.039978027, Lat : -35.3636695, Lng : 149.1651865, Q1 : -0.0482592917979, Q2 : 0.148954167962, Q3 : 0.00556793762371, Q4 : 0.987650096416}
2019-04-03 20:08:08.99: SIM {TimeUS : 134616132, Roll : -0.2, Pitch : -17.12, Yaw : 185.64, Alt : 597.130004883, Lat : -35.3636738, Lng : 149.165186, Q1 : -0.048403672874, Q2 : 0.148803249002, Q3 : 0.00552064366639, Q4 : 0.987666070461}
2019-04-03 20:08:09.09: SIM {TimeUS : 134716092, Roll : -0.2, Pitch : -17.11, Yaw : 185.65, Alt : 597.229980469, Lat : -35.3636782, Lng : 149.1651856, Q1 : -0.0485547073185, Q2 : 0.148707106709, Q3 : 0.00557759869844, Q4 : 0.987672746181}
2019-04-03 20:08:09.19: SIM {TimeUS : 134816052, Roll : -0.19, Pitch : -17.1, Yaw : 185.67, Alt : 597.33001709, Lat : -35.3636826, Lng : 149.1651851, Q1 : -0.0487023927271, Q2 : 0.148616150022, Q3 : 0.00568782584742, Q4 : 0.987678587437}
2019-04-03 20:08:09.29: SIM {TimeUS : 134916012, Roll : -0.19, Pitch : -17.09, Yaw : 185.68, Alt : 597.41998291, Lat : -35.363687, Lng : 149.1651847, Q1 : -0.0488179512322, Q2 : 0.148538768291, Q3 : 0.00568955671042, Q4 : 0.987684547901}
2019-04-03 20:08:09.39: SIM {TimeUS : 135015972, Roll : -0.2, Pitch : -17.09, Yaw : 185.7, Alt : 597.520019531, Lat : -35.3636914, Lng : 149.1651842, Q1 : -0.0489117242396, Q2 : 0.148510456085, Q3 : 0.00566453579813, Q4 : 0.987684309483}
2019-04-03 20:08:09.49: SIM {TimeUS : 135115932, Roll : -0.18, Pitch : -17.09, Yaw : 185.7, Alt : 597.619995117, Lat : -35.3636957, Lng : 149.1651837, Q1 : -0.0490114465356, Q2 : 0.148553222418, Q3 : 0.00580726657063, Q4 : 0.98767209053}
2019-04-03 20:08:09.59: SIM {TimeUS : 135215892, Roll : -0.15, Pitch : -17.11, Yaw : 185.71, Alt : 597.710021973, Lat : -35.3637, Lng : 149.1651833, Q1 : -0.0491141751409, Q2 : 0.148695513606, Q3 : 0.00604761065915, Q4 : 0.987644076347}
2019-04-03 20:08:09.69: SIM {TimeUS : 135315852, Roll : -0.13, Pitch : -17.13, Yaw : 185.72, Alt : 597.809997559, Lat : -35.3637045, Lng : 149.1651828, Q1 : -0.049215208739, Q2 : 0.148818835616, Q3 : 0.00629958882928, Q4 : 0.987618923187}
2019-04-03 20:08:09.79: SIM {TimeUS : 135415812, Roll : -0.11, Pitch : -17.13, Yaw : 185.73, Alt : 597.900024414, Lat : -35.3637089, Lng : 149.1651824, Q1 : -0.0492939166725, Q2 : 0.148858636618, Q3 : 0.00646455632523, Q4 : 0.987607896328}
2019-04-03 20:08:09.89: SIM {TimeUS : 135515772, Roll : -0.1, Pitch : -17.12, Yaw : 185.73, Alt : 598.0, Lat : -35.3637133, Lng : 149.1651819, Q1 : -0.0493475683033, Q2 : 0.148724943399, Q3 : 0.00655403593555, Q4 : 0.987624824047}
2019-04-03 20:08:09.99: SIM {TimeUS : 135615732, Roll : -0.11, Pitch : -17.09, Yaw : 185.74, Alt : 598.099975586, Lat : -35.3637176, Lng : 149.1651814, Q1 : -0.0493761375546, Q2 : 0.148524612188, Q3 : 0.00647232867777, Q4 : 0.987654089928}
2019-04-03 20:08:10.09: SIM {TimeUS : 135715692, Roll : -0.11, Pitch : -17.07, Yaw : 185.74, Alt : 598.190002441, Lat : -35.3637219, Lng : 149.165181, Q1 : -0.0494117476046, Q2 : 0.148356661201, Q3 : 0.0064180130139, Q4 : 0.987677872181}
2019-04-03 20:08:10.20: SIM {TimeUS : 135816485, Roll : -0.12, Pitch : -17.07, Yaw : 185.75, Alt : 598.289978027, Lat : -35.3637265, Lng : 149.1651805, Q1 : -0.0494448654354, Q2 : 0.148344531655, Q3 : 0.00633460190147, Q4 : 0.987678587437}
2019-04-03 20:08:10.30: SIM {TimeUS : 135916445, Roll : -0.13, Pitch : -17.08, Yaw : 185.75, Alt : 598.390014648, Lat : -35.3637308, Lng : 149.16518, Q1 : -0.0494995936751, Q2 : 0.148384541273, Q3 : 0.00633558398113, Q4 : 0.987669885159}
2019-04-03 20:08:10.40: SIM {TimeUS : 136016405, Roll : -0.13, Pitch : -17.08, Yaw : 185.76, Alt : 598.479980469, Lat : -35.3637352, Lng : 149.1651795, Q1 : -0.0495505854487, Q2 : 0.148412123322, Q3 : 0.00634444970638, Q4 : 0.987663030624}
2019-04-03 20:08:10.50: SIM {TimeUS : 136116365, Roll : -0.13, Pitch : -17.08, Yaw : 185.76, Alt : 598.58001709, Lat : -35.3637395, Lng : 149.1651791, Q1 : -0.0495943538845, Q2 : 0.148402318358, Q3 : 0.0063151451759, Q4 : 0.987662553787}
2019-04-03 20:08:10.60: SIM {TimeUS : 136216325, Roll : -0.14, Pitch : -17.06, Yaw : 185.77, Alt : 598.66998291, Lat : -35.3637439, Lng : 149.1651786, Q1 : -0.0496245063841, Q2 : 0.148278549314, Q3 : 0.00619568070397, Q4 : 0.987680375576}
2019-04-03 20:08:10.70: SIM {TimeUS : 136316285, Roll : -0.15, Pitch : -17.04, Yaw : 185.77, Alt : 598.770019531, Lat : -35.3637484, Lng : 149.1651781, Q1 : -0.0496569983661, Q2 : 0.148088395596, Q3 : 0.00610965304077, Q4 : 0.987707793713}
2019-04-03 20:08:10.80: SIM {TimeUS : 136416245, Roll : -0.16, Pitch : -17.05, Yaw : 185.78, Alt : 598.869995117, Lat : -35.3637528, Lng : 149.1651776, Q1 : -0.0496818497777, Q2 : 0.148191422224, Q3 : 0.0060862256214, Q4 : 0.987691283226}
2019-04-03 20:08:10.90: SIM {TimeUS : 136516205, Roll : -0.16, Pitch : -17.08, Yaw : 185.78, Alt : 598.960021973, Lat : -35.3637571, Lng : 149.1651771, Q1 : -0.0496997311711, Q2 : 0.148381441832, Q3 : 0.00609046826139, Q4 : 0.987661778927}
2019-04-03 20:08:11.00: SIM {TimeUS : 136616165, Roll : -0.15, Pitch : -17.09, Yaw : 185.78, Alt : 599.059997559, Lat : -35.3637614, Lng : 149.1651767, Q1 : -0.0497181452811, Q2 : 0.14853875339, Q3 : 0.00615639705211, Q4 : 0.987636804581}
2019-04-03 20:08:11.09: SIM {TimeUS : 136716125, Roll : -0.13, Pitch : -17.09, Yaw : 185.78, Alt : 599.159973145, Lat : -35.3637659, Lng : 149.1651762, Q1 : -0.0497510060668, Q2 : 0.148491472006, Q3 : 0.00637979479507, Q4 : 0.987640857697}
2019-04-03 20:08:11.19: SIM {TimeUS : 136816085, Roll : -0.11, Pitch : -17.09, Yaw : 185.78, Alt : 599.25, Lat : -35.3637703, Lng : 149.1651757, Q1 : -0.0497607626021, Q2 : 0.148472741246, Q3 : 0.00651920493692, Q4 : 0.987642288208}
2019-04-03 20:08:11.29: SIM {TimeUS : 136916045, Roll : -0.1, Pitch : -17.1, Yaw : 185.78, Alt : 599.349975586, Lat : -35.3637747, Lng : 149.1651752, Q1 : -0.0497601181269, Q2 : 0.148576006293, Q3 : 0.00661549717188, Q4 : 0.987626135349}
2019-04-03 20:08:11.39: SIM {TimeUS : 137016005, Roll : -0.11, Pitch : -17.11, Yaw : 185.78, Alt : 599.450012207, Lat : -35.363779, Lng : 149.1651748, Q1 : -0.0497179329395, Q2 : 0.148699745536, Q3 : 0.00649901852012, Q4 : 0.987610399723}
2019-04-03 20:08:11.49: SIM {TimeUS : 137115965, Roll : -0.14, Pitch : -17.1, Yaw : 185.77, Alt : 599.539978027, Lat : -35.3637833, Lng : 149.1651743, Q1 : -0.0496580898762, Q2 : 0.148617774248, Q3 : 0.00626386236399, Q4 : 0.987627267838}
2019-04-03 20:08:11.59: SIM {TimeUS : 137215925, Roll : -0.16, Pitch : -17.09, Yaw : 185.77, Alt : 599.640014648, Lat : -35.3637878, Lng : 149.1651738, Q1 : -0.0496023893356, Q2 : 0.148542895913, Q3 : 0.00605000182986, Q4 : 0.987642705441}
2019-04-03 20:08:11.69: SIM {TimeUS : 137315885, Roll : -0.19, Pitch : -17.09, Yaw : 185.77, Alt : 599.739990234, Lat : -35.3637922, Lng : 149.1651733, Q1 : -0.0495440997183, Q2 : 0.148562908173, Q3 : 0.00583830382675, Q4 : 0.987643837929}
2019-04-03 20:08:11.79: SIM {TimeUS : 137415845, Roll : -0.21, Pitch : -17.11, Yaw : 185.76, Alt : 599.83001709, Lat : -35.3637966, Lng : 149.1651728, Q1 : -0.049480009824, Q2 : 0.148679956794, Q3 : 0.00562043255195, Q4 : 0.987630724907}
2019-04-03 20:08:11.89: SIM {TimeUS : 137515805, Roll : -0.22, Pitch : -17.11, Yaw : 185.76, Alt : 599.929992676, Lat : -35.3638009, Lng : 149.1651723, Q1 : -0.0494273640215, Q2 : 0.148749291897, Q3 : 0.00550553016365, Q4 : 0.98762357235}
2019-04-03 20:08:11.99: SIM {TimeUS : 137615765, Roll : -0.22, Pitch : -17.12, Yaw : 185.76, Alt : 600.030029297, Lat : -35.3638053, Lng : 149.1651719, Q1 : -0.0493938364089, Q2 : 0.148784250021, Q3 : 0.00554507691413, Q4 : 0.987619757652}
2019-04-03 20:08:12.09: SIM {TimeUS : 137715725, Roll : -0.22, Pitch : -17.13, Yaw : 185.75, Alt : 600.119995117, Lat : -35.3638098, Lng : 149.1651714, Q1 : -0.0493553243577, Q2 : 0.148869365454, Q3 : 0.00557363918051, Q4 : 0.987608671188}
2019-04-03 20:08:12.19: SIM {TimeUS : 137815685, Roll : -0.2, Pitch : -17.14, Yaw : 185.74, Alt : 600.219970703, Lat : -35.3638141, Lng : 149.1651709, Q1 : -0.0493154115975, Q2 : 0.149004310369, Q3 : 0.00567763810977, Q4 : 0.987589716911}
2019-04-03 20:08:12.30: SIM {TimeUS : 137916478, Roll : -0.18, Pitch : -17.16, Yaw : 185.74, Alt : 600.320007324, Lat : -35.3638186, Lng : 149.1651704, Q1 : -0.049278061837, Q2 : 0.149114727974, Q3 : 0.00586626585573, Q4 : 0.987573802471}
2019-04-03 20:08:12.40: SIM {TimeUS : 138016438, Roll : -0.17, Pitch : -17.16, Yaw : 185.73, Alt : 600.409973145, Lat : -35.3638228, Lng : 149.1651699, Q1 : -0.0492392666638, Q2 : 0.149163872004, Q3 : 0.0059766327031, Q4 : 0.987567663193}
2019-04-03 20:08:12.50: SIM {TimeUS : 138116398, Roll : -0.14, Pitch : -17.14, Yaw : 185.73, Alt : 600.510009766, Lat : -35.3638272, Lng : 149.1651694, Q1 : -0.0492418147624, Q2 : 0.148934140801, Q3 : 0.00622303877026, Q4 : 0.987600684166}
2019-04-03 20:08:12.60: SIM {TimeUS : 138216358, Roll : -0.13, Pitch : -17.1, Yaw : 185.72, Alt : 600.609985352, Lat : -35.3638317, Lng : 149.1651689, Q1 : -0.049233417958, Q2 : 0.148565769196, Q3 : 0.00627801613882, Q4 : 0.987656235695}
2019-04-03 20:08:12.70: SIM {TimeUS : 138316318, Roll : -0.12, Pitch : -17.06, Yaw : 185.72, Alt : 600.700012207, Lat : -35.3638361, Lng : 149.1651684, Q1 : -0.0492344424129, Q2 : 0.14823654294, Q3 : 0.00632416643202, Q4 : 0.987705409527}
2019-04-03 20:08:12.80: SIM {TimeUS : 138416278, Roll : -0.12, Pitch : -17.06, Yaw : 185.72, Alt : 600.799987793, Lat : -35.3638404, Lng : 149.1651679, Q1 : -0.0492406748235, Q2 : 0.148198693991, Q3 : 0.00636060442775, Q4 : 0.987710535526}
2019-04-03 20:08:12.90: SIM {TimeUS : 138516238, Roll : -0.1, Pitch : -17.06, Yaw : 185.72, Alt : 600.900024414, Lat : -35.3638448, Lng : 149.1651675, Q1 : -0.0492666400969, Q2 : 0.148270502687, Q3 : 0.00650613056496, Q4 : 0.987697482109}
2019-04-03 20:08:13.00: SIM {TimeUS : 138616198, Roll : -0.1, Pitch : -17.08, Yaw : 185.72, Alt : 600.989990234, Lat : -35.3638493, Lng : 149.165167, Q1 : -0.0492813102901, Q2 : 0.148425117135, Q3 : 0.00652940059081, Q4 : 0.987673401833}
2019-04-03 20:08:13.10: SIM {TimeUS : 138716158, Roll : -0.12, Pitch : -17.1, Yaw : 185.73, Alt : 601.090026855, Lat : -35.3638537, Lng : 149.1651665, Q1 : -0.0492718704045, Q2 : 0.148612394929, Q3 : 0.00637177843601, Q4 : 0.987646758556}
2019-04-03 20:08:13.19: SIM {TimeUS : 138816118, Roll : -0.14, Pitch : -17.12, Yaw : 185.73, Alt : 601.190002441, Lat : -35.3638581, Lng : 149.165166, Q1 : -0.0492645017803, Q2 : 0.148742884398, Q3 : 0.0062357368879, Q4 : 0.987628340721}
2019-04-03 20:08:13.29: SIM {TimeUS : 138916078, Roll : -0.13, Pitch : -17.12, Yaw : 185.73, Alt : 601.280029297, Lat : -35.3638624, Lng : 149.1651655, Q1 : -0.0492784231901, Q2 : 0.148745149374, Q3 : 0.00629698531702, Q4 : 0.98762691021}
2019-04-03 20:08:13.39: SIM {TimeUS : 139016038, Roll : -0.11, Pitch : -17.1, Yaw : 185.73, Alt : 601.380004883, Lat : -35.3638669, Lng : 149.165165, Q1 : -0.0493028089404, Q2 : 0.148619830608, Q3 : 0.00647939415649, Q4 : 0.987643361092}
2019-04-03 20:08:13.49: SIM {TimeUS : 139115998, Roll : -0.07, Pitch : -17.08, Yaw : 185.73, Alt : 601.479980469, Lat : -35.3638712, Lng : 149.1651645, Q1 : -0.049330547452, Q2 : 0.148434042931, Q3 : 0.00673979334533, Q4 : 0.987668156624}
2019-04-03 20:08:13.59: SIM {TimeUS : 139215958, Roll : -0.05, Pitch : -17.07, Yaw : 185.72, Alt : 601.570007324, Lat : -35.3638756, Lng : 149.165164, Q1 : -0.0493480600417, Q2 : 0.148281574249, Q3 : 0.00693419901654, Q4 : 0.987688839436}
2019-04-03 20:08:13.69: SIM {TimeUS : 139315918, Roll : -0.04, Pitch : -17.06, Yaw : 185.72, Alt : 601.66998291, Lat : -35.36388, Lng : 149.1651635, Q1 : -0.0493515692651, Q2 : 0.148220479488, Q3 : 0.00701313605532, Q4 : 0.987697303295}
2019-04-03 20:08:13.79: SIM {TimeUS : 139415878, Roll : -0.04, Pitch : -17.06, Yaw : 185.72, Alt : 601.760009766, Lat : -35.3638843, Lng : 149.1651631, Q1 : -0.0493453145027, Q2 : 0.148191586137, Q3 : 0.00702799204737, Q4 : 0.987701833248}
2019-04-03 20:08:13.89: SIM {TimeUS : 139515838, Roll : -0.03, Pitch : -17.05, Yaw : 185.72, Alt : 601.859985352, Lat : -35.3638888, Lng : 149.1651626, Q1 : -0.0493498072028, Q2 : 0.148137420416, Q3 : 0.00709104817361, Q4 : 0.987709283829}
2019-04-03 20:08:13.99: SIM {TimeUS : 139615798, Roll : -0.04, Pitch : -17.05, Yaw : 185.72, Alt : 601.960021973, Lat : -35.3638932, Lng : 149.1651621, Q1 : -0.0493273139, Q2 : 0.148140117526, Q3 : 0.00700005050749, Q4 : 0.987710654736}
2019-04-03 20:08:14.09: SIM {TimeUS : 139715758, Roll : -0.05, Pitch : -17.06, Yaw : 185.72, Alt : 602.049987793, Lat : -35.3638976, Lng : 149.1651616, Q1 : -0.0492970533669, Q2 : 0.148245900869, Q3 : 0.00690086139366, Q4 : 0.987696945667}
2019-04-03 20:08:14.19: SIM {TimeUS : 139815718, Roll : -0.06, Pitch : -17.09, Yaw : 185.72, Alt : 602.150024414, Lat : -35.3639019, Lng : 149.1651611, Q1 : -0.0492666512728, Q2 : 0.148440778255, Q3 : 0.00682577816769, Q4 : 0.987669765949}
2019-04-03 20:08:14.29: SIM {TimeUS : 139915678, Roll : -0.09, Pitch : -17.09, Yaw : 185.72, Alt : 602.25, Lat : -35.3639064, Lng : 149.1651606, Q1 : -0.0492202863097, Q2 : 0.148460835218, Q3 : 0.00660608196631, Q4 : 0.987670600414}
2019-04-03 20:08:14.40: SIM {TimeUS : 140016471, Roll : -0.17, Pitch : -17.04, Yaw : 185.71, Alt : 602.340026855, Lat : -35.3639108, Lng : 149.1651599, Q1 : -0.0490742959082, Q2 : 0.148077264428, Q3 : 0.00587418163195, Q4 : 0.987740039825}
2019-04-03 20:08:14.50: SIM {TimeUS : 140116431, Roll : -0.64, Pitch : -16.6, Yaw : 185.66, Alt : 602.429992676, Lat : -35.3639152, Lng : 149.1651594, Q1 : -0.0480755753815, Q2 : 0.144457027316, Q3 : 0.00153930240776, Q4 : 0.988341331482}
2019-04-03 20:08:14.60: SIM {TimeUS : 140216391, Roll : -1.6, Pitch : -15.76, Yaw : 185.47, Alt : 602.520019531, Lat : -35.3639195, Lng : 149.165159, Q1 : -0.0453671775758, Q2 : 0.137653842568, Q3 : -0.00731889298186, Q4 : 0.989413797855}
2019-04-03 20:08:14.70: SIM {TimeUS : 140316351, Roll : -2.76, Pitch : -14.88, Yaw : 185.05, Alt : 602.599975586, Lat : -35.3639237, Lng : 149.1651585, Q1 : -0.0405952595174, Q2 : 0.130422666669, Q3 : -0.0181622263044, Q4 : 0.990460574627}
2019-04-03 20:08:14.80: SIM {TimeUS : 140416311, Roll : -3.82, Pitch : -14.19, Yaw : 184.36, Alt : 602.66998291, Lat : -35.363928, Lng : 149.1651581, Q1 : -0.0336124375463, Q2 : 0.124662674963, Q3 : -0.0283901281655, Q4 : 0.991223216057}
2019-04-03 20:08:14.90: SIM {TimeUS : 140516271, Roll : -4.63, Pitch : -13.76, Yaw : 183.36, Alt : 602.729980469, Lat : -35.3639323, Lng : 149.1651579, Q1 : -0.0242943949997, Q2 : 0.12082375586, Q3 : -0.0366272032261, Q4 : 0.991700470448}
2019-04-03 20:08:15.00: SIM {TimeUS : 140616231, Roll : -5.19, Pitch : -13.55, Yaw : 182.06, Alt : 602.780029297, Lat : -35.3639364, Lng : 149.1651575, Q1 : -0.0125202145427, Q2 : 0.118673428893, Q3 : -0.0428932122886, Q4 : 0.991927444935}
2019-04-03 20:08:15.10: SIM {TimeUS : 140716191, Roll : -5.55, Pitch : -13.49, Yaw : 180.45, Alt : 602.83001709, Lat : -35.3639405, Lng : 149.1651575, Q1 : 0.0017160854768, Q2 : 0.117558211088, Q3 : -0.0476424768567, Q4 : 0.991921007633}
2019-04-03 20:08:15.19: SIM {TimeUS : 140816151, Roll : -5.78, Pitch : -13.51, Yaw : 178.56, Alt : 602.869995117, Lat : -35.3639444, Lng : 149.1651575, Q1 : 0.0183223225176, Q2 : 0.116855926812, Q3 : -0.0515486933291, Q4 : 0.991640925407}
2019-04-03 20:08:15.29: SIM {TimeUS : 140916111, Roll : -5.97, Pitch : -13.52, Yaw : 176.41, Alt : 602.900024414, Lat : -35.3639485, Lng : 149.1651575, Q1 : 0.0371251367033, Q2 : 0.115899369121, Q3 : -0.0554327592254, Q4 : 0.991017818451}
2019-04-03 20:08:15.39: SIM {TimeUS : 141016071, Roll : -6.19, Pitch : -13.51, Yaw : 174.05, Alt : 602.929992676, Lat : -35.3639523, Lng : 149.1651576, Q1 : 0.0578139163554, Q2 : 0.114566013217, Q3 : -0.0597085095942, Q4 : 0.989932835102}
2019-04-03 20:08:15.49: SIM {TimeUS : 141116031, Roll : -6.42, Pitch : -13.49, Yaw : 171.5, Alt : 602.950012207, Lat : -35.3639561, Lng : 149.165158, Q1 : 0.0800127983093, Q2 : 0.112885184586, Q3 : -0.064163222909, Q4 : 0.988300561905}
2019-04-03 20:08:15.59: SIM {TimeUS : 141215991, Roll : -6.63, Pitch : -13.51, Yaw : 168.82, Alt : 602.969970703, Lat : -35.36396, Lng : 149.1651585, Q1 : 0.103342100978, Q2 : 0.11127204448, Q3 : -0.0686509981751, Q4 : 0.986015200615}
2019-04-03 20:08:15.69: SIM {TimeUS : 141315951, Roll : -6.85, Pitch : -13.56, Yaw : 166.03, Alt : 602.989990234, Lat : -35.3639637, Lng : 149.165159, Q1 : 0.127524256706, Q2 : 0.109815753996, Q3 : -0.0732549801469, Q4 : 0.983011543751}
2019-04-03 20:08:15.79: SIM {TimeUS : 141415911, Roll : -7.05, Pitch : -13.69, Yaw : 163.17, Alt : 603.0, Lat : -35.3639673, Lng : 149.1651599, Q1 : 0.152279138565, Q2 : 0.10881678015, Q3 : -0.0778501704335, Q4 : 0.979239165783}
