2019-04-03 21:35:26.50: SIM {TimeUS : 103715997, Roll : 0.0, Pitch : 0.0, Yaw : 353.0, Alt : 584.090026855, Lat : -35.363261, Lng : 149.1652299, Q1 : 0.998134791851, Q2 : 0.0, Q3 : 0.0, Q4 : -0.0610485821962}
2019-04-03 21:35:26.60: SIM {TimeUS : 103815957, Roll : 0.0, Pitch : 0.0, Yaw : 353.0, Alt : 584.090026855, Lat : -35.363261, Lng : 149.1652299, Q1 : 0.998134791851, Q2 : 0.0, Q3 : 0.0, Q4 : -0.0610485821962}
2019-04-03 21:35:26.69: SIM {TimeUS : 103915917, Roll : 0.0, Pitch : 0.0, Yaw : 353.0, Alt : 584.090026855, Lat : -35.363261, Lng : 149.1652299, Q1 : 0.998134791851, Q2 : 0.0, Q3 : 0.0, Q4 : -0.0610485821962}
2019-04-03 21:35:26.79: SIM {TimeUS : 104015877, Roll : 0.0, Pitch : 0.0, Yaw : 353.0, Alt : 584.090026855, Lat : -35.363261, Lng : 149.1652299, Q1 : 0.998134791851, Q2 : 0.0, Q3 : 0.0, Q4 : -0.0610485821962}
2019-04-03 21:35:26.89: SIM {TimeUS : 104115837, Roll : 0.0, Pitch : 0.0, Yaw : 353.0, Alt : 584.090026855, Lat : -35.363261, Lng : 149.1652299, Q1 : 0.998134791851, Q2 : 0.0, Q3 : 0.0, Q4 : -0.0610485821962}
2019-04-03 21:35:26.99: SIM {TimeUS : 104215797, Roll : 0.0, Pitch : 0.0, Yaw : 353.0, Alt : 584.090026855, Lat : -35.363261, Lng : 149.1652299, Q1 : 0.998134791851, Q2 : 0.0, Q3 : 0.0, Q4 : -0.0610485821962}
2019-04-03 21:35:27.09: SIM {TimeUS : 104315757, Roll : 0.0, Pitch : 0.0, Yaw : 353.0, Alt : 584.090026855, Lat : -35.363261, Lng : 149.1652299, Q1 : 0.998134791851, Q2 : 0.0, Q3 : 0.0, Q4 : -0.0610485821962}
2019-04-03 21:35:27.19: SIM {TimeUS : 104415717, Roll : 0.0, Pitch : 0.0, Yaw : 353.0, Alt : 584.090026855, Lat : -35.363261, Lng : 149.1652299, Q1 : 0.998134791851, Q2 : 0.0, Q3 : 0.0, Q4 : -0.0610485821962}
2019-04-03 21:35:27.29: SIM {TimeUS : 104515677, Roll : 0.0, Pitch : 0.0, Yaw : 353.0, Alt : 584.090026855, Lat : -35.363261, Lng : 149.1652299, Q1 : 0.998134791851, Q2 : 0.0, Q3 : 0.0, Q4 : -0.0610485821962}
2019-04-03 21:35:27.40: SIM {TimeUS : 104616470, Roll : 0.0, Pitch : 0.0, Yaw : 353.0, Alt : 584.090026855, Lat : -35.363261, Lng : 149.1652299, Q1 : 0.998134791851, Q2 : 0.0, Q3 : 0.0, Q4 : -0.0610485821962}
2019-04-03 21:35:27.50: SIM {TimeUS : 104716430, Roll : 0.0, Pitch : 0.0, Yaw : 353.0, Alt : 584.090026855, Lat : -35.363261, Lng : 149.1652299, Q1 : 0.998134791851, Q2 : 0.0, Q3 : 0.0, Q4 : -0.0610485821962}
2019-04-03 21:35:27.60: SIM {TimeUS : 104816390, Roll : 0.0, Pitch : 0.0, Yaw : 353.0, Alt : 584.090026855, Lat : -35.363261, Lng : 149.1652299, Q1 : 0.998134791851, Q2 : 0.0, Q3 : 0.0, Q4 : -0.0610485821962}
2019-04-03 21:35:27.70: SIM {TimeUS : 104916350, Roll : 0.0, Pitch : 0.0, Yaw : 353.0, Alt : 584.090026855, Lat : -35.363261, Lng : 149.1652299, Q1 : 0.998134791851, Q2 : 0.0, Q3 : 0.0, Q4 : -0.0610485821962}
2019-04-03 21:35:27.80: SIM {TimeUS : 105016310, Roll : 0.0, Pitch : 0.0, Yaw : 353.0, Alt : 584.090026855, Lat : -35.363261, Lng : 149.1652299, Q1 : 0.998134791851, Q2 : 0.0, Q3 : 0.0, Q4 : -0.0610485821962}
2019-04-03 21:35:27.90: SIM {TimeUS : 105116270, Roll : 0.0, Pitch : 0.0, Yaw : 353.0, Alt : 584.090026855, Lat : -35.363261, Lng : 149.1652299, Q1 : 0.998134791851, Q2 : 0.0, Q3 : 0.0, Q4 : -0.0610485821962}
2019-04-03 21:35:28.00: SIM {TimeUS : 105216230, Roll : 0.0, Pitch : 0.0, Yaw : 353.0, Alt : 584.090026855, Lat : -35.363261, Lng : 149.1652299, Q1 : 0.998134791851, Q2 : 0.0, Q3 : 0.0, Q4 : -0.0610485821962}
2019-04-03 21:35:28.10: SIM {TimeUS : 105316190, Roll : 0.0, Pitch : 0.0, Yaw : 353.0, Alt : 584.090026855, Lat : -35.363261, Lng : 149.1652299, Q1 : 0.998134791851, Q2 : 0.0, Q3 : 0.0, Q4 : -0.0610485821962}
2019-04-03 21:35:28.20: SIM {TimeUS : 105416150, Roll : 0.0, Pitch : 0.0, Yaw : 353.0, Alt : 584.090026855, Lat : -35.363261, Lng : 149.1652299, Q1 : 0.998134791851, Q2 : 0.0, Q3 : 0.0, Q4 : -0.0610485821962}
2019-04-03 21:35:28.30: SIM {TimeUS : 105516110, Roll : 0.0, Pitch : 0.0, Yaw : 353.0, Alt : 584.090026855, Lat : -35.363261, Lng : 149.1652299, Q1 : 0.998134791851, Q2 : 0.0, Q3 : 0.0, Q4 : -0.0610485821962}
2019-04-03 21:35:28.40: SIM {TimeUS : 105616070, Roll : 0.0, Pitch : 0.0, Yaw : 353.0, Alt : 584.090026855, Lat : -35.363261, Lng : 149.1652299, Q1 : 0.998134791851, Q2 : 0.0, Q3 : 0.0, Q4 : -0.0610485821962}
2019-04-03 21:35:28.50: SIM {TimeUS : 105716030, Roll : 0.0, Pitch : 0.0, Yaw : 353.0, Alt : 584.090026855, Lat : -35.363261, Lng : 149.1652299, Q1 : 0.998134791851, Q2 : 0.0, Q3 : 0.0, Q4 : -0.0610485821962}
2019-04-03 21:35:28.60: SIM {TimeUS : 105815990, Roll : 0.0, Pitch : 0.0, Yaw : 353.0, Alt : 584.090026855, Lat : -35.363261, Lng : 149.1652299, Q1 : 0.998134791851, Q2 : 0.0, Q3 : 0.0, Q4 : -0.0610485821962}
2019-04-03 21:35:28.69: SIM {TimeUS : 105915950, Roll : 0.0, Pitch : 0.0, Yaw : 353.0, Alt : 584.090026855, Lat : -35.363261, Lng : 149.1652299, Q1 : 0.998134791851, Q2 : 0.0, Q3 : 0.0, Q4 : -0.0610485821962}
2019-04-03 21:35:28.79: SIM {TimeUS : 106015910, Roll : 0.0, Pitch : 0.0, Yaw : 353.0, Alt : 584.090026855, Lat : -35.363261, Lng : 149.1652299, Q1 : 0.998134791851, Q2 : 0.0, Q3 : 0.0, Q4 : -0.0610485821962}
2019-04-03 21:35:28.89: SIM {TimeUS : 106115870, Roll : 0.0, Pitch : 0.0, Yaw : 353.0, Alt : 584.090026855, Lat : -35.363261, Lng : 149.1652299, Q1 : 0.998134791851, Q2 : 0.0, Q3 : 0.0, Q4 : -0.0610485821962}
2019-04-03 21:35:28.99: SIM {TimeUS : 106215830, Roll : 0.0, Pitch : 0.0, Yaw : 353.0, Alt : 584.090026855, Lat : -35.363261, Lng : 149.1652299, Q1 : 0.998134791851, Q2 : 0.0, Q3 : 0.0, Q4 : -0.0610485821962}
2019-04-03 21:35:29.09: SIM {TimeUS : 106315790, Roll : 0.0, Pitch : 0.0, Yaw : 353.0, Alt : 584.090026855, Lat : -35.363261, Lng : 149.1652299, Q1 : 0.998134791851, Q2 : 0.0, Q3 : 0.0, Q4 : -0.0610485821962}
2019-04-03 21:35:29.19: SIM {TimeUS : 106415750, Roll : 0.0, Pitch : 0.0, Yaw : 353.0, Alt : 584.090026855, Lat : -35.363261, Lng : 149.1652299, Q1 : 0.998134791851, Q2 : 0.0, Q3 : 0.0, Q4 : -0.0610485821962}
2019-04-03 21:35:29.29: SIM {TimeUS : 106515710, Roll : 0.0, Pitch : 0.0, Yaw : 353.0, Alt : 584.090026855, Lat : -35.363261, Lng : 149.1652299, Q1 : 0.998134791851, Q2 : 0.0, Q3 : 0.0, Q4 : -0.0610485821962}
2019-04-03 21:35:29.39: SIM {TimeUS : 106615670, Roll : 0.0, Pitch : 0.0, Yaw : 353.0, Alt : 584.090026855, Lat : -35.363261, Lng : 149.1652299, Q1 : 0.998134791851, Q2 : 0.0, Q3 : 0.0, Q4 : -0.0610485821962}
2019-04-03 21:35:29.50: SIM {TimeUS : 106716463, Roll : 0.0, Pitch : 0.0, Yaw : 353.0, Alt : 584.090026855, Lat : -35.363261, Lng : 149.1652299, Q1 : 0.998134791851, Q2 : 0.0, Q3 : 0.0, Q4 : -0.0610485821962}
2019-04-03 21:35:29.60: SIM {TimeUS : 106816423, Roll : 0.0, Pitch : 0.0, Yaw : 353.0, Alt : 584.090026855, Lat : -35.363261, Lng : 149.1652299, Q1 : 0.998134791851, Q2 : 0.0, Q3 : 0.0, Q4 : -0.0610485821962}
2019-04-03 21:35:29.70: SIM {TimeUS : 106916383, Roll : 0.0, Pitch : 0.0, Yaw : 353.0, Alt : 584.090026855, Lat : -35.363261, Lng : 149.1652299, Q1 : 0.998134791851, Q2 : 0.0, Q3 : 0.0, Q4 : -0.0610485821962}
2019-04-03 21:35:29.80: SIM {TimeUS : 107016343, Roll : 0.0, Pitch : 0.0, Yaw : 353.0, Alt : 584.090026855, Lat : -35.363261, Lng : 149.1652299, Q1 : 0.998134791851, Q2 : 0.0, Q3 : 0.0, Q4 : -0.0610485821962}
2019-04-03 21:35:29.90: SIM {TimeUS : 107116303, Roll : 0.0, Pitch : 0.0, Yaw : 353.0, Alt : 584.090026855, Lat : -35.363261, Lng : 149.1652299, Q1 : 0.998134791851, Q2 : 0.0, Q3 : 0.0, Q4 : -0.0610485821962}
2019-04-03 21:35:30.00: SIM {TimeUS : 107216263, Roll : 0.0, Pitch : 0.0, Yaw : 353.0, Alt : 584.090026855, Lat : -35.363261, Lng : 149.1652299, Q1 : 0.998134791851, Q2 : 0.0, Q3 : 0.0, Q4 : -0.0610485821962}
2019-04-03 21:35:30.10: SIM {TimeUS : 107316223, Roll : 0.0, Pitch : 0.0, Yaw : 353.0, Alt : 584.090026855, Lat : -35.363261, Lng : 149.1652299, Q1 : 0.998134791851, Q2 : 0.0, Q3 : 0.0, Q4 : -0.0610485821962}
2019-04-03 21:35:30.20: SIM {TimeUS : 107416183, Roll : 0.0, Pitch : 0.0, Yaw : 353.0, Alt : 584.090026855, Lat : -35.363261, Lng : 149.1652299, Q1 : 0.998134791851, Q2 : 0.0, Q3 : 0.0, Q4 : -0.0610485821962}
2019-04-03 21:35:30.30: SIM {TimeUS : 107516143, Roll : 0.0, Pitch : 0.0, Yaw : 353.0, Alt : 584.090026855, Lat : -35.363261, Lng : 149.1652299, Q1 : 0.998134791851, Q2 : 0.0, Q3 : 0.0, Q4 : -0.0610485821962}
2019-04-03 21:35:30.40: SIM {TimeUS : 107616103, Roll : 0.0, Pitch : 0.0, Yaw : 353.0, Alt : 584.090026855, Lat : -35.363261, Lng : 149.1652299, Q1 : 0.998134791851, Q2 : 0.0, Q3 : 0.0, Q4 : -0.0610485821962}
2019-04-03 21:35:30.50: SIM {TimeUS : 107716063, Roll : 0.0, Pitch : 0.0, Yaw : 353.0, Alt : 584.090026855, Lat : -35.363261, Lng : 149.1652299, Q1 : 0.998134791851, Q2 : 0.0, Q3 : 0.0, Q4 : -0.0610485821962}
2019-04-03 21:35:30.60: SIM {TimeUS : 107816023, Roll : 0.0, Pitch : 0.0, Yaw : 353.0, Alt : 584.090026855, Lat : -35.363261, Lng : 149.1652299, Q1 : 0.998134791851, Q2 : 0.0, Q3 : 0.0, Q4 : -0.0610485821962}
2019-04-03 21:35:30.70: SIM {TimeUS : 107915983, Roll : 0.0, Pitch : 0.0, Yaw : 353.0, Alt : 584.090026855, Lat : -35.363261, Lng : 149.1652299, Q1 : 0.998134791851, Q2 : 0.0, Q3 : 0.0, Q4 : -0.0610485821962}
2019-04-03 21:35:30.79: SIM {TimeUS : 108015943, Roll : 0.0, Pitch : 0.0, Yaw : 353.0, Alt : 584.090026855, Lat : -35.363261, Lng : 149.1652299, Q1 : 0.998134791851, Q2 : 0.0, Q3 : 0.0, Q4 : -0.0610485821962}
2019-04-03 21:35:30.89: SIM {TimeUS : 108115903, Roll : 0.0, Pitch : 0.0, Yaw : 353.0, Alt : 584.090026855, Lat : -35.363261, Lng : 149.1652299, Q1 : 0.998134791851, Q2 : 0.0, Q3 : 0.0, Q4 : -0.0610485821962}
2019-04-03 21:35:30.99: SIM {TimeUS : 108215863, Roll : 0.0, Pitch : 0.0, Yaw : 353.0, Alt : 584.090026855, Lat : -35.363261, Lng : 149.1652299, Q1 : 0.998134791851, Q2 : 0.0, Q3 : 0.0, Q4 : -0.0610485821962}
2019-04-03 21:35:31.09: SIM {TimeUS : 108315823, Roll : 0.0, Pitch : 0.0, Yaw : 353.0, Alt : 584.090026855, Lat : -35.363261, Lng : 149.1652299, Q1 : 0.998134791851, Q2 : 0.0, Q3 : 0.0, Q4 : -0.0610485821962}
2019-04-03 21:35:31.19: SIM {TimeUS : 108415783, Roll : 0.0, Pitch : 0.0, Yaw : 353.0, Alt : 584.090026855, Lat : -35.363261, Lng : 149.1652299, Q1 : 0.998134791851, Q2 : 0.0, Q3 : 0.0, Q4 : -0.0610485821962}
2019-04-03 21:35:31.29: SIM {TimeUS : 108515743, Roll : 0.0, Pitch : 0.0, Yaw : 353.0, Alt : 584.090026855, Lat : -35.363261, Lng : 149.1652299, Q1 : 0.998134791851, Q2 : 0.0, Q3 : 0.0, Q4 : -0.0610485821962}
2019-04-03 21:35:31.39: SIM {TimeUS : 108615703, Roll : 0.0, Pitch : 0.0, Yaw : 353.0, Alt : 584.090026855, Lat : -35.363261, Lng : 149.1652299, Q1 : 0.998134791851, Q2 : 0.0, Q3 : 0.0, Q4 : -0.0610485821962}
2019-04-03 21:35:31.49: SIM {TimeUS : 108715663, Roll : 0.0, Pitch : 0.0, Yaw : 353.0, Alt : 584.090026855, Lat : -35.363261, Lng : 149.1652299, Q1 : 0.998134791851, Q2 : 0.0, Q3 : 0.0, Q4 : -0.0610485821962}
2019-04-03 21:35:31.60: SIM {TimeUS : 108816456, Roll : 0.0, Pitch : 0.0, Yaw : 353.0, Alt : 584.090026855, Lat : -35.363261, Lng : 149.1652299, Q1 : 0.998134791851, Q2 : 0.0, Q3 : 0.0, Q4 : -0.0610485821962}
2019-04-03 21:35:31.70: SIM {TimeUS : 108916416, Roll : 0.0, Pitch : 0.0, Yaw : 353.0, Alt : 584.090026855, Lat : -35.363261, Lng : 149.1652299, Q1 : 0.998134791851, Q2 : 0.0, Q3 : 0.0, Q4 : -0.0610485821962}
2019-04-03 21:35:31.80: SIM {TimeUS : 109016376, Roll : 0.0, Pitch : 0.0, Yaw : 353.0, Alt : 584.090026855, Lat : -35.363261, Lng : 149.1652299, Q1 : 0.998134791851, Q2 : 0.0, Q3 : 0.0, Q4 : -0.0610485821962}
2019-04-03 21:35:31.90: SIM {TimeUS : 109116336, Roll : 0.0, Pitch : 0.0, Yaw : 353.0, Alt : 584.090026855, Lat : -35.363261, Lng : 149.1652299, Q1 : 0.998134791851, Q2 : 0.0, Q3 : 0.0, Q4 : -0.0610485821962}
2019-04-03 21:35:32.00: SIM {TimeUS : 109216296, Roll : 0.0, Pitch : 0.0, Yaw : 353.0, Alt : 584.090026855, Lat : -35.363261, Lng : 149.1652299, Q1 : 0.998134791851, Q2 : 0.0, Q3 : 0.0, Q4 : -0.0610485821962}
2019-04-03 21:35:32.10: SIM {TimeUS : 109316256, Roll : 0.0, Pitch : 0.0, Yaw : 353.0, Alt : 584.090026855, Lat : -35.363261, Lng : 149.1652299, Q1 : 0.998134791851, Q2 : 0.0, Q3 : 0.0, Q4 : -0.0610485821962}
2019-04-03 21:35:32.20: SIM {TimeUS : 109416216, Roll : 0.0, Pitch : 0.0, Yaw : 353.0, Alt : 584.090026855, Lat : -35.363261, Lng : 149.1652299, Q1 : 0.998134791851, Q2 : 0.0, Q3 : 0.0, Q4 : -0.0610485821962}
2019-04-03 21:35:32.30: SIM {TimeUS : 109516176, Roll : 0.0, Pitch : 0.0, Yaw : 353.0, Alt : 584.090026855, Lat : -35.363261, Lng : 149.1652299, Q1 : 0.998134791851, Q2 : 0.0, Q3 : 0.0, Q4 : -0.0610485821962}
2019-04-03 21:35:32.40: SIM {TimeUS : 109616136, Roll : 0.0, Pitch : 0.0, Yaw : 353.0, Alt : 584.090026855, Lat : -35.363261, Lng : 149.1652299, Q1 : 0.998134791851, Q2 : 0.0, Q3 : 0.0, Q4 : -0.0610485821962}
2019-04-03 21:35:32.50: SIM {TimeUS : 109716096, Roll : 0.0, Pitch : 0.0, Yaw : 353.0, Alt : 584.090026855, Lat : -35.363261, Lng : 149.1652299, Q1 : 0.998134791851, Q2 : 0.0, Q3 : 0.0, Q4 : -0.0610485821962}
2019-04-03 21:35:32.60: SIM {TimeUS : 109816056, Roll : 0.0, Pitch : 0.0, Yaw : 353.0, Alt : 584.090026855, Lat : -35.363261, Lng : 149.1652299, Q1 : 0.998134791851, Q2 : 0.0, Q3 : 0.0, Q4 : -0.0610485821962}
2019-04-03 21:35:32.70: SIM {TimeUS : 109916016, Roll : 0.0, Pitch : 0.0, Yaw : 353.0, Alt : 584.090026855, Lat : -35.363261, Lng : 149.1652299, Q1 : 0.998134791851, Q2 : 0.0, Q3 : 0.0, Q4 : -0.0610485821962}
2019-04-03 21:35:32.80: SIM {TimeUS : 110015976, Roll : 0.0, Pitch : 0.0, Yaw : 353.0, Alt : 584.090026855, Lat : -35.363261, Lng : 149.1652299, Q1 : 0.998134791851, Q2 : 0.0, Q3 : 0.0, Q4 : -0.0610485821962}
2019-04-03 21:35:32.89: SIM {TimeUS : 110115936, Roll : 0.0, Pitch : 0.0, Yaw : 353.0, Alt : 584.090026855, Lat : -35.363261, Lng : 149.1652299, Q1 : 0.998134791851, Q2 : 0.0, Q3 : 0.0, Q4 : -0.0610485821962}
2019-04-03 21:35:32.99: SIM {TimeUS : 110215896, Roll : 0.0, Pitch : 0.0, Yaw : 353.0, Alt : 584.090026855, Lat : -35.363261, Lng : 149.1652299, Q1 : 0.998134791851, Q2 : 0.0, Q3 : 0.0, Q4 : -0.0610485821962}
2019-04-03 21:35:33.09: SIM {TimeUS : 110315856, Roll : 0.0, Pitch : 0.0, Yaw : 353.0, Alt : 584.090026855, Lat : -35.363261, Lng : 149.1652299, Q1 : 0.998134791851, Q2 : 0.0, Q3 : 0.0, Q4 : -0.0610485821962}
2019-04-03 21:35:33.19: SIM {TimeUS : 110415816, Roll : 0.0, Pitch : 0.0, Yaw : 353.0, Alt : 584.090026855, Lat : -35.363261, Lng : 149.1652299, Q1 : 0.998134791851, Q2 : 0.0, Q3 : 0.0, Q4 : -0.0610485821962}
2019-04-03 21:35:33.29: SIM {TimeUS : 110515776, Roll : 0.0, Pitch : 0.0, Yaw : 353.0, Alt : 584.090026855, Lat : -35.363261, Lng : 149.1652299, Q1 : 0.998134791851, Q2 : 0.0, Q3 : 0.0, Q4 : -0.0610485821962}
2019-04-03 21:35:33.39: SIM {TimeUS : 110615736, Roll : 0.0, Pitch : 0.0, Yaw : 353.0, Alt : 584.090026855, Lat : -35.363261, Lng : 149.1652299, Q1 : 0.998134791851, Q2 : 0.0, Q3 : 0.0, Q4 : -0.0610485821962}
2019-04-03 21:35:33.49: SIM {TimeUS : 110715696, Roll : 0.0, Pitch : 0.0, Yaw : 353.0, Alt : 584.090026855, Lat : -35.363261, Lng : 149.1652299, Q1 : 0.998134791851, Q2 : 0.0, Q3 : 0.0, Q4 : -0.0610485821962}
2019-04-03 21:35:33.60: SIM {TimeUS : 110816489, Roll : 0.0, Pitch : 0.0, Yaw : 353.0, Alt : 584.090026855, Lat : -35.363261, Lng : 149.1652299, Q1 : 0.998134791851, Q2 : 0.0, Q3 : 0.0, Q4 : -0.0610485821962}
2019-04-03 21:35:33.70: SIM {TimeUS : 110916449, Roll : 0.0, Pitch : 0.0, Yaw : 353.0, Alt : 584.090026855, Lat : -35.363261, Lng : 149.1652299, Q1 : 0.998134791851, Q2 : 0.0, Q3 : 0.0, Q4 : -0.0610485821962}
2019-04-03 21:35:33.80: SIM {TimeUS : 111016409, Roll : 0.0, Pitch : 0.0, Yaw : 353.0, Alt : 584.090026855, Lat : -35.363261, Lng : 149.1652299, Q1 : 0.998134791851, Q2 : 0.0, Q3 : 0.0, Q4 : -0.0610486753285}
2019-04-03 21:35:33.90: SIM {TimeUS : 111116369, Roll : 0.0, Pitch : 0.0, Yaw : 353.0, Alt : 584.090026855, Lat : -35.363261, Lng : 149.1652299, Q1 : 0.998134791851, Q2 : 0.0, Q3 : 0.0, Q4 : -0.0610486753285}
2019-04-03 21:35:34.00: SIM {TimeUS : 111216329, Roll : 0.0, Pitch : 0.0, Yaw : 353.0, Alt : 584.090026855, Lat : -35.363261, Lng : 149.1652299, Q1 : 0.998134791851, Q2 : 0.0, Q3 : 0.0, Q4 : -0.0610486753285}
2019-04-03 21:35:34.10: SIM {TimeUS : 111316289, Roll : 0.0, Pitch : 0.0, Yaw : 353.0, Alt : 584.090026855, Lat : -35.363261, Lng : 149.1652299, Q1 : 0.998134791851, Q2 : 0.0, Q3 : 0.0, Q4 : -0.0610486753285}
2019-04-03 21:35:34.20: SIM {TimeUS : 111416249, Roll : 0.0, Pitch : 0.0, Yaw : 353.0, Alt : 584.090026855, Lat : -35.363261, Lng : 149.1652299, Q1 : 0.998134791851, Q2 : 0.0, Q3 : 0.0, Q4 : -0.0610486753285}
2019-04-03 21:35:34.30: SIM {TimeUS : 111516209, Roll : 0.0, Pitch : 0.0, Yaw : 353.0, Alt : 584.090026855, Lat : -35.363261, Lng : 149.1652299, Q1 : 0.998134791851, Q2 : 0.0, Q3 : 0.0, Q4 : -0.0610486753285}
2019-04-03 21:35:34.40: SIM {TimeUS : 111616169, Roll : 0.0, Pitch : 0.0, Yaw : 353.0, Alt : 584.090026855, Lat : -35.363261, Lng : 149.1652299, Q1 : 0.998134791851, Q2 : 0.0, Q3 : 0.0, Q4 : -0.0610486753285}
2019-04-03 21:35:34.50: SIM {TimeUS : 111716129, Roll : 0.0, Pitch : 0.0, Yaw : 353.0, Alt : 584.090026855, Lat : -35.363261, Lng : 149.1652299, Q1 : 0.998134791851, Q2 : 0.0, Q3 : 0.0, Q4 : -0.0610486753285}
2019-04-03 21:35:34.60: SIM {TimeUS : 111816089, Roll : 0.0, Pitch : 0.0, Yaw : 353.0, Alt : 584.099975586, Lat : -35.363261, Lng : 149.1652299, Q1 : 0.998134791851, Q2 : 0.0, Q3 : 0.0, Q4 : -0.0610486753285}
2019-04-03 21:35:34.70: SIM {TimeUS : 111916049, Roll : 0.0, Pitch : 0.0, Yaw : 353.0, Alt : 584.099975586, Lat : -35.363261, Lng : 149.1652299, Q1 : 0.998134791851, Q2 : 0.0, Q3 : 0.0, Q4 : -0.0610486753285}
2019-04-03 21:35:34.80: SIM {TimeUS : 112016009, Roll : 0.0, Pitch : 0.0, Yaw : 353.0, Alt : 584.119995117, Lat : -35.363261, Lng : 149.1652299, Q1 : 0.998134791851, Q2 : 0.0, Q3 : 0.0, Q4 : -0.0610486753285}
2019-04-03 21:35:34.90: SIM {TimeUS : 112115969, Roll : 0.0, Pitch : 0.0, Yaw : 353.0, Alt : 584.140014648, Lat : -35.363261, Lng : 149.1652299, Q1 : 0.998134791851, Q2 : 0.0, Q3 : 0.0, Q4 : -0.0610486753285}
2019-04-03 21:35:34.99: SIM {TimeUS : 112215929, Roll : 0.0, Pitch : 0.0, Yaw : 353.0, Alt : 584.16998291, Lat : -35.363261, Lng : 149.1652299, Q1 : 0.998134791851, Q2 : 0.0, Q3 : 0.0, Q4 : -0.0610486753285}
2019-04-03 21:35:35.09: SIM {TimeUS : 112315889, Roll : 0.0, Pitch : 0.0, Yaw : 353.0, Alt : 584.210021973, Lat : -35.363261, Lng : 149.1652299, Q1 : 0.998134791851, Q2 : 0.0, Q3 : 0.0, Q4 : -0.0610486753285}
2019-04-03 21:35:35.19: SIM {TimeUS : 112415849, Roll : -0.02, Pitch : -0.03, Yaw : 352.99, Alt : 584.260009766, Lat : -35.363261, Lng : 149.1652299, Q1 : 0.998134255409, Q2 : -0.000242510417593, Q3 : -0.000278584804619, Q4 : -0.0610559694469}
2019-04-03 21:35:35.29: SIM {TimeUS : 112515809, Roll : -0.08, Pitch : -0.11, Yaw : 352.99, Alt : 584.359985352, Lat : -35.363261, Lng : 149.1652299, Q1 : 0.998131930828, Q2 : -0.000836811843328, Q3 : -0.000987019739114, Q4 : -0.0610818043351}
2019-04-03 21:35:35.39: SIM {TimeUS : 112615769, Roll : -0.19, Pitch : -0.21, Yaw : 352.99, Alt : 584.510009766, Lat : -35.363261, Lng : 149.1652299, Q1 : 0.998127222061, Q2 : -0.00185249943752, Q3 : -0.00175923446659, Q4 : -0.0611199662089}
2019-04-03 21:35:35.49: SIM {TimeUS : 112715729, Roll : -0.29, Pitch : -0.26, Yaw : 352.98, Alt : 584.66998291, Lat : -35.363261, Lng : 149.1652299, Q1 : 0.998121440411, Q2 : -0.0027032229118, Q3 : -0.00213998858817, Q4 : -0.0611690580845}
2019-04-03 21:35:35.59: SIM {TimeUS : 112815689, Roll : -0.32, Pitch : -0.26, Yaw : 352.98, Alt : 584.820007324, Lat : -35.363261, Lng : 149.1652299, Q1 : 0.998117685318, Q2 : -0.00295839016326, Q3 : -0.00213131145574, Q4 : -0.0612189918756}
2019-04-03 21:35:35.70: SIM {TimeUS : 112916482, Roll : -0.26, Pitch : -0.21, Yaw : 352.97, Alt : 584.969970703, Lat : -35.363261, Lng : 149.1652299, Q1 : 0.998117148876, Q2 : -0.00242517655715, Q3 : -0.00174273154698, Q4 : -0.0612641498446}
2019-04-03 21:35:35.80: SIM {TimeUS : 113016442, Roll : -0.16, Pitch : -0.15, Yaw : 352.97, Alt : 585.130004883, Lat : -35.363261, Lng : 149.1652299, Q1 : 0.998117148876, Q2 : -0.00151902763173, Q3 : -0.00124360236805, Q4 : -0.0613055415452}
2019-04-03 21:35:35.90: SIM {TimeUS : 113116402, Roll : -0.05, Pitch : -0.08, Yaw : 352.96, Alt : 585.280029297, Lat : -35.363261, Lng : 149.1652299, Q1 : 0.998116791248, Q2 : -0.000563649344258, Q3 : -0.000705570972059, Q4 : -0.0613351799548}
2019-04-03 21:35:36.00: SIM {TimeUS : 113216362, Roll : 0.02, Pitch : -0.03, Yaw : 352.96, Alt : 585.450012207, Lat : -35.363261, Lng : 149.1652298, Q1 : 0.998115956783, Q2 : 0.000167986232555, Q3 : -0.000307614624035, Q4 : -0.0613547451794}
2019-04-03 21:35:36.10: SIM {TimeUS : 113316322, Roll : 0.09, Pitch : -0.01, Yaw : 352.96, Alt : 585.619995117, Lat : -35.363261, Lng : 149.1652298, Q1 : 0.998115062714, Q2 : 0.000852986471727, Q3 : -0.000161300122272, Q4 : -0.0613641366363}
2019-04-03 21:35:36.20: SIM {TimeUS : 113416282, Roll : 0.14, Pitch : -0.02, Yaw : 352.96, Alt : 585.799987793, Lat : -35.363261, Lng : 149.1652298, Q1 : 0.998114526272, Q2 : 0.00128853588831, Q3 : -0.000275584781775, Q4 : -0.0613648965955}
2019-04-03 21:35:36.30: SIM {TimeUS : 113516242, Roll : 0.16, Pitch : -0.02, Yaw : 352.96, Alt : 585.979980469, Lat : -35.3632609, Lng : 149.1652298, Q1 : 0.99811476469, Q2 : 0.0014600440627, Q3 : -0.000271718745353, Q4 : -0.0613574124873}
2019-04-03 21:35:36.40: SIM {TimeUS : 113616202, Roll : 0.14, Pitch : -0.01, Yaw : 352.96, Alt : 586.16998291, Lat : -35.3632609, Lng : 149.1652298, Q1 : 0.998115301132, Q2 : 0.00121805770323, Q3 : -0.000180429808097, Q4 : -0.0613547973335}
2019-04-03 21:35:36.50: SIM {TimeUS : 113716162, Roll : 0.09, Pitch : 0.0, Yaw : 352.96, Alt : 586.359985352, Lat : -35.3632609, Lng : 149.1652298, Q1 : 0.998115599155, Q2 : 0.000803689239547, Q3 : -0.0001085207914, Q4 : -0.0613561496139}
2019-04-03 21:35:36.60: SIM {TimeUS : 113816122, Roll : 0.04, Pitch : 0.0, Yaw : 352.96, Alt : 586.549987793, Lat : -35.3632609, Lng : 149.1652298, Q1 : 0.998115837574, Q2 : 0.000390012486605, Q3 : -4.35528418166e-05, Q4 : -0.061356946826}
2019-04-03 21:35:36.70: SIM {TimeUS : 113916082, Roll : 0.0, Pitch : 0.0, Yaw : 352.96, Alt : 586.739990234, Lat : -35.3632609, Lng : 149.1652298, Q1 : 0.998115897179, Q2 : 7.50373656047e-05, Q3 : 8.26271570986e-06, Q4 : -0.0613565817475}
2019-04-03 21:35:36.80: SIM {TimeUS : 114016042, Roll : -0.01, Pitch : 0.01, Yaw : 352.96, Alt : 586.940002441, Lat : -35.3632609, Lng : 149.1652298, Q1 : 0.998115837574, Q2 : -0.000135331167257, Q3 : 0.000127825202071, Q4 : -0.0613572560251}
2019-04-03 21:35:36.90: SIM {TimeUS : 114116002, Roll : -0.01, Pitch : 0.02, Yaw : 352.96, Alt : 587.140014648, Lat : -35.3632609, Lng : 149.1652298, Q1 : 0.998115777969, Q2 : -0.000162113734405, Q3 : 0.000196787485038, Q4 : -0.0613588280976}
2019-04-03 21:35:37.00: SIM {TimeUS : 114215962, Roll : -0.01, Pitch : 0.02, Yaw : 352.96, Alt : 587.340026855, Lat : -35.3632609, Lng : 149.1652298, Q1 : 0.998115599155, Q2 : -0.000126839469885, Q3 : 0.000216126165469, Q4 : -0.0613613910973}
2019-04-03 21:35:37.09: SIM {TimeUS : 114315922, Roll : 0.01, Pitch : 0.03, Yaw : 352.96, Alt : 587.549987793, Lat : -35.3632608, Lng : 149.1652297, Q1 : 0.998116135597, Q2 : 0.00018988433294, Q3 : 0.000322240404785, Q4 : -0.0613519325852}
2019-04-03 21:35:37.19: SIM {TimeUS : 114415882, Roll : 0.05, Pitch : 0.04, Yaw : 352.96, Alt : 587.75, Lat : -35.3632608, Lng : 149.1652297, Q1 : 0.998116612434, Q2 : 0.000485565251438, Q3 : 0.000375161762349, Q4 : -0.061342664063}
2019-04-03 21:35:37.29: SIM {TimeUS : 114515842, Roll : 0.06, Pitch : 0.04, Yaw : 352.96, Alt : 587.960021973, Lat : -35.3632608, Lng : 149.1652297, Q1 : 0.998116314411, Q2 : 0.000556934333872, Q3 : 0.000355561962351, Q4 : -0.0613460727036}
2019-04-03 21:35:37.39: SIM {TimeUS : 114615802, Roll : 0.05, Pitch : 0.06, Yaw : 352.96, Alt : 588.16998291, Lat : -35.3632608, Lng : 149.1652297, Q1 : 0.998115718365, Q2 : 0.000522256246768, Q3 : 0.000521883950569, Q4 : -0.0613554790616}
2019-04-03 21:35:37.49: SIM {TimeUS : 114715762, Roll : 0.0, Pitch : 0.08, Yaw : 352.96, Alt : 588.369995117, Lat : -35.3632608, Lng : 149.1652297, Q1 : 0.998114466667, Q2 : 0.000126355153043, Q3 : 0.000754170236178, Q4 : -0.0613756887615}
2019-04-03 21:35:37.59: SIM {TimeUS : 114815722, Roll : -0.03, Pitch : 0.07, Yaw : 352.95, Alt : 588.570007324, Lat : -35.3632608, Lng : 149.1652297, Q1 : 0.998112380505, Q2 : -0.000243374583079, Q3 : 0.000698857649695, Q4 : -0.0614094920456}
2019-04-03 21:35:37.69: SIM {TimeUS : 114915682, Roll : -0.04, Pitch : 0.06, Yaw : 352.95, Alt : 588.75, Lat : -35.3632608, Lng : 149.1652297, Q1 : 0.998109400272, Q2 : -0.000386564206565, Q3 : 0.000556669023354, Q4 : -0.0614587627351}
2019-04-03 21:35:37.80: SIM {TimeUS : 115016475, Roll : -0.06, Pitch : 0.04, Yaw : 352.94, Alt : 588.91998291, Lat : -35.3632608, Lng : 149.1652297, Q1 : 0.998106002808, Q2 : -0.000533260637894, Q3 : 0.00045578693971, Q4 : -0.0615134388208}
2019-04-03 21:35:37.90: SIM {TimeUS : 115116435, Roll : -0.07, Pitch : 0.0, Yaw : 352.94, Alt : 589.08001709, Lat : -35.3632608, Lng : 149.1652297, Q1 : 0.998102784157, Q2 : -0.000629794725683, Q3 : -1.67480066011e-05, Q4 : -0.0615663640201}
2019-04-03 21:35:38.00: SIM {TimeUS : 115216395, Roll : -0.07, Pitch : -0.27, Yaw : 352.93, Alt : 589.229980469, Lat : -35.3632608, Lng : 149.1652297, Q1 : 0.998096704483, Q2 : -0.000779769325163, Q3 : -0.00239885225892, Q4 : -0.0616167634726}
2019-04-03 21:35:38.10: SIM {TimeUS : 115316355, Roll : -0.08, Pitch : -0.84, Yaw : 352.93, Alt : 589.369995117, Lat : -35.3632608, Lng : 149.1652297, Q1 : 0.998069882393, Q2 : -0.00122456345707, Q3 : -0.00731066521257, Q4 : -0.0616570003331}
2019-04-03 21:35:38.20: SIM {TimeUS : 115416315, Roll : -0.1, Pitch : -1.67, Yaw : 352.92, Alt : 589.489990234, Lat : -35.3632608, Lng : 149.1652297, Q1 : 0.997988581657, Q2 : -0.00179801310878, Q3 : -0.0145166888833, Q4 : -0.0616831891239}
2019-04-03 21:35:38.30: SIM {TimeUS : 115516275, Roll : -0.1, Pitch : -2.67, Yaw : 352.92, Alt : 589.599975586, Lat : -35.3632607, Lng : 149.1652297, Q1 : 0.997822582722, Q2 : -0.00232596532442, Q3 : -0.0232017803937, Q4 : -0.061696048826}
2019-04-03 21:35:38.40: SIM {TimeUS : 115616235, Roll : -0.07, Pitch : -3.73, Yaw : 352.92, Alt : 589.700012207, Lat : -35.3632605, Lng : 149.1652296, Q1 : 0.997562527657, Q2 : -0.00269860681146, Q3 : -0.0325053110719, Q4 : -0.0616862922907}
2019-04-03 21:35:38.50: SIM {TimeUS : 115716195, Roll : -0.04, Pitch : -4.72, Yaw : 352.92, Alt : 589.780029297, Lat : -35.3632604, Lng : 149.1652296, Q1 : 0.997246801853, Q2 : -0.00293554109521, Q3 : -0.0410892739892, Q4 : -0.061658911407}
2019-04-03 21:35:38.60: SIM {TimeUS : 115816155, Roll : -0.03, Pitch : -5.51, Yaw : 352.92, Alt : 589.859985352, Lat : -35.3632603, Lng : 149.1652296, Q1 : 0.996937453747, Q2 : -0.00324403983541, Q3 : -0.0480240285397, Q4 : -0.0616354197264}
2019-04-03 21:35:38.70: SIM {TimeUS : 115916115, Roll : -0.02, Pitch : -6.1, Yaw : 352.92, Alt : 589.91998291, Lat : -35.3632601, Lng : 149.1652294, Q1 : 0.996678352356, Q2 : -0.0034776199609, Q3 : -0.0531388558447, Q4 : -0.0616155043244}
2019-04-03 21:35:38.80: SIM {TimeUS : 116016075, Roll : -0.01, Pitch : -6.55, Yaw : 352.92, Alt : 589.979980469, Lat : -35.3632598, Lng : 149.1652294, Q1 : 0.99646282196, Q2 : -0.00363020109944, Q3 : -0.0570486485958, Q4 : -0.0615971162915}
2019-04-03 21:35:38.90: SIM {TimeUS : 116116035, Roll : 0.0, Pitch : -6.91, Yaw : 352.92, Alt : 590.030029297, Lat : -35.3632593, Lng : 149.1652293, Q1 : 0.996278882027, Q2 : -0.0037139672786, Q3 : -0.0601762793958, Q4 : -0.0615909434855}
2019-04-03 21:35:39.00: SIM {TimeUS : 116215995, Roll : 0.0, Pitch : -7.26, Yaw : 352.92, Alt : 590.08001709, Lat : -35.3632589, Lng : 149.1652293, Q1 : 0.996089935303, Q2 : -0.00392581429332, Q3 : -0.0632049441338, Q4 : -0.0616007074714}
2019-04-03 21:35:39.09: SIM {TimeUS : 116315955, Roll : 0.0, Pitch : -7.6, Yaw : 352.92, Alt : 590.119995117, Lat : -35.3632584, Lng : 149.1652292, Q1 : 0.99589651823, Q2 : -0.00415118411183, Q3 : -0.0661569312215, Q4 : -0.0616128891706}
2019-04-03 21:35:39.19: SIM {TimeUS : 116415915, Roll : -0.01, Pitch : -7.92, Yaw : 352.91, Alt : 590.150024414, Lat : -35.3632578, Lng : 149.1652291, Q1 : 0.995705544949, Q2 : -0.00435832841322, Q3 : -0.068943336606, Q4 : -0.0616303682327}
2019-04-03 21:35:39.29: SIM {TimeUS : 116515875, Roll : -0.01, Pitch : -8.18, Yaw : 352.91, Alt : 590.190002441, Lat : -35.3632571, Lng : 149.1652289, Q1 : 0.995540380478, Q2 : -0.00456963432953, Q3 : -0.0712517946959, Q4 : -0.0616581439972}
2019-04-03 21:35:39.39: SIM {TimeUS : 116615835, Roll : -0.02, Pitch : -8.42, Yaw : 352.9, Alt : 590.219970703, Lat : -35.3632562, Lng : 149.1652289, Q1 : 0.995391428471, Q2 : -0.00477650621906, Q3 : -0.073267005384, Q4 : -0.0616852082312}
2019-04-03 21:35:39.49: SIM {TimeUS : 116715795, Roll : 0.0, Pitch : -8.59, Yaw : 352.9, Alt : 590.239990234, Lat : -35.3632555, Lng : 149.1652288, Q1 : 0.995279848576, Q2 : -0.00470770103857, Q3 : -0.0747596621513, Q4 : -0.061699744314}
2019-04-03 21:35:39.59: SIM {TimeUS : 116815755, Roll : 0.0, Pitch : -8.69, Yaw : 352.9, Alt : 590.270019531, Lat : -35.3632544, Lng : 149.1652286, Q1 : 0.995208084583, Q2 : -0.00460862508044, Q3 : -0.0757028087974, Q4 : -0.0617148242891}
2019-04-03 21:35:39.69: SIM {TimeUS : 116915715, Roll : 0.0, Pitch : -8.79, Yaw : 352.89, Alt : 590.289978027, Lat : -35.3632535, Lng : 149.1652284, Q1 : 0.995139300823, Q2 : -0.00467171752825, Q3 : -0.0765718892217, Q4 : -0.0617476515472}
2019-04-03 21:35:39.79: SIM {TimeUS : 117015675, Roll : 0.01, Pitch : -8.93, Yaw : 352.89, Alt : 590.320007324, Lat : -35.3632525, Lng : 149.1652283, Q1 : 0.995047450066, Q2 : -0.00473543535918, Q3 : -0.0777369514108, Q4 : -0.0617673173547}
2019-04-03 21:35:39.90: SIM {TimeUS : 117116468, Roll : 0.12, Pitch : -9.16, Yaw : 353.0, Alt : 590.340026855, Lat : -35.3632513, Lng : 149.1652281, Q1 : 0.994954407215, Q2 : -0.00380059354939, Q3 : -0.0798020213842, Q4 : -0.0606870613992}
2019-04-03 21:35:40.00: SIM {TimeUS : 117216428, Roll : 0.15, Pitch : -9.5, Yaw : 353.39, Alt : 590.359985352, Lat : -35.3632501, Lng : 149.1652279, Q1 : 0.99490737915, Q2 : -0.00340280495584, Q3 : -0.0828346684575, Q4 : -0.0573250502348}
2019-04-03 21:35:40.10: SIM {TimeUS : 117316388, Roll : 0.07, Pitch : -9.92, Yaw : 353.98, Alt : 590.380004883, Lat : -35.3632488, Lng : 149.1652278, Q1 : 0.994880855083, Q2 : -0.00389781780541, Q3 : -0.0864112526178, Q4 : -0.0522498264909}
2019-04-03 21:35:40.20: SIM {TimeUS : 117416348, Roll : -0.11, Pitch : -10.36, Yaw : 354.65, Alt : 590.409973145, Lat : -35.3632475, Lng : 149.1652275, Q1 : 0.994825661182, Q2 : -0.00523860566318, Q3 : -0.0901567414403, Q4 : -0.0465427674353}
2019-04-03 21:35:40.30: SIM {TimeUS : 117516308, Roll : -0.38, Pitch : -10.78, Yaw : 355.29, Alt : 590.429992676, Lat : -35.3632461, Lng : 149.1652274, Q1 : 0.994719147682, Q2 : -0.00719721615314, Q3 : -0.0937395989895, Q4 : -0.0411700718105}
2019-04-03 21:35:40.40: SIM {TimeUS : 117616268, Roll : -0.65, Pitch : -11.16, Yaw : 355.82, Alt : 590.450012207, Lat : -35.3632446, Lng : 149.1652272, Q1 : 0.994556963444, Q2 : -0.00920262746513, Q3 : -0.0970337688923, Q4 : -0.0368259586394}
2019-04-03 21:35:40.50: SIM {TimeUS : 117716228, Roll : -0.84, Pitch : -11.52, Yaw : 356.18, Alt : 590.469970703, Lat : -35.3632431, Lng : 149.1652269, Q1 : 0.994338691235, Q2 : -0.0107048889622, Q3 : -0.100135967135, Q4 : -0.0338933691382}
2019-04-03 21:35:40.60: SIM {TimeUS : 117816188, Roll : -0.95, Pitch : -11.87, Yaw : 356.35, Alt : 590.5, Lat : -35.3632414, Lng : 149.1652267, Q1 : 0.994071662426, Q2 : -0.0115946698934, Q3 : -0.103100858629, Q4 : -0.0325166806579}
2019-04-03 21:35:40.70: SIM {TimeUS : 117916148, Roll : -0.94, Pitch : -12.21, Yaw : 356.34, Alt : 590.520019531, Lat : -35.3632397, Lng : 149.1652264, Q1 : 0.993757963181, Q2 : -0.0116204656661, Q3 : -0.106059201062, Q4 : -0.0325823426247}
2019-04-03 21:35:40.80: SIM {TimeUS : 118016108, Roll : -0.86, Pitch : -12.57, Yaw : 356.19, Alt : 590.549987793, Lat : -35.3632379, Lng : 149.1652262, Q1 : 0.993375718594, Q2 : -0.0111346170306, Q3 : -0.109241589904, Q4 : -0.0338667668402}
2019-04-03 21:35:40.90: SIM {TimeUS : 118116068, Roll : -0.73, Pitch : -12.96, Yaw : 355.92, Alt : 590.58001709, Lat : -35.363236, Lng : 149.1652259, Q1 : 0.992936730385, Q2 : -0.0103459237143, Q3 : -0.112566515803, Q4 : -0.0360334068537}
2019-04-03 21:35:41.00: SIM {TimeUS : 118216028, Roll : -0.55, Pitch : -13.35, Yaw : 355.6, Alt : 590.609985352, Lat : -35.363234, Lng : 149.1652255, Q1 : 0.992446959019, Q2 : -0.00926783680916, Q3 : -0.116047345102, Q4 : -0.0386798381805}
2019-04-03 21:35:41.10: SIM {TimeUS : 118315988, Roll : -0.37, Pitch : -13.73, Yaw : 355.25, Alt : 590.640014648, Lat : -35.3632319, Lng : 149.1652253, Q1 : 0.991953372955, Q2 : -0.00820487178862, Q3 : -0.119342111051, Q4 : -0.0414561256766}
2019-04-03 21:35:41.19: SIM {TimeUS : 118415948, Roll : -0.23, Pitch : -14.09, Yaw : 354.94, Alt : 590.66998291, Lat : -35.3632299, Lng : 149.1652249, Q1 : 0.991468906403, Q2 : -0.00742845050991, Q3 : -0.122446976602, Q4 : -0.044055685401}
2019-04-03 21:35:41.29: SIM {TimeUS : 118515908, Roll : -0.12, Pitch : -14.4, Yaw : 354.67, Alt : 590.700012207, Lat : -35.3632276, Lng : 149.1652245, Q1 : 0.99103051424, Q2 : -0.00694782612845, Q3 : -0.125191628933, Q4 : -0.0462315231562}
2019-04-03 21:35:41.39: SIM {TimeUS : 118615868, Roll : -0.07, Pitch : -14.64, Yaw : 354.47, Alt : 590.729980469, Lat : -35.3632252, Lng : 149.1652243, Q1 : 0.990684092045, Q2 : -0.00677831890061, Q3 : -0.12731423974, Q4 : -0.0478556491435}
2019-04-03 21:35:41.49: SIM {TimeUS : 118715828, Roll : -0.05, Pitch : -14.82, Yaw : 354.35, Alt : 590.770019531, Lat : -35.363223, Lng : 149.1652239, Q1 : 0.990443825722, Q2 : -0.0067862002179, Q3 : -0.128796339035, Q4 : -0.0488517992198}
2019-04-03 21:35:41.59: SIM {TimeUS : 118815788, Roll : -0.05, Pitch : -14.93, Yaw : 354.31, Alt : 590.799987793, Lat : -35.3632205, Lng : 149.1652236, Q1 : 0.990297079086, Q2 : -0.00688508711755, Q3 : -0.129761174321, Q4 : -0.0492582321167}
2019-04-03 21:35:41.69: SIM {TimeUS : 118915748, Roll : -0.08, Pitch : -14.98, Yaw : 354.32, Alt : 590.840026855, Lat : -35.3632179, Lng : 149.1652231, Q1 : 0.990236878395, Q2 : -0.00717334309593, Q3 : -0.130242496729, Q4 : -0.0491559617221}
2019-04-03 21:35:41.79: SIM {TimeUS : 119015708, Roll : -0.13, Pitch : -15.02, Yaw : 354.39, Alt : 590.869995117, Lat : -35.3632153, Lng : 149.1652229, Q1 : 0.990215778351, Q2 : -0.00759912375361, Q3 : -0.130562648177, Q4 : -0.0486660711467}
2019-04-03 21:35:41.89: SIM {TimeUS : 119115668, Roll : -0.2, Pitch : -15.07, Yaw : 354.48, Alt : 590.909973145, Lat : -35.3632127, Lng : 149.1652225, Q1 : 0.990200102329, Q2 : -0.0080847023055, Q3 : -0.130921199918, Q4 : -0.0479384064674}
2019-04-03 21:35:42.00: SIM {TimeUS : 119216461, Roll : -0.26, Pitch : -15.13, Yaw : 354.58, Alt : 590.950012207, Lat : -35.3632099, Lng : 149.1652221, Q1 : 0.9901663661, Q2 : -0.00847639329731, Q3 : -0.13145069778, Q4 : -0.0471110455692}
2019-04-03 21:35:42.10: SIM {TimeUS : 119316421, Roll : -0.31, Pitch : -15.21, Yaw : 354.68, Alt : 590.989990234, Lat : -35.363207, Lng : 149.1652217, Q1 : 0.990107655525, Q2 : -0.00883261300623, Q3 : -0.132144093513, Q4 : -0.0463327020407}
2019-04-03 21:35:42.20: SIM {TimeUS : 119416381, Roll : -0.36, Pitch : -15.3, Yaw : 354.76, Alt : 591.030029297, Lat : -35.3632042, Lng : 149.1652212, Q1 : 0.990038335323, Q2 : -0.00920707453042, Q3 : -0.132852077484, Q4 : -0.0457135513425}
2019-04-03 21:35:42.30: SIM {TimeUS : 119516341, Roll : -0.41, Pitch : -15.37, Yaw : 354.81, Alt : 591.070007324, Lat : -35.3632013, Lng : 149.1652208, Q1 : 0.989963412285, Q2 : -0.00962499156594, Q3 : -0.13351072371, Q4 : -0.045328348875}
2019-04-03 21:35:42.40: SIM {TimeUS : 119616301, Roll : -0.44, Pitch : -15.46, Yaw : 354.83, Alt : 591.109985352, Lat : -35.3631983, Lng : 149.1652205, Q1 : 0.989871919155, Q2 : -0.00992918945849, Q3 : -0.134212613106, Q4 : -0.045188345015}
2019-04-03 21:35:42.50: SIM {TimeUS : 119716261, Roll : -0.43, Pitch : -15.54, Yaw : 354.82, Alt : 591.150024414, Lat : -35.3631952, Lng : 149.1652201, Q1 : 0.989768862724, Q2 : -0.00988740287721, Q3 : -0.134948730469, Q4 : -0.0452625565231}
2019-04-03 21:35:42.60: SIM {TimeUS : 119816221, Roll : -0.4, Pitch : -15.63, Yaw : 354.78, Alt : 591.190002441, Lat : -35.3631921, Lng : 149.1652197, Q1 : 0.989651620388, Q2 : -0.0096517605707, Q3 : -0.135734468699, Q4 : -0.045527100563}
2019-04-03 21:35:42.70: SIM {TimeUS : 119916181, Roll : -0.35, Pitch : -15.7, Yaw : 354.73, Alt : 591.229980469, Lat : -35.363189, Lng : 149.1652192, Q1 : 0.989554286003, Q2 : -0.00935024861246, Q3 : -0.136325851083, Q4 : -0.0459369160235}
2019-04-03 21:35:42.80: SIM {TimeUS : 120016141, Roll : -0.31, Pitch : -15.75, Yaw : 354.66, Alt : 591.270019531, Lat : -35.3631857, Lng : 149.1652188, Q1 : 0.989468097687, Q2 : -0.00907222833484, Q3 : -0.136795803905, Q4 : -0.0464495532215}
2019-04-03 21:35:42.90: SIM {TimeUS : 120116101, Roll : -0.26, Pitch : -15.8, Yaw : 354.59, Alt : 591.309997559, Lat : -35.3631826, Lng : 149.1652183, Q1 : 0.989389240742, Q2 : -0.00879041943699, Q3 : -0.137198835611, Q4 : -0.0469913706183}
2019-04-03 21:35:43.00: SIM {TimeUS : 120216061, Roll : -0.22, Pitch : -15.84, Yaw : 354.53, Alt : 591.349975586, Lat : -35.3631793, Lng : 149.1652178, Q1 : 0.989309310913, Q2 : -0.00853265542537, Q3 : -0.137610450387, Q4 : -0.0475143007934}
2019-04-03 21:35:43.10: SIM {TimeUS : 120316021, Roll : -0.2, Pitch : -15.89, Yaw : 354.47, Alt : 591.390014648, Lat : -35.3631759, Lng : 149.1652174, Q1 : 0.989232778549, Q2 : -0.00840651616454, Q3 : -0.138006016612, Q4 : -0.0479806140065}
2019-04-03 21:35:43.20: SIM {TimeUS : 120415981, Roll : -0.19, Pitch : -15.95, Yaw : 354.42, Alt : 591.440002441, Lat : -35.3631727, Lng : 149.1652169, Q1 : 0.989137530327, Q2 : -0.0084667429328, Q3 : -0.138545557857, Q4 : -0.0483786687255}
2019-04-03 21:35:43.29: SIM {TimeUS : 120515941, Roll : -0.21, Pitch : -16.01, Yaw : 354.39, Alt : 591.479980469, Lat : -35.3631692, Lng : 149.1652164, Q1 : 0.98904645443, Q2 : -0.00865237321705, Q3 : -0.13907431066, Q4 : -0.0486900135875}
2019-04-03 21:35:43.39: SIM {TimeUS : 120615901, Roll : -0.21, Pitch : -16.08, Yaw : 354.37, Alt : 591.520019531, Lat : -35.3631659, Lng : 149.1652159, Q1 : 0.988958835602, Q2 : -0.00870085973293, Q3 : -0.139628633857, Q4 : -0.0488729700446}
2019-04-03 21:35:43.49: SIM {TimeUS : 120715861, Roll : -0.2, Pitch : -16.13, Yaw : 354.36, Alt : 591.559997559, Lat : -35.3631624, Lng : 149.1652154, Q1 : 0.988893508911, Q2 : -0.00867943745106, Q3 : -0.140063747764, Q4 : -0.0489533618093}
2019-04-03 21:35:43.59: SIM {TimeUS : 120815821, Roll : -0.19, Pitch : -16.16, Yaw : 354.35, Alt : 591.599975586, Lat : -35.3631589, Lng : 149.165215, Q1 : 0.988856673241, Q2 : -0.00859704427421, Q3 : -0.140328556299, Q4 : -0.0489541478455}
2019-04-03 21:35:43.69: SIM {TimeUS : 120915781, Roll : -0.19, Pitch : -16.19, Yaw : 354.36, Alt : 591.640014648, Lat : -35.3631553, Lng : 149.1652145, Q1 : 0.988822698593, Q2 : -0.00859080534428, Q3 : -0.140579536557, Q4 : -0.048921380192}
2019-04-03 21:35:43.79: SIM {TimeUS : 121015741, Roll : -0.2, Pitch : -16.23, Yaw : 354.36, Alt : 591.679992676, Lat : -35.3631518, Lng : 149.165214, Q1 : 0.988775670528, Q2 : -0.00869552697986, Q3 : -0.140919327736, Q4 : -0.048875361681}
2019-04-03 21:35:43.89: SIM {TimeUS : 121115701, Roll : -0.21, Pitch : -16.28, Yaw : 354.37, Alt : 591.729980469, Lat : -35.3631482, Lng : 149.1652135, Q1 : 0.988713741302, Q2 : -0.00878587551415, Q3 : -0.141362205148, Q4 : -0.0488325767219}
2019-04-03 21:35:43.99: SIM {TimeUS : 121215661, Roll : -0.21, Pitch : -16.33, Yaw : 354.37, Alt : 591.770019531, Lat : -35.3631446, Lng : 149.1652131, Q1 : 0.988653957844, Q2 : -0.00878776889294, Q3 : -0.141787603498, Q4 : -0.0488098226488}
2019-04-03 21:35:44.10: SIM {TimeUS : 121316454, Roll : -0.22, Pitch : -16.36, Yaw : 354.37, Alt : 591.809997559, Lat : -35.363141, Lng : 149.1652126, Q1 : 0.988618731499, Q2 : -0.00888423249125, Q3 : -0.142018824816, Q4 : -0.0488342940807}
2019-04-03 21:35:44.20: SIM {TimeUS : 121416414, Roll : -0.23, Pitch : -16.38, Yaw : 354.36, Alt : 591.849975586, Lat : -35.3631373, Lng : 149.1652121, Q1 : 0.988589823246, Q2 : -0.00905579514802, Q3 : -0.14218352735, Q4 : -0.0489080101252}
2019-04-03 21:35:44.30: SIM {TimeUS : 121516374, Roll : -0.23, Pitch : -16.4, Yaw : 354.35, Alt : 591.890014648, Lat : -35.3631336, Lng : 149.1652116, Q1 : 0.988559782505, Q2 : -0.00903973169625, Q3 : -0.142365932465, Q4 : -0.0489876680076}
2019-04-03 21:35:44.40: SIM {TimeUS : 121616334, Roll : -0.2, Pitch : -16.41, Yaw : 354.34, Alt : 591.940002441, Lat : -35.3631298, Lng : 149.1652111, Q1 : 0.988541185856, Q2 : -0.00881628505886, Q3 : -0.142475455999, Q4 : -0.0490855462849}
2019-04-03 21:35:44.50: SIM {TimeUS : 121716294, Roll : -0.17, Pitch : -16.43, Yaw : 354.32, Alt : 591.979980469, Lat : -35.3631261, Lng : 149.1652106, Q1 : 0.988513350487, Q2 : -0.00854207854718, Q3 : -0.142640933394, Q4 : -0.0492139346898}
2019-04-03 21:35:44.60: SIM {TimeUS : 121816254, Roll : -0.16, Pitch : -16.47, Yaw : 354.3, Alt : 592.020019531, Lat : -35.3631224, Lng : 149.16521, Q1 : 0.988444268703, Q2 : -0.00851709488779, Q3 : -0.143058881164, Q4 : -0.0493917800486}
2019-04-03 21:35:44.70: SIM {TimeUS : 121916214, Roll : -0.16, Pitch : -16.51, Yaw : 354.27, Alt : 592.059997559, Lat : -35.3631186, Lng : 149.1652095, Q1 : 0.988393485546, Q2 : -0.00858284812421, Q3 : -0.143332436681, Q4 : -0.0496033839881}
2019-04-03 21:35:44.80: SIM {TimeUS : 122016174, Roll : -0.15, Pitch : -16.55, Yaw : 354.25, Alt : 592.099975586, Lat : -35.3631148, Lng : 149.165209, Q1 : 0.988323926926, Q2 : -0.00855330564082, Q3 : -0.143748015165, Q4 : -0.0497913658619}
2019-04-03 21:35:44.90: SIM {TimeUS : 122116134, Roll : -0.16, Pitch : -16.61, Yaw : 354.23, Alt : 592.150024414, Lat : -35.3631109, Lng : 149.1652085, Q1 : 0.988246619701, Q2 : -0.00867891963571, Q3 : -0.144203081727, Q4 : -0.0499875470996}
2019-04-03 21:35:45.00: SIM {TimeUS : 122216094, Roll : -0.17, Pitch : -16.66, Yaw : 354.21, Alt : 592.190002441, Lat : -35.3631072, Lng : 149.1652078, Q1 : 0.988163888454, Q2 : -0.00885179266334, Q3 : -0.144693478942, Q4 : -0.050175268203}
2019-04-03 21:35:45.10: SIM {TimeUS : 122316054, Roll : -0.18, Pitch : -16.7, Yaw : 354.19, Alt : 592.229980469, Lat : -35.3631033, Lng : 149.1652073, Q1 : 0.988112449646, Q2 : -0.00891760829836, Q3 : -0.144987270236, Q4 : -0.0503290742636}
2019-04-03 21:35:45.20: SIM {TimeUS : 122416014, Roll : -0.15, Pitch : -16.72, Yaw : 354.17, Alt : 592.270019531, Lat : -35.3630995, Lng : 149.1652068, Q1 : 0.98808079958, Q2 : -0.00871349312365, Q3 : -0.145180091262, Q4 : -0.0504294522107}
2019-04-03 21:35:45.30: SIM {TimeUS : 122515974, Roll : -0.12, Pitch : -16.75, Yaw : 354.16, Alt : 592.320007324, Lat : -35.3630956, Lng : 149.1652063, Q1 : 0.988041460514, Q2 : -0.00846905168146, Q3 : -0.145433694124, Q4 : -0.0505108721554}
2019-04-03 21:35:45.39: SIM {TimeUS : 122615934, Roll : -0.11, Pitch : -16.78, Yaw : 354.15, Alt : 592.359985352, Lat : -35.3630917, Lng : 149.1652058, Q1 : 0.987994194031, Q2 : -0.00842767115682, Q3 : -0.145718917251, Q4 : -0.0506213083863}
2019-04-03 21:35:45.49: SIM {TimeUS : 122715894, Roll : -0.14, Pitch : -16.8, Yaw : 354.13, Alt : 592.400024414, Lat : -35.3630877, Lng : 149.1652052, Q1 : 0.987958908081, Q2 : -0.00868581421673, Q3 : -0.145891591907, Q4 : -0.0507683604956}
2019-04-03 21:35:45.59: SIM {TimeUS : 122815854, Roll : -0.17, Pitch : -16.81, Yaw : 354.12, Alt : 592.440002441, Lat : -35.3630838, Lng : 149.1652047, Q1 : 0.987939238548, Q2 : -0.00898698251694, Q3 : -0.145950913429, Q4 : -0.0509281009436}
2019-04-03 21:35:45.69: SIM {TimeUS : 122915814, Roll : -0.18, Pitch : -16.83, Yaw : 354.1, Alt : 592.489990234, Lat : -35.3630798, Lng : 149.1652042, Q1 : 0.987905263901, Q2 : -0.00911984313279, Q3 : -0.146122977138, Q4 : -0.0510688014328}
2019-04-03 21:35:45.79: SIM {TimeUS : 123015774, Roll : -0.19, Pitch : -16.86, Yaw : 354.09, Alt : 592.530029297, Lat : -35.3630759, Lng : 149.1652035, Q1 : 0.987866461277, Q2 : -0.00922231283039, Q3 : -0.146328523755, Q4 : -0.0512134879827}
2019-04-03 21:35:45.89: SIM {TimeUS : 123115734, Roll : -0.18, Pitch : -16.88, Yaw : 354.07, Alt : 592.570007324, Lat : -35.3630719, Lng : 149.165203, Q1 : 0.987833023071, Q2 : -0.00916265044361, Q3 : -0.146513655782, Q4 : -0.0513391569257}
2019-04-03 21:35:45.99: SIM {TimeUS : 123215694, Roll : -0.15, Pitch : -16.89, Yaw : 354.06, Alt : 592.609985352, Lat : -35.363068, Lng : 149.1652025, Q1 : 0.987805664539, Q2 : -0.00896986946464, Q3 : -0.146672174335, Q4 : -0.0514472201467}
2019-04-03 21:35:46.10: SIM {TimeUS : 123316487, Roll : -0.12, Pitch : -16.91, Yaw : 354.04, Alt : 592.659973145, Lat : -35.3630639, Lng : 149.1652019, Q1 : 0.987785995007, Q2 : -0.00870365370065, Q3 : -0.146783351898, Q4 : -0.0515538603067}
2019-04-03 21:35:46.20: SIM {TimeUS : 123416447, Roll : -0.09, Pitch : -16.91, Yaw : 354.02, Alt : 592.700012207, Lat : -35.3630598, Lng : 149.1652014, Q1 : 0.987776517868, Q2 : -0.00844829156995, Q3 : -0.146823257208, Q4 : -0.0516630262136}
2019-04-03 21:35:46.30: SIM {TimeUS : 123516407, Roll : -0.07, Pitch : -16.92, Yaw : 354.0, Alt : 592.739990234, Lat : -35.3630559, Lng : 149.1652007, Q1 : 0.987755954266, Q2 : -0.00834915880114, Q3 : -0.146922677755, Q4 : -0.0517898648977}
2019-04-03 21:35:46.40: SIM {TimeUS : 123616367, Roll : -0.09, Pitch : -16.95, Yaw : 353.99, Alt : 592.789978027, Lat : -35.3630518, Lng : 149.1652002, Q1 : 0.987705886364, Q2 : -0.00851630698889, Q3 : -0.147195696831, Q4 : -0.0519425570965}
2019-04-03 21:35:46.50: SIM {TimeUS : 123716327, Roll : -0.1, Pitch : -16.99, Yaw : 353.97, Alt : 592.83001709, Lat : -35.3630477, Lng : 149.1651996, Q1 : 0.987649977207, Q2 : -0.00869750790298, Q3 : -0.147507667542, Q4 : -0.052090164274}
2019-04-03 21:35:46.60: SIM {TimeUS : 123816287, Roll : -0.12, Pitch : -17.02, Yaw : 353.96, Alt : 592.869995117, Lat : -35.3630437, Lng : 149.1651991, Q1 : 0.987597763538, Q2 : -0.00885983649641, Q3 : -0.147797107697, Q4 : -0.0522316917777}
2019-04-03 21:35:46.70: SIM {TimeUS : 123916247, Roll : -0.13, Pitch : -17.05, Yaw : 353.94, Alt : 592.91998291, Lat : -35.3630397, Lng : 149.1651986, Q1 : 0.98755967617, Q2 : -0.00898073427379, Q3 : -0.147995576262, Q4 : -0.0523695126176}
2019-04-03 21:35:46.80: SIM {TimeUS : 124016207, Roll : -0.12, Pitch : -17.07, Yaw : 353.93, Alt : 592.960021973, Lat : -35.3630355, Lng : 149.165198, Q1 : 0.987524688244, Q2 : -0.0089108813554, Q3 : -0.148198276758, Q4 : -0.0524672158062}
2019-04-03 21:35:46.90: SIM {TimeUS : 124116167, Roll : -0.11, Pitch : -17.08, Yaw : 353.92, Alt : 593.0, Lat : -35.3630315, Lng : 149.1651973, Q1 : 0.987502515316, Q2 : -0.00884690601379, Q3 : -0.148316368461, Q4 : -0.0525620877743}
2019-04-03 21:35:47.00: SIM {TimeUS : 124216127, Roll : -0.09, Pitch : -17.1, Yaw : 353.91, Alt : 593.039978027, Lat : -35.3630274, Lng : 149.1651968, Q1 : 0.987480998039, Q2 : -0.00872214604169, Q3 : -0.148435473442, Q4 : -0.0526508130133}
2019-04-03 21:35:47.10: SIM {TimeUS : 124316087, Roll : -0.08, Pitch : -17.12, Yaw : 353.89, Alt : 593.090026855, Lat : -35.3630233, Lng : 149.1651963, Q1 : 0.987444102764, Q2 : -0.00863256305456, Q3 : -0.148653209209, Q4 : -0.0527440421283}
2019-04-03 21:35:47.20: SIM {TimeUS : 124416047, Roll : -0.07, Pitch : -17.16, Yaw : 353.88, Alt : 593.130004883, Lat : -35.3630191, Lng : 149.1651957, Q1 : 0.987385630608, Q2 : -0.00861714407802, Q3 : -0.149005815387, Q4 : -0.0528454072773}
2019-04-03 21:35:47.30: SIM {TimeUS : 124516007, Roll : -0.08, Pitch : -17.19, Yaw : 353.87, Alt : 593.16998291, Lat : -35.3630151, Lng : 149.1651952, Q1 : 0.987347722054, Q2 : -0.00870062224567, Q3 : -0.149208247662, Q4 : -0.052968159318}
2019-04-03 21:35:47.40: SIM {TimeUS : 124615967, Roll : -0.1, Pitch : -17.2, Yaw : 353.85, Alt : 593.210021973, Lat : -35.3630109, Lng : 149.1651946, Q1 : 0.987324178219, Q2 : -0.0089104687795, Q3 : -0.149298891425, Q4 : -0.0531165450811}
2019-04-03 21:35:47.49: SIM {TimeUS : 124715927, Roll : -0.12, Pitch : -17.23, Yaw : 353.84, Alt : 593.260009766, Lat : -35.3630068, Lng : 149.1651939, Q1 : 0.987275719643, Q2 : -0.00913573801517, Q3 : -0.149549841881, Q4 : -0.0532731041312}
2019-04-03 21:35:47.59: SIM {TimeUS : 124815887, Roll : -0.14, Pitch : -17.26, Yaw : 353.82, Alt : 593.299987793, Lat : -35.3630026, Lng : 149.1651934, Q1 : 0.98722589016, Q2 : -0.0092976372689, Q3 : -0.14981558919, Q4 : -0.0534219928086}
2019-04-03 21:35:47.69: SIM {TimeUS : 124915847, Roll : -0.14, Pitch : -17.29, Yaw : 353.81, Alt : 593.340026855, Lat : -35.3629984, Lng : 149.1651929, Q1 : 0.987182915211, Q2 : -0.00932311452925, Q3 : -0.150047928095, Q4 : -0.0535594038665}
2019-04-03 21:35:47.79: SIM {TimeUS : 125015807, Roll : -0.14, Pitch : -17.29, Yaw : 353.79, Alt : 593.380004883, Lat : -35.3629942, Lng : 149.1651923, Q1 : 0.987165212631, Q2 : -0.00939179770648, Q3 : -0.150105029345, Q4 : -0.053713336587}
2019-04-03 21:35:47.89: SIM {TimeUS : 125115767, Roll : -0.13, Pitch : -17.28, Yaw : 353.77, Alt : 593.429992676, Lat : -35.3629902, Lng : 149.1651916, Q1 : 0.987179160118, Q2 : -0.00929033197463, Q3 : -0.149972304702, Q4 : -0.05384580791}
2019-04-03 21:35:47.99: SIM {TimeUS : 125215727, Roll : -0.12, Pitch : -17.28, Yaw : 353.75, Alt : 593.469970703, Lat : -35.362986, Lng : 149.1651911, Q1 : 0.987171947956, Q2 : -0.00924239307642, Q3 : -0.149972036481, Q4 : -0.0539858825505}
2019-04-03 21:35:48.09: SIM {TimeUS : 125315687, Roll : -0.13, Pitch : -17.28, Yaw : 353.74, Alt : 593.510009766, Lat : -35.3629818, Lng : 149.1651906, Q1 : 0.987155079842, Q2 : -0.0093294410035, Q3 : -0.150024726987, Q4 : -0.0541323386133}
2019-04-03 21:35:48.20: SIM {TimeUS : 125416480, Roll : -0.14, Pitch : -17.32, Yaw : 353.72, Alt : 593.549987793, Lat : -35.3629776, Lng : 149.16519, Q1 : 0.987100183964, Q2 : -0.00945669878274, Q3 : -0.150326013565, Q4 : -0.0542765334249}
2019-04-03 21:35:48.30: SIM {TimeUS : 125516440, Roll : -0.14, Pitch : -17.36, Yaw : 353.71, Alt : 593.599975586, Lat : -35.3629734, Lng : 149.1651894, Q1 : 0.987040579319, Q2 : -0.00955593585968, Q3 : -0.150661632419, Q4 : -0.0544127747416}
2019-04-03 21:35:48.40: SIM {TimeUS : 125616400, Roll : -0.12, Pitch : -17.4, Yaw : 353.69, Alt : 593.640014648, Lat : -35.3629691, Lng : 149.1651887, Q1 : 0.986982584, Q2 : -0.00939556024969, Q3 : -0.151017919183, Q4 : -0.0545046627522}
2019-04-03 21:35:48.50: SIM {TimeUS : 125716360, Roll : -0.08, Pitch : -17.43, Yaw : 353.68, Alt : 593.679992676, Lat : -35.3629649, Lng : 149.1651882, Q1 : 0.986943542957, Q2 : -0.00908161327243, Q3 : -0.15126721561, Q4 : -0.0545724332333}
2019-04-03 21:35:48.60: SIM {TimeUS : 125816320, Roll : -0.06, Pitch : -17.45, Yaw : 353.67, Alt : 593.719970703, Lat : -35.3629606, Lng : 149.1651877, Q1 : 0.986903488636, Q2 : -0.00897927954793, Q3 : -0.151502460241, Q4 : -0.0546622537076}
2019-04-03 21:35:48.70: SIM {TimeUS : 125916280, Roll : -0.06, Pitch : -17.48, Yaw : 353.65, Alt : 593.770019531, Lat : -35.3629564, Lng : 149.1651871, Q1 : 0.986861944199, Q2 : -0.00895561184734, Q3 : -0.151735723019, Q4 : -0.0547685362399}
2019-04-03 21:35:48.80: SIM {TimeUS : 126016240, Roll : -0.05, Pitch : -17.51, Yaw : 353.64, Alt : 593.809997559, Lat : -35.3629522, Lng : 149.1651865, Q1 : 0.986823856831, Q2 : -0.00889448821545, Q3 : -0.151952326298, Q4 : -0.0548639558256}
2019-04-03 21:35:48.90: SIM {TimeUS : 126116200, Roll : -0.04, Pitch : -17.51, Yaw : 353.63, Alt : 593.849975586, Lat : -35.3629479, Lng : 149.1651858, Q1 : 0.986809074879, Q2 : -0.00884448550642, Q3 : -0.152019292116, Q4 : -0.0549528226256}
2019-04-03 21:35:49.00: SIM {TimeUS : 126216160, Roll : -0.05, Pitch : -17.51, Yaw : 353.62, Alt : 593.890014648, Lat : -35.3629437, Lng : 149.1651853, Q1 : 0.986805558205, Q2 : -0.00893773231655, Q3 : -0.151998654008, Q4 : -0.0550575703382}
2019-04-03 21:35:49.10: SIM {TimeUS : 126316120, Roll : -0.07, Pitch : -17.5, Yaw : 353.61, Alt : 593.940002441, Lat : -35.3629394, Lng : 149.1651847, Q1 : 0.986814200878, Q2 : -0.00914390105754, Q3 : -0.151887252927, Q4 : -0.0551773831248}
2019-04-03 21:35:49.20: SIM {TimeUS : 126416080, Roll : -0.09, Pitch : -17.47, Yaw : 353.6, Alt : 593.979980469, Lat : -35.3629352, Lng : 149.1651841, Q1 : 0.986842930317, Q2 : -0.00931944791228, Q3 : -0.151648059487, Q4 : -0.055291172117}
2019-04-03 21:35:49.30: SIM {TimeUS : 126516040, Roll : -0.09, Pitch : -17.47, Yaw : 353.59, Alt : 594.020019531, Lat : -35.3629309, Lng : 149.1651834, Q1 : 0.986847043037, Q2 : -0.00929599162191, Q3 : -0.151596873999, Q4 : -0.0553622283041}
2019-04-03 21:35:49.40: SIM {TimeUS : 126616000, Roll : -0.08, Pitch : -17.49, Yaw : 353.58, Alt : 594.059997559, Lat : -35.3629266, Lng : 149.1651829, Q1 : 0.98681730032, Q2 : -0.00926115270704, Q3 : -0.151770710945, Q4 : -0.0554207749665}
2019-04-03 21:35:49.50: SIM {TimeUS : 126715960, Roll : -0.07, Pitch : -17.52, Yaw : 353.57, Alt : 594.109985352, Lat : -35.3629224, Lng : 149.1651823, Q1 : 0.986763417721, Q2 : -0.00917230173945, Q3 : -0.152105003595, Q4 : -0.0554787665606}
2019-04-03 21:35:49.59: SIM {TimeUS : 126815920, Roll : -0.06, Pitch : -17.57, Yaw : 353.56, Alt : 594.150024414, Lat : -35.3629181, Lng : 149.1651817, Q1 : 0.986696004868, Q2 : -0.00911371968687, Q3 : -0.152518555522, Q4 : -0.055551841855}
2019-04-03 21:35:49.69: SIM {TimeUS : 126915880, Roll : -0.06, Pitch : -17.61, Yaw : 353.55, Alt : 594.190002441, Lat : -35.3629138, Lng : 149.1651812, Q1 : 0.986636936665, Q2 : -0.00914489291608, Q3 : -0.152865499258, Q4 : -0.0556428097188}
2019-04-03 21:35:49.79: SIM {TimeUS : 127015840, Roll : -0.06, Pitch : -17.63, Yaw : 353.54, Alt : 594.229980469, Lat : -35.3629096, Lng : 149.1651805, Q1 : 0.986613929272, Q2 : -0.00917794462293, Q3 : -0.152975916862, Q4 : -0.055741339922}
2019-04-03 21:35:49.89: SIM {TimeUS : 127115800, Roll : -0.05, Pitch : -17.61, Yaw : 353.53, Alt : 594.280029297, Lat : -35.3629053, Lng : 149.16518, Q1 : 0.986629366875, Q2 : -0.0090846568346, Q3 : -0.152848437428, Q4 : -0.0558328814805}
2019-04-03 21:35:49.99: SIM {TimeUS : 127215760, Roll : -0.02, Pitch : -17.59, Yaw : 353.51, Alt : 594.320007324, Lat : -35.362901, Lng : 149.1651794, Q1 : 0.98665356636, Q2 : -0.00883630849421, Q3 : -0.152682214975, Q4 : -0.0559001527727}
2019-04-03 21:35:50.09: SIM {TimeUS : 127315720, Roll : 0.0, Pitch : -17.57, Yaw : 353.5, Alt : 594.359985352, Lat : -35.3628968, Lng : 149.1651788, Q1 : 0.986672759056, Q2 : -0.0085698030889, Q3 : -0.152552321553, Q4 : -0.0559579953551}
2019-04-03 21:35:50.19: SIM {TimeUS : 127415680, Roll : 0.02, Pitch : -17.59, Yaw : 353.49, Alt : 594.400024414, Lat : -35.3628925, Lng : 149.1651781, Q1 : 0.986652076244, Q2 : -0.00847513694316, Q3 : -0.152666255832, Q4 : -0.056025069207}
2019-04-03 21:35:50.30: SIM {TimeUS : 127516473, Roll : 0.02, Pitch : -17.6, Yaw : 353.48, Alt : 594.440002441, Lat : -35.3628881, Lng : 149.1651776, Q1 : 0.986625909805, Q2 : -0.00846491102129, Q3 : -0.152813151479, Q4 : -0.0560884140432}
2019-04-03 21:35:50.40: SIM {TimeUS : 127616433, Roll : 0.01, Pitch : -17.61, Yaw : 353.48, Alt : 594.489990234, Lat : -35.3628838, Lng : 149.165177, Q1 : 0.986606836319, Q2 : -0.00860319007188, Q3 : -0.152904704213, Q4 : -0.0561527721584}
2019-04-03 21:35:50.50: SIM {TimeUS : 127716393, Roll : 0.0, Pitch : -17.63, Yaw : 353.47, Alt : 594.530029297, Lat : -35.3628795, Lng : 149.1651764, Q1 : 0.986586749554, Q2 : -0.00873863417655, Q3 : -0.153006598353, Q4 : -0.0562069602311}
2019-04-03 21:35:50.60: SIM {TimeUS : 127816353, Roll : 0.0, Pitch : -17.64, Yaw : 353.47, Alt : 594.570007324, Lat : -35.3628752, Lng : 149.1651757, Q1 : 0.98656886816, Q2 : -0.00877398252487, Q3 : -0.15310639143, Q4 : -0.0562432743609}
2019-04-03 21:35:50.70: SIM {TimeUS : 127916313, Roll : 0.02, Pitch : -17.63, Yaw : 353.47, Alt : 594.609985352, Lat : -35.3628709, Lng : 149.1651751, Q1 : 0.986575007439, Q2 : -0.00848418008536, Q3 : -0.153086334467, Q4 : -0.0562349185348}
2019-04-03 21:35:50.80: SIM {TimeUS : 128016273, Roll : 0.04, Pitch : -17.63, Yaw : 353.46, Alt : 594.659973145, Lat : -35.3628664, Lng : 149.1651745, Q1 : 0.986574649811, Q2 : -0.00837102811784, Q3 : -0.153090298176, Q4 : -0.0562471970916}
2019-04-03 21:35:50.90: SIM {TimeUS : 128116233, Roll : 0.04, Pitch : -17.63, Yaw : 353.46, Alt : 594.700012207, Lat : -35.3628621, Lng : 149.1651738, Q1 : 0.986570835114, Q2 : -0.00839778967202, Q3 : -0.153097748756, Q4 : -0.0562902577221}
2019-04-03 21:35:51.00: SIM {TimeUS : 128216193, Roll : 0.04, Pitch : -17.64, Yaw : 353.45, Alt : 594.739990234, Lat : -35.3628579, Lng : 149.1651733, Q1 : 0.986561655998, Q2 : -0.00838534161448, Q3 : -0.153140097857, Q4 : -0.0563373751938}
2019-04-03 21:35:51.10: SIM {TimeUS : 128316153, Roll : 0.05, Pitch : -17.65, Yaw : 353.45, Alt : 594.780029297, Lat : -35.3628535, Lng : 149.1651727, Q1 : 0.986549198627, Q2 : -0.00825708918273, Q3 : -0.153215780854, Q4 : -0.0563688091934}
2019-04-03 21:35:51.20: SIM {TimeUS : 128416113, Roll : 0.09, Pitch : -17.67, Yaw : 353.44, Alt : 594.83001709, Lat : -35.3628492, Lng : 149.1651721, Q1 : 0.986522316933, Q2 : -0.00796667393297, Q3 : -0.153400942683, Q4 : -0.0563773848116}
2019-04-03 21:35:51.30: SIM {TimeUS : 128516073, Roll : 0.11, Pitch : -17.68, Yaw : 353.43, Alt : 594.869995117, Lat : -35.3628449, Lng : 149.1651714, Q1 : 0.9864975214, Q2 : -0.00777744175866, Q3 : -0.153561413288, Q4 : -0.0564008280635}
2019-04-03 21:35:51.40: SIM {TimeUS : 128616033, Roll : 0.12, Pitch : -17.7, Yaw : 353.43, Alt : 594.909973145, Lat : -35.3628405, Lng : 149.1651709, Q1 : 0.986477613449, Q2 : -0.00778106320649, Q3 : -0.153668642044, Q4 : -0.0564561225474}
2019-04-03 21:35:51.50: SIM {TimeUS : 128715993, Roll : 0.11, Pitch : -17.7, Yaw : 353.42, Alt : 594.950012207, Lat : -35.3628361, Lng : 149.1651703, Q1 : 0.986475408077, Q2 : -0.00786775443703, Q3 : -0.153655052185, Q4 : -0.0565207339823}
2019-04-03 21:35:51.59: SIM {TimeUS : 128815953, Roll : 0.1, Pitch : -17.71, Yaw : 353.41, Alt : 594.989990234, Lat : -35.3628317, Lng : 149.1651697, Q1 : 0.986450254917, Q2 : -0.00790918618441, Q3 : -0.153791934252, Q4 : -0.0565804056823}
2019-04-03 21:35:51.69: SIM {TimeUS : 128915913, Roll : 0.11, Pitch : -17.74, Yaw : 353.41, Alt : 595.039978027, Lat : -35.3628275, Lng : 149.165169, Q1 : 0.986412227154, Q2 : -0.00790523272008, Q3 : -0.154016286135, Q4 : -0.0566339716315}
2019-04-03 21:35:51.79: SIM {TimeUS : 129015873, Roll : 0.08, Pitch : -17.75, Yaw : 353.4, Alt : 595.08001709, Lat : -35.3628231, Lng : 149.1651685, Q1 : 0.98638600111, Q2 : -0.00812918599695, Q3 : -0.15413749218, Q4 : -0.0567296482623}
2019-04-03 21:35:51.89: SIM {TimeUS : 129115833, Roll : 0.06, Pitch : -17.76, Yaw : 353.39, Alt : 595.119995117, Lat : -35.3628188, Lng : 149.1651679, Q1 : 0.986367881298, Q2 : -0.00835684500635, Q3 : -0.154201731086, Q4 : -0.056836925447}
2019-04-03 21:35:51.99: SIM {TimeUS : 129215793, Roll : 0.05, Pitch : -17.77, Yaw : 353.38, Alt : 595.159973145, Lat : -35.3628144, Lng : 149.1651673, Q1 : 0.986346781254, Q2 : -0.00842456985265, Q3 : -0.154298841953, Q4 : -0.0569294802845}
2019-04-03 21:35:52.09: SIM {TimeUS : 129315753, Roll : 0.08, Pitch : -17.78, Yaw : 353.37, Alt : 595.200012207, Lat : -35.3628101, Lng : 149.1651666, Q1 : 0.986334145069, Q2 : -0.00818133912981, Q3 : -0.154375582933, Q4 : -0.0569753758609}
2019-04-03 21:35:52.19: SIM {TimeUS : 129415713, Roll : 0.12, Pitch : -17.79, Yaw : 353.36, Alt : 595.25, Lat : -35.3628056, Lng : 149.1651661, Q1 : 0.98631966114, Q2 : -0.00790430326015, Q3 : -0.154468491673, Q4 : -0.0570131391287}
2019-04-03 21:35:52.29: SIM {TimeUS : 129515673, Roll : 0.14, Pitch : -17.79, Yaw : 353.35, Alt : 595.289978027, Lat : -35.3628013, Lng : 149.1651655, Q1 : 0.986316263676, Q2 : -0.00771735049784, Q3 : -0.154480174184, Q4 : -0.0570663921535}
2019-04-03 21:35:52.40: SIM {TimeUS : 129616466, Roll : 0.16, Pitch : -17.79, Yaw : 353.34, Alt : 595.33001709, Lat : -35.3627969, Lng : 149.1651648, Q1 : 0.986314415932, Q2 : -0.00756507972255, Q3 : -0.154477715492, Q4 : -0.0571257211268}
