2019-04-03 22:49:55.20: SIM {TimeUS : 256015886, Roll : 0.0, Pitch : 0.0, Yaw : 353.0, Alt : 584.090026855, Lat : -35.363261, Lng : 149.1652299, Q1 : 0.998134791851, Q2 : 0.0, Q3 : 0.0, Q4 : -0.0610485821962}
2019-04-03 22:49:55.31: SIM {TimeUS : 256135005, Roll : 0.0, Pitch : 0.0, Yaw : 353.0, Alt : 584.090026855, Lat : -35.363261, Lng : 149.1652299, Q1 : 0.998134791851, Q2 : 0.0, Q3 : 0.0, Q4 : -0.0610485821962}
2019-04-03 22:49:55.41: SIM {TimeUS : 256234965, Roll : 0.0, Pitch : 0.0, Yaw : 353.0, Alt : 584.090026855, Lat : -35.363261, Lng : 149.1652299, Q1 : 0.998134791851, Q2 : 0.0, Q3 : 0.0, Q4 : -0.0610485821962}
2019-04-03 22:49:55.51: SIM {TimeUS : 256334925, Roll : 0.0, Pitch : 0.0, Yaw : 353.0, Alt : 584.090026855, Lat : -35.363261, Lng : 149.1652299, Q1 : 0.998134791851, Q2 : 0.0, Q3 : 0.0, Q4 : -0.0610485821962}
2019-04-03 22:49:55.61: SIM {TimeUS : 256434885, Roll : 0.0, Pitch : 0.0, Yaw : 353.0, Alt : 584.090026855, Lat : -35.363261, Lng : 149.1652299, Q1 : 0.998134791851, Q2 : 0.0, Q3 : 0.0, Q4 : -0.0610485821962}
2019-04-03 22:49:55.71: SIM {TimeUS : 256534845, Roll : 0.0, Pitch : 0.0, Yaw : 353.0, Alt : 584.090026855, Lat : -35.363261, Lng : 149.1652299, Q1 : 0.998134791851, Q2 : 0.0, Q3 : 0.0, Q4 : -0.0610485821962}
2019-04-03 22:49:55.81: SIM {TimeUS : 256634805, Roll : 0.0, Pitch : 0.0, Yaw : 353.0, Alt : 584.090026855, Lat : -35.363261, Lng : 149.1652299, Q1 : 0.998134791851, Q2 : 0.0, Q3 : 0.0, Q4 : -0.0610485821962}
2019-04-03 22:49:55.91: SIM {TimeUS : 256734765, Roll : 0.0, Pitch : 0.0, Yaw : 353.0, Alt : 584.090026855, Lat : -35.363261, Lng : 149.1652299, Q1 : 0.998134791851, Q2 : 0.0, Q3 : 0.0, Q4 : -0.0610485821962}
2019-04-03 22:49:56.01: SIM {TimeUS : 256834725, Roll : 0.0, Pitch : 0.0, Yaw : 353.0, Alt : 584.090026855, Lat : -35.363261, Lng : 149.1652299, Q1 : 0.998134791851, Q2 : 0.0, Q3 : 0.0, Q4 : -0.0610485821962}
2019-04-03 22:49:56.11: SIM {TimeUS : 256934685, Roll : 0.0, Pitch : 0.0, Yaw : 353.0, Alt : 584.090026855, Lat : -35.363261, Lng : 149.1652299, Q1 : 0.998134791851, Q2 : 0.0, Q3 : 0.0, Q4 : -0.0610485821962}
2019-04-03 22:49:56.21: SIM {TimeUS : 257034645, Roll : 0.0, Pitch : 0.0, Yaw : 353.0, Alt : 584.090026855, Lat : -35.363261, Lng : 149.1652299, Q1 : 0.998134791851, Q2 : 0.0, Q3 : 0.0, Q4 : -0.0610485821962}
2019-04-03 22:49:56.31: SIM {TimeUS : 257134605, Roll : 0.0, Pitch : 0.0, Yaw : 353.0, Alt : 584.090026855, Lat : -35.363261, Lng : 149.1652299, Q1 : 0.998134791851, Q2 : 0.0, Q3 : 0.0, Q4 : -0.0610485821962}
2019-04-03 22:49:56.41: SIM {TimeUS : 257234565, Roll : 0.0, Pitch : 0.0, Yaw : 353.0, Alt : 584.090026855, Lat : -35.363261, Lng : 149.1652299, Q1 : 0.998134791851, Q2 : 0.0, Q3 : 0.0, Q4 : -0.0610485821962}
2019-04-03 22:49:56.51: SIM {TimeUS : 257334525, Roll : 0.0, Pitch : 0.0, Yaw : 353.0, Alt : 584.090026855, Lat : -35.363261, Lng : 149.1652299, Q1 : 0.998134791851, Q2 : 0.0, Q3 : 0.0, Q4 : -0.0610485821962}
2019-04-03 22:49:56.61: SIM {TimeUS : 257434485, Roll : 0.0, Pitch : 0.0, Yaw : 353.0, Alt : 584.090026855, Lat : -35.363261, Lng : 149.1652299, Q1 : 0.998134791851, Q2 : 0.0, Q3 : 0.0, Q4 : -0.0610485821962}
2019-04-03 22:49:56.71: SIM {TimeUS : 257534445, Roll : 0.0, Pitch : 0.0, Yaw : 353.0, Alt : 584.090026855, Lat : -35.363261, Lng : 149.1652299, Q1 : 0.998134791851, Q2 : 0.0, Q3 : 0.0, Q4 : -0.0610485821962}
2019-04-03 22:49:56.81: SIM {TimeUS : 257634405, Roll : 0.0, Pitch : 0.0, Yaw : 353.0, Alt : 584.090026855, Lat : -35.363261, Lng : 149.1652299, Q1 : 0.998134791851, Q2 : 0.0, Q3 : 0.0, Q4 : -0.0610485821962}
2019-04-03 22:49:56.91: SIM {TimeUS : 257734365, Roll : 0.0, Pitch : 0.0, Yaw : 353.0, Alt : 584.090026855, Lat : -35.363261, Lng : 149.1652299, Q1 : 0.998134791851, Q2 : 0.0, Q3 : 0.0, Q4 : -0.0610485821962}
2019-04-03 22:49:57.01: SIM {TimeUS : 257834325, Roll : 0.0, Pitch : 0.0, Yaw : 353.0, Alt : 584.090026855, Lat : -35.363261, Lng : 149.1652299, Q1 : 0.998134791851, Q2 : 0.0, Q3 : 0.0, Q4 : -0.0610485821962}
2019-04-03 22:49:57.11: SIM {TimeUS : 257934285, Roll : 0.0, Pitch : 0.0, Yaw : 353.0, Alt : 584.090026855, Lat : -35.363261, Lng : 149.1652299, Q1 : 0.998134791851, Q2 : 0.0, Q3 : 0.0, Q4 : -0.0610485821962}
2019-04-03 22:49:57.21: SIM {TimeUS : 258034245, Roll : 0.0, Pitch : 0.0, Yaw : 353.0, Alt : 584.090026855, Lat : -35.363261, Lng : 149.1652299, Q1 : 0.998134791851, Q2 : 0.0, Q3 : 0.0, Q4 : -0.0610485821962}
2019-04-03 22:49:57.31: SIM {TimeUS : 258135038, Roll : 0.0, Pitch : 0.0, Yaw : 353.0, Alt : 584.090026855, Lat : -35.363261, Lng : 149.1652299, Q1 : 0.998134791851, Q2 : 0.0, Q3 : 0.0, Q4 : -0.0610485821962}
2019-04-03 22:49:57.41: SIM {TimeUS : 258234998, Roll : 0.0, Pitch : 0.0, Yaw : 353.0, Alt : 584.090026855, Lat : -35.363261, Lng : 149.1652299, Q1 : 0.998134791851, Q2 : 0.0, Q3 : 0.0, Q4 : -0.0610485821962}
2019-04-03 22:49:57.51: SIM {TimeUS : 258334958, Roll : 0.0, Pitch : 0.0, Yaw : 353.0, Alt : 584.090026855, Lat : -35.363261, Lng : 149.1652299, Q1 : 0.998134791851, Q2 : 0.0, Q3 : 0.0, Q4 : -0.0610485821962}
2019-04-03 22:49:57.61: SIM {TimeUS : 258434918, Roll : 0.0, Pitch : 0.0, Yaw : 353.0, Alt : 584.090026855, Lat : -35.363261, Lng : 149.1652299, Q1 : 0.998134791851, Q2 : 0.0, Q3 : 0.0, Q4 : -0.0610485821962}
2019-04-03 22:49:57.71: SIM {TimeUS : 258534878, Roll : 0.0, Pitch : 0.0, Yaw : 353.0, Alt : 584.090026855, Lat : -35.363261, Lng : 149.1652299, Q1 : 0.998134791851, Q2 : 0.0, Q3 : 0.0, Q4 : -0.0610485821962}
2019-04-03 22:49:57.81: SIM {TimeUS : 258634838, Roll : 0.0, Pitch : 0.0, Yaw : 353.0, Alt : 584.090026855, Lat : -35.363261, Lng : 149.1652299, Q1 : 0.998134791851, Q2 : 0.0, Q3 : 0.0, Q4 : -0.0610485821962}
2019-04-03 22:49:57.91: SIM {TimeUS : 258734798, Roll : 0.0, Pitch : 0.0, Yaw : 353.0, Alt : 584.090026855, Lat : -35.363261, Lng : 149.1652299, Q1 : 0.998134791851, Q2 : 0.0, Q3 : 0.0, Q4 : -0.0610485821962}
2019-04-03 22:49:58.01: SIM {TimeUS : 258834758, Roll : 0.0, Pitch : 0.0, Yaw : 353.0, Alt : 584.090026855, Lat : -35.363261, Lng : 149.1652299, Q1 : 0.998134791851, Q2 : 0.0, Q3 : 0.0, Q4 : -0.0610485821962}
2019-04-03 22:49:58.11: SIM {TimeUS : 258934718, Roll : 0.0, Pitch : 0.0, Yaw : 353.0, Alt : 584.090026855, Lat : -35.363261, Lng : 149.1652299, Q1 : 0.998134791851, Q2 : 0.0, Q3 : 0.0, Q4 : -0.0610485821962}
2019-04-03 22:49:58.21: SIM {TimeUS : 259034678, Roll : 0.0, Pitch : 0.0, Yaw : 353.0, Alt : 584.090026855, Lat : -35.363261, Lng : 149.1652299, Q1 : 0.998134791851, Q2 : 0.0, Q3 : 0.0, Q4 : -0.0610485821962}
2019-04-03 22:49:58.31: SIM {TimeUS : 259134638, Roll : 0.0, Pitch : 0.0, Yaw : 353.0, Alt : 584.090026855, Lat : -35.363261, Lng : 149.1652299, Q1 : 0.998134791851, Q2 : 0.0, Q3 : 0.0, Q4 : -0.0610485821962}
2019-04-03 22:49:58.41: SIM {TimeUS : 259234598, Roll : 0.0, Pitch : 0.0, Yaw : 353.0, Alt : 584.090026855, Lat : -35.363261, Lng : 149.1652299, Q1 : 0.998134791851, Q2 : 0.0, Q3 : 0.0, Q4 : -0.0610485821962}
2019-04-03 22:49:58.51: SIM {TimeUS : 259334558, Roll : 0.0, Pitch : 0.0, Yaw : 353.0, Alt : 584.090026855, Lat : -35.363261, Lng : 149.1652299, Q1 : 0.998134791851, Q2 : 0.0, Q3 : 0.0, Q4 : -0.0610485821962}
2019-04-03 22:49:58.61: SIM {TimeUS : 259434518, Roll : 0.0, Pitch : 0.0, Yaw : 353.0, Alt : 584.090026855, Lat : -35.363261, Lng : 149.1652299, Q1 : 0.998134791851, Q2 : 0.0, Q3 : 0.0, Q4 : -0.0610485821962}
2019-04-03 22:49:58.71: SIM {TimeUS : 259534478, Roll : 0.0, Pitch : 0.0, Yaw : 353.0, Alt : 584.090026855, Lat : -35.363261, Lng : 149.1652299, Q1 : 0.998134791851, Q2 : 0.0, Q3 : 0.0, Q4 : -0.0610485821962}
2019-04-03 22:49:58.81: SIM {TimeUS : 259634438, Roll : 0.0, Pitch : 0.0, Yaw : 353.0, Alt : 584.090026855, Lat : -35.363261, Lng : 149.1652299, Q1 : 0.998134791851, Q2 : 0.0, Q3 : 0.0, Q4 : -0.0610485821962}
2019-04-03 22:49:58.91: SIM {TimeUS : 259734398, Roll : 0.0, Pitch : 0.0, Yaw : 353.0, Alt : 584.090026855, Lat : -35.363261, Lng : 149.1652299, Q1 : 0.998134791851, Q2 : 0.0, Q3 : 0.0, Q4 : -0.0610485821962}
2019-04-03 22:49:59.01: SIM {TimeUS : 259834358, Roll : 0.0, Pitch : 0.0, Yaw : 353.0, Alt : 584.090026855, Lat : -35.363261, Lng : 149.1652299, Q1 : 0.998134791851, Q2 : 0.0, Q3 : 0.0, Q4 : -0.0610485821962}
2019-04-03 22:49:59.11: SIM {TimeUS : 259934318, Roll : 0.0, Pitch : 0.0, Yaw : 353.0, Alt : 584.090026855, Lat : -35.363261, Lng : 149.1652299, Q1 : 0.998134791851, Q2 : 0.0, Q3 : 0.0, Q4 : -0.0610485821962}
2019-04-03 22:49:59.21: SIM {TimeUS : 260034278, Roll : 0.0, Pitch : 0.0, Yaw : 353.0, Alt : 584.090026855, Lat : -35.363261, Lng : 149.1652299, Q1 : 0.998134791851, Q2 : 0.0, Q3 : 0.0, Q4 : -0.0610485821962}
2019-04-03 22:49:59.31: SIM {TimeUS : 260134238, Roll : 0.0, Pitch : 0.0, Yaw : 353.0, Alt : 584.090026855, Lat : -35.363261, Lng : 149.1652299, Q1 : 0.998134791851, Q2 : 0.0, Q3 : 0.0, Q4 : -0.0610485821962}
2019-04-03 22:49:59.41: SIM {TimeUS : 260235031, Roll : 0.0, Pitch : 0.0, Yaw : 353.0, Alt : 584.090026855, Lat : -35.363261, Lng : 149.1652299, Q1 : 0.998134791851, Q2 : 0.0, Q3 : 0.0, Q4 : -0.0610485821962}
2019-04-03 22:49:59.51: SIM {TimeUS : 260334991, Roll : 0.0, Pitch : 0.0, Yaw : 353.0, Alt : 584.090026855, Lat : -35.363261, Lng : 149.1652299, Q1 : 0.998134791851, Q2 : 0.0, Q3 : 0.0, Q4 : -0.0610485821962}
2019-04-03 22:49:59.61: SIM {TimeUS : 260434951, Roll : 0.0, Pitch : 0.0, Yaw : 353.0, Alt : 584.090026855, Lat : -35.363261, Lng : 149.1652299, Q1 : 0.998134791851, Q2 : 0.0, Q3 : 0.0, Q4 : -0.0610485821962}
2019-04-03 22:49:59.71: SIM {TimeUS : 260534911, Roll : 0.0, Pitch : 0.0, Yaw : 353.0, Alt : 584.090026855, Lat : -35.363261, Lng : 149.1652299, Q1 : 0.998134791851, Q2 : 0.0, Q3 : 0.0, Q4 : -0.0610485821962}
2019-04-03 22:49:59.81: SIM {TimeUS : 260634871, Roll : 0.0, Pitch : 0.0, Yaw : 353.0, Alt : 584.090026855, Lat : -35.363261, Lng : 149.1652299, Q1 : 0.998134791851, Q2 : 0.0, Q3 : 0.0, Q4 : -0.0610485821962}
2019-04-03 22:49:59.91: SIM {TimeUS : 260734831, Roll : 0.0, Pitch : 0.0, Yaw : 353.0, Alt : 584.090026855, Lat : -35.363261, Lng : 149.1652299, Q1 : 0.998134791851, Q2 : 0.0, Q3 : 0.0, Q4 : -0.0610485821962}
2019-04-03 22:50:00.01: SIM {TimeUS : 260834791, Roll : 0.0, Pitch : 0.0, Yaw : 353.0, Alt : 584.090026855, Lat : -35.363261, Lng : 149.1652299, Q1 : 0.998134791851, Q2 : 0.0, Q3 : 0.0, Q4 : -0.0610485821962}
2019-04-03 22:50:00.11: SIM {TimeUS : 260934751, Roll : 0.0, Pitch : 0.0, Yaw : 353.0, Alt : 584.090026855, Lat : -35.363261, Lng : 149.1652299, Q1 : 0.998134791851, Q2 : 0.0, Q3 : 0.0, Q4 : -0.0610485821962}
2019-04-03 22:50:00.21: SIM {TimeUS : 261034711, Roll : 0.0, Pitch : 0.0, Yaw : 353.0, Alt : 584.090026855, Lat : -35.363261, Lng : 149.1652299, Q1 : 0.998134791851, Q2 : 0.0, Q3 : 0.0, Q4 : -0.0610485821962}
2019-04-03 22:50:00.31: SIM {TimeUS : 261134671, Roll : 0.0, Pitch : 0.0, Yaw : 353.0, Alt : 584.090026855, Lat : -35.363261, Lng : 149.1652299, Q1 : 0.998134791851, Q2 : 0.0, Q3 : 0.0, Q4 : -0.0610485821962}
2019-04-03 22:50:00.41: SIM {TimeUS : 261234631, Roll : 0.0, Pitch : 0.0, Yaw : 353.0, Alt : 584.090026855, Lat : -35.363261, Lng : 149.1652299, Q1 : 0.998134791851, Q2 : 0.0, Q3 : 0.0, Q4 : -0.0610485821962}
2019-04-03 22:50:00.51: SIM {TimeUS : 261334591, Roll : 0.0, Pitch : 0.0, Yaw : 353.0, Alt : 584.090026855, Lat : -35.363261, Lng : 149.1652299, Q1 : 0.998134791851, Q2 : 0.0, Q3 : 0.0, Q4 : -0.0610485821962}
2019-04-03 22:50:00.61: SIM {TimeUS : 261434551, Roll : 0.0, Pitch : 0.0, Yaw : 353.0, Alt : 584.090026855, Lat : -35.363261, Lng : 149.1652299, Q1 : 0.998134791851, Q2 : 0.0, Q3 : 0.0, Q4 : -0.0610485821962}
2019-04-03 22:50:00.71: SIM {TimeUS : 261534511, Roll : 0.0, Pitch : 0.0, Yaw : 353.0, Alt : 584.090026855, Lat : -35.363261, Lng : 149.1652299, Q1 : 0.998134791851, Q2 : 0.0, Q3 : 0.0, Q4 : -0.0610485821962}
2019-04-03 22:50:00.81: SIM {TimeUS : 261634471, Roll : 0.0, Pitch : 0.0, Yaw : 353.0, Alt : 584.090026855, Lat : -35.363261, Lng : 149.1652299, Q1 : 0.998134791851, Q2 : 0.0, Q3 : 0.0, Q4 : -0.0610485821962}
2019-04-03 22:50:00.91: SIM {TimeUS : 261734431, Roll : 0.0, Pitch : 0.0, Yaw : 353.0, Alt : 584.090026855, Lat : -35.363261, Lng : 149.1652299, Q1 : 0.998134791851, Q2 : 0.0, Q3 : 0.0, Q4 : -0.0610485821962}
2019-04-03 22:50:01.01: SIM {TimeUS : 261834391, Roll : 0.0, Pitch : 0.0, Yaw : 353.0, Alt : 584.090026855, Lat : -35.363261, Lng : 149.1652299, Q1 : 0.998134791851, Q2 : 0.0, Q3 : 0.0, Q4 : -0.0610485821962}
2019-04-03 22:50:01.11: SIM {TimeUS : 261934351, Roll : 0.0, Pitch : 0.0, Yaw : 353.0, Alt : 584.090026855, Lat : -35.363261, Lng : 149.1652299, Q1 : 0.998134791851, Q2 : 0.0, Q3 : 0.0, Q4 : -0.0610485821962}
2019-04-03 22:50:01.21: SIM {TimeUS : 262034311, Roll : 0.0, Pitch : 0.0, Yaw : 353.0, Alt : 584.090026855, Lat : -35.363261, Lng : 149.1652299, Q1 : 0.998134791851, Q2 : 0.0, Q3 : 0.0, Q4 : -0.0610485821962}
2019-04-03 22:50:01.31: SIM {TimeUS : 262134271, Roll : 0.0, Pitch : 0.0, Yaw : 353.0, Alt : 584.090026855, Lat : -35.363261, Lng : 149.1652299, Q1 : 0.998134791851, Q2 : 0.0, Q3 : 0.0, Q4 : -0.0610485821962}
2019-04-03 22:50:01.41: SIM {TimeUS : 262234231, Roll : 0.0, Pitch : 0.0, Yaw : 353.0, Alt : 584.090026855, Lat : -35.363261, Lng : 149.1652299, Q1 : 0.998134791851, Q2 : 0.0, Q3 : 0.0, Q4 : -0.0610485821962}
2019-04-03 22:50:01.51: SIM {TimeUS : 262335024, Roll : 0.0, Pitch : 0.0, Yaw : 353.0, Alt : 584.090026855, Lat : -35.363261, Lng : 149.1652299, Q1 : 0.998134791851, Q2 : 0.0, Q3 : 0.0, Q4 : -0.0610485821962}
2019-04-03 22:50:01.61: SIM {TimeUS : 262434984, Roll : 0.0, Pitch : 0.0, Yaw : 353.0, Alt : 584.090026855, Lat : -35.363261, Lng : 149.1652299, Q1 : 0.998134791851, Q2 : 0.0, Q3 : 0.0, Q4 : -0.0610485821962}
2019-04-03 22:50:01.71: SIM {TimeUS : 262534944, Roll : 0.0, Pitch : 0.0, Yaw : 353.0, Alt : 584.090026855, Lat : -35.363261, Lng : 149.1652299, Q1 : 0.998134791851, Q2 : 0.0, Q3 : 0.0, Q4 : -0.0610485821962}
2019-04-03 22:50:01.81: SIM {TimeUS : 262634904, Roll : 0.0, Pitch : 0.0, Yaw : 353.0, Alt : 584.090026855, Lat : -35.363261, Lng : 149.1652299, Q1 : 0.998134791851, Q2 : 0.0, Q3 : 0.0, Q4 : -0.0610485821962}
2019-04-03 22:50:01.91: SIM {TimeUS : 262734864, Roll : 0.0, Pitch : 0.0, Yaw : 353.0, Alt : 584.090026855, Lat : -35.363261, Lng : 149.1652299, Q1 : 0.998134791851, Q2 : 0.0, Q3 : 0.0, Q4 : -0.0610485821962}
2019-04-03 22:50:02.01: SIM {TimeUS : 262834824, Roll : 0.0, Pitch : 0.0, Yaw : 353.0, Alt : 584.090026855, Lat : -35.363261, Lng : 149.1652299, Q1 : 0.998134791851, Q2 : 0.0, Q3 : 0.0, Q4 : -0.0610485821962}
2019-04-03 22:50:02.11: SIM {TimeUS : 262934784, Roll : 0.0, Pitch : 0.0, Yaw : 353.0, Alt : 584.090026855, Lat : -35.363261, Lng : 149.1652299, Q1 : 0.998134791851, Q2 : 0.0, Q3 : 0.0, Q4 : -0.0610485821962}
2019-04-03 22:50:02.21: SIM {TimeUS : 263034744, Roll : 0.0, Pitch : 0.0, Yaw : 353.0, Alt : 584.090026855, Lat : -35.363261, Lng : 149.1652299, Q1 : 0.998134791851, Q2 : 0.0, Q3 : 0.0, Q4 : -0.0610485821962}
2019-04-03 22:50:02.31: SIM {TimeUS : 263134704, Roll : 0.0, Pitch : 0.0, Yaw : 353.0, Alt : 584.090026855, Lat : -35.363261, Lng : 149.1652299, Q1 : 0.998134791851, Q2 : 0.0, Q3 : 0.0, Q4 : -0.0610485821962}
2019-04-03 22:50:02.41: SIM {TimeUS : 263234664, Roll : 0.0, Pitch : 0.0, Yaw : 353.0, Alt : 584.090026855, Lat : -35.363261, Lng : 149.1652299, Q1 : 0.998134791851, Q2 : 0.0, Q3 : 0.0, Q4 : -0.0610485821962}
2019-04-03 22:50:02.51: SIM {TimeUS : 263334624, Roll : 0.0, Pitch : 0.0, Yaw : 353.0, Alt : 584.090026855, Lat : -35.363261, Lng : 149.1652299, Q1 : 0.998134791851, Q2 : 0.0, Q3 : 0.0, Q4 : -0.0610485821962}
2019-04-03 22:50:02.61: SIM {TimeUS : 263434584, Roll : 0.0, Pitch : 0.0, Yaw : 353.0, Alt : 584.090026855, Lat : -35.363261, Lng : 149.1652299, Q1 : 0.998134791851, Q2 : 0.0, Q3 : 0.0, Q4 : -0.0610485821962}
2019-04-03 22:50:02.71: SIM {TimeUS : 263534544, Roll : 0.0, Pitch : 0.0, Yaw : 353.0, Alt : 584.090026855, Lat : -35.363261, Lng : 149.1652299, Q1 : 0.998134791851, Q2 : 0.0, Q3 : 0.0, Q4 : -0.0610485821962}
2019-04-03 22:50:02.81: SIM {TimeUS : 263634504, Roll : 0.0, Pitch : 0.0, Yaw : 353.0, Alt : 584.090026855, Lat : -35.363261, Lng : 149.1652299, Q1 : 0.998134791851, Q2 : 0.0, Q3 : 0.0, Q4 : -0.0610485821962}
2019-04-03 22:50:02.91: SIM {TimeUS : 263734464, Roll : 0.0, Pitch : 0.0, Yaw : 353.0, Alt : 584.090026855, Lat : -35.363261, Lng : 149.1652299, Q1 : 0.998134791851, Q2 : 0.0, Q3 : 0.0, Q4 : -0.0610485821962}
2019-04-03 22:50:03.01: SIM {TimeUS : 263834424, Roll : 0.0, Pitch : 0.0, Yaw : 353.0, Alt : 584.090026855, Lat : -35.363261, Lng : 149.1652299, Q1 : 0.998134791851, Q2 : 0.0, Q3 : 0.0, Q4 : -0.0610485821962}
2019-04-03 22:50:03.11: SIM {TimeUS : 263934384, Roll : 0.0, Pitch : 0.0, Yaw : 353.0, Alt : 584.090026855, Lat : -35.363261, Lng : 149.1652299, Q1 : 0.998134791851, Q2 : 0.0, Q3 : 0.0, Q4 : -0.0610485821962}
2019-04-03 22:50:03.21: SIM {TimeUS : 264034344, Roll : 0.0, Pitch : 0.0, Yaw : 353.0, Alt : 584.090026855, Lat : -35.363261, Lng : 149.1652299, Q1 : 0.998134791851, Q2 : 0.0, Q3 : 0.0, Q4 : -0.0610485821962}
2019-04-03 22:50:03.31: SIM {TimeUS : 264134304, Roll : 0.0, Pitch : 0.0, Yaw : 353.0, Alt : 584.090026855, Lat : -35.363261, Lng : 149.1652299, Q1 : 0.998134791851, Q2 : 0.0, Q3 : 0.0, Q4 : -0.0610485821962}
2019-04-03 22:50:03.41: SIM {TimeUS : 264234264, Roll : 0.0, Pitch : 0.0, Yaw : 353.0, Alt : 584.090026855, Lat : -35.363261, Lng : 149.1652299, Q1 : 0.998134791851, Q2 : 0.0, Q3 : 0.0, Q4 : -0.0610485821962}
2019-04-03 22:50:03.51: SIM {TimeUS : 264334224, Roll : 0.0, Pitch : 0.0, Yaw : 353.0, Alt : 584.090026855, Lat : -35.363261, Lng : 149.1652299, Q1 : 0.998134791851, Q2 : 0.0, Q3 : 0.0, Q4 : -0.0610485821962}
2019-04-03 22:50:03.61: SIM {TimeUS : 264435017, Roll : 0.0, Pitch : 0.0, Yaw : 353.0, Alt : 584.090026855, Lat : -35.363261, Lng : 149.1652299, Q1 : 0.998134791851, Q2 : 0.0, Q3 : 0.0, Q4 : -0.0610485821962}
2019-04-03 22:50:03.71: SIM {TimeUS : 264534977, Roll : 0.0, Pitch : 0.0, Yaw : 353.0, Alt : 584.090026855, Lat : -35.363261, Lng : 149.1652299, Q1 : 0.998134791851, Q2 : 0.0, Q3 : 0.0, Q4 : -0.0610485821962}
2019-04-03 22:50:03.81: SIM {TimeUS : 264634937, Roll : 0.0, Pitch : 0.0, Yaw : 353.0, Alt : 584.090026855, Lat : -35.363261, Lng : 149.1652299, Q1 : 0.998134791851, Q2 : 0.0, Q3 : 0.0, Q4 : -0.0610485821962}
2019-04-03 22:50:03.91: SIM {TimeUS : 264734897, Roll : 0.0, Pitch : 0.0, Yaw : 353.0, Alt : 584.090026855, Lat : -35.363261, Lng : 149.1652299, Q1 : 0.998134791851, Q2 : 0.0, Q3 : 0.0, Q4 : -0.0610485821962}
2019-04-03 22:50:04.01: SIM {TimeUS : 264834857, Roll : 0.0, Pitch : 0.0, Yaw : 353.0, Alt : 584.090026855, Lat : -35.363261, Lng : 149.1652299, Q1 : 0.998134791851, Q2 : 0.0, Q3 : 0.0, Q4 : -0.0610485821962}
2019-04-03 22:50:04.11: SIM {TimeUS : 264934817, Roll : 0.0, Pitch : 0.0, Yaw : 353.0, Alt : 584.090026855, Lat : -35.363261, Lng : 149.1652299, Q1 : 0.998134791851, Q2 : 0.0, Q3 : 0.0, Q4 : -0.0610485821962}
2019-04-03 22:50:04.21: SIM {TimeUS : 265034777, Roll : 0.0, Pitch : 0.0, Yaw : 353.0, Alt : 584.090026855, Lat : -35.363261, Lng : 149.1652299, Q1 : 0.998134791851, Q2 : 0.0, Q3 : 0.0, Q4 : -0.0610485821962}
2019-04-03 22:50:04.31: SIM {TimeUS : 265134737, Roll : 0.0, Pitch : 0.0, Yaw : 353.0, Alt : 584.090026855, Lat : -35.363261, Lng : 149.1652299, Q1 : 0.998134791851, Q2 : 0.0, Q3 : 0.0, Q4 : -0.0610485821962}
2019-04-03 22:50:04.41: SIM {TimeUS : 265234697, Roll : 0.0, Pitch : 0.0, Yaw : 353.0, Alt : 584.090026855, Lat : -35.363261, Lng : 149.1652299, Q1 : 0.998134791851, Q2 : 0.0, Q3 : 0.0, Q4 : -0.0610485821962}
2019-04-03 22:50:04.51: SIM {TimeUS : 265334657, Roll : 0.0, Pitch : 0.0, Yaw : 353.0, Alt : 584.090026855, Lat : -35.363261, Lng : 149.1652299, Q1 : 0.998134791851, Q2 : 0.0, Q3 : 0.0, Q4 : -0.0610485821962}
2019-04-03 22:50:04.61: SIM {TimeUS : 265434617, Roll : 0.0, Pitch : 0.0, Yaw : 353.0, Alt : 584.090026855, Lat : -35.363261, Lng : 149.1652299, Q1 : 0.998134791851, Q2 : 0.0, Q3 : 0.0, Q4 : -0.0610485821962}
2019-04-03 22:50:04.71: SIM {TimeUS : 265534577, Roll : 0.0, Pitch : 0.0, Yaw : 353.0, Alt : 584.090026855, Lat : -35.363261, Lng : 149.1652299, Q1 : 0.998134791851, Q2 : 0.0, Q3 : 0.0, Q4 : -0.0610485821962}
2019-04-03 22:50:04.81: SIM {TimeUS : 265634537, Roll : 0.0, Pitch : 0.0, Yaw : 353.0, Alt : 584.090026855, Lat : -35.363261, Lng : 149.1652299, Q1 : 0.998134791851, Q2 : 0.0, Q3 : 0.0, Q4 : -0.0610485821962}
2019-04-03 22:50:04.91: SIM {TimeUS : 265734497, Roll : 0.0, Pitch : 0.0, Yaw : 353.0, Alt : 584.090026855, Lat : -35.363261, Lng : 149.1652299, Q1 : 0.998134791851, Q2 : 0.0, Q3 : 0.0, Q4 : -0.0610485821962}
2019-04-03 22:50:05.01: SIM {TimeUS : 265834457, Roll : 0.0, Pitch : 0.0, Yaw : 353.0, Alt : 584.090026855, Lat : -35.363261, Lng : 149.1652299, Q1 : 0.998134791851, Q2 : 0.0, Q3 : 0.0, Q4 : -0.0610485821962}
2019-04-03 22:50:07.51: SIM {TimeUS : 268334290, Roll : 0.0, Pitch : 0.0, Yaw : 353.0, Alt : 584.090026855, Lat : -35.363261, Lng : 149.1652299, Q1 : 0.998134791851, Q2 : 0.0, Q3 : 0.0, Q4 : -0.0610485821962}
2019-04-03 22:50:07.61: SIM {TimeUS : 268434250, Roll : 0.0, Pitch : 0.0, Yaw : 353.0, Alt : 584.090026855, Lat : -35.363261, Lng : 149.1652299, Q1 : 0.998134791851, Q2 : 0.0, Q3 : 0.0, Q4 : -0.0610485821962}
2019-04-03 22:50:07.71: SIM {TimeUS : 268535043, Roll : 0.0, Pitch : 0.0, Yaw : 353.0, Alt : 584.090026855, Lat : -35.363261, Lng : 149.1652299, Q1 : 0.998134791851, Q2 : 0.0, Q3 : 0.0, Q4 : -0.0610485821962}
2019-04-03 22:50:07.81: SIM {TimeUS : 268635003, Roll : 0.0, Pitch : 0.0, Yaw : 353.0, Alt : 584.090026855, Lat : -35.363261, Lng : 149.1652299, Q1 : 0.998134791851, Q2 : 0.0, Q3 : 0.0, Q4 : -0.0610485821962}
2019-04-03 22:50:07.91: SIM {TimeUS : 268734963, Roll : 0.0, Pitch : 0.0, Yaw : 353.0, Alt : 584.090026855, Lat : -35.363261, Lng : 149.1652299, Q1 : 0.998134791851, Q2 : 0.0, Q3 : 0.0, Q4 : -0.0610485821962}
2019-04-03 22:50:08.01: SIM {TimeUS : 268834923, Roll : 0.0, Pitch : 0.0, Yaw : 353.0, Alt : 584.090026855, Lat : -35.363261, Lng : 149.1652299, Q1 : 0.998134791851, Q2 : 0.0, Q3 : 0.0, Q4 : -0.0610485821962}
2019-04-03 22:50:08.11: SIM {TimeUS : 268934883, Roll : 0.0, Pitch : 0.0, Yaw : 353.0, Alt : 584.090026855, Lat : -35.363261, Lng : 149.1652299, Q1 : 0.998134791851, Q2 : 0.0, Q3 : 0.0, Q4 : -0.0610485821962}
2019-04-03 22:50:08.21: SIM {TimeUS : 269034843, Roll : 0.0, Pitch : 0.0, Yaw : 353.0, Alt : 584.090026855, Lat : -35.363261, Lng : 149.1652299, Q1 : 0.998134791851, Q2 : 0.0, Q3 : 0.0, Q4 : -0.0610485821962}
2019-04-03 22:50:08.31: SIM {TimeUS : 269134803, Roll : 0.0, Pitch : 0.0, Yaw : 353.0, Alt : 584.090026855, Lat : -35.363261, Lng : 149.1652299, Q1 : 0.998134791851, Q2 : 0.0, Q3 : 0.0, Q4 : -0.0610485821962}
2019-04-03 22:50:08.41: SIM {TimeUS : 269234763, Roll : 0.0, Pitch : 0.0, Yaw : 353.0, Alt : 584.090026855, Lat : -35.363261, Lng : 149.1652299, Q1 : 0.998134791851, Q2 : 0.0, Q3 : 0.0, Q4 : -0.0610485821962}
2019-04-03 22:50:08.51: SIM {TimeUS : 269334723, Roll : 0.0, Pitch : 0.0, Yaw : 353.0, Alt : 584.090026855, Lat : -35.363261, Lng : 149.1652299, Q1 : 0.998134791851, Q2 : 0.0, Q3 : 0.0, Q4 : -0.0610485821962}
2019-04-03 22:50:08.61: SIM {TimeUS : 269434683, Roll : 0.0, Pitch : 0.0, Yaw : 353.0, Alt : 584.090026855, Lat : -35.363261, Lng : 149.1652299, Q1 : 0.998134791851, Q2 : 0.0, Q3 : 0.0, Q4 : -0.0610485821962}
2019-04-03 22:50:08.71: SIM {TimeUS : 269534643, Roll : 0.0, Pitch : 0.0, Yaw : 353.0, Alt : 584.090026855, Lat : -35.363261, Lng : 149.1652299, Q1 : 0.998134791851, Q2 : 0.0, Q3 : 0.0, Q4 : -0.0610485821962}
2019-04-03 22:50:08.81: SIM {TimeUS : 269634603, Roll : 0.0, Pitch : 0.0, Yaw : 353.0, Alt : 584.090026855, Lat : -35.363261, Lng : 149.1652299, Q1 : 0.998134791851, Q2 : 0.0, Q3 : 0.0, Q4 : -0.0610485821962}
2019-04-03 22:50:08.91: SIM {TimeUS : 269734563, Roll : 0.0, Pitch : 0.0, Yaw : 353.0, Alt : 584.090026855, Lat : -35.363261, Lng : 149.1652299, Q1 : 0.998134791851, Q2 : 0.0, Q3 : 0.0, Q4 : -0.0610485821962}
2019-04-03 22:50:09.01: SIM {TimeUS : 269834523, Roll : 0.0, Pitch : 0.0, Yaw : 353.0, Alt : 584.090026855, Lat : -35.363261, Lng : 149.1652299, Q1 : 0.998134791851, Q2 : 0.0, Q3 : 0.0, Q4 : -0.0610485821962}
2019-04-03 22:50:09.11: SIM {TimeUS : 269934483, Roll : 0.0, Pitch : 0.0, Yaw : 353.0, Alt : 584.090026855, Lat : -35.363261, Lng : 149.1652299, Q1 : 0.998134791851, Q2 : 0.0, Q3 : 0.0, Q4 : -0.0610485821962}
2019-04-03 22:50:09.21: SIM {TimeUS : 270034443, Roll : 0.0, Pitch : 0.0, Yaw : 353.0, Alt : 584.090026855, Lat : -35.363261, Lng : 149.1652299, Q1 : 0.998134791851, Q2 : 0.0, Q3 : 0.0, Q4 : -0.0610485821962}
2019-04-03 22:50:09.31: SIM {TimeUS : 270134403, Roll : 0.0, Pitch : 0.0, Yaw : 353.0, Alt : 584.090026855, Lat : -35.363261, Lng : 149.1652299, Q1 : 0.998134791851, Q2 : 0.0, Q3 : 0.0, Q4 : -0.0610485821962}
2019-04-03 22:50:09.41: SIM {TimeUS : 270234363, Roll : 0.0, Pitch : 0.0, Yaw : 353.0, Alt : 584.090026855, Lat : -35.363261, Lng : 149.1652299, Q1 : 0.998134791851, Q2 : 0.0, Q3 : 0.0, Q4 : -0.0610485821962}
2019-04-03 22:50:09.51: SIM {TimeUS : 270334323, Roll : 0.0, Pitch : 0.0, Yaw : 353.0, Alt : 584.090026855, Lat : -35.363261, Lng : 149.1652299, Q1 : 0.998134791851, Q2 : 0.0, Q3 : 0.0, Q4 : -0.0610485821962}
2019-04-03 22:50:09.61: SIM {TimeUS : 270434283, Roll : 0.0, Pitch : 0.0, Yaw : 353.0, Alt : 584.090026855, Lat : -35.363261, Lng : 149.1652299, Q1 : 0.998134791851, Q2 : 0.0, Q3 : 0.0, Q4 : -0.0610485821962}
2019-04-03 22:50:09.71: SIM {TimeUS : 270534243, Roll : 0.0, Pitch : 0.0, Yaw : 353.0, Alt : 584.090026855, Lat : -35.363261, Lng : 149.1652299, Q1 : 0.998134791851, Q2 : 0.0, Q3 : 0.0, Q4 : -0.0610485821962}
2019-04-03 22:50:09.81: SIM {TimeUS : 270635036, Roll : 0.0, Pitch : 0.0, Yaw : 353.0, Alt : 584.090026855, Lat : -35.363261, Lng : 149.1652299, Q1 : 0.998134791851, Q2 : 0.0, Q3 : 0.0, Q4 : -0.0610485821962}
2019-04-03 22:50:09.91: SIM {TimeUS : 270734996, Roll : 0.0, Pitch : 0.0, Yaw : 353.0, Alt : 584.090026855, Lat : -35.363261, Lng : 149.1652299, Q1 : 0.998134791851, Q2 : 0.0, Q3 : 0.0, Q4 : -0.0610485821962}
2019-04-03 22:50:10.01: SIM {TimeUS : 270834956, Roll : 0.0, Pitch : 0.0, Yaw : 353.0, Alt : 584.090026855, Lat : -35.363261, Lng : 149.1652299, Q1 : 0.998134791851, Q2 : 0.0, Q3 : 0.0, Q4 : -0.0610485821962}
2019-04-03 22:50:10.11: SIM {TimeUS : 270934916, Roll : 0.0, Pitch : 0.0, Yaw : 353.0, Alt : 584.090026855, Lat : -35.363261, Lng : 149.1652299, Q1 : 0.998134791851, Q2 : 0.0, Q3 : 0.0, Q4 : -0.0610485821962}
2019-04-03 22:50:10.21: SIM {TimeUS : 271034876, Roll : 0.0, Pitch : 0.0, Yaw : 353.0, Alt : 584.090026855, Lat : -35.363261, Lng : 149.1652299, Q1 : 0.998134791851, Q2 : 0.0, Q3 : 0.0, Q4 : -0.0610485821962}
2019-04-03 22:50:10.31: SIM {TimeUS : 271134836, Roll : 0.0, Pitch : 0.0, Yaw : 353.0, Alt : 584.090026855, Lat : -35.363261, Lng : 149.1652299, Q1 : 0.998134791851, Q2 : 0.0, Q3 : 0.0, Q4 : -0.0610485821962}
2019-04-03 22:50:10.41: SIM {TimeUS : 271234796, Roll : 0.0, Pitch : 0.0, Yaw : 353.0, Alt : 584.090026855, Lat : -35.363261, Lng : 149.1652299, Q1 : 0.998134791851, Q2 : 0.0, Q3 : 0.0, Q4 : -0.0610485821962}
2019-04-03 22:50:10.51: SIM {TimeUS : 271334756, Roll : 0.0, Pitch : 0.0, Yaw : 353.0, Alt : 584.090026855, Lat : -35.363261, Lng : 149.1652299, Q1 : 0.998134791851, Q2 : 0.0, Q3 : 0.0, Q4 : -0.0610485821962}
2019-04-03 22:50:10.61: SIM {TimeUS : 271434716, Roll : 0.0, Pitch : 0.0, Yaw : 353.0, Alt : 584.090026855, Lat : -35.363261, Lng : 149.1652299, Q1 : 0.998134791851, Q2 : 0.0, Q3 : 0.0, Q4 : -0.0610485821962}
2019-04-03 22:50:10.71: SIM {TimeUS : 271534676, Roll : 0.0, Pitch : 0.0, Yaw : 353.0, Alt : 584.090026855, Lat : -35.363261, Lng : 149.1652299, Q1 : 0.998134791851, Q2 : 0.0, Q3 : 0.0, Q4 : -0.0610485821962}
2019-04-03 22:50:10.81: SIM {TimeUS : 271634636, Roll : 0.0, Pitch : 0.0, Yaw : 353.0, Alt : 584.090026855, Lat : -35.363261, Lng : 149.1652299, Q1 : 0.998134791851, Q2 : 0.0, Q3 : 0.0, Q4 : -0.0610485821962}
2019-04-03 22:50:10.91: SIM {TimeUS : 271734596, Roll : 0.0, Pitch : 0.0, Yaw : 353.0, Alt : 584.090026855, Lat : -35.363261, Lng : 149.1652299, Q1 : 0.998134791851, Q2 : 0.0, Q3 : 0.0, Q4 : -0.0610485821962}
2019-04-03 22:50:11.01: SIM {TimeUS : 271834556, Roll : 0.0, Pitch : 0.0, Yaw : 353.0, Alt : 584.090026855, Lat : -35.363261, Lng : 149.1652299, Q1 : 0.998134791851, Q2 : 0.0, Q3 : 0.0, Q4 : -0.0610485821962}
2019-04-03 22:50:11.11: SIM {TimeUS : 271934516, Roll : 0.0, Pitch : 0.0, Yaw : 353.0, Alt : 584.090026855, Lat : -35.363261, Lng : 149.1652299, Q1 : 0.998134791851, Q2 : 0.0, Q3 : 0.0, Q4 : -0.0610485821962}
2019-04-03 22:50:11.21: SIM {TimeUS : 272034476, Roll : 0.0, Pitch : 0.0, Yaw : 353.0, Alt : 584.090026855, Lat : -35.363261, Lng : 149.1652299, Q1 : 0.998134791851, Q2 : 0.0, Q3 : 0.0, Q4 : -0.0610485821962}
2019-04-03 22:50:11.31: SIM {TimeUS : 272134436, Roll : 0.0, Pitch : 0.0, Yaw : 353.0, Alt : 584.090026855, Lat : -35.363261, Lng : 149.1652299, Q1 : 0.998134791851, Q2 : 0.0, Q3 : 0.0, Q4 : -0.0610485821962}
2019-04-03 22:50:11.41: SIM {TimeUS : 272234396, Roll : 0.0, Pitch : 0.0, Yaw : 353.0, Alt : 584.090026855, Lat : -35.363261, Lng : 149.1652299, Q1 : 0.998134791851, Q2 : 0.0, Q3 : 0.0, Q4 : -0.0610485821962}
2019-04-03 22:50:11.51: SIM {TimeUS : 272334356, Roll : 0.0, Pitch : 0.0, Yaw : 353.0, Alt : 584.090026855, Lat : -35.363261, Lng : 149.1652299, Q1 : 0.998134791851, Q2 : 0.0, Q3 : 0.0, Q4 : -0.0610485821962}
2019-04-03 22:50:11.61: SIM {TimeUS : 272434316, Roll : 0.0, Pitch : 0.0, Yaw : 353.0, Alt : 584.090026855, Lat : -35.363261, Lng : 149.1652299, Q1 : 0.998134791851, Q2 : 0.0, Q3 : 0.0, Q4 : -0.0610486753285}
2019-04-03 22:50:11.71: SIM {TimeUS : 272534276, Roll : 0.0, Pitch : 0.0, Yaw : 353.0, Alt : 584.090026855, Lat : -35.363261, Lng : 149.1652299, Q1 : 0.998134791851, Q2 : 0.0, Q3 : 0.0, Q4 : -0.0610486753285}
2019-04-03 22:50:11.81: SIM {TimeUS : 272634236, Roll : 0.0, Pitch : 0.0, Yaw : 353.0, Alt : 584.090026855, Lat : -35.363261, Lng : 149.1652299, Q1 : 0.998134791851, Q2 : 0.0, Q3 : 0.0, Q4 : -0.0610486753285}
2019-04-03 22:50:11.91: SIM {TimeUS : 272735029, Roll : 0.0, Pitch : 0.0, Yaw : 353.0, Alt : 584.090026855, Lat : -35.363261, Lng : 149.1652299, Q1 : 0.998134791851, Q2 : 0.0, Q3 : 0.0, Q4 : -0.0610486753285}
2019-04-03 22:50:12.01: SIM {TimeUS : 272834989, Roll : 0.0, Pitch : 0.0, Yaw : 353.0, Alt : 584.090026855, Lat : -35.363261, Lng : 149.1652299, Q1 : 0.998134791851, Q2 : 0.0, Q3 : 0.0, Q4 : -0.0610486753285}
2019-04-03 22:50:12.11: SIM {TimeUS : 272934949, Roll : 0.0, Pitch : 0.0, Yaw : 353.0, Alt : 584.090026855, Lat : -35.363261, Lng : 149.1652299, Q1 : 0.998134791851, Q2 : 0.0, Q3 : 0.0, Q4 : -0.0610486753285}
2019-04-03 22:50:12.21: SIM {TimeUS : 273034909, Roll : 0.0, Pitch : 0.0, Yaw : 353.0, Alt : 584.090026855, Lat : -35.363261, Lng : 149.1652299, Q1 : 0.998134791851, Q2 : 0.0, Q3 : 0.0, Q4 : -0.0610486753285}
2019-04-03 22:50:12.31: SIM {TimeUS : 273134869, Roll : 0.0, Pitch : 0.0, Yaw : 353.0, Alt : 584.090026855, Lat : -35.363261, Lng : 149.1652299, Q1 : 0.998134791851, Q2 : 0.0, Q3 : 0.0, Q4 : -0.0610486753285}
2019-04-03 22:50:12.41: SIM {TimeUS : 273234829, Roll : 0.0, Pitch : 0.0, Yaw : 353.0, Alt : 584.099975586, Lat : -35.363261, Lng : 149.1652299, Q1 : 0.998134791851, Q2 : 0.0, Q3 : 0.0, Q4 : -0.0610486753285}
2019-04-03 22:50:12.51: SIM {TimeUS : 273334789, Roll : 0.0, Pitch : 0.0, Yaw : 353.0, Alt : 584.099975586, Lat : -35.363261, Lng : 149.1652299, Q1 : 0.998134791851, Q2 : 0.0, Q3 : 0.0, Q4 : -0.0610486753285}
2019-04-03 22:50:12.61: SIM {TimeUS : 273434749, Roll : 0.0, Pitch : 0.0, Yaw : 353.0, Alt : 584.109985352, Lat : -35.363261, Lng : 149.1652299, Q1 : 0.998134791851, Q2 : 0.0, Q3 : 0.0, Q4 : -0.0610486753285}
2019-04-03 22:50:12.71: SIM {TimeUS : 273534709, Roll : 0.0, Pitch : 0.0, Yaw : 353.0, Alt : 584.130004883, Lat : -35.363261, Lng : 149.1652299, Q1 : 0.998134791851, Q2 : 0.0, Q3 : 0.0, Q4 : -0.0610486827791}
2019-04-03 22:50:12.81: SIM {TimeUS : 273634669, Roll : 0.0, Pitch : 0.0, Yaw : 353.0, Alt : 584.150024414, Lat : -35.363261, Lng : 149.1652299, Q1 : 0.998134791851, Q2 : 0.0, Q3 : 0.0, Q4 : -0.0610486753285}
2019-04-03 22:50:12.91: SIM {TimeUS : 273734629, Roll : 0.0, Pitch : 0.0, Yaw : 353.0, Alt : 584.190002441, Lat : -35.363261, Lng : 149.1652299, Q1 : 0.998134791851, Q2 : 0.0, Q3 : 0.0, Q4 : -0.0610486753285}
2019-04-03 22:50:13.01: SIM {TimeUS : 273834589, Roll : -0.01, Pitch : 0.0, Yaw : 352.99, Alt : 584.229980469, Lat : -35.363261, Lng : 149.1652299, Q1 : 0.998134613037, Q2 : -0.000112639492727, Q3 : -7.86696691648e-05, Q4 : -0.0610514469445}
2019-04-03 22:50:13.11: SIM {TimeUS : 273934549, Roll : -0.14, Pitch : -0.1, Yaw : 352.99, Alt : 584.299987793, Lat : -35.363261, Lng : 149.1652299, Q1 : 0.998131513596, Q2 : -0.00128131383099, Q3 : -0.00080347515177, Q4 : -0.0610833056271}
2019-04-03 22:50:13.21: SIM {TimeUS : 274034509, Roll : -0.34, Pitch : -0.24, Yaw : 352.98, Alt : 584.429992676, Lat : -35.363261, Lng : 149.1652299, Q1 : 0.998122155666, Q2 : -0.00312507920898, Q3 : -0.00195687147789, Q4 : -0.0611436143517}
2019-04-03 22:50:13.31: SIM {TimeUS : 274134469, Roll : -0.5, Pitch : -0.38, Yaw : 352.98, Alt : 584.590026855, Lat : -35.363261, Lng : 149.1652299, Q1 : 0.998107969761, Q2 : -0.00463743926957, Q3 : -0.00308817718178, Q4 : -0.0612325184047}
2019-04-03 22:50:13.41: SIM {TimeUS : 274234429, Roll : -0.56, Pitch : -0.46, Yaw : 352.96, Alt : 584.739990234, Lat : -35.363261, Lng : 149.1652299, Q1 : 0.998096346855, Q2 : -0.00517315417528, Q3 : -0.00375784910284, Q4 : -0.0613425187767}
2019-04-03 22:50:13.51: SIM {TimeUS : 274334389, Roll : -0.49, Pitch : -0.45, Yaw : 352.95, Alt : 584.900024414, Lat : -35.363261, Lng : 149.1652299, Q1 : 0.998092591763, Q2 : -0.00455111823976, Q3 : -0.003705232637, Q4 : -0.0614547729492}
2019-04-03 22:50:13.61: SIM {TimeUS : 274434349, Roll : -0.35, Pitch : -0.36, Yaw : 352.94, Alt : 585.049987793, Lat : -35.363261, Lng : 149.1652298, Q1 : 0.998093783855, Q2 : -0.00327397836372, Q3 : -0.00296498532407, Q4 : -0.0615580715239}
2019-04-03 22:50:13.71: SIM {TimeUS : 274534309, Roll : -0.18, Pitch : -0.22, Yaw : 352.93, Alt : 585.200012207, Lat : -35.363261, Lng : 149.1652298, Q1 : 0.998094558716, Q2 : -0.0017640440492, Q3 : -0.0018979961751, Q4 : -0.0616490133107}
2019-04-03 22:50:13.81: SIM {TimeUS : 274634269, Roll : -0.05, Pitch : -0.12, Yaw : 352.92, Alt : 585.359985352, Lat : -35.3632609, Lng : 149.1652298, Q1 : 0.998093187809, Q2 : -0.000556338229217, Q3 : -0.00101852917578, Q4 : -0.0617142803967}
2019-04-03 22:50:13.91: SIM {TimeUS : 274734229, Roll : 0.01, Pitch : -0.05, Yaw : 352.91, Alt : 585.530029297, Lat : -35.3632609, Lng : 149.1652298, Q1 : 0.998091042042, Q2 : 8.87235437403e-05, Q3 : -0.00051371823065, Q4 : -0.061757709831}
2019-04-03 22:50:14.01: SIM {TimeUS : 274835022, Roll : 0.03, Pitch : -0.04, Yaw : 352.91, Alt : 585.700012207, Lat : -35.3632609, Lng : 149.1652297, Q1 : 0.998089551926, Q2 : 0.000267242896371, Q3 : -0.000403191748774, Q4 : -0.0617825239897}
2019-04-03 22:50:14.11: SIM {TimeUS : 274934982, Roll : 0.02, Pitch : -0.03, Yaw : 352.91, Alt : 585.880004883, Lat : -35.3632609, Lng : 149.1652297, Q1 : 0.998089492321, Q2 : 0.000207582270377, Q3 : -0.000287480768748, Q4 : -0.0617841482162}
2019-04-03 22:50:14.21: SIM {TimeUS : 275034942, Roll : 0.03, Pitch : -0.02, Yaw : 352.91, Alt : 586.070007324, Lat : -35.3632608, Lng : 149.1652297, Q1 : 0.998090624809, Q2 : 0.000287031085463, Q3 : -0.000276905891951, Q4 : -0.0617650486529}
2019-04-03 22:50:14.31: SIM {TimeUS : 275134902, Roll : 0.08, Pitch : -0.01, Yaw : 352.92, Alt : 586.25, Lat : -35.3632608, Lng : 149.1652296, Q1 : 0.998092234135, Q2 : 0.000706254853867, Q3 : -0.000181755953236, Q4 : -0.0617363899946}
2019-04-03 22:50:14.41: SIM {TimeUS : 275234862, Roll : 0.13, Pitch : 0.0, Yaw : 352.92, Alt : 586.429992676, Lat : -35.3632608, Lng : 149.1652296, Q1 : 0.99809384346, Q2 : 0.00121417967603, Q3 : -4.33219938714e-05, Q4 : -0.0617034882307}
2019-04-03 22:50:14.51: SIM {TimeUS : 275334822, Roll : 0.19, Pitch : 0.03, Yaw : 352.92, Alt : 586.609985352, Lat : -35.3632608, Lng : 149.1652294, Q1 : 0.998094916344, Q2 : 0.00172684073914, Q3 : 0.000170096958755, Q4 : -0.0616736449301}
2019-04-03 22:50:14.61: SIM {TimeUS : 275434782, Roll : 0.21, Pitch : 0.05, Yaw : 352.93, Alt : 586.770019531, Lat : -35.3632608, Lng : 149.1652294, Q1 : 0.998095989227, Q2 : 0.00190032459795, Q3 : 0.000353012583219, Q4 : -0.0616495497525}
2019-04-03 22:50:14.71: SIM {TimeUS : 275534742, Roll : 0.11, Pitch : 0.21, Yaw : 352.93, Alt : 586.929992676, Lat : -35.3632607, Lng : 149.1652294, Q1 : 0.998096585274, Q2 : 0.00107927492354, Q3 : 0.0018055512337, Q4 : -0.0616344064474}
2019-04-03 22:50:14.81: SIM {TimeUS : 275634702, Roll : -0.21, Pitch : 0.61, Yaw : 352.93, Alt : 587.070007324, Lat : -35.3632607, Lng : 149.1652294, Q1 : 0.998082518578, Q2 : -0.00158423162065, Q3 : 0.00547752389684, Q4 : -0.0616341680288}
2019-04-03 22:50:14.91: SIM {TimeUS : 275734662, Roll : -0.8, Pitch : 1.21, Yaw : 352.92, Alt : 587.200012207, Lat : -35.3632607, Lng : 149.1652294, Q1 : 0.998017072678, Q2 : -0.00634562131017, Q3 : 0.0110573200509, Q4 : -0.0616391226649}
2019-04-03 22:50:15.01: SIM {TimeUS : 275834622, Roll : -1.56, Pitch : 1.92, Yaw : 352.9, Alt : 587.320007324, Lat : -35.3632607, Lng : 149.1652293, Q1 : 0.997863352299, Q2 : -0.0125837894157, Q3 : 0.017648966983, Q4 : -0.0616355873644}
2019-04-03 22:50:15.11: SIM {TimeUS : 275934582, Roll : -2.39, Pitch : 2.68, Yaw : 352.87, Alt : 587.41998291, Lat : -35.3632608, Lng : 149.1652293, Q1 : 0.997607529163, Q2 : -0.0194094777107, Q3 : 0.0246633533388, Q4 : -0.0615968182683}
2019-04-03 22:50:15.21: SIM {TimeUS : 276034542, Roll : -3.21, Pitch : 3.39, Yaw : 352.84, Alt : 587.510009766, Lat : -35.3632609, Lng : 149.1652293, Q1 : 0.997273445129, Q2 : -0.0261830836535, Q3 : 0.0312791913748, Q4 : -0.0614967644215}
2019-04-03 22:50:15.31: SIM {TimeUS : 276134502, Roll : -3.93, Pitch : 3.96, Yaw : 352.82, Alt : 587.590026855, Lat : -35.363261, Lng : 149.1652292, Q1 : 0.996926486492, Q2 : -0.03211523965, Q3 : 0.0366852246225, Q4 : -0.0613221861422}
2019-04-03 22:50:15.41: SIM {TimeUS : 276234462, Roll : -4.51, Pitch : 4.37, Yaw : 352.81, Alt : 587.66998291, Lat : -35.363261, Lng : 149.1652289, Q1 : 0.996626734734, Q2 : -0.0368742980063, Q3 : 0.0405408628285, Q4 : -0.0610897727311}
2019-04-03 22:50:15.51: SIM {TimeUS : 276334422, Roll : -4.94, Pitch : 4.66, Yaw : 352.81, Alt : 587.729980469, Lat : -35.3632613, Lng : 149.1652288, Q1 : 0.996388852596, Q2 : -0.0404680222273, Q3 : 0.0432583317161, Q4 : -0.0608301311731}
2019-04-03 22:50:15.61: SIM {TimeUS : 276434382, Roll : -5.29, Pitch : 4.86, Yaw : 352.81, Alt : 587.780029297, Lat : -35.3632616, Lng : 149.1652284, Q1 : 0.996197223663, Q2 : -0.0433841310441, Q3 : 0.0451858900487, Q4 : -0.0605570860207}
2019-04-03 22:50:15.71: SIM {TimeUS : 276534342, Roll : -5.6, Pitch : 5.03, Yaw : 352.82, Alt : 587.83001709, Lat : -35.363262, Lng : 149.1652281, Q1 : 0.996018767357, Q2 : -0.0459791757166, Q3 : 0.0468678213656, Q4 : -0.0602993145585}
2019-04-03 22:50:15.81: SIM {TimeUS : 276634302, Roll : -5.9, Pitch : 5.2, Yaw : 352.82, Alt : 587.869995117, Lat : -35.3632623, Lng : 149.1652277, Q1 : 0.995835483074, Q2 : -0.0485158637166, Q3 : 0.0484778247774, Q4 : -0.0600661039352}
2019-04-03 22:50:15.91: SIM {TimeUS : 276734262, Roll : -6.14, Pitch : 5.33, Yaw : 352.83, Alt : 587.909973145, Lat : -35.3632628, Lng : 149.1652272, Q1 : 0.995682418346, Q2 : -0.0505489259958, Q3 : 0.0497581921518, Q4 : -0.0598790608346}
2019-04-03 22:50:16.01: SIM {TimeUS : 276834222, Roll : -6.34, Pitch : 5.4, Yaw : 352.83, Alt : 587.950012207, Lat : -35.3632634, Lng : 149.1652265, Q1 : 0.995572209358, Q2 : -0.0522009730339, Q3 : 0.0504270754755, Q4 : -0.0597347654402}
2019-04-03 22:50:16.11: SIM {TimeUS : 276935015, Roll : -6.5, Pitch : 5.45, Yaw : 352.83, Alt : 587.979980469, Lat : -35.363264, Lng : 149.165226, Q1 : 0.99547535181, Q2 : -0.0536345876753, Q3 : 0.0509273521602, Q4 : -0.0596538037062}
2019-04-03 22:50:16.21: SIM {TimeUS : 277034975, Roll : -6.65, Pitch : 5.48, Yaw : 352.82, Alt : 588.010009766, Lat : -35.3632646, Lng : 149.1652253, Q1 : 0.995386719704, Q2 : -0.054896466434, Q3 : 0.0513293556869, Q4 : -0.0596400424838}
2019-04-03 22:50:16.31: SIM {TimeUS : 277134935, Roll : -6.79, Pitch : 5.53, Yaw : 352.8, Alt : 588.039978027, Lat : -35.3632653, Lng : 149.1652245, Q1 : 0.995295703411, Q2 : -0.0560432747006, Q3 : 0.0517870001495, Q4 : -0.0596971586347}
2019-04-03 22:50:16.41: SIM {TimeUS : 277234895, Roll : -6.89, Pitch : 5.64, Yaw : 352.75, Alt : 588.059997559, Lat : -35.3632661, Lng : 149.1652236, Q1 : 0.995175480843, Q2 : -0.0568763576448, Q3 : 0.0528274439275, Q4 : -0.0600014925003}
2019-04-03 22:50:16.51: SIM {TimeUS : 277334855, Roll : -6.85, Pitch : 5.99, Yaw : 352.36, Alt : 588.090026855, Lat : -35.3632669, Lng : 149.1652227, Q1 : 0.994843244553, Q2 : -0.0561180636287, Q3 : 0.0560270473361, Q4 : -0.0632348880172}
2019-04-03 22:50:16.61: SIM {TimeUS : 277434815, Roll : -6.77, Pitch : 6.55, Yaw : 350.95, Alt : 588.109985352, Lat : -35.3632677, Lng : 149.1652219, Q1 : 0.993781626225, Q2 : -0.0543081276119, Q3 : 0.0615601465106, Q4 : -0.0752272456884}
2019-04-03 22:50:16.71: SIM {TimeUS : 277534775, Roll : -6.93, Pitch : 7.02, Yaw : 347.95, Alt : 588.130004883, Lat : -35.3632687, Lng : 149.1652208, Q1 : 0.991188466549, Q2 : -0.0536424033344, Q3 : 0.0671200305223, Q4 : -0.100810743868}
2019-04-03 22:50:16.81: SIM {TimeUS : 277634735, Roll : -7.49, Pitch : 7.08, Yaw : 343.32, Alt : 588.159973145, Lat : -35.3632696, Lng : 149.1652198, Q1 : 0.986014425755, Q2 : -0.055643197149, Q3 : 0.0704489275813, Q4 : -0.140415117145}
2019-04-03 22:50:16.91: SIM {TimeUS : 277734695, Roll : -8.42, Pitch : 6.54, Yaw : 337.29, Alt : 588.179992676, Lat : -35.3632707, Lng : 149.1652188, Q1 : 0.977010846138, Q2 : -0.060700584203, Q3 : 0.0702888220549, Q4 : -0.191897764802}
2019-04-03 22:50:17.01: SIM {TimeUS : 277834655, Roll : -9.57, Pitch : 5.34, Yaw : 330.19, Alt : 588.200012207, Lat : -35.3632719, Lng : 149.1652177, Q1 : 0.962945044041, Q2 : -0.0685921981931, Q3 : 0.0663293004036, Q4 : -0.2522546947}
2019-04-03 22:50:17.11: SIM {TimeUS : 277934615, Roll : -10.72, Pitch : 3.51, Yaw : 322.35, Alt : 588.229980469, Lat : -35.3632731, Lng : 149.1652165, Q1 : 0.942868947983, Q2 : -0.0785791501403, Q3 : 0.0590600445867, Q4 : -0.318332284689}
2019-04-03 22:50:17.21: SIM {TimeUS : 278034575, Roll : -11.64, Pitch : 1.24, Yaw : 314.06, Alt : 588.25, Lat : -35.3632744, Lng : 149.1652154, Q1 : 0.916351854801, Q2 : -0.0892150327563, Q3 : 0.0495340675116, Q4 : -0.387151628733}
2019-04-03 22:50:17.31: SIM {TimeUS : 278134535, Roll : -12.17, Pitch : -1.25, Yaw : 305.54, Alt : 588.280029297, Lat : -35.3632756, Lng : 149.1652141, Q1 : 0.883620679379, Q2 : -0.0992345139384, Q3 : 0.0388260409236, Q4 : -0.45591622591}
2019-04-03 22:50:17.41: SIM {TimeUS : 278234495, Roll : -12.22, Pitch : -3.75, Yaw : 297.02, Alt : 588.309997559, Lat : -35.3632771, Lng : 149.1652129, Q1 : 0.845629572868, Q2 : -0.107806041837, Q3 : 0.027791114524, Q4 : -0.522030830383}
2019-04-03 22:50:17.51: SIM {TimeUS : 278334455, Roll : -11.83, Pitch : -6.08, Yaw : 288.7, Alt : 588.340026855, Lat : -35.3632786, Lng : 149.1652114, Q1 : 0.803976774216, Q2 : -0.114444389939, Q3 : 0.0170930810273, Q4 : -0.583293795586}
2019-04-03 22:50:17.61: SIM {TimeUS : 278434415, Roll : -11.08, Pitch : -8.12, Yaw : 280.77, Alt : 588.369995117, Lat : -35.3632801, Lng : 149.16521, Q1 : 0.760502934456, Q2 : -0.119179859757, Q3 : 0.00715833948925, Q4 : -0.638263404369}
2019-04-03 22:50:17.71: SIM {TimeUS : 278534375, Roll : -10.12, Pitch : -9.78, Yaw : 273.36, Alt : 588.400024414, Lat : -35.3632816, Lng : 149.1652083, Q1 : 0.716890394688, Q2 : -0.122258648276, Q3 : -0.00150273751933, Q4 : -0.686380922794}
2019-04-03 22:50:17.81: SIM {TimeUS : 278634335, Roll : -9.08, Pitch : -11.09, Yaw : 266.51, Alt : 588.429992676, Lat : -35.3632832, Lng : 149.1652067, Q1 : 0.674378335476, Q2 : -0.124206870794, Q3 : -0.00861481763422, Q4 : -0.72781342268}
2019-04-03 22:50:17.91: SIM {TimeUS : 278734295, Roll : -8.07, Pitch : -12.08, Yaw : 260.25, Alt : 588.460021973, Lat : -35.3632848, Lng : 149.1652049, Q1 : 0.633647859097, Q2 : -0.125399827957, Q3 : -0.014132223092, Q4 : -0.763259768486}
2019-04-03 22:50:18.01: SIM {TimeUS : 278834255, Roll : -7.12, Pitch : -12.81, Yaw : 254.49, Alt : 588.5, Lat : -35.3632865, Lng : 149.165203, Q1 : 0.594815671444, Q2 : -0.126072257757, Q3 : -0.0182627420872, Q4 : -0.793704330921}
2019-04-03 22:50:18.11: SIM {TimeUS : 278934215, Roll : -6.25, Pitch : -13.36, Yaw : 249.14, Alt : 588.530029297, Lat : -35.3632884, Lng : 149.1652011, Q1 : 0.557516634464, Q2 : -0.126405954361, Q3 : -0.0212875381112, Q4 : -0.820209443569}
2019-04-03 22:50:18.21: SIM {TimeUS : 279035008, Roll : -5.4, Pitch : -13.8, Yaw : 244.01, Alt : 588.570007324, Lat : -35.3632902, Lng : 149.165199, Q1 : 0.520771563053, Q2 : -0.126633375883, Q3 : -0.0239013172686, Q4 : -0.843913316727}
2019-04-03 22:50:18.31: SIM {TimeUS : 279134968, Roll : -4.55, Pitch : -14.18, Yaw : 239.04, Alt : 588.599975586, Lat : -35.363292, Lng : 149.1651968, Q1 : -0.484340876341, Q2 : 0.126803785563, Q3 : 0.0264561381191, Q4 : 0.865236878395}
2019-04-03 22:50:18.41: SIM {TimeUS : 279234928, Roll : -3.67, Pitch : -14.55, Yaw : 234.06, Alt : 588.640014648, Lat : -35.3632939, Lng : 149.1651948, Q1 : -0.446985036135, Q2 : 0.127253383398, Q3 : 0.0292046330869, Q4 : 0.884962201118}
2019-04-03 22:50:18.51: SIM {TimeUS : 279334888, Roll : -2.69, Pitch : -14.91, Yaw : 228.95, Alt : 588.679992676, Lat : -35.363296, Lng : 149.1651925, Q1 : -0.40795570612, Q2 : 0.127724647522, Q3 : 0.0325314514339, Q4 : 0.903438031673}
2019-04-03 22:50:18.61: SIM {TimeUS : 279434848, Roll : -1.37, Pitch : -15.23, Yaw : 223.67, Alt : 588.719970703, Lat : -35.3632981, Lng : 149.1651904, Q1 : -0.367195397615, Q2 : 0.127414509654, Q3 : 0.0382742807269, Q4 : 0.920580387115}
2019-04-03 22:50:18.71: SIM {TimeUS : 279534808, Roll : 0.51, Pitch : -15.43, Yaw : 218.51, Alt : 588.760009766, Lat : -35.3633002, Lng : 149.1651881, Q1 : -0.327422916889, Q2 : 0.125283405185, Q3 : 0.0485116317868, Q4 : 0.935278058052}
2019-04-03 22:50:18.81: SIM {TimeUS : 279634768, Roll : 2.64, Pitch : -15.43, Yaw : 214.04, Alt : 588.789978027, Lat : -35.3633023, Lng : 149.1651858, Q1 : -0.293016940355, Q2 : 0.121692150831, Q3 : 0.0612230747938, Q4 : 0.946352958679}
2019-04-03 22:50:18.91: SIM {TimeUS : 279734728, Roll : 4.54, Pitch : -15.26, Yaw : 210.71, Alt : 588.83001709, Lat : -35.3633046, Lng : 149.1651834, Q1 : -0.267372041941, Q2 : 0.117579460144, Q3 : 0.0730728060007, Q4 : 0.953597187996}
2019-04-03 22:50:19.01: SIM {TimeUS : 279834688, Roll : 5.79, Pitch : -15.04, Yaw : 208.71, Alt : 588.869995117, Lat : -35.3633067, Lng : 149.1651809, Q1 : -0.251968741417, Q2 : 0.114273048937, Q3 : 0.0809729248285, Q4 : 0.957547307014}
2019-04-03 22:50:19.11: SIM {TimeUS : 279934648, Roll : 6.16, Pitch : -14.9, Yaw : 208.01, Alt : 588.909973145, Lat : -35.363309, Lng : 149.1651784, Q1 : -0.246444508433, Q2 : 0.112713344395, Q3 : 0.0830941200256, Q4 : 0.958987057209}
2019-04-03 22:50:19.21: SIM {TimeUS : 280034608, Roll : 5.69, Pitch : -14.89, Yaw : 208.41, Alt : 588.950012207, Lat : -35.3633113, Lng : 149.1651757, Q1 : -0.249298766255, Q2 : 0.113457679749, Q3 : 0.0794977396727, Q4 : 0.958466291428}
2019-04-03 22:50:19.31: SIM {TimeUS : 280134568, Roll : 4.56, Pitch : -15.05, Yaw : 209.65, Alt : 588.989990234, Lat : -35.3633136, Lng : 149.1651731, Q1 : -0.258510887623, Q2 : 0.116440020502, Q3 : 0.071690171957, Q4 : 0.956281542778}
2019-04-03 22:50:19.41: SIM {TimeUS : 280234528, Roll : 3.07, Pitch : -15.32, Yaw : 211.45, Alt : 589.030029297, Lat : -35.3633158, Lng : 149.1651704, Q1 : -0.271949142218, Q2 : 0.12109554559, Q3 : 0.0617340765893, Q4 : 0.952663838863}
2019-04-03 22:50:19.51: SIM {TimeUS : 280334488, Roll : 1.48, Pitch : -15.62, Yaw : 213.53, Alt : 589.070007324, Lat : -35.3633182, Lng : 149.1651676, Q1 : -0.287437617779, Q2 : 0.12646573782, Q3 : 0.0514657013118, Q4 : 0.948017597198}
2019-04-03 22:50:19.61: SIM {TimeUS : 280434448, Roll : 0.01, Pitch : -15.87, Yaw : 215.61, Alt : 589.109985352, Lat : -35.3633206, Lng : 149.1651647, Q1 : -0.302878886461, Q2 : 0.131482496858, Q3 : 0.0423269942403, Q4 : 0.942966163158}
2019-04-03 22:50:19.71: SIM {TimeUS : 280534408, Roll : -1.15, Pitch : -16.03, Yaw : 217.44, Alt : 589.150024414, Lat : -35.363323, Lng : 149.1651619, Q1 : -0.316482901573, Q2 : 0.1352789253, Q3 : 0.0352637916803, Q4 : 0.938240230083}
2019-04-03 22:50:19.81: SIM {TimeUS : 280634368, Roll : -1.93, Pitch : -16.08, Yaw : 218.84, Alt : 589.190002441, Lat : -35.3633255, Lng : 149.1651592, Q1 : -0.326990783215, Q2 : 0.137481912971, Q3 : 0.030777849257, Q4 : 0.934466958046}
2019-04-03 22:50:19.91: SIM {TimeUS : 280734328, Roll : -2.31, Pitch : -16.08, Yaw : 219.72, Alt : 589.229980469, Lat : -35.363328, Lng : 149.1651564, Q1 : -0.333670735359, Q2 : 0.138373985887, Q3 : 0.0287187099457, Q4 : 0.932036340237}
2019-04-03 22:50:20.01: SIM {TimeUS : 280834288, Roll : -2.35, Pitch : -16.09, Yaw : 220.06, Alt : 589.270019531, Lat : -35.3633308, Lng : 149.1651537, Q1 : -0.336389988661, Q2 : 0.138437598944, Q3 : 0.0288166776299, Q4 : 0.931045889854}
2019-04-03 22:50:20.11: SIM {TimeUS : 280934248, Roll : -2.13, Pitch : -16.11, Yaw : 219.91, Alt : 589.309997559, Lat : -35.3633334, Lng : 149.1651508, Q1 : -0.335483968258, Q2 : 0.137990698218, Q3 : 0.0305039770901, Q4 : 0.931385338306}
2019-04-03 22:50:20.21: SIM {TimeUS : 281035041, Roll : -1.71, Pitch : -16.13, Yaw : 219.38, Alt : 589.349975586, Lat : -35.3633362, Lng : 149.1651482, Q1 : -0.33164960146, Q2 : 0.137066558003, Q3 : 0.0333519987762, Q4 : 0.932796299458}
2019-04-03 22:50:20.31: SIM {TimeUS : 281135001, Roll : -1.17, Pitch : -16.15, Yaw : 218.6, Alt : 589.390014648, Lat : -35.3633388, Lng : 149.1651454, Q1 : -0.325876772404, Q2 : 0.135940700769, Q3 : 0.0368716008961, Q4 : 0.934860944748}
2019-04-03 22:50:20.41: SIM {TimeUS : 281234961, Roll : -0.59, Pitch : -16.21, Yaw : 217.69, Alt : 589.429992676, Lat : -35.3633417, Lng : 149.1651427, Q1 : -0.319126486778, Q2 : 0.135094419122, Q3 : 0.0407053679228, Q4 : 0.937150359154}
2019-04-03 22:50:20.51: SIM {TimeUS : 281334921, Roll : -0.05, Pitch : -16.29, Yaw : 216.78, Alt : 589.469970703, Lat : -35.3633444, Lng : 149.1651398, Q1 : -0.312312722206, Q2 : 0.134666070342, Q3 : 0.0442952029407, Q4 : 0.939342200756}
2019-04-03 22:50:20.61: SIM {TimeUS : 281434881, Roll : 0.39, Pitch : -16.37, Yaw : 215.98, Alt : 589.510009766, Lat : -35.3633473, Lng : 149.1651372, Q1 : -0.306245177984, Q2 : 0.13436768949, Q3 : 0.0472211316228, Q4 : 0.941238224506}
2019-04-03 22:50:20.71: SIM {TimeUS : 281534841, Roll : 0.69, Pitch : -16.41, Yaw : 215.36, Alt : 589.549987793, Lat : -35.3633503, Lng : 149.1651344, Q1 : -0.301463663578, Q2 : 0.134226977825, Q3 : 0.0490619204938, Q4 : 0.94270658493}
2019-04-03 22:50:20.81: SIM {TimeUS : 281634801, Roll : 0.84, Pitch : -16.46, Yaw : 214.96, Alt : 589.590026855, Lat : -35.3633532, Lng : 149.1651316, Q1 : -0.298307836056, Q2 : 0.134348317981, Q3 : 0.0499497912824, Q4 : 0.943646132946}
2019-04-03 22:50:20.91: SIM {TimeUS : 281734761, Roll : 0.86, Pitch : -16.51, Yaw : 214.78, Alt : 589.630004883, Lat : -35.3633561, Lng : 149.1651288, Q1 : -0.296847194433, Q2 : 0.134802311659, Q3 : 0.0500418245792, Q4 : 0.944037079811}
2019-04-03 22:50:21.01: SIM {TimeUS : 281834721, Roll : 0.77, Pitch : -16.55, Yaw : 214.81, Alt : 589.679992676, Lat : -35.3633589, Lng : 149.1651259, Q1 : -0.296972036362, Q2 : 0.135365515947, Q3 : 0.0494966693223, Q4 : 0.943945884705}
2019-04-03 22:50:21.11: SIM {TimeUS : 281934681, Roll : 0.59, Pitch : -16.56, Yaw : 215.01, Alt : 589.719970703, Lat : -35.3633619, Lng : 149.1651231, Q1 : -0.298373401165, Q2 : 0.135839223862, Q3 : 0.0482647269964, Q4 : 0.943499624729}
2019-04-03 22:50:21.21: SIM {TimeUS : 282034641, Roll : 0.35, Pitch : -16.57, Yaw : 215.32, Alt : 589.760009766, Lat : -35.363365, Lng : 149.1651202, Q1 : -0.300684243441, Q2 : 0.136427655816, Q3 : 0.0467035025358, Q4 : 0.942759394646}
2019-04-03 22:50:21.31: SIM {TimeUS : 282134601, Roll : 0.1, Pitch : -16.6, Yaw : 215.7, Alt : 589.799987793, Lat : -35.363368, Lng : 149.1651173, Q1 : -0.303503960371, Q2 : 0.137137055397, Q3 : 0.0451582111418, Q4 : 0.941827714443}
2019-04-03 22:50:21.41: SIM {TimeUS : 282234561, Roll : -0.12, Pitch : -16.64, Yaw : 216.1, Alt : 589.840026855, Lat : -35.363371, Lng : 149.1651144, Q1 : -0.306432515383, Q2 : 0.137960731983, Q3 : 0.0438025258482, Q4 : 0.940822660923}
2019-04-03 22:50:21.51: SIM {TimeUS : 282334521, Roll : -0.32, Pitch : -16.69, Yaw : 216.46, Alt : 589.880004883, Lat : -35.363374, Lng : 149.1651116, Q1 : -0.309149712324, Q2 : 0.138741016388, Q3 : 0.0427280217409, Q4 : 0.939867913723}
2019-04-03 22:50:21.61: SIM {TimeUS : 282434481, Roll : -0.46, Pitch : -16.73, Yaw : 216.76, Alt : 589.91998291, Lat : -35.3633771, Lng : 149.1651087, Q1 : -0.311440289021, Q2 : 0.139395549893, Q3 : 0.0421013236046, Q4 : 0.939042747021}
2019-04-03 22:50:21.71: SIM {TimeUS : 282534441, Roll : -0.53, Pitch : -16.77, Yaw : 216.98, Alt : 589.960021973, Lat : -35.3633802, Lng : 149.1651058, Q1 : -0.313151478767, Q2 : 0.139779895544, Q3 : 0.0418956540525, Q4 : 0.938425540924}
2019-04-03 22:50:21.81: SIM {TimeUS : 282634401, Roll : -0.55, Pitch : -16.79, Yaw : 217.12, Alt : 590.0, Lat : -35.3633832, Lng : 149.1651029, Q1 : -0.314237236977, Q2 : 0.139951601624, Q3 : 0.0419697761536, Q4 : 0.93803358078}
2019-04-03 22:50:21.91: SIM {TimeUS : 282734361, Roll : -0.51, Pitch : -16.82, Yaw : 217.18, Alt : 590.049987793, Lat : -35.3633863, Lng : 149.1651, Q1 : -0.314740657806, Q2 : 0.140070974827, Q3 : 0.0424410961568, Q4 : 0.937825798988}
2019-04-03 22:50:22.01: SIM {TimeUS : 282834321, Roll : -0.43, Pitch : -16.87, Yaw : 217.17, Alt : 590.090026855, Lat : -35.3633896, Lng : 149.165097, Q1 : -0.31477072835, Q2 : 0.140261441469, Q3 : 0.0431725904346, Q4 : 0.937753856182}
2019-04-03 22:50:22.11: SIM {TimeUS : 282934281, Roll : -0.35, Pitch : -16.92, Yaw : 217.12, Alt : 590.130004883, Lat : -35.3633927, Lng : 149.1650941, Q1 : -0.314448148012, Q2 : 0.140501827002, Q3 : 0.0439930856228, Q4 : 0.937787950039}
2019-04-03 22:50:22.21: SIM {TimeUS : 283034241, Roll : -0.27, Pitch : -16.97, Yaw : 217.05, Alt : 590.16998291, Lat : -35.3633959, Lng : 149.1650912, Q1 : -0.313921689987, Q2 : 0.140696525574, Q3 : 0.0446700528264, Q4 : 0.937903165817}
2019-04-03 22:50:22.31: SIM {TimeUS : 283135034, Roll : -0.21, Pitch : -17.01, Yaw : 216.97, Alt : 590.210021973, Lat : -35.363399, Lng : 149.1650881, Q1 : -0.313328236341, Q2 : 0.140884011984, Q3 : 0.0451626852155, Q4 : 0.938049793243}
2019-04-03 22:50:22.41: SIM {TimeUS : 283234994, Roll : -0.16, Pitch : -17.03, Yaw : 216.9, Alt : 590.25, Lat : -35.3634023, Lng : 149.1650852, Q1 : -0.312835514545, Q2 : 0.140948444605, Q3 : 0.0454913415015, Q4 : 0.938188672066}
2019-04-03 22:50:22.51: SIM {TimeUS : 283334954, Roll : -0.11, Pitch : -17.04, Yaw : 216.86, Alt : 590.289978027, Lat : -35.3634056, Lng : 149.1650823, Q1 : -0.312578111887, Q2 : 0.140892192721, Q3 : 0.0459237210453, Q4 : 0.93826186657}
2019-04-03 22:50:22.61: SIM {TimeUS : 283434914, Roll : -0.05, Pitch : -17.09, Yaw : 216.86, Alt : 590.340026855, Lat : -35.3634087, Lng : 149.1650794, Q1 : -0.312584221363, Q2 : 0.141116976738, Q3 : 0.0465723052621, Q4 : 0.938194096088}
2019-04-03 22:50:22.71: SIM {TimeUS : 283534874, Roll : -0.01, Pitch : -17.14, Yaw : 216.89, Alt : 590.380004883, Lat : -35.3634119, Lng : 149.1650764, Q1 : -0.312847405672, Q2 : 0.141441106796, Q3 : 0.047059584409, Q4 : 0.938033223152}
2019-04-03 22:50:22.81: SIM {TimeUS : 283634834, Roll : 0.0, Pitch : -17.17, Yaw : 216.95, Alt : 590.41998291, Lat : -35.3634153, Lng : 149.1650733, Q1 : -0.313349157572, Q2 : 0.14162786305, Q3 : 0.0472472421825, Q4 : 0.937828123569}
2019-04-03 22:50:22.91: SIM {TimeUS : 283734794, Roll : -0.03, Pitch : -17.19, Yaw : 217.04, Alt : 590.460021973, Lat : -35.3634185, Lng : 149.1650704, Q1 : -0.314049124718, Q2 : 0.141840234399, Q3 : 0.0472237952054, Q4 : 0.937563061714}
2019-04-03 22:50:23.01: SIM {TimeUS : 283834754, Roll : -0.06, Pitch : -17.2, Yaw : 217.15, Alt : 590.5, Lat : -35.3634218, Lng : 149.1650674, Q1 : -0.31490907073, Q2 : 0.141983225942, Q3 : 0.0471316128969, Q4 : 0.937257528305}
2019-04-03 22:50:23.11: SIM {TimeUS : 283934714, Roll : -0.09, Pitch : -17.22, Yaw : 217.27, Alt : 590.539978027, Lat : -35.3634251, Lng : 149.1650644, Q1 : -0.315858393908, Q2 : 0.142179623246, Q3 : 0.0471158027649, Q4 : 0.936909019947}
2019-04-03 22:50:23.21: SIM {TimeUS : 284034674, Roll : -0.1, Pitch : -17.27, Yaw : 217.4, Alt : 590.590026855, Lat : -35.3634283, Lng : 149.1650613, Q1 : -0.316844731569, Q2 : 0.142555981874, Q3 : 0.0472645498812, Q4 : 0.936511278152}
2019-04-03 22:50:23.31: SIM {TimeUS : 284134634, Roll : -0.12, Pitch : -17.33, Yaw : 217.52, Alt : 590.630004883, Lat : -35.3634317, Lng : 149.1650584, Q1 : -0.31779846549, Q2 : 0.143028602004, Q3 : 0.0474403426051, Q4 : 0.936107039452}
2019-04-03 22:50:23.41: SIM {TimeUS : 284234594, Roll : -0.16, Pitch : -17.36, Yaw : 217.63, Alt : 590.66998291, Lat : -35.3634349, Lng : 149.1650553, Q1 : -0.318675339222, Q2 : 0.143317699432, Q3 : 0.0473770573735, Q4 : 0.935767889023}
2019-04-03 22:50:23.51: SIM {TimeUS : 284334554, Roll : -0.21, Pitch : -17.37, Yaw : 217.74, Alt : 590.710021973, Lat : -35.3634384, Lng : 149.1650522, Q1 : -0.319442719221, Q2 : 0.143512278795, Q3 : 0.0470775216818, Q4 : 0.93549144268}
2019-04-03 22:50:23.61: SIM {TimeUS : 284434514, Roll : -0.26, Pitch : -17.38, Yaw : 217.82, Alt : 590.75, Lat : -35.3634416, Lng : 149.1650492, Q1 : -0.320114821196, Q2 : 0.143666058779, Q3 : 0.0468470342457, Q4 : 0.935249686241}
2019-04-03 22:50:23.71: SIM {TimeUS : 284534474, Roll : -0.28, Pitch : -17.39, Yaw : 217.9, Alt : 590.789978027, Lat : -35.363445, Lng : 149.1650462, Q1 : -0.320702493191, Q2 : 0.143784672022, Q3 : 0.0467684008181, Q4 : 0.935034036636}
2019-04-03 22:50:23.81: SIM {TimeUS : 284634434, Roll : -0.29, Pitch : -17.4, Yaw : 217.97, Alt : 590.840026855, Lat : -35.3634483, Lng : 149.1650431, Q1 : -0.321215420961, Q2 : 0.143905103207, Q3 : 0.0468478649855, Q4 : 0.93483543396}
2019-04-03 22:50:23.91: SIM {TimeUS : 284734394, Roll : -0.28, Pitch : -17.43, Yaw : 218.02, Alt : 590.880004883, Lat : -35.3634517, Lng : 149.16504, Q1 : -0.321657001972, Q2 : 0.144125685096, Q3 : 0.0470752120018, Q4 : 0.934638142586}
2019-04-03 22:50:24.01: SIM {TimeUS : 284834354, Roll : -0.27, Pitch : -17.47, Yaw : 218.07, Alt : 590.91998291, Lat : -35.363455, Lng : 149.1650369, Q1 : -0.322035819292, Q2 : 0.14436390996, Q3 : 0.0473108999431, Q4 : 0.934459030628}
2019-04-03 22:50:24.11: SIM {TimeUS : 284934314, Roll : -0.25, Pitch : -17.5, Yaw : 218.11, Alt : 590.960021973, Lat : -35.3634584, Lng : 149.1650338, Q1 : -0.322412222624, Q2 : 0.144503295422, Q3 : 0.0476279892027, Q4 : 0.934291601181}
2019-04-03 22:50:24.21: SIM {TimeUS : 285034274, Roll : -0.23, Pitch : -17.52, Yaw : 218.15, Alt : 591.0, Lat : -35.3634617, Lng : 149.1650307, Q1 : -0.32277199626, Q2 : 0.144607663155, Q3 : 0.0478773489594, Q4 : 0.934138417244}
2019-04-03 22:50:24.31: SIM {TimeUS : 285134234, Roll : -0.23, Pitch : -17.54, Yaw : 218.2, Alt : 591.039978027, Lat : -35.3634652, Lng : 149.1650276, Q1 : -0.323121130466, Q2 : 0.144733801484, Q3 : 0.0480219721794, Q4 : 0.933990716934}
2019-04-03 22:50:24.41: SIM {TimeUS : 285235027, Roll : -0.24, Pitch : -17.56, Yaw : 218.24, Alt : 591.08001709, Lat : -35.3634686, Lng : 149.1650244, Q1 : -0.323468804359, Q2 : 0.144962087274, Q3 : 0.0480175428092, Q4 : 0.933835268021}
2019-04-03 22:50:24.51: SIM {TimeUS : 285334987, Roll : -0.25, Pitch : -17.58, Yaw : 218.29, Alt : 591.119995117, Lat : -35.363472, Lng : 149.1650211, Q1 : -0.323843359947, Q2 : 0.145097747445, Q3 : 0.0480482392013, Q4 : 0.933682799339}
2019-04-03 22:50:24.61: SIM {TimeUS : 285434947, Roll : -0.23, Pitch : -17.58, Yaw : 218.34, Alt : 591.16998291, Lat : -35.3634754, Lng : 149.1650181, Q1 : -0.324290156364, Q2 : 0.145070776343, Q3 : 0.0483054593205, Q4 : 0.933518588543}
