2019-04-03 21:05:23.50: SIM {TimeUS : 41116047, Roll : 0.0, Pitch : 0.0, Yaw : 353.0, Alt : 584.090026855, Lat : -35.363261, Lng : 149.1652299, Q1 : 0.998134791851, Q2 : 0.0, Q3 : 0.0, Q4 : -0.0610485821962}
2019-04-03 21:05:23.61: SIM {TimeUS : 41235166, Roll : 0.0, Pitch : 0.0, Yaw : 353.0, Alt : 584.090026855, Lat : -35.363261, Lng : 149.1652299, Q1 : 0.998134791851, Q2 : 0.0, Q3 : 0.0, Q4 : -0.0610485821962}
2019-04-03 21:05:23.71: SIM {TimeUS : 41335126, Roll : 0.0, Pitch : 0.0, Yaw : 353.0, Alt : 584.090026855, Lat : -35.363261, Lng : 149.1652299, Q1 : 0.998134791851, Q2 : 0.0, Q3 : 0.0, Q4 : -0.0610485821962}
2019-04-03 21:05:23.81: SIM {TimeUS : 41435086, Roll : 0.0, Pitch : 0.0, Yaw : 353.0, Alt : 584.090026855, Lat : -35.363261, Lng : 149.1652299, Q1 : 0.998134791851, Q2 : 0.0, Q3 : 0.0, Q4 : -0.0610485821962}
2019-04-03 21:05:23.91: SIM {TimeUS : 41535046, Roll : 0.0, Pitch : 0.0, Yaw : 353.0, Alt : 584.090026855, Lat : -35.363261, Lng : 149.1652299, Q1 : 0.998134791851, Q2 : 0.0, Q3 : 0.0, Q4 : -0.0610485821962}
2019-04-03 21:05:24.01: SIM {TimeUS : 41635006, Roll : 0.0, Pitch : 0.0, Yaw : 353.0, Alt : 584.090026855, Lat : -35.363261, Lng : 149.1652299, Q1 : 0.998134791851, Q2 : 0.0, Q3 : 0.0, Q4 : -0.0610485821962}
2019-04-03 21:05:24.11: SIM {TimeUS : 41734966, Roll : 0.0, Pitch : 0.0, Yaw : 353.0, Alt : 584.090026855, Lat : -35.363261, Lng : 149.1652299, Q1 : 0.998134791851, Q2 : 0.0, Q3 : 0.0, Q4 : -0.0610485821962}
2019-04-03 21:05:24.21: SIM {TimeUS : 41834926, Roll : 0.0, Pitch : 0.0, Yaw : 353.0, Alt : 584.090026855, Lat : -35.363261, Lng : 149.1652299, Q1 : 0.998134791851, Q2 : 0.0, Q3 : 0.0, Q4 : -0.0610485821962}
2019-04-03 21:05:24.31: SIM {TimeUS : 41934886, Roll : 0.0, Pitch : 0.0, Yaw : 353.0, Alt : 584.090026855, Lat : -35.363261, Lng : 149.1652299, Q1 : 0.998134791851, Q2 : 0.0, Q3 : 0.0, Q4 : -0.0610485821962}
2019-04-03 21:05:24.41: SIM {TimeUS : 42034846, Roll : 0.0, Pitch : 0.0, Yaw : 353.0, Alt : 584.090026855, Lat : -35.363261, Lng : 149.1652299, Q1 : 0.998134791851, Q2 : 0.0, Q3 : 0.0, Q4 : -0.0610485821962}
2019-04-03 21:05:24.51: SIM {TimeUS : 42134806, Roll : 0.0, Pitch : 0.0, Yaw : 353.0, Alt : 584.090026855, Lat : -35.363261, Lng : 149.1652299, Q1 : 0.998134791851, Q2 : 0.0, Q3 : 0.0, Q4 : -0.0610485821962}
2019-04-03 21:05:24.61: SIM {TimeUS : 42234766, Roll : 0.0, Pitch : 0.0, Yaw : 353.0, Alt : 584.090026855, Lat : -35.363261, Lng : 149.1652299, Q1 : 0.998134791851, Q2 : 0.0, Q3 : 0.0, Q4 : -0.0610485821962}
2019-04-03 21:05:24.71: SIM {TimeUS : 42334726, Roll : 0.0, Pitch : 0.0, Yaw : 353.0, Alt : 584.090026855, Lat : -35.363261, Lng : 149.1652299, Q1 : 0.998134791851, Q2 : 0.0, Q3 : 0.0, Q4 : -0.0610485821962}
2019-04-03 21:05:24.81: SIM {TimeUS : 42434686, Roll : 0.0, Pitch : 0.0, Yaw : 353.0, Alt : 584.090026855, Lat : -35.363261, Lng : 149.1652299, Q1 : 0.998134791851, Q2 : 0.0, Q3 : 0.0, Q4 : -0.0610485821962}
2019-04-03 21:05:24.91: SIM {TimeUS : 42534646, Roll : 0.0, Pitch : 0.0, Yaw : 353.0, Alt : 584.090026855, Lat : -35.363261, Lng : 149.1652299, Q1 : 0.998134791851, Q2 : 0.0, Q3 : 0.0, Q4 : -0.0610485821962}
2019-04-03 21:05:25.01: SIM {TimeUS : 42634606, Roll : 0.0, Pitch : 0.0, Yaw : 353.0, Alt : 584.090026855, Lat : -35.363261, Lng : 149.1652299, Q1 : 0.998134791851, Q2 : 0.0, Q3 : 0.0, Q4 : -0.0610485821962}
2019-04-03 21:05:25.11: SIM {TimeUS : 42734566, Roll : 0.0, Pitch : 0.0, Yaw : 353.0, Alt : 584.090026855, Lat : -35.363261, Lng : 149.1652299, Q1 : 0.998134791851, Q2 : 0.0, Q3 : 0.0, Q4 : -0.0610485821962}
2019-04-03 21:05:25.21: SIM {TimeUS : 42834526, Roll : 0.0, Pitch : 0.0, Yaw : 353.0, Alt : 584.090026855, Lat : -35.363261, Lng : 149.1652299, Q1 : 0.998134791851, Q2 : 0.0, Q3 : 0.0, Q4 : -0.0610485821962}
2019-04-03 21:05:25.31: SIM {TimeUS : 42934486, Roll : 0.0, Pitch : 0.0, Yaw : 353.0, Alt : 584.090026855, Lat : -35.363261, Lng : 149.1652299, Q1 : 0.998134791851, Q2 : 0.0, Q3 : 0.0, Q4 : -0.0610485821962}
2019-04-03 21:05:25.41: SIM {TimeUS : 43034446, Roll : 0.0, Pitch : 0.0, Yaw : 353.0, Alt : 584.090026855, Lat : -35.363261, Lng : 149.1652299, Q1 : 0.998134791851, Q2 : 0.0, Q3 : 0.0, Q4 : -0.0610485821962}
2019-04-03 21:05:25.51: SIM {TimeUS : 43134406, Roll : 0.0, Pitch : 0.0, Yaw : 353.0, Alt : 584.090026855, Lat : -35.363261, Lng : 149.1652299, Q1 : 0.998134791851, Q2 : 0.0, Q3 : 0.0, Q4 : -0.0610485821962}
2019-04-03 21:05:25.62: SIM {TimeUS : 43235199, Roll : 0.0, Pitch : 0.0, Yaw : 353.0, Alt : 584.090026855, Lat : -35.363261, Lng : 149.1652299, Q1 : 0.998134791851, Q2 : 0.0, Q3 : 0.0, Q4 : -0.0610485821962}
2019-04-03 21:05:25.71: SIM {TimeUS : 43335159, Roll : 0.0, Pitch : 0.0, Yaw : 353.0, Alt : 584.090026855, Lat : -35.363261, Lng : 149.1652299, Q1 : 0.998134791851, Q2 : 0.0, Q3 : 0.0, Q4 : -0.0610485821962}
2019-04-03 21:05:25.81: SIM {TimeUS : 43435119, Roll : 0.0, Pitch : 0.0, Yaw : 353.0, Alt : 584.090026855, Lat : -35.363261, Lng : 149.1652299, Q1 : 0.998134791851, Q2 : 0.0, Q3 : 0.0, Q4 : -0.0610485821962}
2019-04-03 21:05:25.91: SIM {TimeUS : 43535079, Roll : 0.0, Pitch : 0.0, Yaw : 353.0, Alt : 584.090026855, Lat : -35.363261, Lng : 149.1652299, Q1 : 0.998134791851, Q2 : 0.0, Q3 : 0.0, Q4 : -0.0610485821962}
2019-04-03 21:05:26.01: SIM {TimeUS : 43635039, Roll : 0.0, Pitch : 0.0, Yaw : 353.0, Alt : 584.090026855, Lat : -35.363261, Lng : 149.1652299, Q1 : 0.998134791851, Q2 : 0.0, Q3 : 0.0, Q4 : -0.0610485821962}
2019-04-03 21:05:26.11: SIM {TimeUS : 43734999, Roll : 0.0, Pitch : 0.0, Yaw : 353.0, Alt : 584.090026855, Lat : -35.363261, Lng : 149.1652299, Q1 : 0.998134791851, Q2 : 0.0, Q3 : 0.0, Q4 : -0.0610485821962}
2019-04-03 21:05:26.21: SIM {TimeUS : 43834959, Roll : 0.0, Pitch : 0.0, Yaw : 353.0, Alt : 584.090026855, Lat : -35.363261, Lng : 149.1652299, Q1 : 0.998134791851, Q2 : 0.0, Q3 : 0.0, Q4 : -0.0610485821962}
2019-04-03 21:05:26.31: SIM {TimeUS : 43934919, Roll : 0.0, Pitch : 0.0, Yaw : 353.0, Alt : 584.090026855, Lat : -35.363261, Lng : 149.1652299, Q1 : 0.998134791851, Q2 : 0.0, Q3 : 0.0, Q4 : -0.0610485821962}
2019-04-03 21:05:26.41: SIM {TimeUS : 44034879, Roll : 0.0, Pitch : 0.0, Yaw : 353.0, Alt : 584.090026855, Lat : -35.363261, Lng : 149.1652299, Q1 : 0.998134791851, Q2 : 0.0, Q3 : 0.0, Q4 : -0.0610485821962}
2019-04-03 21:05:26.51: SIM {TimeUS : 44134839, Roll : 0.0, Pitch : 0.0, Yaw : 353.0, Alt : 584.090026855, Lat : -35.363261, Lng : 149.1652299, Q1 : 0.998134791851, Q2 : 0.0, Q3 : 0.0, Q4 : -0.0610485821962}
2019-04-03 21:05:26.61: SIM {TimeUS : 44234799, Roll : 0.0, Pitch : 0.0, Yaw : 353.0, Alt : 584.090026855, Lat : -35.363261, Lng : 149.1652299, Q1 : 0.998134791851, Q2 : 0.0, Q3 : 0.0, Q4 : -0.0610485821962}
2019-04-03 21:05:26.71: SIM {TimeUS : 44334759, Roll : 0.0, Pitch : 0.0, Yaw : 353.0, Alt : 584.090026855, Lat : -35.363261, Lng : 149.1652299, Q1 : 0.998134791851, Q2 : 0.0, Q3 : 0.0, Q4 : -0.0610485821962}
2019-04-03 21:05:26.81: SIM {TimeUS : 44434719, Roll : 0.0, Pitch : 0.0, Yaw : 353.0, Alt : 584.090026855, Lat : -35.363261, Lng : 149.1652299, Q1 : 0.998134791851, Q2 : 0.0, Q3 : 0.0, Q4 : -0.0610485821962}
2019-04-03 21:05:26.91: SIM {TimeUS : 44534679, Roll : 0.0, Pitch : 0.0, Yaw : 353.0, Alt : 584.090026855, Lat : -35.363261, Lng : 149.1652299, Q1 : 0.998134791851, Q2 : 0.0, Q3 : 0.0, Q4 : -0.0610485821962}
2019-04-03 21:05:27.01: SIM {TimeUS : 44634639, Roll : 0.0, Pitch : 0.0, Yaw : 353.0, Alt : 584.090026855, Lat : -35.363261, Lng : 149.1652299, Q1 : 0.998134791851, Q2 : 0.0, Q3 : 0.0, Q4 : -0.0610485821962}
2019-04-03 21:05:27.11: SIM {TimeUS : 44734599, Roll : 0.0, Pitch : 0.0, Yaw : 353.0, Alt : 584.090026855, Lat : -35.363261, Lng : 149.1652299, Q1 : 0.998134791851, Q2 : 0.0, Q3 : 0.0, Q4 : -0.0610485821962}
2019-04-03 21:05:27.21: SIM {TimeUS : 44834559, Roll : 0.0, Pitch : 0.0, Yaw : 353.0, Alt : 584.090026855, Lat : -35.363261, Lng : 149.1652299, Q1 : 0.998134791851, Q2 : 0.0, Q3 : 0.0, Q4 : -0.0610485821962}
2019-04-03 21:05:27.31: SIM {TimeUS : 44934519, Roll : 0.0, Pitch : 0.0, Yaw : 353.0, Alt : 584.090026855, Lat : -35.363261, Lng : 149.1652299, Q1 : 0.998134791851, Q2 : 0.0, Q3 : 0.0, Q4 : -0.0610485821962}
2019-04-03 21:05:27.41: SIM {TimeUS : 45034479, Roll : 0.0, Pitch : 0.0, Yaw : 353.0, Alt : 584.090026855, Lat : -35.363261, Lng : 149.1652299, Q1 : 0.998134791851, Q2 : 0.0, Q3 : 0.0, Q4 : -0.0610485821962}
2019-04-03 21:05:27.51: SIM {TimeUS : 45134439, Roll : 0.0, Pitch : 0.0, Yaw : 353.0, Alt : 584.090026855, Lat : -35.363261, Lng : 149.1652299, Q1 : 0.998134791851, Q2 : 0.0, Q3 : 0.0, Q4 : -0.0610485821962}
2019-04-03 21:05:27.61: SIM {TimeUS : 45234399, Roll : 0.0, Pitch : 0.0, Yaw : 353.0, Alt : 584.090026855, Lat : -35.363261, Lng : 149.1652299, Q1 : 0.998134791851, Q2 : 0.0, Q3 : 0.0, Q4 : -0.0610485821962}
2019-04-03 21:05:27.72: SIM {TimeUS : 45335192, Roll : 0.0, Pitch : 0.0, Yaw : 353.0, Alt : 584.090026855, Lat : -35.363261, Lng : 149.1652299, Q1 : 0.998134791851, Q2 : 0.0, Q3 : 0.0, Q4 : -0.0610485821962}
2019-04-03 21:05:27.81: SIM {TimeUS : 45435152, Roll : 0.0, Pitch : 0.0, Yaw : 353.0, Alt : 584.090026855, Lat : -35.363261, Lng : 149.1652299, Q1 : 0.998134791851, Q2 : 0.0, Q3 : 0.0, Q4 : -0.0610485821962}
2019-04-03 21:05:27.91: SIM {TimeUS : 45535112, Roll : 0.0, Pitch : 0.0, Yaw : 353.0, Alt : 584.090026855, Lat : -35.363261, Lng : 149.1652299, Q1 : 0.998134791851, Q2 : 0.0, Q3 : 0.0, Q4 : -0.0610485821962}
2019-04-03 21:05:28.01: SIM {TimeUS : 45635072, Roll : 0.0, Pitch : 0.0, Yaw : 353.0, Alt : 584.090026855, Lat : -35.363261, Lng : 149.1652299, Q1 : 0.998134791851, Q2 : 0.0, Q3 : 0.0, Q4 : -0.0610485821962}
2019-04-03 21:05:28.11: SIM {TimeUS : 45735032, Roll : 0.0, Pitch : 0.0, Yaw : 353.0, Alt : 584.090026855, Lat : -35.363261, Lng : 149.1652299, Q1 : 0.998134791851, Q2 : 0.0, Q3 : 0.0, Q4 : -0.0610485821962}
2019-04-03 21:05:28.21: SIM {TimeUS : 45834992, Roll : 0.0, Pitch : 0.0, Yaw : 353.0, Alt : 584.090026855, Lat : -35.363261, Lng : 149.1652299, Q1 : 0.998134791851, Q2 : 0.0, Q3 : 0.0, Q4 : -0.0610485821962}
2019-04-03 21:05:28.31: SIM {TimeUS : 45934952, Roll : 0.0, Pitch : 0.0, Yaw : 353.0, Alt : 584.090026855, Lat : -35.363261, Lng : 149.1652299, Q1 : 0.998134791851, Q2 : 0.0, Q3 : 0.0, Q4 : -0.0610485821962}
2019-04-03 21:05:28.41: SIM {TimeUS : 46034912, Roll : 0.0, Pitch : 0.0, Yaw : 353.0, Alt : 584.090026855, Lat : -35.363261, Lng : 149.1652299, Q1 : 0.998134791851, Q2 : 0.0, Q3 : 0.0, Q4 : -0.0610485821962}
2019-04-03 21:05:28.51: SIM {TimeUS : 46134872, Roll : 0.0, Pitch : 0.0, Yaw : 353.0, Alt : 584.090026855, Lat : -35.363261, Lng : 149.1652299, Q1 : 0.998134791851, Q2 : 0.0, Q3 : 0.0, Q4 : -0.0610485821962}
2019-04-03 21:05:28.61: SIM {TimeUS : 46234832, Roll : 0.0, Pitch : 0.0, Yaw : 353.0, Alt : 584.090026855, Lat : -35.363261, Lng : 149.1652299, Q1 : 0.998134791851, Q2 : 0.0, Q3 : 0.0, Q4 : -0.0610485821962}
2019-04-03 21:05:28.71: SIM {TimeUS : 46334792, Roll : 0.0, Pitch : 0.0, Yaw : 353.0, Alt : 584.090026855, Lat : -35.363261, Lng : 149.1652299, Q1 : 0.998134791851, Q2 : 0.0, Q3 : 0.0, Q4 : -0.0610485821962}
2019-04-03 21:05:28.81: SIM {TimeUS : 46434752, Roll : 0.0, Pitch : 0.0, Yaw : 353.0, Alt : 584.090026855, Lat : -35.363261, Lng : 149.1652299, Q1 : 0.998134791851, Q2 : 0.0, Q3 : 0.0, Q4 : -0.0610485821962}
2019-04-03 21:05:28.91: SIM {TimeUS : 46534712, Roll : 0.0, Pitch : 0.0, Yaw : 353.0, Alt : 584.090026855, Lat : -35.363261, Lng : 149.1652299, Q1 : 0.998134791851, Q2 : 0.0, Q3 : 0.0, Q4 : -0.0610485821962}
2019-04-03 21:05:29.01: SIM {TimeUS : 46634672, Roll : 0.0, Pitch : 0.0, Yaw : 353.0, Alt : 584.090026855, Lat : -35.363261, Lng : 149.1652299, Q1 : 0.998134791851, Q2 : 0.0, Q3 : 0.0, Q4 : -0.0610485821962}
2019-04-03 21:05:29.11: SIM {TimeUS : 46734632, Roll : 0.0, Pitch : 0.0, Yaw : 353.0, Alt : 584.090026855, Lat : -35.363261, Lng : 149.1652299, Q1 : 0.998134791851, Q2 : 0.0, Q3 : 0.0, Q4 : -0.0610485821962}
2019-04-03 21:05:29.21: SIM {TimeUS : 46834592, Roll : 0.0, Pitch : 0.0, Yaw : 353.0, Alt : 584.090026855, Lat : -35.363261, Lng : 149.1652299, Q1 : 0.998134791851, Q2 : 0.0, Q3 : 0.0, Q4 : -0.0610485821962}
2019-04-03 21:05:29.31: SIM {TimeUS : 46934552, Roll : 0.0, Pitch : 0.0, Yaw : 353.0, Alt : 584.090026855, Lat : -35.363261, Lng : 149.1652299, Q1 : 0.998134791851, Q2 : 0.0, Q3 : 0.0, Q4 : -0.0610485821962}
2019-04-03 21:05:29.41: SIM {TimeUS : 47034512, Roll : 0.0, Pitch : 0.0, Yaw : 353.0, Alt : 584.090026855, Lat : -35.363261, Lng : 149.1652299, Q1 : 0.998134791851, Q2 : 0.0, Q3 : 0.0, Q4 : -0.0610485821962}
2019-04-03 21:05:29.51: SIM {TimeUS : 47134472, Roll : 0.0, Pitch : 0.0, Yaw : 353.0, Alt : 584.090026855, Lat : -35.363261, Lng : 149.1652299, Q1 : 0.998134791851, Q2 : 0.0, Q3 : 0.0, Q4 : -0.0610485821962}
2019-04-03 21:05:29.61: SIM {TimeUS : 47234432, Roll : 0.0, Pitch : 0.0, Yaw : 353.0, Alt : 584.090026855, Lat : -35.363261, Lng : 149.1652299, Q1 : 0.998134791851, Q2 : 0.0, Q3 : 0.0, Q4 : -0.0610485821962}
2019-04-03 21:05:29.71: SIM {TimeUS : 47334392, Roll : 0.0, Pitch : 0.0, Yaw : 353.0, Alt : 584.090026855, Lat : -35.363261, Lng : 149.1652299, Q1 : 0.998134791851, Q2 : 0.0, Q3 : 0.0, Q4 : -0.0610485821962}
2019-04-03 21:05:29.82: SIM {TimeUS : 47435185, Roll : 0.0, Pitch : 0.0, Yaw : 353.0, Alt : 584.090026855, Lat : -35.363261, Lng : 149.1652299, Q1 : 0.998134791851, Q2 : 0.0, Q3 : 0.0, Q4 : -0.0610485821962}
2019-04-03 21:05:29.91: SIM {TimeUS : 47535145, Roll : 0.0, Pitch : 0.0, Yaw : 353.0, Alt : 584.090026855, Lat : -35.363261, Lng : 149.1652299, Q1 : 0.998134791851, Q2 : 0.0, Q3 : 0.0, Q4 : -0.0610485821962}
2019-04-03 21:05:30.01: SIM {TimeUS : 47635105, Roll : 0.0, Pitch : 0.0, Yaw : 353.0, Alt : 584.090026855, Lat : -35.363261, Lng : 149.1652299, Q1 : 0.998134791851, Q2 : 0.0, Q3 : 0.0, Q4 : -0.0610485821962}
2019-04-03 21:05:30.11: SIM {TimeUS : 47735065, Roll : 0.0, Pitch : 0.0, Yaw : 353.0, Alt : 584.090026855, Lat : -35.363261, Lng : 149.1652299, Q1 : 0.998134791851, Q2 : 0.0, Q3 : 0.0, Q4 : -0.0610485821962}
2019-04-03 21:05:30.21: SIM {TimeUS : 47835025, Roll : 0.0, Pitch : 0.0, Yaw : 353.0, Alt : 584.090026855, Lat : -35.363261, Lng : 149.1652299, Q1 : 0.998134791851, Q2 : 0.0, Q3 : 0.0, Q4 : -0.0610485821962}
2019-04-03 21:05:30.31: SIM {TimeUS : 47934985, Roll : 0.0, Pitch : 0.0, Yaw : 353.0, Alt : 584.090026855, Lat : -35.363261, Lng : 149.1652299, Q1 : 0.998134791851, Q2 : 0.0, Q3 : 0.0, Q4 : -0.0610485821962}
2019-04-03 21:05:30.41: SIM {TimeUS : 48034945, Roll : 0.0, Pitch : 0.0, Yaw : 353.0, Alt : 584.090026855, Lat : -35.363261, Lng : 149.1652299, Q1 : 0.998134791851, Q2 : 0.0, Q3 : 0.0, Q4 : -0.0610485821962}
2019-04-03 21:05:30.51: SIM {TimeUS : 48134905, Roll : 0.0, Pitch : 0.0, Yaw : 353.0, Alt : 584.090026855, Lat : -35.363261, Lng : 149.1652299, Q1 : 0.998134791851, Q2 : 0.0, Q3 : 0.0, Q4 : -0.0610485821962}
2019-04-03 21:05:30.61: SIM {TimeUS : 48234865, Roll : 0.0, Pitch : 0.0, Yaw : 353.0, Alt : 584.090026855, Lat : -35.363261, Lng : 149.1652299, Q1 : 0.998134791851, Q2 : 0.0, Q3 : 0.0, Q4 : -0.0610485821962}
2019-04-03 21:05:30.71: SIM {TimeUS : 48334825, Roll : 0.0, Pitch : 0.0, Yaw : 353.0, Alt : 584.090026855, Lat : -35.363261, Lng : 149.1652299, Q1 : 0.998134791851, Q2 : 0.0, Q3 : 0.0, Q4 : -0.0610485821962}
2019-04-03 21:05:30.81: SIM {TimeUS : 48434785, Roll : 0.0, Pitch : 0.0, Yaw : 353.0, Alt : 584.090026855, Lat : -35.363261, Lng : 149.1652299, Q1 : 0.998134791851, Q2 : 0.0, Q3 : 0.0, Q4 : -0.0610485821962}
2019-04-03 21:05:30.91: SIM {TimeUS : 48534745, Roll : 0.0, Pitch : 0.0, Yaw : 353.0, Alt : 584.090026855, Lat : -35.363261, Lng : 149.1652299, Q1 : 0.998134791851, Q2 : 0.0, Q3 : 0.0, Q4 : -0.0610485821962}
2019-04-03 21:05:31.01: SIM {TimeUS : 48634705, Roll : 0.0, Pitch : 0.0, Yaw : 353.0, Alt : 584.090026855, Lat : -35.363261, Lng : 149.1652299, Q1 : 0.998134791851, Q2 : 0.0, Q3 : 0.0, Q4 : -0.0610485821962}
2019-04-03 21:05:31.11: SIM {TimeUS : 48734665, Roll : 0.0, Pitch : 0.0, Yaw : 353.0, Alt : 584.090026855, Lat : -35.363261, Lng : 149.1652299, Q1 : 0.998134791851, Q2 : 0.0, Q3 : 0.0, Q4 : -0.0610485821962}
2019-04-03 21:05:31.21: SIM {TimeUS : 48834625, Roll : 0.0, Pitch : 0.0, Yaw : 353.0, Alt : 584.090026855, Lat : -35.363261, Lng : 149.1652299, Q1 : 0.998134791851, Q2 : 0.0, Q3 : 0.0, Q4 : -0.0610485821962}
2019-04-03 21:05:31.31: SIM {TimeUS : 48934585, Roll : 0.0, Pitch : 0.0, Yaw : 353.0, Alt : 584.090026855, Lat : -35.363261, Lng : 149.1652299, Q1 : 0.998134791851, Q2 : 0.0, Q3 : 0.0, Q4 : -0.0610485821962}
2019-04-03 21:05:31.41: SIM {TimeUS : 49034545, Roll : 0.0, Pitch : 0.0, Yaw : 353.0, Alt : 584.090026855, Lat : -35.363261, Lng : 149.1652299, Q1 : 0.998134791851, Q2 : 0.0, Q3 : 0.0, Q4 : -0.0610485821962}
2019-04-03 21:05:31.51: SIM {TimeUS : 49134505, Roll : 0.0, Pitch : 0.0, Yaw : 353.0, Alt : 584.090026855, Lat : -35.363261, Lng : 149.1652299, Q1 : 0.998134791851, Q2 : 0.0, Q3 : 0.0, Q4 : -0.0610485821962}
2019-04-03 21:05:31.61: SIM {TimeUS : 49234465, Roll : 0.0, Pitch : 0.0, Yaw : 353.0, Alt : 584.090026855, Lat : -35.363261, Lng : 149.1652299, Q1 : 0.998134791851, Q2 : 0.0, Q3 : 0.0, Q4 : -0.0610485821962}
2019-04-03 21:05:31.71: SIM {TimeUS : 49334425, Roll : 0.0, Pitch : 0.0, Yaw : 353.0, Alt : 584.090026855, Lat : -35.363261, Lng : 149.1652299, Q1 : 0.998134791851, Q2 : 0.0, Q3 : 0.0, Q4 : -0.0610485821962}
2019-04-03 21:05:31.81: SIM {TimeUS : 49434385, Roll : 0.0, Pitch : 0.0, Yaw : 353.0, Alt : 584.090026855, Lat : -35.363261, Lng : 149.1652299, Q1 : 0.998134791851, Q2 : 0.0, Q3 : 0.0, Q4 : -0.0610485821962}
2019-04-03 21:05:31.92: SIM {TimeUS : 49535178, Roll : 0.0, Pitch : 0.0, Yaw : 353.0, Alt : 584.090026855, Lat : -35.363261, Lng : 149.1652299, Q1 : 0.998134791851, Q2 : 0.0, Q3 : 0.0, Q4 : -0.0610485821962}
2019-04-03 21:05:32.01: SIM {TimeUS : 49635138, Roll : 0.0, Pitch : 0.0, Yaw : 353.0, Alt : 584.090026855, Lat : -35.363261, Lng : 149.1652299, Q1 : 0.998134791851, Q2 : 0.0, Q3 : 0.0, Q4 : -0.0610485821962}
2019-04-03 21:05:32.11: SIM {TimeUS : 49735098, Roll : 0.0, Pitch : 0.0, Yaw : 353.0, Alt : 584.090026855, Lat : -35.363261, Lng : 149.1652299, Q1 : 0.998134791851, Q2 : 0.0, Q3 : 0.0, Q4 : -0.0610485821962}
2019-04-03 21:05:32.21: SIM {TimeUS : 49835058, Roll : 0.0, Pitch : 0.0, Yaw : 353.0, Alt : 584.090026855, Lat : -35.363261, Lng : 149.1652299, Q1 : 0.998134791851, Q2 : 0.0, Q3 : 0.0, Q4 : -0.0610485821962}
2019-04-03 21:05:32.31: SIM {TimeUS : 49935018, Roll : 0.0, Pitch : 0.0, Yaw : 353.0, Alt : 584.090026855, Lat : -35.363261, Lng : 149.1652299, Q1 : 0.998134791851, Q2 : 0.0, Q3 : 0.0, Q4 : -0.0610485821962}
2019-04-03 21:05:32.41: SIM {TimeUS : 50034978, Roll : 0.0, Pitch : 0.0, Yaw : 353.0, Alt : 584.090026855, Lat : -35.363261, Lng : 149.1652299, Q1 : 0.998134791851, Q2 : 0.0, Q3 : 0.0, Q4 : -0.0610485821962}
2019-04-03 21:05:32.51: SIM {TimeUS : 50134938, Roll : 0.0, Pitch : 0.0, Yaw : 353.0, Alt : 584.090026855, Lat : -35.363261, Lng : 149.1652299, Q1 : 0.998134791851, Q2 : 0.0, Q3 : 0.0, Q4 : -0.0610485821962}
2019-04-03 21:05:32.61: SIM {TimeUS : 50234898, Roll : 0.0, Pitch : 0.0, Yaw : 353.0, Alt : 584.090026855, Lat : -35.363261, Lng : 149.1652299, Q1 : 0.998134791851, Q2 : 0.0, Q3 : 0.0, Q4 : -0.0610485821962}
2019-04-03 21:05:32.71: SIM {TimeUS : 50334858, Roll : 0.0, Pitch : 0.0, Yaw : 353.0, Alt : 584.090026855, Lat : -35.363261, Lng : 149.1652299, Q1 : 0.998134791851, Q2 : 0.0, Q3 : 0.0, Q4 : -0.0610485821962}
2019-04-03 21:05:32.81: SIM {TimeUS : 50434818, Roll : 0.0, Pitch : 0.0, Yaw : 353.0, Alt : 584.090026855, Lat : -35.363261, Lng : 149.1652299, Q1 : 0.998134791851, Q2 : 0.0, Q3 : 0.0, Q4 : -0.0610485821962}
2019-04-03 21:05:32.91: SIM {TimeUS : 50534778, Roll : 0.0, Pitch : 0.0, Yaw : 353.0, Alt : 584.090026855, Lat : -35.363261, Lng : 149.1652299, Q1 : 0.998134791851, Q2 : 0.0, Q3 : 0.0, Q4 : -0.0610485821962}
2019-04-03 21:05:33.01: SIM {TimeUS : 50634738, Roll : 0.0, Pitch : 0.0, Yaw : 353.0, Alt : 584.090026855, Lat : -35.363261, Lng : 149.1652299, Q1 : 0.998134791851, Q2 : 0.0, Q3 : 0.0, Q4 : -0.0610485821962}
2019-04-03 21:05:33.11: SIM {TimeUS : 50734698, Roll : 0.0, Pitch : 0.0, Yaw : 353.0, Alt : 584.090026855, Lat : -35.363261, Lng : 149.1652299, Q1 : 0.998134791851, Q2 : 0.0, Q3 : 0.0, Q4 : -0.0610485821962}
2019-04-03 21:05:33.21: SIM {TimeUS : 50834658, Roll : 0.0, Pitch : 0.0, Yaw : 353.0, Alt : 584.090026855, Lat : -35.363261, Lng : 149.1652299, Q1 : 0.998134791851, Q2 : 0.0, Q3 : 0.0, Q4 : -0.0610485821962}
2019-04-03 21:05:33.31: SIM {TimeUS : 50934618, Roll : 0.0, Pitch : 0.0, Yaw : 353.0, Alt : 584.090026855, Lat : -35.363261, Lng : 149.1652299, Q1 : 0.998134791851, Q2 : 0.0, Q3 : 0.0, Q4 : -0.0610485821962}
2019-04-03 21:05:36.41: SIM {TimeUS : 54035044, Roll : 0.0, Pitch : 0.0, Yaw : 353.0, Alt : 584.090026855, Lat : -35.363261, Lng : 149.1652299, Q1 : 0.998134791851, Q2 : 0.0, Q3 : 0.0, Q4 : -0.0610485821962}
2019-04-03 21:05:36.51: SIM {TimeUS : 54135004, Roll : 0.0, Pitch : 0.0, Yaw : 353.0, Alt : 584.090026855, Lat : -35.363261, Lng : 149.1652299, Q1 : 0.998134791851, Q2 : 0.0, Q3 : 0.0, Q4 : -0.0610485821962}
2019-04-03 21:05:36.61: SIM {TimeUS : 54234964, Roll : 0.0, Pitch : 0.0, Yaw : 353.0, Alt : 584.090026855, Lat : -35.363261, Lng : 149.1652299, Q1 : 0.998134791851, Q2 : 0.0, Q3 : 0.0, Q4 : -0.0610485821962}
2019-04-03 21:05:36.71: SIM {TimeUS : 54334924, Roll : 0.0, Pitch : 0.0, Yaw : 353.0, Alt : 584.090026855, Lat : -35.363261, Lng : 149.1652299, Q1 : 0.998134791851, Q2 : 0.0, Q3 : 0.0, Q4 : -0.0610485821962}
2019-04-03 21:05:36.81: SIM {TimeUS : 54434884, Roll : 0.0, Pitch : 0.0, Yaw : 353.0, Alt : 584.090026855, Lat : -35.363261, Lng : 149.1652299, Q1 : 0.998134791851, Q2 : 0.0, Q3 : 0.0, Q4 : -0.0610485821962}
2019-04-03 21:05:36.91: SIM {TimeUS : 54534844, Roll : 0.0, Pitch : 0.0, Yaw : 353.0, Alt : 584.090026855, Lat : -35.363261, Lng : 149.1652299, Q1 : 0.998134791851, Q2 : 0.0, Q3 : 0.0, Q4 : -0.0610485821962}
2019-04-03 21:05:37.01: SIM {TimeUS : 54634804, Roll : 0.0, Pitch : 0.0, Yaw : 353.0, Alt : 584.090026855, Lat : -35.363261, Lng : 149.1652299, Q1 : 0.998134791851, Q2 : 0.0, Q3 : 0.0, Q4 : -0.0610485821962}
2019-04-03 21:05:37.11: SIM {TimeUS : 54734764, Roll : 0.0, Pitch : 0.0, Yaw : 353.0, Alt : 584.090026855, Lat : -35.363261, Lng : 149.1652299, Q1 : 0.998134791851, Q2 : 0.0, Q3 : 0.0, Q4 : -0.0610485821962}
2019-04-03 21:05:37.21: SIM {TimeUS : 54834724, Roll : 0.0, Pitch : 0.0, Yaw : 353.0, Alt : 584.090026855, Lat : -35.363261, Lng : 149.1652299, Q1 : 0.998134791851, Q2 : 0.0, Q3 : 0.0, Q4 : -0.0610485821962}
2019-04-03 21:05:37.31: SIM {TimeUS : 54934684, Roll : 0.0, Pitch : 0.0, Yaw : 353.0, Alt : 584.090026855, Lat : -35.363261, Lng : 149.1652299, Q1 : 0.998134791851, Q2 : 0.0, Q3 : 0.0, Q4 : -0.0610485821962}
2019-04-03 21:05:37.41: SIM {TimeUS : 55034644, Roll : 0.0, Pitch : 0.0, Yaw : 353.0, Alt : 584.090026855, Lat : -35.363261, Lng : 149.1652299, Q1 : 0.998134791851, Q2 : 0.0, Q3 : 0.0, Q4 : -0.0610485821962}
2019-04-03 21:05:37.51: SIM {TimeUS : 55134604, Roll : 0.0, Pitch : 0.0, Yaw : 353.0, Alt : 584.090026855, Lat : -35.363261, Lng : 149.1652299, Q1 : 0.998134791851, Q2 : 0.0, Q3 : 0.0, Q4 : -0.0610485821962}
2019-04-03 21:05:37.61: SIM {TimeUS : 55234564, Roll : 0.0, Pitch : 0.0, Yaw : 353.0, Alt : 584.090026855, Lat : -35.363261, Lng : 149.1652299, Q1 : 0.998134791851, Q2 : 0.0, Q3 : 0.0, Q4 : -0.0610485821962}
2019-04-03 21:05:37.71: SIM {TimeUS : 55334524, Roll : 0.0, Pitch : 0.0, Yaw : 353.0, Alt : 584.090026855, Lat : -35.363261, Lng : 149.1652299, Q1 : 0.998134791851, Q2 : 0.0, Q3 : 0.0, Q4 : -0.0610485821962}
2019-04-03 21:05:37.81: SIM {TimeUS : 55434484, Roll : 0.0, Pitch : 0.0, Yaw : 353.0, Alt : 584.090026855, Lat : -35.363261, Lng : 149.1652299, Q1 : 0.998134791851, Q2 : 0.0, Q3 : 0.0, Q4 : -0.0610485821962}
2019-04-03 21:05:37.91: SIM {TimeUS : 55534444, Roll : 0.0, Pitch : 0.0, Yaw : 353.0, Alt : 584.090026855, Lat : -35.363261, Lng : 149.1652299, Q1 : 0.998134791851, Q2 : 0.0, Q3 : 0.0, Q4 : -0.0610485821962}
2019-04-03 21:05:38.01: SIM {TimeUS : 55634404, Roll : 0.0, Pitch : 0.0, Yaw : 353.0, Alt : 584.090026855, Lat : -35.363261, Lng : 149.1652299, Q1 : 0.998134791851, Q2 : 0.0, Q3 : 0.0, Q4 : -0.0610485821962}
2019-04-03 21:05:38.12: SIM {TimeUS : 55735197, Roll : 0.0, Pitch : 0.0, Yaw : 353.0, Alt : 584.090026855, Lat : -35.363261, Lng : 149.1652299, Q1 : 0.998134791851, Q2 : 0.0, Q3 : 0.0, Q4 : -0.0610485821962}
2019-04-03 21:05:38.21: SIM {TimeUS : 55835157, Roll : 0.0, Pitch : 0.0, Yaw : 353.0, Alt : 584.090026855, Lat : -35.363261, Lng : 149.1652299, Q1 : 0.998134791851, Q2 : 0.0, Q3 : 0.0, Q4 : -0.0610485821962}
2019-04-03 21:05:38.31: SIM {TimeUS : 55935117, Roll : 0.0, Pitch : 0.0, Yaw : 353.0, Alt : 584.090026855, Lat : -35.363261, Lng : 149.1652299, Q1 : 0.998134791851, Q2 : 0.0, Q3 : 0.0, Q4 : -0.0610485821962}
2019-04-03 21:05:38.41: SIM {TimeUS : 56035077, Roll : 0.0, Pitch : 0.0, Yaw : 353.0, Alt : 584.090026855, Lat : -35.363261, Lng : 149.1652299, Q1 : 0.998134791851, Q2 : 0.0, Q3 : 0.0, Q4 : -0.0610485821962}
2019-04-03 21:05:38.51: SIM {TimeUS : 56135037, Roll : 0.0, Pitch : 0.0, Yaw : 353.0, Alt : 584.090026855, Lat : -35.363261, Lng : 149.1652299, Q1 : 0.998134791851, Q2 : 0.0, Q3 : 0.0, Q4 : -0.0610485821962}
2019-04-03 21:05:38.61: SIM {TimeUS : 56234997, Roll : 0.0, Pitch : 0.0, Yaw : 353.0, Alt : 584.090026855, Lat : -35.363261, Lng : 149.1652299, Q1 : 0.998134791851, Q2 : 0.0, Q3 : 0.0, Q4 : -0.0610485821962}
2019-04-03 21:05:38.71: SIM {TimeUS : 56334957, Roll : 0.0, Pitch : 0.0, Yaw : 353.0, Alt : 584.090026855, Lat : -35.363261, Lng : 149.1652299, Q1 : 0.998134791851, Q2 : 0.0, Q3 : 0.0, Q4 : -0.0610485821962}
2019-04-03 21:05:38.81: SIM {TimeUS : 56434917, Roll : 0.0, Pitch : 0.0, Yaw : 353.0, Alt : 584.090026855, Lat : -35.363261, Lng : 149.1652299, Q1 : 0.998134791851, Q2 : 0.0, Q3 : 0.0, Q4 : -0.0610485821962}
2019-04-03 21:05:38.91: SIM {TimeUS : 56534877, Roll : 0.0, Pitch : 0.0, Yaw : 353.0, Alt : 584.090026855, Lat : -35.363261, Lng : 149.1652299, Q1 : 0.998134791851, Q2 : 0.0, Q3 : 0.0, Q4 : -0.0610485821962}
2019-04-03 21:05:39.01: SIM {TimeUS : 56634837, Roll : 0.0, Pitch : 0.0, Yaw : 353.0, Alt : 584.090026855, Lat : -35.363261, Lng : 149.1652299, Q1 : 0.998134791851, Q2 : 0.0, Q3 : 0.0, Q4 : -0.0610485821962}
2019-04-03 21:05:39.11: SIM {TimeUS : 56734797, Roll : 0.0, Pitch : 0.0, Yaw : 353.0, Alt : 584.090026855, Lat : -35.363261, Lng : 149.1652299, Q1 : 0.998134791851, Q2 : 0.0, Q3 : 0.0, Q4 : -0.0610485821962}
2019-04-03 21:05:39.21: SIM {TimeUS : 56834757, Roll : 0.0, Pitch : 0.0, Yaw : 353.0, Alt : 584.090026855, Lat : -35.363261, Lng : 149.1652299, Q1 : 0.998134791851, Q2 : 0.0, Q3 : 0.0, Q4 : -0.0610485821962}
2019-04-03 21:05:39.31: SIM {TimeUS : 56934717, Roll : 0.0, Pitch : 0.0, Yaw : 353.0, Alt : 584.090026855, Lat : -35.363261, Lng : 149.1652299, Q1 : 0.998134791851, Q2 : 0.0, Q3 : 0.0, Q4 : -0.0610485821962}
2019-04-03 21:05:39.41: SIM {TimeUS : 57034677, Roll : 0.0, Pitch : 0.0, Yaw : 353.0, Alt : 584.090026855, Lat : -35.363261, Lng : 149.1652299, Q1 : 0.998134791851, Q2 : 0.0, Q3 : 0.0, Q4 : -0.0610485821962}
2019-04-03 21:05:39.51: SIM {TimeUS : 57134637, Roll : 0.0, Pitch : 0.0, Yaw : 353.0, Alt : 584.090026855, Lat : -35.363261, Lng : 149.1652299, Q1 : 0.998134791851, Q2 : 0.0, Q3 : 0.0, Q4 : -0.0610485821962}
2019-04-03 21:05:39.61: SIM {TimeUS : 57234597, Roll : 0.0, Pitch : 0.0, Yaw : 353.0, Alt : 584.090026855, Lat : -35.363261, Lng : 149.1652299, Q1 : 0.998134791851, Q2 : 0.0, Q3 : 0.0, Q4 : -0.0610485821962}
2019-04-03 21:05:39.71: SIM {TimeUS : 57334557, Roll : 0.0, Pitch : 0.0, Yaw : 353.0, Alt : 584.090026855, Lat : -35.363261, Lng : 149.1652299, Q1 : 0.998134791851, Q2 : 0.0, Q3 : 0.0, Q4 : -0.0610485821962}
2019-04-03 21:05:39.81: SIM {TimeUS : 57434517, Roll : 0.0, Pitch : 0.0, Yaw : 353.0, Alt : 584.090026855, Lat : -35.363261, Lng : 149.1652299, Q1 : 0.998134791851, Q2 : 0.0, Q3 : 0.0, Q4 : -0.0610485821962}
2019-04-03 21:05:39.91: SIM {TimeUS : 57534477, Roll : 0.0, Pitch : 0.0, Yaw : 353.0, Alt : 584.090026855, Lat : -35.363261, Lng : 149.1652299, Q1 : 0.998134791851, Q2 : 0.0, Q3 : 0.0, Q4 : -0.0610485821962}
2019-04-03 21:05:40.01: SIM {TimeUS : 57634437, Roll : 0.0, Pitch : 0.0, Yaw : 353.0, Alt : 584.090026855, Lat : -35.363261, Lng : 149.1652299, Q1 : 0.998134791851, Q2 : 0.0, Q3 : 0.0, Q4 : -0.0610485821962}
2019-04-03 21:05:40.11: SIM {TimeUS : 57734397, Roll : 0.0, Pitch : 0.0, Yaw : 353.0, Alt : 584.090026855, Lat : -35.363261, Lng : 149.1652299, Q1 : 0.998134791851, Q2 : 0.0, Q3 : 0.0, Q4 : -0.0610485821962}
2019-04-03 21:05:40.22: SIM {TimeUS : 57835190, Roll : 0.0, Pitch : 0.0, Yaw : 353.0, Alt : 584.090026855, Lat : -35.363261, Lng : 149.1652299, Q1 : 0.998134791851, Q2 : 0.0, Q3 : 0.0, Q4 : -0.0610485821962}
2019-04-03 21:05:40.31: SIM {TimeUS : 57935150, Roll : 0.0, Pitch : 0.0, Yaw : 353.0, Alt : 584.090026855, Lat : -35.363261, Lng : 149.1652299, Q1 : 0.998134791851, Q2 : 0.0, Q3 : 0.0, Q4 : -0.0610485710204}
2019-04-03 21:05:40.41: SIM {TimeUS : 58035110, Roll : 0.0, Pitch : 0.0, Yaw : 353.0, Alt : 584.090026855, Lat : -35.363261, Lng : 149.1652299, Q1 : 0.998134791851, Q2 : 0.0, Q3 : 0.0, Q4 : -0.0610486753285}
2019-04-03 21:05:40.51: SIM {TimeUS : 58135070, Roll : 0.0, Pitch : 0.0, Yaw : 353.0, Alt : 584.090026855, Lat : -35.363261, Lng : 149.1652299, Q1 : 0.998134791851, Q2 : 0.0, Q3 : 0.0, Q4 : -0.0610486641526}
2019-04-03 21:05:40.61: SIM {TimeUS : 58235030, Roll : 0.0, Pitch : 0.0, Yaw : 353.0, Alt : 584.090026855, Lat : -35.363261, Lng : 149.1652299, Q1 : 0.998134791851, Q2 : 0.0, Q3 : 0.0, Q4 : -0.0610486753285}
2019-04-03 21:05:40.71: SIM {TimeUS : 58334990, Roll : 0.0, Pitch : 0.0, Yaw : 353.0, Alt : 584.090026855, Lat : -35.363261, Lng : 149.1652299, Q1 : 0.998134791851, Q2 : 0.0, Q3 : 0.0, Q4 : -0.0610486753285}
2019-04-03 21:05:40.81: SIM {TimeUS : 58434950, Roll : 0.0, Pitch : 0.0, Yaw : 353.0, Alt : 584.090026855, Lat : -35.363261, Lng : 149.1652299, Q1 : 0.998134791851, Q2 : 0.0, Q3 : 0.0, Q4 : -0.0610486753285}
2019-04-03 21:05:40.91: SIM {TimeUS : 58534910, Roll : 0.0, Pitch : 0.0, Yaw : 353.0, Alt : 584.090026855, Lat : -35.363261, Lng : 149.1652299, Q1 : 0.998134791851, Q2 : 0.0, Q3 : 0.0, Q4 : -0.0610486753285}
2019-04-03 21:05:41.01: SIM {TimeUS : 58634870, Roll : 0.0, Pitch : 0.0, Yaw : 353.0, Alt : 584.090026855, Lat : -35.363261, Lng : 149.1652299, Q1 : 0.998134791851, Q2 : 0.0, Q3 : 0.0, Q4 : -0.0610486753285}
2019-04-03 21:05:41.11: SIM {TimeUS : 58734830, Roll : 0.0, Pitch : 0.0, Yaw : 353.0, Alt : 584.090026855, Lat : -35.363261, Lng : 149.1652299, Q1 : 0.998134791851, Q2 : 0.0, Q3 : 0.0, Q4 : -0.0610486753285}
2019-04-03 21:05:41.21: SIM {TimeUS : 58834790, Roll : 0.0, Pitch : 0.0, Yaw : 353.0, Alt : 584.099975586, Lat : -35.363261, Lng : 149.1652299, Q1 : 0.998134791851, Q2 : 0.0, Q3 : 0.0, Q4 : -0.0610486753285}
2019-04-03 21:05:41.31: SIM {TimeUS : 58934750, Roll : 0.0, Pitch : 0.0, Yaw : 353.0, Alt : 584.109985352, Lat : -35.363261, Lng : 149.1652299, Q1 : 0.998134791851, Q2 : 0.0, Q3 : 0.0, Q4 : -0.0610486753285}
2019-04-03 21:05:41.41: SIM {TimeUS : 59034710, Roll : 0.0, Pitch : 0.0, Yaw : 353.0, Alt : 584.119995117, Lat : -35.363261, Lng : 149.1652299, Q1 : 0.998134791851, Q2 : 0.0, Q3 : 0.0, Q4 : -0.0610486753285}
2019-04-03 21:05:41.51: SIM {TimeUS : 59134670, Roll : 0.0, Pitch : 0.0, Yaw : 353.0, Alt : 584.150024414, Lat : -35.363261, Lng : 149.1652299, Q1 : 0.998134791851, Q2 : 0.0, Q3 : 0.0, Q4 : -0.0610486753285}
2019-04-03 21:05:41.61: SIM {TimeUS : 59234630, Roll : 0.0, Pitch : 0.0, Yaw : 353.0, Alt : 584.179992676, Lat : -35.363261, Lng : 149.1652299, Q1 : 0.998134791851, Q2 : 0.0, Q3 : 0.0, Q4 : -0.0610486753285}
2019-04-03 21:05:41.71: SIM {TimeUS : 59334590, Roll : 0.0, Pitch : 0.0, Yaw : 353.0, Alt : 584.219970703, Lat : -35.363261, Lng : 149.1652299, Q1 : 0.998134791851, Q2 : -1.87964760698e-05, Q3 : -1.64231751114e-05, Q4 : -0.0610487125814}
2019-04-03 21:05:41.81: SIM {TimeUS : 59434550, Roll : -0.04, Pitch : -0.03, Yaw : 352.99, Alt : 584.289978027, Lat : -35.363261, Lng : 149.1652299, Q1 : 0.998134315014, Q2 : -0.000376816577045, Q3 : -0.00031802727608, Q4 : -0.0610544271767}
2019-04-03 21:05:41.91: SIM {TimeUS : 59534510, Roll : -0.09, Pitch : -0.08, Yaw : 352.99, Alt : 584.409973145, Lat : -35.363261, Lng : 149.1652299, Q1 : 0.998133003712, Q2 : -0.000834723701701, Q3 : -0.00073047564365, Q4 : -0.0610682927072}
2019-04-03 21:05:42.01: SIM {TimeUS : 59634470, Roll : -0.12, Pitch : -0.13, Yaw : 352.99, Alt : 584.559997559, Lat : -35.363261, Lng : 149.1652299, Q1 : 0.998131215572, Q2 : -0.00115731661208, Q3 : -0.00109137990512, Q4 : -0.061086691916}
2019-04-03 21:05:42.11: SIM {TimeUS : 59734430, Roll : -0.14, Pitch : -0.15, Yaw : 352.99, Alt : 584.719970703, Lat : -35.363261, Lng : 149.1652299, Q1 : 0.998129367828, Q2 : -0.00132613035385, Q3 : -0.00126478110906, Q4 : -0.0611099377275}
2019-04-03 21:05:42.21: SIM {TimeUS : 59834390, Roll : -0.14, Pitch : -0.14, Yaw : 352.99, Alt : 584.869995117, Lat : -35.363261, Lng : 149.1652299, Q1 : 0.998128056526, Q2 : -0.00130990473554, Q3 : -0.00120399647858, Q4 : -0.0611333362758}
2019-04-03 21:05:42.32: SIM {TimeUS : 59935183, Roll : -0.11, Pitch : -0.11, Yaw : 352.98, Alt : 585.020019531, Lat : -35.363261, Lng : 149.1652299, Q1 : 0.998127400875, Q2 : -0.00104548223317, Q3 : -0.000956678588409, Q4 : -0.0611533820629}
2019-04-03 21:05:42.41: SIM {TimeUS : 60035143, Roll : -0.07, Pitch : -0.07, Yaw : 352.98, Alt : 585.16998291, Lat : -35.363261, Lng : 149.1652299, Q1 : 0.998126804829, Q2 : -0.000734054658096, Q3 : -0.000646582047921, Q4 : -0.0611716620624}
2019-04-03 21:05:42.51: SIM {TimeUS : 60135103, Roll : -0.07, Pitch : -0.03, Yaw : 352.98, Alt : 585.33001709, Lat : -35.363261, Lng : 149.1652299, Q1 : 0.998126149178, Q2 : -0.000632015988231, Q3 : -0.000309527968056, Q4 : -0.0611863024533}
2019-04-03 21:05:42.61: SIM {TimeUS : 60235063, Roll : -0.08, Pitch : 0.0, Yaw : 352.98, Alt : 585.5, Lat : -35.363261, Lng : 149.1652299, Q1 : 0.998125433922, Q2 : -0.000735137087759, Q3 : 8.34884267533e-05, Q4 : -0.0611977614462}
2019-04-03 21:05:42.71: SIM {TimeUS : 60335023, Roll : -0.11, Pitch : 0.02, Yaw : 352.98, Alt : 585.679992676, Lat : -35.363261, Lng : 149.1652299, Q1 : 0.998124480247, Q2 : -0.000968423555605, Q3 : 0.000314751028782, Q4 : -0.0612088888884}
2019-04-03 21:05:42.81: SIM {TimeUS : 60434983, Roll : -0.11, Pitch : 0.01, Yaw : 352.97, Alt : 585.859985352, Lat : -35.363261, Lng : 149.1652298, Q1 : 0.998123347759, Q2 : -0.00100375432521, Q3 : 0.000231984842685, Q4 : -0.061226438731}
2019-04-03 21:05:42.91: SIM {TimeUS : 60534943, Roll : -0.1, Pitch : 0.0, Yaw : 352.97, Alt : 586.039978027, Lat : -35.363261, Lng : 149.1652298, Q1 : 0.99812322855, Q2 : -0.000898063997738, Q3 : 5.68317009311e-05, Q4 : -0.0612310878932}
2019-04-03 21:05:43.01: SIM {TimeUS : 60634903, Roll : -0.07, Pitch : -0.02, Yaw : 352.97, Alt : 586.229980469, Lat : -35.363261, Lng : 149.1652298, Q1 : 0.998123586178, Q2 : -0.000647330423817, Q3 : -0.000182680116268, Q4 : -0.0612274929881}
2019-04-03 21:05:43.11: SIM {TimeUS : 60734863, Roll : -0.02, Pitch : -0.05, Yaw : 352.98, Alt : 586.41998291, Lat : -35.363261, Lng : 149.1652298, Q1 : 0.998124241829, Q2 : -0.000243240167038, Q3 : -0.000449591432698, Q4 : -0.0612183250487}
2019-04-03 21:05:43.21: SIM {TimeUS : 60834823, Roll : 0.0, Pitch : -0.06, Yaw : 352.98, Alt : 586.609985352, Lat : -35.363261, Lng : 149.1652298, Q1 : 0.998125195503, Q2 : -7.24502251614e-06, Q3 : -0.000563072273508, Q4 : -0.061203237623}
2019-04-03 21:05:43.31: SIM {TimeUS : 60934783, Roll : 0.0, Pitch : -0.05, Yaw : 352.98, Alt : 586.809997559, Lat : -35.363261, Lng : 149.1652298, Q1 : 0.998126089573, Q2 : 1.53153405336e-06, Q3 : -0.000456293782918, Q4 : -0.0611899122596}
2019-04-03 21:05:43.41: SIM {TimeUS : 61034743, Roll : -0.02, Pitch : -0.02, Yaw : 352.98, Alt : 587.0, Lat : -35.363261, Lng : 149.1652298, Q1 : 0.998126268387, Q2 : -0.000239414788666, Q3 : -0.000206344266189, Q4 : -0.0611881613731}
2019-04-03 21:05:43.51: SIM {TimeUS : 61134703, Roll : -0.04, Pitch : 0.01, Yaw : 352.98, Alt : 587.210021973, Lat : -35.3632609, Lng : 149.1652298, Q1 : 0.998126208782, Q2 : -0.000367205357179, Q3 : 0.000126159051433, Q4 : -0.0611880905926}
2019-04-03 21:05:43.61: SIM {TimeUS : 61234663, Roll : -0.04, Pitch : 0.04, Yaw : 352.98, Alt : 587.409973145, Lat : -35.3632609, Lng : 149.1652298, Q1 : 0.99812579155, Q2 : -0.000376936863177, Q3 : 0.000397560244892, Q4 : -0.0611941516399}
2019-04-03 21:05:43.71: SIM {TimeUS : 61334623, Roll : -0.02, Pitch : 0.04, Yaw : 352.98, Alt : 587.609985352, Lat : -35.3632609, Lng : 149.1652298, Q1 : 0.998125314713, Q2 : -0.000161354502779, Q3 : 0.000361539248843, Q4 : -0.0612028054893}
2019-04-03 21:05:43.81: SIM {TimeUS : 61434583, Roll : 0.01, Pitch : 0.0, Yaw : 352.98, Alt : 587.820007324, Lat : -35.3632609, Lng : 149.1652298, Q1 : 0.998125433922, Q2 : 0.000124424375826, Q3 : -4.05855389545e-05, Q4 : -0.0612022727728}
2019-04-03 21:05:43.91: SIM {TimeUS : 61534543, Roll : 0.04, Pitch : -0.03, Yaw : 352.98, Alt : 588.030029297, Lat : -35.3632609, Lng : 149.1652298, Q1 : 0.998125076294, Q2 : 0.00038052230957, Q3 : -0.000311398180202, Q4 : -0.0612056218088}
2019-04-03 21:05:44.01: SIM {TimeUS : 61634503, Roll : 0.06, Pitch : -0.02, Yaw : 352.97, Alt : 588.239990234, Lat : -35.3632609, Lng : 149.1652298, Q1 : 0.998123943806, Q2 : 0.000514311250299, Q3 : -0.00023307405354, Q4 : -0.0612233430147}
2019-04-03 21:05:44.11: SIM {TimeUS : 61734463, Roll : 0.04, Pitch : -0.01, Yaw : 352.97, Alt : 588.450012207, Lat : -35.3632609, Lng : 149.1652298, Q1 : 0.998122155666, Q2 : 0.000402032048441, Q3 : -0.000135085370857, Q4 : -0.0612526535988}
2019-04-03 21:05:44.21: SIM {TimeUS : 61834423, Roll : 0.0, Pitch : -0.02, Yaw : 352.97, Alt : 588.659973145, Lat : -35.3632609, Lng : 149.1652298, Q1 : 0.998120248318, Q2 : -3.70108682546e-05, Q3 : -0.000177931317012, Q4 : -0.0612859278917}
2019-04-03 21:05:44.31: SIM {TimeUS : 61934383, Roll : -0.04, Pitch : -0.02, Yaw : 352.96, Alt : 588.869995117, Lat : -35.3632609, Lng : 149.1652297, Q1 : 0.998118519783, Q2 : -0.000416195078287, Q3 : -0.000193944666535, Q4 : -0.0613122470677}
2019-04-03 21:05:44.42: SIM {TimeUS : 62035176, Roll : -0.07, Pitch : -0.02, Yaw : 352.96, Alt : 589.090026855, Lat : -35.3632609, Lng : 149.1652297, Q1 : 0.998117029667, Q2 : -0.000656845979393, Q3 : -0.000187222613022, Q4 : -0.0613346025348}
2019-04-03 21:05:44.51: SIM {TimeUS : 62135136, Roll : -0.07, Pitch : -0.02, Yaw : 352.96, Alt : 589.309997559, Lat : -35.3632609, Lng : 149.1652297, Q1 : 0.998115956783, Q2 : -0.00068511167774, Q3 : -0.000185009863344, Q4 : -0.0613513290882}
2019-04-03 21:05:44.61: SIM {TimeUS : 62235096, Roll : -0.06, Pitch : -0.03, Yaw : 352.96, Alt : 589.520019531, Lat : -35.3632609, Lng : 149.1652297, Q1 : 0.998115539551, Q2 : -0.000578754930757, Q3 : -0.000286342314212, Q4 : -0.061359141022}
2019-04-03 21:05:44.71: SIM {TimeUS : 62335056, Roll : -0.05, Pitch : -0.03, Yaw : 352.96, Alt : 589.739990234, Lat : -35.3632609, Lng : 149.1652297, Q1 : 0.998115181923, Q2 : -0.000526027579326, Q3 : -0.000301774620311, Q4 : -0.061365339905}
2019-04-03 21:05:44.81: SIM {TimeUS : 62435016, Roll : -0.04, Pitch : -0.03, Yaw : 352.96, Alt : 589.950012207, Lat : -35.3632609, Lng : 149.1652297, Q1 : 0.998114824295, Q2 : -0.000394444447011, Q3 : -0.000310452684062, Q4 : -0.0613729953766}
2019-04-03 21:05:44.91: SIM {TimeUS : 62534976, Roll : -0.02, Pitch : -0.03, Yaw : 352.96, Alt : 590.150024414, Lat : -35.3632609, Lng : 149.1652297, Q1 : 0.998114287853, Q2 : -0.000248644733801, Q3 : -0.000287215516437, Q4 : -0.0613815225661}
2019-04-03 21:05:45.01: SIM {TimeUS : 62634936, Roll : -0.02, Pitch : -0.04, Yaw : 352.96, Alt : 590.340026855, Lat : -35.3632609, Lng : 149.1652297, Q1 : 0.998113811016, Q2 : -0.000269864220172, Q3 : -0.000362880935427, Q4 : -0.061389837414}
2019-04-03 21:05:45.11: SIM {TimeUS : 62734896, Roll : -0.04, Pitch : -0.06, Yaw : 352.95, Alt : 590.520019531, Lat : -35.3632609, Lng : 149.1652296, Q1 : 0.998112916946, Q2 : -0.000461904681288, Q3 : -0.000514232960995, Q4 : -0.061401296407}
2019-04-03 21:05:45.21: SIM {TimeUS : 62834856, Roll : -0.06, Pitch : -0.08, Yaw : 352.95, Alt : 590.690002441, Lat : -35.3632609, Lng : 149.1652296, Q1 : 0.998111903667, Q2 : -0.000614682736341, Q3 : -0.000661812140606, Q4 : -0.0614151023328}
2019-04-03 21:05:45.31: SIM {TimeUS : 62934816, Roll : -0.08, Pitch : -0.04, Yaw : 352.95, Alt : 590.849975586, Lat : -35.3632609, Lng : 149.1652296, Q1 : 0.998110949993, Q2 : -0.000801296846475, Q3 : -0.000302620581351, Q4 : -0.0614320337772}
2019-04-03 21:05:45.41: SIM {TimeUS : 63034776, Roll : -0.25, Pitch : 0.19, Yaw : 352.95, Alt : 590.989990234, Lat : -35.3632609, Lng : 149.1652296, Q1 : 0.998106062412, Q2 : -0.00212482409552, Q3 : 0.00187712733168, Q4 : -0.0614515841007}
2019-04-03 21:05:45.51: SIM {TimeUS : 63134736, Roll : -0.63, Pitch : 0.69, Yaw : 352.94, Alt : 591.119995117, Lat : -35.3632609, Lng : 149.1652296, Q1 : 0.998075187206, Q2 : -0.00515215331689, Q3 : 0.00641617784277, Q4 : -0.0614665932953}
2019-04-03 21:05:45.61: SIM {TimeUS : 63234696, Roll : -1.21, Pitch : 1.39, Yaw : 352.93, Alt : 591.239990234, Lat : -35.3632609, Lng : 149.1652294, Q1 : 0.997978806496, Q2 : -0.00981965381652, Q3 : 0.0128037808463, Q4 : -0.0614647194743}
2019-04-03 21:05:45.71: SIM {TimeUS : 63334656, Roll : -1.91, Pitch : 2.21, Yaw : 352.91, Alt : 591.349975586, Lat : -35.3632609, Lng : 149.1652294, Q1 : 0.997785508633, Q2 : -0.0154490331188, Q3 : 0.0203016269952, Q4 : -0.0614274404943}
2019-04-03 21:05:45.81: SIM {TimeUS : 63434616, Roll : -2.63, Pitch : 3.05, Yaw : 352.89, Alt : 591.440002441, Lat : -35.3632609, Lng : 149.1652293, Q1 : 0.997495234013, Q2 : -0.0213165134192, Q3 : 0.0280593447387, Q4 : -0.061331436038}
2019-04-03 21:05:45.91: SIM {TimeUS : 63534576, Roll : -3.3, Pitch : 3.8, Yaw : 352.87, Alt : 591.530029297, Lat : -35.363261, Lng : 149.1652293, Q1 : 0.997162044048, Q2 : -0.0266644712538, Q3 : 0.0348870828748, Q4 : -0.0611534640193}
2019-04-03 21:05:46.01: SIM {TimeUS : 63634536, Roll : -3.81, Pitch : 4.38, Yaw : 352.86, Alt : 591.599975586, Lat : -35.363261, Lng : 149.1652292, Q1 : 0.996856808662, Q2 : -0.030800005421, Q3 : 0.0402268543839, Q4 : -0.0609073713422}
2019-04-03 21:05:46.11: SIM {TimeUS : 63734496, Roll : -4.19, Pitch : 4.79, Yaw : 352.86, Alt : 591.659973145, Lat : -35.3632613, Lng : 149.1652289, Q1 : 0.996616303921, Q2 : -0.0339086763561, Q3 : 0.0439752675593, Q4 : -0.0605996586382}
2019-04-03 21:05:46.21: SIM {TimeUS : 63834456, Roll : -4.48, Pitch : 5.08, Yaw : 352.87, Alt : 591.719970703, Lat : -35.3632616, Lng : 149.1652287, Q1 : 0.996430695057, Q2 : -0.0362628176808, Q3 : 0.0466823913157, Q4 : -0.0602634213865}
2019-04-03 21:05:46.31: SIM {TimeUS : 63934416, Roll : -4.72, Pitch : 5.36, Yaw : 352.89, Alt : 591.770019531, Lat : -35.3632619, Lng : 149.1652284, Q1 : 0.996257662773, Q2 : -0.0381790101528, Q3 : 0.0491949617863, Q4 : -0.0599415004253}
2019-04-03 21:05:46.41: SIM {TimeUS : 64034376, Roll : -4.96, Pitch : 5.64, Yaw : 352.9, Alt : 591.809997559, Lat : -35.3632622, Lng : 149.1652281, Q1 : 0.996067643166, Q2 : -0.0401091165841, Q3 : 0.051815379411, Q4 : -0.0596293658018}
2019-04-03 21:05:46.51: SIM {TimeUS : 64135169, Roll : -5.19, Pitch : 5.93, Yaw : 352.91, Alt : 591.849975586, Lat : -35.3632628, Lng : 149.1652277, Q1 : 0.995868563652, Q2 : -0.0419669002295, Q3 : 0.0544449910522, Q4 : -0.0593328326941}
2019-04-03 21:05:46.61: SIM {TimeUS : 64235129, Roll : -5.36, Pitch : 6.18, Yaw : 352.91, Alt : 591.890014648, Lat : -35.3632633, Lng : 149.1652272, Q1 : 0.995703041553, Q2 : -0.0432751476765, Q3 : 0.0566857382655, Q4 : -0.0590718649328}
2019-04-03 21:05:46.71: SIM {TimeUS : 64335089, Roll : -5.46, Pitch : 6.35, Yaw : 352.93, Alt : 591.91998291, Lat : -35.3632639, Lng : 149.1652267, Q1 : 0.995595097542, Q2 : -0.0440667867661, Q3 : 0.0581922754645, Q4 : -0.058840252459}
2019-04-03 21:05:46.81: SIM {TimeUS : 64435049, Roll : -5.54, Pitch : 6.45, Yaw : 352.94, Alt : 591.950012207, Lat : -35.3632646, Lng : 149.165226, Q1 : 0.995524227619, Q2 : -0.0447242222726, Q3 : 0.05909524858, Q4 : -0.0586429797113}
2019-04-03 21:05:46.91: SIM {TimeUS : 64535009, Roll : -5.6, Pitch : 6.53, Yaw : 352.95, Alt : 591.979980469, Lat : -35.3632653, Lng : 149.1652255, Q1 : 0.995463311672, Q2 : -0.0452644750476, Q3 : 0.0598427914083, Q4 : -0.0585040971637}
2019-04-03 21:05:47.01: SIM {TimeUS : 64634969, Roll : -5.68, Pitch : 6.64, Yaw : 352.95, Alt : 592.0, Lat : -35.3632661, Lng : 149.1652249, Q1 : 0.995379924774, Q2 : -0.0458626002073, Q3 : 0.0608353987336, Q4 : -0.0584340319037}
2019-04-03 21:05:47.11: SIM {TimeUS : 64734929, Roll : -5.74, Pitch : 6.87, Yaw : 352.88, Alt : 592.030029297, Lat : -35.363267, Lng : 149.1652241, Q1 : 0.995213747025, Q2 : -0.0461753122509, Q3 : 0.0628893896937, Q4 : -0.0588424317539}
2019-04-03 21:05:47.21: SIM {TimeUS : 64834889, Roll : -5.67, Pitch : 7.33, Yaw : 352.37, Alt : 592.049987793, Lat : -35.3632678, Lng : 149.1652234, Q1 : 0.994731724262, Q2 : -0.0450416728854, Q3 : 0.0670261085033, Q4 : -0.0631475076079}
2019-04-03 21:05:47.31: SIM {TimeUS : 64934849, Roll : -5.6, Pitch : 7.93, Yaw : 350.69, Alt : 592.070007324, Lat : -35.3632689, Lng : 149.1652226, Q1 : 0.993402779102, Q2 : -0.0429920628667, Q3 : 0.0728398039937, Q4 : -0.0774399414659}
2019-04-03 21:05:47.41: SIM {TimeUS : 65034809, Roll : -5.85, Pitch : 8.4, Yaw : 347.38, Alt : 592.090026855, Lat : -35.3632699, Lng : 149.1652217, Q1 : 0.990388929844, Q2 : -0.0425793454051, Q3 : 0.0783223360777, Q4 : -0.105746768415}
2019-04-03 21:05:47.51: SIM {TimeUS : 65134769, Roll : -6.55, Pitch : 8.47, Yaw : 342.44, Alt : 592.109985352, Lat : -35.363271, Lng : 149.1652208, Q1 : 0.984615802765, Q2 : -0.0450995713472, Q3 : 0.0815827473998, Q4 : -0.147790625691}
2019-04-03 21:05:47.61: SIM {TimeUS : 65234729, Roll : -7.66, Pitch : 7.94, Yaw : 336.14, Alt : 592.130004883, Lat : -35.3632722, Lng : 149.16522, Q1 : 0.97484254837, Q2 : -0.0509521439672, Q3 : 0.08138345927, Q4 : -0.201153382659}
2019-04-03 21:05:47.71: SIM {TimeUS : 65334689, Roll : -9.03, Pitch : 6.74, Yaw : 328.84, Alt : 592.150024414, Lat : -35.3632735, Lng : 149.1652192, Q1 : 0.959868133068, Q2 : -0.0599609315395, Q3 : 0.07762414217, Q4 : -0.262740135193}
2019-04-03 21:05:47.81: SIM {TimeUS : 65434649, Roll : -10.44, Pitch : 4.94, Yaw : 320.87, Alt : 592.179992676, Lat : -35.3632749, Lng : 149.1652183, Q1 : 0.938813447952, Q2 : -0.0712822675705, Q3 : 0.0709555521607, Q4 : -0.329413831234}
2019-04-03 21:05:47.91: SIM {TimeUS : 65534609, Roll : -11.66, Pitch : 2.69, Yaw : 312.51, Alt : 592.200012207, Lat : -35.3632762, Lng : 149.1652173, Q1 : 0.911346316338, Q2 : -0.0835693404078, Q3 : 0.0623330362141, Q4 : -0.398219317198}
2019-04-03 21:05:48.01: SIM {TimeUS : 65634569, Roll : -12.47, Pitch : 0.2, Yaw : 304.0, Alt : 592.229980469, Lat : -35.3632778, Lng : 149.1652163, Q1 : 0.87783908844, Q2 : -0.0951303318143, Q3 : 0.0526079982519, Q4 : -0.46645590663}
2019-04-03 21:05:48.11: SIM {TimeUS : 65734529, Roll : -12.78, Pitch : -2.3, Yaw : 295.56, Alt : 592.25, Lat : -35.3632793, Lng : 149.1652153, Q1 : 0.839388370514, Q2 : -0.1048778072, Q3 : 0.0424222238362, Q4 : -0.531627893448}
2019-04-03 21:05:48.21: SIM {TimeUS : 65834489, Roll : -12.61, Pitch : -4.67, Yaw : 287.38, Alt : 592.280029297, Lat : -35.363281, Lng : 149.165214, Q1 : 0.797643303871, Q2 : -0.112437330186, Q3 : 0.0323647856712, Q4 : -0.591671824455}
2019-04-03 21:05:48.31: SIM {TimeUS : 65934449, Roll : -12.05, Pitch : -6.75, Yaw : 279.62, Alt : 592.309997559, Lat : -35.3632827, Lng : 149.1652129, Q1 : 0.75439530611, Q2 : -0.117892347276, Q3 : 0.0229189228266, Q4 : -0.645340144634}
2019-04-03 21:05:48.41: SIM {TimeUS : 66034409, Roll : -11.26, Pitch : -8.51, Yaw : 272.39, Alt : 592.33001709, Lat : -35.3632845, Lng : 149.1652116, Q1 : 0.71120017767, Q2 : -0.121755510569, Q3 : 0.0144568886608, Q4 : -0.692214488983}
2019-04-03 21:05:48.52: SIM {TimeUS : 66135202, Roll : -10.36, Pitch : -9.96, Yaw : 265.67, Alt : 592.359985352, Lat : -35.3632863, Lng : 149.1652102, Q1 : 0.668815135956, Q2 : -0.124562822282, Q3 : 0.00716940080747, Q4 : -0.732884049416}
2019-04-03 21:05:48.61: SIM {TimeUS : 66235162, Roll : -9.41, Pitch : -11.08, Yaw : 259.55, Alt : 592.390014648, Lat : -35.3632882, Lng : 149.1652087, Q1 : 0.628539025784, Q2 : -0.12628094852, Q3 : 0.00121678144205, Q4 : -0.767457008362}
2019-04-03 21:05:48.71: SIM {TimeUS : 66335122, Roll : -8.47, Pitch : -11.94, Yaw : 253.89, Alt : 592.429992676, Lat : -35.3632901, Lng : 149.1652071, Q1 : 0.590067446232, Q2 : -0.127105101943, Q3 : -0.00362876919098, Q4 : -0.797277629375}
2019-04-03 21:05:48.81: SIM {TimeUS : 66435082, Roll : -7.57, Pitch : -12.62, Yaw : 248.6, Alt : 592.460021973, Lat : -35.363292, Lng : 149.1652054, Q1 : 0.552956998348, Q2 : -0.127605810761, Q3 : -0.00758094200864, Q4 : -0.823345601559}
2019-04-03 21:05:48.91: SIM {TimeUS : 66535042, Roll : -6.75, Pitch : -13.17, Yaw : 243.54, Alt : 592.489990234, Lat : -35.3632942, Lng : 149.1652038, Q1 : 0.516427278519, Q2 : -0.128129184246, Q3 : -0.0105563336983, Q4 : -0.846625328064}
2019-04-03 21:05:49.01: SIM {TimeUS : 66635002, Roll : -5.95, Pitch : -13.68, Yaw : 238.57, Alt : 592.520019531, Lat : -35.3632963, Lng : 149.165202, Q1 : -0.479636371136, Q2 : 0.128965616226, Q3 : 0.0132263340056, Q4 : 0.867837488651}
2019-04-03 21:05:49.11: SIM {TimeUS : 66734962, Roll : -5.09, Pitch : -14.18, Yaw : 233.55, Alt : 592.559997559, Lat : -35.3632985, Lng : 149.1652001, Q1 : -0.441776961088, Q2 : 0.129965856671, Q3 : 0.0162114221603, Q4 : 0.887512922287}
2019-04-03 21:05:49.21: SIM {TimeUS : 66834922, Roll : -4.11, Pitch : -14.64, Yaw : 228.4, Alt : 592.590026855, Lat : -35.3633006, Lng : 149.1651983, Q1 : -0.402155309916, Q2 : 0.130778744817, Q3 : 0.0197707209736, Q4 : 0.905967533588}
2019-04-03 21:05:49.31: SIM {TimeUS : 66934882, Roll : -2.9, Pitch : -15.05, Yaw : 223.03, Alt : 592.630004883, Lat : -35.363303, Lng : 149.1651964, Q1 : -0.360379546881, Q2 : 0.131078228354, Q3 : 0.0246408581734, Q4 : 0.92322152853}
2019-04-03 21:05:49.41: SIM {TimeUS : 67034842, Roll : -1.14, Pitch : -15.37, Yaw : 217.56, Alt : 592.659973145, Lat : -35.3633053, Lng : 149.1651944, Q1 : -0.317826300859, Q2 : 0.129808261991, Q3 : 0.0337202735245, Q4 : 0.938615560532}
2019-04-03 21:05:49.51: SIM {TimeUS : 67134802, Roll : 1.09, Pitch : -15.49, Yaw : 212.52, Alt : 592.700012207, Lat : -35.3633077, Lng : 149.1651925, Q1 : -0.278691232204, Q2 : 0.126742064953, Q3 : 0.0468087419868, Q4 : 0.950829446316}
2019-04-03 21:05:49.61: SIM {TimeUS : 67234762, Roll : 3.3, Pitch : -15.39, Yaw : 208.45, Alt : 592.729980469, Lat : -35.3633101, Lng : 149.1651905, Q1 : -0.247199714184, Q2 : 0.122729673982, Q3 : 0.0606173016131, Q4 : 0.959247231483}
2019-04-03 21:05:49.71: SIM {TimeUS : 67334722, Roll : 5.0, Pitch : -15.18, Yaw : 205.7, Alt : 592.770019531, Lat : -35.3633126, Lng : 149.1651884, Q1 : -0.225875094533, Q2 : 0.119086675346, Q3 : 0.0715921595693, Q4 : 0.964195728302}
2019-04-03 21:05:49.81: SIM {TimeUS : 67434682, Roll : 5.9, Pitch : -15.0, Yaw : 204.33, Alt : 592.799987793, Lat : -35.3633151, Lng : 149.1651862, Q1 : -0.21525940299, Q2 : 0.116707161069, Q3 : 0.0774123072624, Q4 : 0.966462671757}
2019-04-03 21:05:49.91: SIM {TimeUS : 67534642, Roll : 5.92, Pitch : -14.92, Yaw : 204.21, Alt : 592.840026855, Lat : -35.3633175, Lng : 149.1651839, Q1 : -0.214287385345, Q2 : 0.116040438414, Q3 : 0.077301338315, Q4 : 0.966767847538}
2019-04-03 21:05:50.01: SIM {TimeUS : 67634602, Roll : 5.15, Pitch : -14.98, Yaw : 205.1, Alt : 592.880004883, Lat : -35.36332, Lng : 149.1651815, Q1 : -0.221022963524, Q2 : 0.11748572439, Q3 : 0.0718559771776, Q4 : 0.965496063232}
2019-04-03 21:05:50.11: SIM {TimeUS : 67734562, Roll : 3.83, Pitch : -15.2, Yaw : 206.72, Alt : 592.909973145, Lat : -35.3633227, Lng : 149.1651791, Q1 : -0.233269587159, Q2 : 0.120979167521, Q3 : 0.0628554970026, Q4 : 0.962807655334}
2019-04-03 21:05:50.21: SIM {TimeUS : 67834522, Roll : 2.25, Pitch : -15.5, Yaw : 208.78, Alt : 592.950012207, Lat : -35.3633252, Lng : 149.1651767, Q1 : -0.248817145824, Q2 : 0.125819340348, Q3 : 0.052456188947, Q4 : 0.958909749985}
2019-04-03 21:05:50.31: SIM {TimeUS : 67934482, Roll : 0.68, Pitch : -15.81, Yaw : 210.99, Alt : 592.989990234, Lat : -35.3633278, Lng : 149.1651743, Q1 : -0.265451192856, Q2 : 0.130974382162, Q3 : 0.0424822494388, Q4 : 0.954241394997}
2019-04-03 21:05:50.41: SIM {TimeUS : 68034442, Roll : -0.67, Pitch : -16.04, Yaw : 213.07, Alt : 593.030029297, Lat : -35.3633304, Lng : 149.1651718, Q1 : -0.281089544296, Q2 : 0.135464504361, Q3 : 0.034174323082, Q4 : 0.94945782423}
2019-04-03 21:05:50.51: SIM {TimeUS : 68134402, Roll : -1.68, Pitch : -16.19, Yaw : 214.8, Alt : 593.059997559, Lat : -35.3633332, Lng : 149.1651693, Q1 : -0.294073045254, Q2 : 0.138737738132, Q3 : 0.0281938947737, Q4 : 0.945239663124}
2019-04-03 21:05:50.62: SIM {TimeUS : 68235195, Roll : -2.33, Pitch : -16.24, Yaw : 216.03, Alt : 593.099975586, Lat : -35.3633358, Lng : 149.1651667, Q1 : -0.303382873535, Q2 : 0.140585586429, Q3 : 0.0245116241276, Q4 : 0.94212192297}
2019-04-03 21:05:50.71: SIM {TimeUS : 68335155, Roll : -2.59, Pitch : -16.23, Yaw : 216.68, Alt : 593.140014648, Lat : -35.3633387, Lng : 149.1651642, Q1 : -0.308442234993, Q2 : 0.141072556376, Q3 : 0.0231250617653, Q4 : 0.940439879894}
2019-04-03 21:05:50.81: SIM {TimeUS : 68435115, Roll : -2.51, Pitch : -16.19, Yaw : 216.79, Alt : 593.179992676, Lat : -35.3633416, Lng : 149.1651618, Q1 : -0.309484183788, Q2 : 0.140515118837, Q3 : 0.023809723556, Q4 : 0.940163910389}
2019-04-03 21:05:50.91: SIM {TimeUS : 68535075, Roll : -2.17, Pitch : -16.17, Yaw : 216.45, Alt : 593.210021973, Lat : -35.3633444, Lng : 149.1651594, Q1 : -0.307048469782, Q2 : 0.139481067657, Q3 : 0.026138946414, Q4 : 0.941054224968}
2019-04-03 21:05:51.01: SIM {TimeUS : 68635035, Roll : -1.64, Pitch : -16.19, Yaw : 215.75, Alt : 593.25, Lat : -35.3633473, Lng : 149.165157, Q1 : -0.301999568939, Q2 : 0.138414949179, Q3 : 0.0297038089484, Q4 : 0.942738175392}
2019-04-03 21:05:51.11: SIM {TimeUS : 68734995, Roll : -1.03, Pitch : -16.26, Yaw : 214.86, Alt : 593.289978027, Lat : -35.3633504, Lng : 149.1651545, Q1 : -0.295329868793, Q2 : 0.137590184808, Q3 : 0.0338734537363, Q4 : 0.944828987122}
2019-04-03 21:05:51.21: SIM {TimeUS : 68834955, Roll : -0.39, Pitch : -16.34, Yaw : 213.89, Alt : 593.33001709, Lat : -35.3633534, Lng : 149.1651521, Q1 : -0.28807374835, Q2 : 0.137009248137, Q3 : 0.0381522029638, Q4 : 0.946988046169}
2019-04-03 21:05:51.31: SIM {TimeUS : 68934915, Roll : 0.16, Pitch : -16.42, Yaw : 212.98, Alt : 593.359985352, Lat : -35.3633564, Lng : 149.1651496, Q1 : -0.281134724617, Q2 : 0.136602908373, Q3 : 0.0419004671276, Q4 : 0.948971688747}
2019-04-03 21:05:51.41: SIM {TimeUS : 69034875, Roll : 0.59, Pitch : -16.49, Yaw : 212.2, Alt : 593.400024414, Lat : -35.3633594, Lng : 149.165147, Q1 : -0.275234133005, Q2 : 0.136405825615, Q3 : 0.0447403900325, Q4 : 0.950598716736}
2019-04-03 21:05:51.51: SIM {TimeUS : 69134835, Roll : 0.87, Pitch : -16.52, Yaw : 211.64, Alt : 593.440002441, Lat : -35.3633625, Lng : 149.1651446, Q1 : -0.270868450403, Q2 : 0.13619607687, Q3 : 0.0464588813484, Q4 : 0.951799631119}
2019-04-03 21:05:51.61: SIM {TimeUS : 69234795, Roll : 1.0, Pitch : -16.55, Yaw : 211.31, Alt : 593.479980469, Lat : -35.3633656, Lng : 149.1651421, Q1 : -0.268255084753, Q2 : 0.136243879795, Q3 : 0.0472183376551, Q4 : 0.952495276928}
2019-04-03 21:05:51.71: SIM {TimeUS : 69334755, Roll : 0.99, Pitch : -16.57, Yaw : 211.2, Alt : 593.510009766, Lat : -35.3633686, Lng : 149.1651394, Q1 : -0.26735329628, Q2 : 0.136546090245, Q3 : 0.0470684878528, Q4 : 0.952712953091}
2019-04-03 21:05:51.81: SIM {TimeUS : 69434715, Roll : 0.86, Pitch : -16.63, Yaw : 211.29, Alt : 593.549987793, Lat : -35.3633717, Lng : 149.1651369, Q1 : -0.267925530672, Q2 : 0.137286275625, Q3 : 0.0461920648813, Q4 : 0.952488660812}
2019-04-03 21:05:51.91: SIM {TimeUS : 69534675, Roll : 0.65, Pitch : -16.68, Yaw : 211.53, Alt : 593.590026855, Lat : -35.363375, Lng : 149.1651344, Q1 : -0.269663333893, Q2 : 0.138087570667, Q3 : 0.0448496900499, Q4 : 0.951946437359}
2019-04-03 21:05:52.01: SIM {TimeUS : 69634635, Roll : 0.41, Pitch : -16.72, Yaw : 211.87, Alt : 593.630004883, Lat : -35.3633781, Lng : 149.1651317, Q1 : -0.27216103673, Q2 : 0.138907745481, Q3 : 0.0433587953448, Q4 : 0.951185107231}
2019-04-03 21:05:52.11: SIM {TimeUS : 69734595, Roll : 0.18, Pitch : -16.76, Yaw : 212.25, Alt : 593.659973145, Lat : -35.3633813, Lng : 149.1651292, Q1 : -0.275007069111, Q2 : 0.139562964439, Q3 : 0.042017750442, Q4 : 0.950330376625}
2019-04-03 21:05:52.21: SIM {TimeUS : 69834555, Roll : -0.01, Pitch : -16.78, Yaw : 212.61, Alt : 593.700012207, Lat : -35.3633844, Lng : 149.1651264, Q1 : -0.277801901102, Q2 : 0.14008462429, Q3 : 0.0408621616662, Q4 : 0.949490785599}
2019-04-03 21:05:52.31: SIM {TimeUS : 69934515, Roll : -0.18, Pitch : -16.77, Yaw : 212.93, Alt : 593.739990234, Lat : -35.3633876, Lng : 149.1651239, Q1 : -0.280229091644, Q2 : 0.140366315842, Q3 : 0.0398545712233, Q4 : 0.948778450489}
2019-04-03 21:05:52.41: SIM {TimeUS : 70034475, Roll : -0.3, Pitch : -16.77, Yaw : 213.17, Alt : 593.780029297, Lat : -35.363391, Lng : 149.1651212, Q1 : -0.282077312469, Q2 : 0.140567153692, Q3 : 0.0390937104821, Q4 : 0.948232591152}
2019-04-03 21:05:52.51: SIM {TimeUS : 70134435, Roll : -0.37, Pitch : -16.78, Yaw : 213.33, Alt : 593.820007324, Lat : -35.3633942, Lng : 149.1651186, Q1 : -0.283261358738, Q2 : 0.140799418092, Q3 : 0.0387351587415, Q4 : 0.947859764099}
2019-04-03 21:05:52.61: SIM {TimeUS : 70234395, Roll : -0.38, Pitch : -16.81, Yaw : 213.39, Alt : 593.849975586, Lat : -35.3633975, Lng : 149.1651159, Q1 : -0.283786416054, Q2 : 0.141015350819, Q3 : 0.0387948416173, Q4 : 0.947668194771}
2019-04-03 21:05:52.72: SIM {TimeUS : 70335188, Roll : -0.35, Pitch : -16.82, Yaw : 213.38, Alt : 593.890014648, Lat : -35.3634008, Lng : 149.1651133, Q1 : -0.283721596003, Q2 : 0.141046017408, Q3 : 0.0390790179372, Q4 : 0.947671353817}
2019-04-03 21:05:52.81: SIM {TimeUS : 70435148, Roll : -0.29, Pitch : -16.83, Yaw : 213.31, Alt : 593.929992676, Lat : -35.363404, Lng : 149.1651106, Q1 : -0.283177107573, Q2 : 0.140983179212, Q3 : 0.0394954495132, Q4 : 0.947826266289}
2019-04-03 21:05:52.91: SIM {TimeUS : 70535108, Roll : -0.21, Pitch : -16.86, Yaw : 213.19, Alt : 593.969970703, Lat : -35.3634075, Lng : 149.165108, Q1 : -0.282312989235, Q2 : 0.141065299511, Q3 : 0.0400718450546, Q4 : 0.948047578335}
2019-04-03 21:05:53.01: SIM {TimeUS : 70635068, Roll : -0.11, Pitch : -16.91, Yaw : 213.06, Alt : 594.010009766, Lat : -35.3634107, Lng : 149.1651053, Q1 : -0.281335055828, Q2 : 0.141257658601, Q3 : 0.0408738479018, Q4 : 0.948275387287}
2019-04-03 21:05:53.11: SIM {TimeUS : 70735028, Roll : 0.0, Pitch : -16.95, Yaw : 212.93, Alt : 594.049987793, Lat : -35.3634142, Lng : 149.1651025, Q1 : -0.280402421951, Q2 : 0.141387403011, Q3 : 0.0417602919042, Q4 : 0.948493659496}
2019-04-03 21:05:53.21: SIM {TimeUS : 70834988, Roll : 0.1, Pitch : -16.99, Yaw : 212.82, Alt : 594.090026855, Lat : -35.3634175, Lng : 149.1650999, Q1 : -0.279617220163, Q2 : 0.141453310847, Q3 : 0.0426134206355, Q4 : 0.948677659035}
2019-04-03 21:05:53.31: SIM {TimeUS : 70934948, Roll : 0.18, Pitch : -17.01, Yaw : 212.75, Alt : 594.119995117, Lat : -35.3634209, Lng : 149.1650972, Q1 : -0.279052734375, Q2 : 0.141473412514, Q3 : 0.0432127155364, Q4 : 0.948813736439}
2019-04-03 21:05:53.41: SIM {TimeUS : 71034908, Roll : 0.19, Pitch : -17.01, Yaw : 212.7, Alt : 594.159973145, Lat : -35.3634243, Lng : 149.1650944, Q1 : -0.278720617294, Q2 : 0.141509950161, Q3 : 0.0433171875775, Q4 : 0.948901176453}
2019-04-03 21:05:53.51: SIM {TimeUS : 71134868, Roll : 0.18, Pitch : -17.02, Yaw : 212.7, Alt : 594.200012207, Lat : -35.3634276, Lng : 149.1650918, Q1 : -0.278661251068, Q2 : 0.141601249576, Q3 : 0.0431737005711, Q4 : 0.948911488056}
