2019-04-03 18:19:29.50: SIM {TimeUS : 74116175, Roll : 0.0, Pitch : 0.0, Yaw : 353.0, Alt : 584.090026855, Lat : -35.363261, Lng : 149.1652299, Q1 : 0.998134791851, Q2 : 0.0, Q3 : 0.0, Q4 : -0.0610485821962}
2019-04-03 18:19:29.60: SIM {TimeUS : 74216135, Roll : 0.0, Pitch : 0.0, Yaw : 353.0, Alt : 584.090026855, Lat : -35.363261, Lng : 149.1652299, Q1 : 0.998134791851, Q2 : 0.0, Q3 : 0.0, Q4 : -0.0610485821962}
2019-04-03 18:19:29.69: SIM {TimeUS : 74316095, Roll : 0.0, Pitch : 0.0, Yaw : 353.0, Alt : 584.090026855, Lat : -35.363261, Lng : 149.1652299, Q1 : 0.998134791851, Q2 : 0.0, Q3 : 0.0, Q4 : -0.0610485821962}
2019-04-03 18:19:29.79: SIM {TimeUS : 74416055, Roll : 0.0, Pitch : 0.0, Yaw : 353.0, Alt : 584.090026855, Lat : -35.363261, Lng : 149.1652299, Q1 : 0.998134791851, Q2 : 0.0, Q3 : 0.0, Q4 : -0.0610485821962}
2019-04-03 18:19:29.89: SIM {TimeUS : 74516015, Roll : 0.0, Pitch : 0.0, Yaw : 353.0, Alt : 584.090026855, Lat : -35.363261, Lng : 149.1652299, Q1 : 0.998134791851, Q2 : 0.0, Q3 : 0.0, Q4 : -0.0610485821962}
2019-04-03 18:19:29.99: SIM {TimeUS : 74615975, Roll : 0.0, Pitch : 0.0, Yaw : 353.0, Alt : 584.090026855, Lat : -35.363261, Lng : 149.1652299, Q1 : 0.998134791851, Q2 : 0.0, Q3 : 0.0, Q4 : -0.0610485821962}
2019-04-03 18:19:30.09: SIM {TimeUS : 74715935, Roll : 0.0, Pitch : 0.0, Yaw : 353.0, Alt : 584.090026855, Lat : -35.363261, Lng : 149.1652299, Q1 : 0.998134791851, Q2 : 0.0, Q3 : 0.0, Q4 : -0.0610485821962}
2019-04-03 18:19:30.19: SIM {TimeUS : 74815895, Roll : 0.0, Pitch : 0.0, Yaw : 353.0, Alt : 584.090026855, Lat : -35.363261, Lng : 149.1652299, Q1 : 0.998134791851, Q2 : 0.0, Q3 : 0.0, Q4 : -0.0610485821962}
2019-04-03 18:19:30.29: SIM {TimeUS : 74915855, Roll : 0.0, Pitch : 0.0, Yaw : 353.0, Alt : 584.090026855, Lat : -35.363261, Lng : 149.1652299, Q1 : 0.998134791851, Q2 : 0.0, Q3 : 0.0, Q4 : -0.0610485821962}
2019-04-03 18:19:30.39: SIM {TimeUS : 75015815, Roll : 0.0, Pitch : 0.0, Yaw : 353.0, Alt : 584.090026855, Lat : -35.363261, Lng : 149.1652299, Q1 : 0.998134791851, Q2 : 0.0, Q3 : 0.0, Q4 : -0.0610485821962}
2019-04-03 18:19:30.49: SIM {TimeUS : 75115775, Roll : 0.0, Pitch : 0.0, Yaw : 353.0, Alt : 584.090026855, Lat : -35.363261, Lng : 149.1652299, Q1 : 0.998134791851, Q2 : 0.0, Q3 : 0.0, Q4 : -0.0610485821962}
2019-04-03 18:19:30.59: SIM {TimeUS : 75215735, Roll : 0.0, Pitch : 0.0, Yaw : 353.0, Alt : 584.090026855, Lat : -35.363261, Lng : 149.1652299, Q1 : 0.998134791851, Q2 : 0.0, Q3 : 0.0, Q4 : -0.0610485821962}
2019-04-03 18:19:30.69: SIM {TimeUS : 75315695, Roll : 0.0, Pitch : 0.0, Yaw : 353.0, Alt : 584.090026855, Lat : -35.363261, Lng : 149.1652299, Q1 : 0.998134791851, Q2 : 0.0, Q3 : 0.0, Q4 : -0.0610485821962}
2019-04-03 18:19:30.80: SIM {TimeUS : 75416488, Roll : 0.0, Pitch : 0.0, Yaw : 353.0, Alt : 584.090026855, Lat : -35.363261, Lng : 149.1652299, Q1 : 0.998134791851, Q2 : 0.0, Q3 : 0.0, Q4 : -0.0610485821962}
2019-04-03 18:19:30.90: SIM {TimeUS : 75516448, Roll : 0.0, Pitch : 0.0, Yaw : 353.0, Alt : 584.090026855, Lat : -35.363261, Lng : 149.1652299, Q1 : 0.998134791851, Q2 : 0.0, Q3 : 0.0, Q4 : -0.0610485821962}
2019-04-03 18:19:31.00: SIM {TimeUS : 75616408, Roll : 0.0, Pitch : 0.0, Yaw : 353.0, Alt : 584.090026855, Lat : -35.363261, Lng : 149.1652299, Q1 : 0.998134791851, Q2 : 0.0, Q3 : 0.0, Q4 : -0.0610485821962}
2019-04-03 18:19:31.10: SIM {TimeUS : 75716368, Roll : 0.0, Pitch : 0.0, Yaw : 353.0, Alt : 584.090026855, Lat : -35.363261, Lng : 149.1652299, Q1 : 0.998134791851, Q2 : 0.0, Q3 : 0.0, Q4 : -0.0610485821962}
2019-04-03 18:19:31.20: SIM {TimeUS : 75816328, Roll : 0.0, Pitch : 0.0, Yaw : 353.0, Alt : 584.090026855, Lat : -35.363261, Lng : 149.1652299, Q1 : 0.998134791851, Q2 : 0.0, Q3 : 0.0, Q4 : -0.0610485821962}
2019-04-03 18:19:31.30: SIM {TimeUS : 75916288, Roll : 0.0, Pitch : 0.0, Yaw : 353.0, Alt : 584.090026855, Lat : -35.363261, Lng : 149.1652299, Q1 : 0.998134791851, Q2 : 0.0, Q3 : 0.0, Q4 : -0.0610485821962}
2019-04-03 18:19:31.40: SIM {TimeUS : 76016248, Roll : 0.0, Pitch : 0.0, Yaw : 353.0, Alt : 584.090026855, Lat : -35.363261, Lng : 149.1652299, Q1 : 0.998134791851, Q2 : 0.0, Q3 : 0.0, Q4 : -0.0610485821962}
2019-04-03 18:19:31.50: SIM {TimeUS : 76116208, Roll : 0.0, Pitch : 0.0, Yaw : 353.0, Alt : 584.090026855, Lat : -35.363261, Lng : 149.1652299, Q1 : 0.998134791851, Q2 : 0.0, Q3 : 0.0, Q4 : -0.0610485821962}
2019-04-03 18:19:31.60: SIM {TimeUS : 76216168, Roll : 0.0, Pitch : 0.0, Yaw : 353.0, Alt : 584.090026855, Lat : -35.363261, Lng : 149.1652299, Q1 : 0.998134791851, Q2 : 0.0, Q3 : 0.0, Q4 : -0.0610485821962}
2019-04-03 18:19:31.69: SIM {TimeUS : 76316128, Roll : 0.0, Pitch : 0.0, Yaw : 353.0, Alt : 584.090026855, Lat : -35.363261, Lng : 149.1652299, Q1 : 0.998134791851, Q2 : 0.0, Q3 : 0.0, Q4 : -0.0610485821962}
2019-04-03 18:19:31.79: SIM {TimeUS : 76416088, Roll : 0.0, Pitch : 0.0, Yaw : 353.0, Alt : 584.090026855, Lat : -35.363261, Lng : 149.1652299, Q1 : 0.998134791851, Q2 : 0.0, Q3 : 0.0, Q4 : -0.0610485821962}
2019-04-03 18:19:31.89: SIM {TimeUS : 76516048, Roll : 0.0, Pitch : 0.0, Yaw : 353.0, Alt : 584.090026855, Lat : -35.363261, Lng : 149.1652299, Q1 : 0.998134791851, Q2 : 0.0, Q3 : 0.0, Q4 : -0.0610485821962}
2019-04-03 18:19:31.99: SIM {TimeUS : 76616008, Roll : 0.0, Pitch : 0.0, Yaw : 353.0, Alt : 584.090026855, Lat : -35.363261, Lng : 149.1652299, Q1 : 0.998134791851, Q2 : 0.0, Q3 : 0.0, Q4 : -0.0610485821962}
2019-04-03 18:19:32.09: SIM {TimeUS : 76715968, Roll : 0.0, Pitch : 0.0, Yaw : 353.0, Alt : 584.090026855, Lat : -35.363261, Lng : 149.1652299, Q1 : 0.998134791851, Q2 : 0.0, Q3 : 0.0, Q4 : -0.0610485821962}
2019-04-03 18:19:32.19: SIM {TimeUS : 76815928, Roll : 0.0, Pitch : 0.0, Yaw : 353.0, Alt : 584.090026855, Lat : -35.363261, Lng : 149.1652299, Q1 : 0.998134791851, Q2 : 0.0, Q3 : 0.0, Q4 : -0.0610485821962}
2019-04-03 18:19:32.29: SIM {TimeUS : 76915888, Roll : 0.0, Pitch : 0.0, Yaw : 353.0, Alt : 584.090026855, Lat : -35.363261, Lng : 149.1652299, Q1 : 0.998134791851, Q2 : 0.0, Q3 : 0.0, Q4 : -0.0610485821962}
2019-04-03 18:19:32.39: SIM {TimeUS : 77015848, Roll : 0.0, Pitch : 0.0, Yaw : 353.0, Alt : 584.090026855, Lat : -35.363261, Lng : 149.1652299, Q1 : 0.998134791851, Q2 : 0.0, Q3 : 0.0, Q4 : -0.0610485821962}
2019-04-03 18:19:32.49: SIM {TimeUS : 77115808, Roll : 0.0, Pitch : 0.0, Yaw : 353.0, Alt : 584.090026855, Lat : -35.363261, Lng : 149.1652299, Q1 : 0.998134791851, Q2 : 0.0, Q3 : 0.0, Q4 : -0.0610485821962}
2019-04-03 18:19:32.59: SIM {TimeUS : 77215768, Roll : 0.0, Pitch : 0.0, Yaw : 353.0, Alt : 584.090026855, Lat : -35.363261, Lng : 149.1652299, Q1 : 0.998134791851, Q2 : 0.0, Q3 : 0.0, Q4 : -0.0610485821962}
2019-04-03 18:19:32.69: SIM {TimeUS : 77315728, Roll : 0.0, Pitch : 0.0, Yaw : 353.0, Alt : 584.090026855, Lat : -35.363261, Lng : 149.1652299, Q1 : 0.998134791851, Q2 : 0.0, Q3 : 0.0, Q4 : -0.0610485821962}
2019-04-03 18:19:32.79: SIM {TimeUS : 77415688, Roll : 0.0, Pitch : 0.0, Yaw : 353.0, Alt : 584.090026855, Lat : -35.363261, Lng : 149.1652299, Q1 : 0.998134791851, Q2 : 0.0, Q3 : 0.0, Q4 : -0.0610485821962}
2019-04-03 18:19:32.90: SIM {TimeUS : 77516481, Roll : 0.0, Pitch : 0.0, Yaw : 353.0, Alt : 584.090026855, Lat : -35.363261, Lng : 149.1652299, Q1 : 0.998134791851, Q2 : 0.0, Q3 : 0.0, Q4 : -0.0610485821962}
2019-04-03 18:19:33.00: SIM {TimeUS : 77616441, Roll : 0.0, Pitch : 0.0, Yaw : 353.0, Alt : 584.090026855, Lat : -35.363261, Lng : 149.1652299, Q1 : 0.998134791851, Q2 : 0.0, Q3 : 0.0, Q4 : -0.0610485821962}
2019-04-03 18:19:33.10: SIM {TimeUS : 77716401, Roll : 0.0, Pitch : 0.0, Yaw : 353.0, Alt : 584.090026855, Lat : -35.363261, Lng : 149.1652299, Q1 : 0.998134791851, Q2 : 0.0, Q3 : 0.0, Q4 : -0.0610485821962}
2019-04-03 18:19:33.20: SIM {TimeUS : 77816361, Roll : 0.0, Pitch : 0.0, Yaw : 353.0, Alt : 584.090026855, Lat : -35.363261, Lng : 149.1652299, Q1 : 0.998134791851, Q2 : 0.0, Q3 : 0.0, Q4 : -0.0610485821962}
2019-04-03 18:19:33.30: SIM {TimeUS : 77916321, Roll : 0.0, Pitch : 0.0, Yaw : 353.0, Alt : 584.090026855, Lat : -35.363261, Lng : 149.1652299, Q1 : 0.998134791851, Q2 : 0.0, Q3 : 0.0, Q4 : -0.0610485821962}
2019-04-03 18:19:33.40: SIM {TimeUS : 78016281, Roll : 0.0, Pitch : 0.0, Yaw : 353.0, Alt : 584.090026855, Lat : -35.363261, Lng : 149.1652299, Q1 : 0.998134791851, Q2 : 0.0, Q3 : 0.0, Q4 : -0.0610485821962}
2019-04-03 18:19:33.50: SIM {TimeUS : 78116241, Roll : 0.0, Pitch : 0.0, Yaw : 353.0, Alt : 584.090026855, Lat : -35.363261, Lng : 149.1652299, Q1 : 0.998134791851, Q2 : 0.0, Q3 : 0.0, Q4 : -0.0610485821962}
2019-04-03 18:19:33.60: SIM {TimeUS : 78216201, Roll : 0.0, Pitch : 0.0, Yaw : 353.0, Alt : 584.090026855, Lat : -35.363261, Lng : 149.1652299, Q1 : 0.998134791851, Q2 : 0.0, Q3 : 0.0, Q4 : -0.0610485821962}
2019-04-03 18:19:33.70: SIM {TimeUS : 78316161, Roll : 0.0, Pitch : 0.0, Yaw : 353.0, Alt : 584.090026855, Lat : -35.363261, Lng : 149.1652299, Q1 : 0.998134791851, Q2 : 0.0, Q3 : 0.0, Q4 : -0.0610486492515}
2019-04-03 18:19:33.79: SIM {TimeUS : 78416121, Roll : 0.0, Pitch : 0.0, Yaw : 353.0, Alt : 584.090026855, Lat : -35.363261, Lng : 149.1652299, Q1 : 0.998134791851, Q2 : 0.0, Q3 : 0.0, Q4 : -0.0610486753285}
2019-04-03 18:19:33.89: SIM {TimeUS : 78516081, Roll : 0.0, Pitch : 0.0, Yaw : 353.0, Alt : 584.090026855, Lat : -35.363261, Lng : 149.1652299, Q1 : 0.998134791851, Q2 : 0.0, Q3 : 0.0, Q4 : -0.0610486641526}
2019-04-03 18:19:33.99: SIM {TimeUS : 78616041, Roll : 0.0, Pitch : 0.0, Yaw : 353.0, Alt : 584.090026855, Lat : -35.363261, Lng : 149.1652299, Q1 : 0.998134791851, Q2 : 0.0, Q3 : 0.0, Q4 : -0.0610486753285}
2019-04-03 18:19:34.09: SIM {TimeUS : 78716001, Roll : 0.0, Pitch : 0.0, Yaw : 353.0, Alt : 584.090026855, Lat : -35.363261, Lng : 149.1652299, Q1 : 0.998134791851, Q2 : 0.0, Q3 : 0.0, Q4 : -0.0610486753285}
2019-04-03 18:19:34.19: SIM {TimeUS : 78815961, Roll : 0.0, Pitch : 0.0, Yaw : 353.0, Alt : 584.090026855, Lat : -35.363261, Lng : 149.1652299, Q1 : 0.998134791851, Q2 : 0.0, Q3 : 0.0, Q4 : -0.0610486753285}
2019-04-03 18:19:34.29: SIM {TimeUS : 78915921, Roll : 0.0, Pitch : 0.0, Yaw : 353.0, Alt : 584.090026855, Lat : -35.363261, Lng : 149.1652299, Q1 : 0.998134791851, Q2 : 0.0, Q3 : 0.0, Q4 : -0.0610486641526}
2019-04-03 18:19:34.39: SIM {TimeUS : 79015881, Roll : 0.0, Pitch : 0.0, Yaw : 353.0, Alt : 584.090026855, Lat : -35.363261, Lng : 149.1652299, Q1 : 0.998134791851, Q2 : 0.0, Q3 : 0.0, Q4 : -0.0610486753285}
2019-04-03 18:19:34.49: SIM {TimeUS : 79115841, Roll : 0.0, Pitch : 0.0, Yaw : 353.0, Alt : 584.099975586, Lat : -35.363261, Lng : 149.1652299, Q1 : 0.998134791851, Q2 : 0.0, Q3 : 0.0, Q4 : -0.0610486753285}
2019-04-03 18:19:34.59: SIM {TimeUS : 79215801, Roll : 0.0, Pitch : 0.0, Yaw : 353.0, Alt : 584.099975586, Lat : -35.363261, Lng : 149.1652299, Q1 : 0.998134791851, Q2 : 0.0, Q3 : 0.0, Q4 : -0.0610486753285}
2019-04-03 18:19:34.69: SIM {TimeUS : 79315761, Roll : 0.0, Pitch : 0.0, Yaw : 353.0, Alt : 584.109985352, Lat : -35.363261, Lng : 149.1652299, Q1 : 0.998134791851, Q2 : 0.0, Q3 : 0.0, Q4 : -0.0610486753285}
2019-04-03 18:19:34.79: SIM {TimeUS : 79415721, Roll : 0.0, Pitch : 0.0, Yaw : 353.0, Alt : 584.130004883, Lat : -35.363261, Lng : 149.1652299, Q1 : 0.998134791851, Q2 : 0.0, Q3 : 0.0, Q4 : -0.0610486753285}
2019-04-03 18:19:34.89: SIM {TimeUS : 79515681, Roll : 0.0, Pitch : 0.0, Yaw : 353.0, Alt : 584.150024414, Lat : -35.363261, Lng : 149.1652299, Q1 : 0.998134791851, Q2 : 0.0, Q3 : 0.0, Q4 : -0.0610486753285}
2019-04-03 18:19:35.00: SIM {TimeUS : 79616474, Roll : 0.0, Pitch : 0.0, Yaw : 353.0, Alt : 584.190002441, Lat : -35.363261, Lng : 149.1652299, Q1 : 0.998134791851, Q2 : 0.0, Q3 : 0.0, Q4 : -0.0610485970974}
2019-04-03 18:19:35.10: SIM {TimeUS : 79716434, Roll : 0.0, Pitch : 0.0, Yaw : 352.99, Alt : 584.229980469, Lat : -35.363261, Lng : 149.1652299, Q1 : 0.998134672642, Q2 : -5.73828219785e-05, Q3 : -6.06343055551e-05, Q4 : -0.0610506571829}
2019-04-03 18:19:35.20: SIM {TimeUS : 79816394, Roll : -0.07, Pitch : -0.04, Yaw : 352.99, Alt : 584.309997559, Lat : -35.363261, Lng : 149.1652299, Q1 : 0.998133480549, Q2 : -0.000664185441565, Q3 : -0.000316923658829, Q4 : -0.0610656067729}
2019-04-03 18:19:35.30: SIM {TimeUS : 79916354, Roll : -0.18, Pitch : -0.08, Yaw : 352.99, Alt : 584.440002441, Lat : -35.363261, Lng : 149.1652299, Q1 : 0.998130738735, Q2 : -0.00166388682555, Q3 : -0.00067248439882, Q4 : -0.0610883012414}
2019-04-03 18:19:35.40: SIM {TimeUS : 80016314, Roll : -0.27, Pitch : -0.13, Yaw : 352.99, Alt : 584.590026855, Lat : -35.363261, Lng : 149.1652299, Q1 : 0.998126685619, Q2 : -0.00246775592677, Q3 : -0.00103791709989, Q4 : -0.0611234344542}
2019-04-03 18:19:35.50: SIM {TimeUS : 80116274, Roll : -0.3, Pitch : -0.15, Yaw : 352.98, Alt : 584.75, Lat : -35.363261, Lng : 149.1652299, Q1 : 0.998123526573, Q2 : -0.00269627920352, Q3 : -0.00118613545783, Q4 : -0.0611610598862}
2019-04-03 18:19:35.60: SIM {TimeUS : 80216234, Roll : -0.26, Pitch : -0.14, Yaw : 352.98, Alt : 584.900024414, Lat : -35.363261, Lng : 149.1652299, Q1 : 0.99812245369, Q2 : -0.00237512378953, Q3 : -0.0011475586798, Q4 : -0.0611928999424}
2019-04-03 18:19:35.70: SIM {TimeUS : 80316194, Roll : -0.18, Pitch : -0.12, Yaw : 352.98, Alt : 585.059997559, Lat : -35.363261, Lng : 149.1652299, Q1 : 0.998122274876, Q2 : -0.00169704365544, Q3 : -0.00100215210114, Q4 : -0.0612210333347}
2019-04-03 18:19:35.80: SIM {TimeUS : 80416154, Roll : -0.12, Pitch : -0.1, Yaw : 352.97, Alt : 585.210021973, Lat : -35.363261, Lng : 149.1652299, Q1 : 0.998121798038, Q2 : -0.00117365980987, Q3 : -0.000833984115161, Q4 : -0.0612442344427}
2019-04-03 18:19:35.89: SIM {TimeUS : 80516114, Roll : -0.07, Pitch : -0.09, Yaw : 352.97, Alt : 585.369995117, Lat : -35.363261, Lng : 149.1652299, Q1 : 0.998121261597, Q2 : -0.000674760958645, Q3 : -0.000817191903479, Q4 : -0.0612608008087}
2019-04-03 18:19:35.99: SIM {TimeUS : 80616074, Roll : -0.03, Pitch : -0.07, Yaw : 352.97, Alt : 585.539978027, Lat : -35.363261, Lng : 149.1652298, Q1 : 0.998120844364, Q2 : -0.00031849151128, Q3 : -0.000661009107716, Q4 : -0.0612720251083}
2019-04-03 18:19:36.09: SIM {TimeUS : 80716034, Roll : 0.0, Pitch : -0.05, Yaw : 352.97, Alt : 585.719970703, Lat : -35.363261, Lng : 149.1652298, Q1 : 0.998120605946, Q2 : -6.55408002785e-05, Q3 : -0.000448684673756, Q4 : -0.0612783171237}
2019-04-03 18:19:36.19: SIM {TimeUS : 80815994, Roll : 0.0, Pitch : -0.05, Yaw : 352.97, Alt : 585.900024414, Lat : -35.363261, Lng : 149.1652298, Q1 : 0.998121023178, Q2 : 7.14427733328e-06, Q3 : -0.000456317793578, Q4 : -0.0612714625895}
2019-04-03 18:19:36.29: SIM {TimeUS : 80915954, Roll : 0.0, Pitch : -0.05, Yaw : 352.97, Alt : 586.08001709, Lat : -35.3632609, Lng : 149.1652298, Q1 : 0.998121976852, Q2 : -1.01233754322e-05, Q3 : -0.000439754192485, Q4 : -0.0612563826144}
2019-04-03 18:19:36.39: SIM {TimeUS : 81015914, Roll : 0.0, Pitch : -0.02, Yaw : 352.97, Alt : 586.270019531, Lat : -35.3632609, Lng : 149.1652298, Q1 : 0.998122572899, Q2 : -4.52137146567e-06, Q3 : -0.000205291202292, Q4 : -0.0612477473915}
2019-04-03 18:19:36.49: SIM {TimeUS : 81115874, Roll : 0.01, Pitch : 0.0, Yaw : 352.97, Alt : 586.460021973, Lat : -35.3632609, Lng : 149.1652298, Q1 : 0.998122870922, Q2 : 0.000122031626233, Q3 : 3.06868641928e-05, Q4 : -0.0612434744835}
2019-04-03 18:19:36.59: SIM {TimeUS : 81215834, Roll : 0.01, Pitch : 0.03, Yaw : 352.97, Alt : 586.659973145, Lat : -35.3632609, Lng : 149.1652298, Q1 : 0.998123168945, Q2 : 0.00016408166266, Q3 : 0.000255806808127, Q4 : -0.0612371563911}
2019-04-03 18:19:36.69: SIM {TimeUS : 81315794, Roll : 0.01, Pitch : 0.04, Yaw : 352.97, Alt : 586.849975586, Lat : -35.3632609, Lng : 149.1652298, Q1 : 0.998123764992, Q2 : 0.000149589861394, Q3 : 0.000413276604377, Q4 : -0.0612273700535}
2019-04-03 18:19:36.79: SIM {TimeUS : 81415754, Roll : 0.03, Pitch : 0.03, Yaw : 352.98, Alt : 587.049987793, Lat : -35.3632609, Lng : 149.1652298, Q1 : 0.99812412262, Q2 : 0.000294814904919, Q3 : 0.0002898145176, Q4 : -0.0612214580178}
2019-04-03 18:19:36.89: SIM {TimeUS : 81515714, Roll : 0.04, Pitch : 0.01, Yaw : 352.97, Alt : 587.25, Lat : -35.3632609, Lng : 149.1652298, Q1 : 0.998123943806, Q2 : 0.000431193067925, Q3 : 6.19874117547e-05, Q4 : -0.0612243227661}
2019-04-03 18:19:36.99: SIM {TimeUS : 81615674, Roll : 0.05, Pitch : 0.0, Yaw : 352.97, Alt : 587.460021973, Lat : -35.3632608, Lng : 149.1652298, Q1 : 0.998123049736, Q2 : 0.000498212059028, Q3 : 1.27119619719e-05, Q4 : -0.0612382404506}
2019-04-03 18:19:37.10: SIM {TimeUS : 81716467, Roll : 0.05, Pitch : 0.01, Yaw : 352.97, Alt : 587.66998291, Lat : -35.3632608, Lng : 149.1652298, Q1 : 0.998121917248, Q2 : 0.000511001329869, Q3 : 6.43909224891e-05, Q4 : -0.0612566545606}
2019-04-03 18:19:37.20: SIM {TimeUS : 81816427, Roll : 0.04, Pitch : 0.02, Yaw : 352.97, Alt : 587.869995117, Lat : -35.3632608, Lng : 149.1652297, Q1 : 0.998120486736, Q2 : 0.000377715652576, Q3 : 0.000197130313609, Q4 : -0.061280246824}
2019-04-03 18:19:37.30: SIM {TimeUS : 81916387, Roll : 0.03, Pitch : 0.02, Yaw : 352.97, Alt : 588.08001709, Lat : -35.3632608, Lng : 149.1652297, Q1 : 0.998119294643, Q2 : 0.000327758665662, Q3 : 0.000228287986829, Q4 : -0.0613008737564}
2019-04-03 18:19:37.40: SIM {TimeUS : 82016347, Roll : 0.0, Pitch : 0.0, Yaw : 352.96, Alt : 588.289978027, Lat : -35.3632608, Lng : 149.1652297, Q1 : 0.998117923737, Q2 : 5.98722253926e-05, Q3 : 7.54839347792e-05, Q4 : -0.061324223876}
2019-04-03 18:19:37.50: SIM {TimeUS : 82116307, Roll : -0.02, Pitch : 0.0, Yaw : 352.96, Alt : 588.5, Lat : -35.3632608, Lng : 149.1652297, Q1 : 0.998116374016, Q2 : -0.000203470786801, Q3 : -7.04195626895e-05, Q4 : -0.0613484755158}
2019-04-03 18:19:37.60: SIM {TimeUS : 82216267, Roll : -0.04, Pitch : 0.0, Yaw : 352.96, Alt : 588.719970703, Lat : -35.3632608, Lng : 149.1652297, Q1 : 0.998114585876, Q2 : -0.000419362622779, Q3 : -3.10287432512e-05, Q4 : -0.0613768473268}
2019-04-03 18:19:37.70: SIM {TimeUS : 82316227, Roll : -0.04, Pitch : 0.0, Yaw : 352.95, Alt : 588.929992676, Lat : -35.3632608, Lng : 149.1652297, Q1 : 0.998113274574, Q2 : -0.000405835482525, Q3 : 2.39777073148e-05, Q4 : -0.0613988116384}
2019-04-03 18:19:37.80: SIM {TimeUS : 82416187, Roll : -0.04, Pitch : 0.01, Yaw : 352.95, Alt : 589.140014648, Lat : -35.3632608, Lng : 149.1652297, Q1 : 0.998112142086, Q2 : -0.000351312599378, Q3 : 0.000139536015922, Q4 : -0.0614168159664}
2019-04-03 18:19:37.90: SIM {TimeUS : 82516147, Roll : -0.02, Pitch : 0.01, Yaw : 352.95, Alt : 589.359985352, Lat : -35.3632608, Lng : 149.1652297, Q1 : 0.998111367226, Q2 : -0.000246041716309, Q3 : 0.000156306574354, Q4 : -0.0614303722978}
2019-04-03 18:19:37.99: SIM {TimeUS : 82616107, Roll : -0.02, Pitch : 0.0, Yaw : 352.95, Alt : 589.58001709, Lat : -35.3632608, Lng : 149.1652297, Q1 : 0.998110949993, Q2 : -0.000226893942454, Q3 : -2.13752282434e-05, Q4 : -0.0614367499948}
2019-04-03 18:19:38.09: SIM {TimeUS : 82716067, Roll : -0.03, Pitch : -0.03, Yaw : 352.95, Alt : 589.799987793, Lat : -35.3632607, Lng : 149.1652297, Q1 : 0.998110413551, Q2 : -0.000289091578452, Q3 : -0.000260803208221, Q4 : -0.0614449419081}
2019-04-03 18:19:38.19: SIM {TimeUS : 82816027, Roll : -0.06, Pitch : -0.06, Yaw : 352.95, Alt : 590.020019531, Lat : -35.3632607, Lng : 149.1652297, Q1 : 0.998109102249, Q2 : -0.000593464763369, Q3 : -0.000500068941619, Q4 : -0.0614625178277}
2019-04-03 18:19:38.29: SIM {TimeUS : 82915987, Roll : -0.08, Pitch : -0.05, Yaw : 352.94, Alt : 590.239990234, Lat : -35.3632607, Lng : 149.1652297, Q1 : 0.998107612133, Q2 : -0.000761958537623, Q3 : -0.000459051399957, Q4 : -0.0614855214953}
2019-04-03 18:19:38.39: SIM {TimeUS : 83015947, Roll : -0.07, Pitch : -0.03, Yaw : 352.94, Alt : 590.460021973, Lat : -35.3632607, Lng : 149.1652296, Q1 : 0.998105883598, Q2 : -0.000673823757097, Q3 : -0.00027722743107, Q4 : -0.0615153387189}
2019-04-03 18:19:38.49: SIM {TimeUS : 83115907, Roll : -0.05, Pitch : -0.02, Yaw : 352.94, Alt : 590.679992676, Lat : -35.3632607, Lng : 149.1652296, Q1 : 0.998104035854, Q2 : -0.000518897839356, Q3 : -0.000159760311362, Q4 : -0.0615474805236}
2019-04-03 18:19:38.59: SIM {TimeUS : 83215867, Roll : -0.05, Pitch : -0.04, Yaw : 352.93, Alt : 590.900024414, Lat : -35.3632607, Lng : 149.1652296, Q1 : 0.99810218811, Q2 : -0.000508746306878, Q3 : -0.000346523942426, Q4 : -0.0615769065917}
2019-04-03 18:19:38.69: SIM {TimeUS : 83315827, Roll : -0.07, Pitch : -0.07, Yaw : 352.93, Alt : 591.119995117, Lat : -35.3632607, Lng : 149.1652296, Q1 : 0.99809974432, Q2 : -0.000709536019713, Q3 : -0.000585511268582, Q4 : -0.0616130009294}
2019-04-03 18:19:38.79: SIM {TimeUS : 83415787, Roll : -0.08, Pitch : -0.09, Yaw : 352.93, Alt : 591.349975586, Lat : -35.3632607, Lng : 149.1652296, Q1 : 0.998097836971, Q2 : -0.000796637788881, Q3 : -0.000814938393887, Q4 : -0.061640188098}
2019-04-03 18:19:38.89: SIM {TimeUS : 83515747, Roll : -0.06, Pitch : -0.11, Yaw : 352.92, Alt : 591.570007324, Lat : -35.3632607, Lng : 149.1652296, Q1 : 0.998096287251, Q2 : -0.000635567645077, Q3 : -0.000922691600863, Q4 : -0.061665661633}
2019-04-03 18:19:38.99: SIM {TimeUS : 83615707, Roll : -0.03, Pitch : -0.09, Yaw : 352.92, Alt : 591.799987793, Lat : -35.3632607, Lng : 149.1652294, Q1 : 0.998094499111, Q2 : -0.000338738958817, Q3 : -0.000806526688393, Q4 : -0.0616986490786}
2019-04-03 18:19:39.09: SIM {TimeUS : 83715667, Roll : 0.0, Pitch : -0.07, Yaw : 352.92, Alt : 592.020019531, Lat : -35.3632607, Lng : 149.1652294, Q1 : 0.998092651367, Q2 : 5.2763457461e-06, Q3 : -0.000666390522383, Q4 : -0.0617305934429}
2019-04-03 18:19:39.20: SIM {TimeUS : 83816460, Roll : 0.01, Pitch : -0.06, Yaw : 352.91, Alt : 592.25, Lat : -35.3632605, Lng : 149.1652294, Q1 : 0.998091101646, Q2 : 0.000123104939121, Q3 : -0.00056596432114, Q4 : -0.0617563910782}
2019-04-03 18:19:39.30: SIM {TimeUS : 83916420, Roll : 0.02, Pitch : -0.04, Yaw : 352.91, Alt : 592.479980469, Lat : -35.3632605, Lng : 149.1652294, Q1 : 0.998089373112, Q2 : 0.000226384945563, Q3 : -0.000422318262281, Q4 : -0.0617848262191}
2019-04-03 18:19:39.40: SIM {TimeUS : 84016380, Roll : 0.03, Pitch : -0.03, Yaw : 352.91, Alt : 592.700012207, Lat : -35.3632605, Lng : 149.1652293, Q1 : 0.998087644577, Q2 : 0.000293357821647, Q3 : -0.000280946900602, Q4 : -0.0618134327233}
2019-04-03 18:19:39.50: SIM {TimeUS : 84116340, Roll : 0.03, Pitch : -0.01, Yaw : 352.9, Alt : 592.929992676, Lat : -35.3632605, Lng : 149.1652293, Q1 : 0.998085796833, Q2 : 0.000328239664668, Q3 : -0.000129220250528, Q4 : -0.0618432685733}
2019-04-03 18:19:39.60: SIM {TimeUS : 84216300, Roll : 0.04, Pitch : -0.01, Yaw : 352.9, Alt : 593.159973145, Lat : -35.3632605, Lng : 149.1652293, Q1 : 0.99808382988, Q2 : 0.000361270620488, Q3 : -0.000123412450193, Q4 : -0.0618754699826}
2019-04-03 18:19:39.70: SIM {TimeUS : 84316260, Roll : 0.03, Pitch : -0.02, Yaw : 352.9, Alt : 593.390014648, Lat : -35.3632605, Lng : 149.1652293, Q1 : 0.998082101345, Q2 : 0.000316309684422, Q3 : -0.000255484541412, Q4 : -0.0619031041861}
2019-04-03 18:19:39.80: SIM {TimeUS : 84416220, Roll : 0.0, Pitch : -0.04, Yaw : 352.89, Alt : 593.609985352, Lat : -35.3632605, Lng : 149.1652293, Q1 : 0.99808049202, Q2 : -8.80334573594e-06, Q3 : -0.00041772579425, Q4 : -0.0619292631745}
2019-04-03 18:19:39.90: SIM {TimeUS : 84516180, Roll : -0.02, Pitch : -0.03, Yaw : 352.89, Alt : 593.840026855, Lat : -35.3632605, Lng : 149.1652293, Q1 : 0.998078763485, Q2 : -0.000257153937127, Q3 : -0.000273017823929, Q4 : -0.0619570501149}
2019-04-03 18:19:40.00: SIM {TimeUS : 84616140, Roll : -0.03, Pitch : 0.0, Yaw : 352.89, Alt : 594.070007324, Lat : -35.3632605, Lng : 149.1652293, Q1 : 0.998077094555, Q2 : -0.000290478172246, Q3 : 3.96950599679e-05, Q4 : -0.061983641237}
2019-04-03 18:19:40.09: SIM {TimeUS : 84716100, Roll : -0.02, Pitch : 0.04, Yaw : 352.89, Alt : 594.299987793, Lat : -35.3632604, Lng : 149.1652293, Q1 : 0.998075723648, Q2 : -0.00018147737137, Q3 : 0.000373096670955, Q4 : -0.0620055086911}
2019-04-03 18:19:40.19: SIM {TimeUS : 84816060, Roll : 0.01, Pitch : 0.07, Yaw : 352.88, Alt : 594.530029297, Lat : -35.3632604, Lng : 149.1652293, Q1 : 0.998074054718, Q2 : 0.000158484617714, Q3 : 0.000660594203509, Q4 : -0.0620304457843}
2019-04-03 18:19:40.29: SIM {TimeUS : 84916020, Roll : 0.06, Pitch : 0.08, Yaw : 352.88, Alt : 594.760009766, Lat : -35.3632604, Lng : 149.1652293, Q1 : 0.998071730137, Q2 : 0.000645801890641, Q3 : 0.000723462202586, Q4 : -0.0620634220541}
2019-04-03 18:19:40.39: SIM {TimeUS : 85015980, Roll : 0.11, Pitch : 0.07, Yaw : 352.87, Alt : 594.989990234, Lat : -35.3632604, Lng : 149.1652293, Q1 : 0.998069286346, Q2 : 0.00105546892155, Q3 : 0.000557483930606, Q4 : -0.0620991513133}
2019-04-03 18:19:40.49: SIM {TimeUS : 85115940, Roll : 0.13, Pitch : 0.05, Yaw : 352.87, Alt : 595.219970703, Lat : -35.3632604, Lng : 149.1652293, Q1 : 0.998066723347, Q2 : 0.00119096389972, Q3 : 0.000404394580983, Q4 : -0.0621388964355}
2019-04-03 18:19:40.59: SIM {TimeUS : 85215900, Roll : 0.1, Pitch : 0.03, Yaw : 352.87, Alt : 595.450012207, Lat : -35.3632604, Lng : 149.1652293, Q1 : 0.998065233231, Q2 : 0.000950213579927, Q3 : 0.000280014326563, Q4 : -0.0621673204005}
2019-04-03 18:19:40.69: SIM {TimeUS : 85315860, Roll : 0.05, Pitch : 0.03, Yaw : 352.86, Alt : 595.679992676, Lat : -35.3632604, Lng : 149.1652293, Q1 : 0.998064160347, Q2 : 0.000536920910235, Q3 : 0.000286520342343, Q4 : -0.0621899813414}
2019-04-03 18:19:40.79: SIM {TimeUS : 85415820, Roll : 0.01, Pitch : 0.04, Yaw : 352.86, Alt : 595.91998291, Lat : -35.3632604, Lng : 149.1652293, Q1 : 0.99806278944, Q2 : 0.000191402519704, Q3 : 0.000413886591559, Q4 : -0.0622134432197}
2019-04-03 18:19:40.89: SIM {TimeUS : 85515780, Roll : 0.0, Pitch : 0.07, Yaw : 352.86, Alt : 596.150024414, Lat : -35.3632604, Lng : 149.1652293, Q1 : 0.998061418533, Q2 : 7.0614318247e-05, Q3 : 0.000618762278464, Q4 : -0.0622333176434}
2019-04-03 18:19:40.99: SIM {TimeUS : 85615740, Roll : -0.01, Pitch : 0.09, Yaw : 352.86, Alt : 596.380004883, Lat : -35.3632604, Lng : 149.1652293, Q1 : 0.998059868813, Q2 : -4.6138149628e-05, Q3 : 0.000869953131769, Q4 : -0.0622553415596}
2019-04-03 18:19:41.09: SIM {TimeUS : 85715700, Roll : -0.02, Pitch : 0.12, Yaw : 352.85, Alt : 596.609985352, Lat : -35.3632604, Lng : 149.1652293, Q1 : 0.998057842255, Q2 : -0.00012692665041, Q3 : 0.00113333703484, Q4 : -0.0622835047543}
2019-04-03 18:19:41.19: SIM {TimeUS : 85815660, Roll : -0.02, Pitch : 0.13, Yaw : 352.85, Alt : 596.849975586, Lat : -35.3632604, Lng : 149.1652293, Q1 : 0.998055815697, Q2 : -0.000104289276351, Q3 : 0.00119639548939, Q4 : -0.062315043062}
2019-04-03 18:19:41.30: SIM {TimeUS : 85916453, Roll : -0.01, Pitch : 0.09, Yaw : 352.85, Alt : 597.08001709, Lat : -35.3632604, Lng : 149.1652293, Q1 : 0.998054802418, Q2 : -8.26753384899e-05, Q3 : 0.000816307379864, Q4 : -0.0623369887471}
2019-04-03 18:19:41.40: SIM {TimeUS : 86016413, Roll : -0.02, Pitch : 0.03, Yaw : 352.84, Alt : 597.309997559, Lat : -35.3632604, Lng : 149.1652293, Q1 : 0.998053491116, Q2 : -0.000203335410333, Q3 : 0.00030003770371, Q4 : -0.0623633340001}
2019-04-03 18:19:41.50: SIM {TimeUS : 86116373, Roll : -0.04, Pitch : 0.01, Yaw : 352.84, Alt : 597.549987793, Lat : -35.3632604, Lng : 149.1652293, Q1 : 0.998052179813, Q2 : -0.000370768073481, Q3 : 0.000115088972962, Q4 : -0.062383711338}
2019-04-03 18:19:41.60: SIM {TimeUS : 86216333, Roll : -0.05, Pitch : 0.01, Yaw : 352.84, Alt : 597.780029297, Lat : -35.3632604, Lng : 149.1652293, Q1 : 0.998051047325, Q2 : -0.000493011029903, Q3 : 0.000178420828888, Q4 : -0.0624006167054}
2019-04-03 18:19:41.70: SIM {TimeUS : 86316293, Roll : -0.06, Pitch : 0.04, Yaw : 352.84, Alt : 598.010009766, Lat : -35.3632604, Lng : 149.1652293, Q1 : 0.998049974442, Q2 : -0.000567139999475, Q3 : 0.000421497708885, Q4 : -0.0624161139131}
2019-04-03 18:19:41.80: SIM {TimeUS : 86416253, Roll : -0.09, Pitch : 0.06, Yaw : 352.84, Alt : 598.239990234, Lat : -35.3632604, Lng : 149.1652293, Q1 : 0.998048484325, Q2 : -0.000775734311901, Q3 : 0.000605344714131, Q4 : -0.0624369569123}
2019-04-03 18:19:41.90: SIM {TimeUS : 86516213, Roll : -0.11, Pitch : 0.07, Yaw : 352.83, Alt : 598.479980469, Lat : -35.3632604, Lng : 149.1652293, Q1 : 0.998046696186, Q2 : -0.000956857693382, Q3 : 0.000686695449986, Q4 : -0.0624613650143}
2019-04-03 18:19:42.00: SIM {TimeUS : 86616173, Roll : -0.1, Pitch : 0.07, Yaw : 352.83, Alt : 598.710021973, Lat : -35.3632604, Lng : 149.1652293, Q1 : 0.998045146465, Q2 : -0.000895469333045, Q3 : 0.000741676136386, Q4 : -0.0624860934913}
2019-04-03 18:19:42.09: SIM {TimeUS : 86716133, Roll : -0.07, Pitch : 0.08, Yaw : 352.83, Alt : 598.940002441, Lat : -35.3632604, Lng : 149.1652293, Q1 : 0.998043119907, Q2 : -0.000636173703242, Q3 : 0.000748978753109, Q4 : -0.062521673739}
2019-04-03 18:19:42.19: SIM {TimeUS : 86816093, Roll : -0.03, Pitch : 0.08, Yaw : 352.82, Alt : 599.179992676, Lat : -35.3632604, Lng : 149.1652293, Q1 : 0.99804097414, Q2 : -0.00026661233278, Q3 : 0.000716462323908, Q4 : -0.0625593215227}
2019-04-03 18:19:42.29: SIM {TimeUS : 86916053, Roll : 0.0, Pitch : 0.07, Yaw : 352.82, Alt : 599.409973145, Lat : -35.3632604, Lng : 149.1652293, Q1 : 0.998038589954, Q2 : 0.000128386716824, Q3 : 0.000686314480845, Q4 : -0.0625976398587}
2019-04-03 18:19:42.39: SIM {TimeUS : 87016013, Roll : 0.05, Pitch : 0.05, Yaw : 352.81, Alt : 599.640014648, Lat : -35.3632604, Lng : 149.1652293, Q1 : 0.998036205769, Q2 : 0.000510134792421, Q3 : 0.000427914550528, Q4 : -0.0626363903284}
2019-04-03 18:19:42.49: SIM {TimeUS : 87115973, Roll : 0.09, Pitch : 0.04, Yaw : 352.81, Alt : 599.869995117, Lat : -35.3632605, Lng : 149.1652293, Q1 : 0.998033702374, Q2 : 0.000859118648805, Q3 : 0.000308324670186, Q4 : -0.0626736059785}
2019-04-03 18:19:42.59: SIM {TimeUS : 87215933, Roll : 0.11, Pitch : 0.05, Yaw : 352.8, Alt : 600.099975586, Lat : -35.3632605, Lng : 149.1652293, Q1 : 0.998031318188, Q2 : 0.000994887435809, Q3 : 0.000424200668931, Q4 : -0.0627083182335}
2019-04-03 18:19:42.69: SIM {TimeUS : 87315893, Roll : 0.09, Pitch : 0.08, Yaw : 352.8, Alt : 600.320007324, Lat : -35.3632605, Lng : 149.1652293, Q1 : 0.998029232025, Q2 : 0.000885714078322, Q3 : 0.000665390514769, Q4 : -0.062740534544}
2019-04-03 18:19:42.79: SIM {TimeUS : 87415853, Roll : 0.06, Pitch : 0.11, Yaw : 352.8, Alt : 600.539978027, Lat : -35.3632605, Lng : 149.1652293, Q1 : 0.998027563095, Q2 : 0.000604120781645, Q3 : 0.000935380638111, Q4 : -0.0627672672272}
2019-04-03 18:19:42.89: SIM {TimeUS : 87515813, Roll : 0.01, Pitch : 0.12, Yaw : 352.79, Alt : 600.75, Lat : -35.3632605, Lng : 149.1652293, Q1 : 0.99802583456, Q2 : 0.000194800581085, Q3 : 0.00110234436579, Q4 : -0.0627947971225}
2019-04-03 18:19:42.99: SIM {TimeUS : 87615773, Roll : -0.01, Pitch : 0.11, Yaw : 352.79, Alt : 600.960021973, Lat : -35.3632605, Lng : 149.1652293, Q1 : 0.998024106026, Q2 : -8.00946145318e-05, Q3 : 0.00104586302768, Q4 : -0.0628234967589}
2019-04-03 18:19:43.09: SIM {TimeUS : 87715733, Roll : -0.02, Pitch : 0.09, Yaw : 352.79, Alt : 601.159973145, Lat : -35.3632605, Lng : 149.1652293, Q1 : 0.998022794724, Q2 : -0.000144373436342, Q3 : 0.000847455114126, Q4 : -0.0628472268581}
2019-04-03 18:19:43.19: SIM {TimeUS : 87815693, Roll : -0.01, Pitch : 0.05, Yaw : 352.79, Alt : 601.349975586, Lat : -35.3632605, Lng : 149.1652293, Q1 : 0.998021781445, Q2 : -0.000140622199979, Q3 : 0.000515568361152, Q4 : -0.0628668144345}
2019-04-03 18:19:43.30: SIM {TimeUS : 87916486, Roll : -0.02, Pitch : 0.02, Yaw : 352.78, Alt : 601.530029297, Lat : -35.3632605, Lng : 149.1652293, Q1 : 0.998020887375, Q2 : -0.000186342425877, Q3 : 0.000232658407185, Q4 : -0.0628828108311}
2019-04-03 18:19:43.40: SIM {TimeUS : 88016446, Roll : -0.03, Pitch : 0.0, Yaw : 352.78, Alt : 601.700012207, Lat : -35.3632605, Lng : 149.1652293, Q1 : 0.998019993305, Q2 : -0.000289419374894, Q3 : 8.40721550048e-05, Q4 : -0.0628968626261}
2019-04-03 18:19:43.50: SIM {TimeUS : 88116406, Roll : -0.01, Pitch : -0.01, Yaw : 352.78, Alt : 601.849975586, Lat : -35.3632607, Lng : 149.1652293, Q1 : 0.998018801212, Q2 : -0.000148780003656, Q3 : -0.00011189707584, Q4 : -0.0629163980484}
2019-04-03 18:19:43.60: SIM {TimeUS : 88216366, Roll : 0.0, Pitch : -0.04, Yaw : 352.78, Alt : 602.0, Lat : -35.3632607, Lng : 149.1652293, Q1 : 0.998017191887, Q2 : 2.54520928138e-05, Q3 : -0.000368769920897, Q4 : -0.0629417598248}
2019-04-03 18:19:43.70: SIM {TimeUS : 88316326, Roll : 0.01, Pitch : -0.05, Yaw : 352.77, Alt : 602.140014648, Lat : -35.3632607, Lng : 149.1652293, Q1 : 0.998015165329, Q2 : 6.15232056589e-05, Q3 : -0.000518027809449, Q4 : -0.0629717335105}
2019-04-03 18:19:43.80: SIM {TimeUS : 88416286, Roll : 0.01, Pitch : -0.06, Yaw : 352.77, Alt : 602.260009766, Lat : -35.3632607, Lng : 149.1652293, Q1 : 0.998013198376, Q2 : 0.000127095190692, Q3 : -0.000590538722463, Q4 : -0.0630024671555}
2019-04-03 18:19:43.90: SIM {TimeUS : 88516246, Roll : 0.02, Pitch : -0.06, Yaw : 352.77, Alt : 602.369995117, Lat : -35.3632607, Lng : 149.1652293, Q1 : 0.998011231422, Q2 : 0.000184642689419, Q3 : -0.000538704509381, Q4 : -0.0630344226956}
2019-04-03 18:19:44.00: SIM {TimeUS : 88616206, Roll : 0.03, Pitch : -0.04, Yaw : 352.76, Alt : 602.460021973, Lat : -35.3632607, Lng : 149.1652293, Q1 : 0.998009264469, Q2 : 0.000243163187406, Q3 : -0.000423949299147, Q4 : -0.063065610826}
2019-04-03 18:19:44.10: SIM {TimeUS : 88716166, Roll : 0.04, Pitch : -0.03, Yaw : 352.76, Alt : 602.549987793, Lat : -35.3632607, Lng : 149.1652293, Q1 : 0.998007237911, Q2 : 0.000340777187375, Q3 : -0.000362310587661, Q4 : -0.0630975365639}
2019-04-03 18:19:44.19: SIM {TimeUS : 88816126, Roll : 0.04, Pitch : -0.04, Yaw : 352.76, Alt : 602.619995117, Lat : -35.3632607, Lng : 149.1652293, Q1 : 0.998005211353, Q2 : 0.000361046317266, Q3 : -0.000377367628971, Q4 : -0.0631296411157}
2019-04-03 18:19:44.29: SIM {TimeUS : 88916086, Roll : 0.04, Pitch : -0.02, Yaw : 352.75, Alt : 602.690002441, Lat : -35.3632607, Lng : 149.1652293, Q1 : 0.998003542423, Q2 : 0.000340359663824, Q3 : -0.000279379310086, Q4 : -0.063156247139}
2019-04-03 18:19:44.39: SIM {TimeUS : 89016046, Roll : 0.01, Pitch : -0.02, Yaw : 352.75, Alt : 602.739990234, Lat : -35.3632607, Lng : 149.1652293, Q1 : 0.998001754284, Q2 : 0.000145703117596, Q3 : -0.000221572961891, Q4 : -0.0631865337491}
2019-04-03 18:19:44.49: SIM {TimeUS : 89116006, Roll : -0.01, Pitch : -0.03, Yaw : 352.75, Alt : 602.789978027, Lat : -35.3632607, Lng : 149.1652293, Q1 : 0.997999668121, Q2 : -0.000107113351987, Q3 : -0.000276808568742, Q4 : -0.0632186383009}
2019-04-03 18:19:44.59: SIM {TimeUS : 89215966, Roll : -0.02, Pitch : -0.05, Yaw : 352.74, Alt : 602.83001709, Lat : -35.3632607, Lng : 149.1652293, Q1 : 0.99799734354, Q2 : -0.000278062187135, Q3 : -0.000461813586298, Q4 : -0.0632536411285}
2019-04-03 18:19:44.69: SIM {TimeUS : 89315926, Roll : -0.03, Pitch : -0.11, Yaw : 352.74, Alt : 602.869995117, Lat : -35.3632608, Lng : 149.1652293, Q1 : 0.997994959354, Q2 : -0.000399849697715, Q3 : -0.00100790720899, Q4 : -0.0632846355438}
2019-04-03 18:19:44.79: SIM {TimeUS : 89415886, Roll : -0.04, Pitch : -0.32, Yaw : 352.73, Alt : 602.900024414, Lat : -35.3632608, Lng : 149.1652293, Q1 : 0.99798899889, Q2 : -0.000535150058568, Q3 : -0.00282393884845, Q4 : -0.0633229166269}
2019-04-03 18:19:44.89: SIM {TimeUS : 89515846, Roll : -0.02, Pitch : -0.78, Yaw : 352.73, Alt : 602.91998291, Lat : -35.3632608, Lng : 149.1652293, Q1 : 0.997968137264, Q2 : -0.000640804995783, Q3 : -0.00678062438965, Q4 : -0.0633498579264}
2019-04-03 18:19:44.99: SIM {TimeUS : 89615806, Roll : 0.0, Pitch : -1.48, Yaw : 352.73, Alt : 602.940002441, Lat : -35.3632607, Lng : 149.1652293, Q1 : 0.99790596962, Q2 : -0.000740848190617, Q3 : -0.0129799144343, Q4 : -0.063360825181}
2019-04-03 18:19:45.09: SIM {TimeUS : 89715766, Roll : 0.06, Pitch : -2.38, Yaw : 352.73, Alt : 602.960021973, Lat : -35.3632607, Lng : 149.1652293, Q1 : 0.997773110867, Q2 : -0.000796414271463, Q3 : -0.0208369642496, Q4 : -0.0633564889431}
2019-04-03 18:19:45.19: SIM {TimeUS : 89815726, Roll : 0.11, Pitch : -3.37, Yaw : 352.73, Alt : 602.969970703, Lat : -35.3632605, Lng : 149.1652293, Q1 : 0.997556865215, Q2 : -0.000896032724995, Q3 : -0.0294845178723, Q4 : -0.0633258074522}
2019-04-03 18:19:45.29: SIM {TimeUS : 89915686, Roll : 0.13, Pitch : -4.28, Yaw : 352.73, Alt : 602.989990234, Lat : -35.3632604, Lng : 149.1652293, Q1 : 0.997294664383, Q2 : -0.0011947901221, Q3 : -0.0373692512512, Q4 : -0.0632889419794}
2019-04-03 18:19:45.40: SIM {TimeUS : 90016479, Roll : 0.13, Pitch : -5.0, Yaw : 352.73, Alt : 603.0, Lat : -35.3632604, Lng : 149.1652292, Q1 : 0.997040748596, Q2 : -0.00160441198386, Q3 : -0.043652407825, Q4 : -0.0632590800524}
2019-04-03 18:19:45.50: SIM {TimeUS : 90116439, Roll : 0.13, Pitch : -5.52, Yaw : 352.73, Alt : 603.010009766, Lat : -35.3632601, Lng : 149.1652292, Q1 : 0.996834099293, Q2 : -0.00184910814278, Q3 : -0.0481622666121, Q4 : -0.0632353872061}
2019-04-03 18:19:45.60: SIM {TimeUS : 90216399, Roll : 0.15, Pitch : -5.93, Yaw : 352.73, Alt : 603.020019531, Lat : -35.3632598, Lng : 149.1652292, Q1 : 0.996654450893, Q2 : -0.00194418267347, Q3 : -0.0517581775784, Q4 : -0.0632237941027}
2019-04-03 18:19:45.70: SIM {TimeUS : 90316359, Roll : 0.16, Pitch : -6.29, Yaw : 352.73, Alt : 603.020019531, Lat : -35.3632593, Lng : 149.1652291, Q1 : 0.996487081051, Q2 : -0.00205010245554, Q3 : -0.0548894628882, Q4 : -0.0632169246674}
2019-04-03 18:19:45.80: SIM {TimeUS : 90416319, Roll : 0.15, Pitch : -6.65, Yaw : 352.72, Alt : 603.030029297, Lat : -35.363259, Lng : 149.1652291, Q1 : 0.996310651302, Q2 : -0.00229695951566, Q3 : -0.05799587816, Q4 : -0.0632165744901}
2019-04-03 18:19:45.90: SIM {TimeUS : 90516279, Roll : 0.15, Pitch : -7.04, Yaw : 352.72, Alt : 603.030029297, Lat : -35.3632585, Lng : 149.1652289, Q1 : 0.996106088161, Q2 : -0.00258572609164, Q3 : -0.0613819360733, Q4 : -0.0632323026657}
2019-04-03 18:19:46.00: SIM {TimeUS : 90616239, Roll : 0.14, Pitch : -7.46, Yaw : 352.72, Alt : 603.039978027, Lat : -35.3632579, Lng : 149.1652289, Q1 : 0.995870113373, Q2 : -0.00289908493869, Q3 : -0.0650499537587, Q4 : -0.0632679462433}
2019-04-03 18:19:46.10: SIM {TimeUS : 90716199, Roll : 0.14, Pitch : -7.83, Yaw : 352.71, Alt : 603.039978027, Lat : -35.3632572, Lng : 149.1652288, Q1 : 0.995650351048, Q2 : -0.00311568938196, Q3 : -0.0682968199253, Q4 : -0.0632945224643}
2019-04-03 18:19:46.20: SIM {TimeUS : 90816159, Roll : 0.13, Pitch : -8.12, Yaw : 352.71, Alt : 603.039978027, Lat : -35.3632565, Lng : 149.1652287, Q1 : 0.995474398136, Q2 : -0.00335004134104, Q3 : -0.0707835257053, Q4 : -0.0633179396391}
2019-04-03 18:19:46.29: SIM {TimeUS : 90916119, Roll : 0.13, Pitch : -8.33, Yaw : 352.7, Alt : 603.049987793, Lat : -35.3632556, Lng : 149.1652286, Q1 : 0.99534124136, Q2 : -0.00349147152156, Q3 : -0.0726007521152, Q4 : -0.0633462369442}
2019-04-03 18:19:46.39: SIM {TimeUS : 91016079, Roll : 0.12, Pitch : -8.49, Yaw : 352.7, Alt : 603.049987793, Lat : -35.3632548, Lng : 149.1652284, Q1 : 0.995236873627, Q2 : -0.00361064937897, Q3 : -0.0739785432816, Q4 : -0.0633852481842}
2019-04-03 18:19:46.49: SIM {TimeUS : 91116039, Roll : 0.11, Pitch : -8.62, Yaw : 352.69, Alt : 603.049987793, Lat : -35.3632538, Lng : 149.1652284, Q1 : 0.995150029659, Q2 : -0.00380334467627, Q3 : -0.0750964358449, Q4 : -0.0634233951569}
2019-04-03 18:19:46.59: SIM {TimeUS : 91215999, Roll : 0.08, Pitch : -8.79, Yaw : 352.69, Alt : 603.049987793, Lat : -35.3632529, Lng : 149.1652283, Q1 : 0.995031774044, Q2 : -0.00411852682009, Q3 : -0.0765980035067, Q4 : -0.0634631887078}
2019-04-03 18:19:46.69: SIM {TimeUS : 91315959, Roll : 0.17, Pitch : -9.02, Yaw : 352.74, Alt : 603.049987793, Lat : -35.3632518, Lng : 149.1652281, Q1 : 0.994907021523, Q2 : -0.00342538719997, Q3 : -0.0786417722702, Q4 : -0.0629587322474}
2019-04-03 18:19:46.79: SIM {TimeUS : 91415919, Roll : 0.26, Pitch : -9.34, Yaw : 353.02, Alt : 603.049987793, Lat : -35.3632506, Lng : 149.1652279, Q1 : 0.994840979576, Q2 : -0.00263980170712, Q3 : -0.0814148634672, Q4 : -0.0604653768241}
2019-04-03 18:19:46.89: SIM {TimeUS : 91515879, Roll : 0.24, Pitch : -9.72, Yaw : 353.51, Alt : 603.049987793, Lat : -35.3632494, Lng : 149.1652278, Q1 : 0.994816124439, Q2 : -0.00269893580116, Q3 : -0.0847412347794, Q4 : -0.0561476834118}
2019-04-03 18:19:46.99: SIM {TimeUS : 91615839, Roll : 0.09, Pitch : -10.15, Yaw : 354.12, Alt : 603.059997559, Lat : -35.3632481, Lng : 149.1652275, Q1 : 0.994769275188, Q2 : -0.00374856358394, Q3 : -0.0884445756674, Q4 : -0.0509662255645}
2019-04-03 18:19:47.09: SIM {TimeUS : 91715799, Roll : -0.13, Pitch : -10.58, Yaw : 354.73, Alt : 603.059997559, Lat : -35.3632468, Lng : 149.1652274, Q1 : 0.994676113129, Q2 : -0.00539313070476, Q3 : -0.0921297520399, Q4 : -0.0458529628813}
2019-04-03 18:19:47.19: SIM {TimeUS : 91815759, Roll : -0.37, Pitch : -11.01, Yaw : 355.25, Alt : 603.059997559, Lat : -35.3632453, Lng : 149.1652273, Q1 : 0.994510233402, Q2 : -0.00726738432422, Q3 : -0.0957654863596, Q4 : -0.04154060781}
2019-04-03 18:19:47.29: SIM {TimeUS : 91915719, Roll : -0.59, Pitch : -11.42, Yaw : 355.62, Alt : 603.049987793, Lat : -35.3632439, Lng : 149.165227, Q1 : 0.994275569916, Q2 : -0.00892558973283, Q3 : -0.0992782264948, Q4 : -0.0384741611779}
2019-04-03 18:19:47.39: SIM {TimeUS : 92015679, Roll : -0.74, Pitch : -11.83, Yaw : 355.82, Alt : 603.049987793, Lat : -35.3632422, Lng : 149.1652269, Q1 : 0.993963122368, Q2 : -0.0101831210777, Q3 : -0.102830670774, Q4 : -0.0368718840182}
2019-04-03 18:19:47.50: SIM {TimeUS : 92116472, Roll : -0.79, Pitch : -12.27, Yaw : 355.85, Alt : 603.049987793, Lat : -35.3632406, Lng : 149.1652265, Q1 : 0.993569731712, Q2 : -0.0107974316925, Q3 : -0.106565520167, Q4 : -0.0366934612393}
2019-04-03 18:19:47.60: SIM {TimeUS : 92216432, Roll : -0.76, Pitch : -12.68, Yaw : 355.73, Alt : 603.049987793, Lat : -35.3632389, Lng : 149.1652264, Q1 : 0.993142306805, Q2 : -0.0107348524034, Q3 : -0.110131964087, Q4 : -0.037737198174}
2019-04-03 18:19:47.70: SIM {TimeUS : 92316392, Roll : -0.64, Pitch : -13.08, Yaw : 355.49, Alt : 603.049987793, Lat : -35.3632371, Lng : 149.165226, Q1 : 0.992683231831, Q2 : -0.0100745847449, Q3 : -0.113597862422, Q4 : -0.0396746061742}
2019-04-03 18:19:47.80: SIM {TimeUS : 92416352, Roll : -0.48, Pitch : -13.47, Yaw : 355.19, Alt : 603.049987793, Lat : -35.3632352, Lng : 149.1652259, Q1 : 0.992192149162, Q2 : -0.00908007286489, Q3 : -0.117032319307, Q4 : -0.042139839381}
2019-04-03 18:19:47.90: SIM {TimeUS : 92516312, Roll : -0.29, Pitch : -13.88, Yaw : 354.86, Alt : 603.049987793, Lat : -35.3632331, Lng : 149.1652255, Q1 : 0.991659045219, Q2 : -0.00799138750881, Q3 : -0.120600149035, Q4 : -0.044767126441}
2019-04-03 18:19:48.00: SIM {TimeUS : 92616272, Roll : -0.12, Pitch : -14.27, Yaw : 354.55, Alt : 603.049987793, Lat : -35.3632311, Lng : 149.1652253, Q1 : 0.991125702858, Q2 : -0.00700534926727, Q3 : -0.124053500593, Q4 : -0.0472388714552}
2019-04-03 18:19:48.10: SIM {TimeUS : 92716232, Roll : 0.0, Pitch : -14.62, Yaw : 354.29, Alt : 603.049987793, Lat : -35.3632289, Lng : 149.165225, Q1 : 0.990638673306, Q2 : -0.00628659827635, Q3 : -0.127127796412, Q4 : -0.0493356361985}
2019-04-03 18:19:48.20: SIM {TimeUS : 92816192, Roll : 0.07, Pitch : -14.89, Yaw : 354.1, Alt : 603.049987793, Lat : -35.3632268, Lng : 149.1652246, Q1 : 0.990258038044, Q2 : -0.00598889077082, Q3 : -0.129465803504, Q4 : -0.0509099140763}
2019-04-03 18:19:48.30: SIM {TimeUS : 92916152, Roll : 0.11, Pitch : -15.07, Yaw : 353.98, Alt : 603.049987793, Lat : -35.3632244, Lng : 149.1652243, Q1 : 0.989999711514, Q2 : -0.00589974131435, Q3 : -0.131051272154, Q4 : -0.0518780909479}
2019-04-03 18:19:48.39: SIM {TimeUS : 93016112, Roll : 0.11, Pitch : -15.2, Yaw : 353.93, Alt : 603.039978027, Lat : -35.363222, Lng : 149.165224, Q1 : 0.989825308323, Q2 : -0.00604554777965, Q3 : -0.132199853659, Q4 : -0.0522732250392}
2019-04-03 18:19:48.49: SIM {TimeUS : 93116072, Roll : 0.08, Pitch : -15.31, Yaw : 353.95, Alt : 603.039978027, Lat : -35.3632196, Lng : 149.1652236, Q1 : 0.98970323801, Q2 : -0.00630805641413, Q3 : -0.133144915104, Q4 : -0.0521547198296}
2019-04-03 18:19:48.59: SIM {TimeUS : 93216032, Roll : 0.04, Pitch : -15.42, Yaw : 354.01, Alt : 603.039978027, Lat : -35.363217, Lng : 149.1652232, Q1 : 0.989605307579, Q2 : -0.0066527351737, Q3 : -0.134050160646, Q4 : -0.05164995417}
2019-04-03 18:19:48.69: SIM {TimeUS : 93315992, Roll : -0.02, Pitch : -15.52, Yaw : 354.11, Alt : 603.039978027, Lat : -35.3632143, Lng : 149.165223, Q1 : 0.989528357983, Q2 : -0.00714192073792, Q3 : -0.134868741035, Q4 : -0.0509223677218}
2019-04-03 18:19:48.79: SIM {TimeUS : 93415952, Roll : -0.09, Pitch : -15.63, Yaw : 354.21, Alt : 603.039978027, Lat : -35.3632117, Lng : 149.1652226, Q1 : 0.989436507225, Q2 : -0.00772889377549, Q3 : -0.135803967714, Q4 : -0.0501286163926}
2019-04-03 18:19:48.89: SIM {TimeUS : 93515912, Roll : -0.15, Pitch : -15.74, Yaw : 354.31, Alt : 603.039978027, Lat : -35.3632088, Lng : 149.1652222, Q1 : 0.989348351955, Q2 : -0.00815605279058, Q3 : -0.136702537537, Q4 : -0.0493528991938}
2019-04-03 18:19:48.99: SIM {TimeUS : 93615872, Roll : -0.19, Pitch : -15.84, Yaw : 354.39, Alt : 603.039978027, Lat : -35.3632061, Lng : 149.1652219, Q1 : 0.989261209965, Q2 : -0.00846191123128, Q3 : -0.137545034289, Q4 : -0.0487036295235}
2019-04-03 18:19:49.09: SIM {TimeUS : 93715832, Roll : -0.23, Pitch : -15.91, Yaw : 354.44, Alt : 603.039978027, Lat : -35.3632032, Lng : 149.1652215, Q1 : 0.989187955856, Q2 : -0.00875640846789, Q3 : -0.138201922178, Q4 : -0.0482782199979}
2019-04-03 18:19:49.19: SIM {TimeUS : 93815792, Roll : -0.26, Pitch : -15.98, Yaw : 354.46, Alt : 603.039978027, Lat : -35.3632002, Lng : 149.1652211, Q1 : 0.989113807678, Q2 : -0.00901599600911, Q3 : -0.138777717948, Q4 : -0.0480977781117}
2019-04-03 18:19:49.29: SIM {TimeUS : 93915752, Roll : -0.28, Pitch : -16.05, Yaw : 354.46, Alt : 603.039978027, Lat : -35.3631972, Lng : 149.1652207, Q1 : 0.989027798176, Q2 : -0.00916423648596, Q3 : -0.139364823699, Q4 : -0.0481402389705}
2019-04-03 18:19:49.39: SIM {TimeUS : 94015712, Roll : -0.27, Pitch : -16.13, Yaw : 354.44, Alt : 603.039978027, Lat : -35.3631941, Lng : 149.1652202, Q1 : 0.988921225071, Q2 : -0.00916472263634, Q3 : -0.140045329928, Q4 : -0.048354562372}
2019-04-03 18:19:49.49: SIM {TimeUS : 94115672, Roll : -0.24, Pitch : -16.2, Yaw : 354.39, Alt : 603.039978027, Lat : -35.3631911, Lng : 149.1652198, Q1 : 0.988817334175, Q2 : -0.00898678787053, Q3 : -0.140669003129, Q4 : -0.0487007983029}
2019-04-03 18:19:49.60: SIM {TimeUS : 94216465, Roll : -0.21, Pitch : -16.26, Yaw : 354.33, Alt : 603.039978027, Lat : -35.3631879, Lng : 149.1652193, Q1 : 0.988717257977, Q2 : -0.0088047683239, Q3 : -0.141227081418, Q4 : -0.0491483025253}
2019-04-03 18:19:49.70: SIM {TimeUS : 94316425, Roll : -0.18, Pitch : -16.33, Yaw : 354.27, Alt : 603.039978027, Lat : -35.3631847, Lng : 149.1652189, Q1 : 0.988607525826, Q2 : -0.00866628531367, Q3 : -0.141835153103, Q4 : -0.0496266596019}
2019-04-03 18:19:49.80: SIM {TimeUS : 94416385, Roll : -0.15, Pitch : -16.4, Yaw : 354.22, Alt : 603.039978027, Lat : -35.3631813, Lng : 149.1652184, Q1 : 0.988505065441, Q2 : -0.00851338356733, Q3 : -0.14239820838, Q4 : -0.0500806309283}
2019-04-03 18:19:49.90: SIM {TimeUS : 94516345, Roll : -0.12, Pitch : -16.45, Yaw : 354.17, Alt : 603.039978027, Lat : -35.3631781, Lng : 149.1652181, Q1 : 0.988414466381, Q2 : -0.0083225229755, Q3 : -0.142903581262, Q4 : -0.0504605807364}
2019-04-03 18:19:50.00: SIM {TimeUS : 94616305, Roll : -0.07, Pitch : -16.51, Yaw : 354.13, Alt : 603.039978027, Lat : -35.3631747, Lng : 149.1652176, Q1 : 0.988333523273, Q2 : -0.00800984539092, Q3 : -0.143379449844, Q4 : -0.0507451742887}
2019-04-03 18:19:50.10: SIM {TimeUS : 94716265, Roll : -0.02, Pitch : -16.55, Yaw : 354.1, Alt : 603.039978027, Lat : -35.3631714, Lng : 149.1652172, Q1 : 0.988274335861, Q2 : -0.00763269886374, Q3 : -0.143743857741, Q4 : -0.0509244687855}
2019-04-03 18:19:50.20: SIM {TimeUS : 94816225, Roll : -0.01, Pitch : -16.56, Yaw : 354.08, Alt : 603.039978027, Lat : -35.363168, Lng : 149.1652167, Q1 : 0.988250672817, Q2 : -0.00752786453813, Q3 : -0.143867149949, Q4 : -0.051051300019}
2019-04-03 18:19:50.30: SIM {TimeUS : 94916185, Roll : -0.01, Pitch : -16.57, Yaw : 354.08, Alt : 603.039978027, Lat : -35.3631646, Lng : 149.1652163, Q1 : 0.988232910633, Q2 : -0.0075850803405, Q3 : -0.143961563706, Q4 : -0.051119517535}
2019-04-03 18:19:50.40: SIM {TimeUS : 95016145, Roll : -0.04, Pitch : -16.61, Yaw : 354.07, Alt : 603.039978027, Lat : -35.3631611, Lng : 149.1652158, Q1 : 0.988183021545, Q2 : -0.00783215183765, Q3 : -0.144278392196, Q4 : -0.0511536300182}
2019-04-03 18:19:50.49: SIM {TimeUS : 95116105, Roll : -0.06, Pitch : -16.65, Yaw : 354.08, Alt : 603.039978027, Lat : -35.3631575, Lng : 149.1652153, Q1 : 0.988128244877, Q2 : -0.0080671608448, Q3 : -0.144640028477, Q4 : -0.0511543601751}
2019-04-03 18:19:50.59: SIM {TimeUS : 95216065, Roll : -0.09, Pitch : -16.71, Yaw : 354.08, Alt : 603.039978027, Lat : -35.363154, Lng : 149.1652148, Q1 : 0.988059163094, Q2 : -0.00830812659115, Q3 : -0.145102649927, Q4 : -0.0511397607625}
2019-04-03 18:19:50.69: SIM {TimeUS : 95316025, Roll : -0.11, Pitch : -16.78, Yaw : 354.09, Alt : 603.039978027, Lat : -35.3631503, Lng : 149.1652144, Q1 : 0.987969338894, Q2 : -0.00847008544952, Q3 : -0.145713359118, Q4 : -0.051112357527}
2019-04-03 18:19:50.79: SIM {TimeUS : 95415985, Roll : -0.1, Pitch : -16.87, Yaw : 354.09, Alt : 603.039978027, Lat : -35.3631467, Lng : 149.1652139, Q1 : 0.987856924534, Q2 : -0.00842624530196, Q3 : -0.146489426494, Q4 : -0.0510741956532}
2019-04-03 18:19:50.89: SIM {TimeUS : 95515945, Roll : -0.07, Pitch : -16.93, Yaw : 354.09, Alt : 603.039978027, Lat : -35.3631431, Lng : 149.1652134, Q1 : 0.987776398659, Q2 : -0.00822789873928, Q3 : -0.147053107619, Q4 : -0.0510442741215}
2019-04-03 18:19:50.99: SIM {TimeUS : 95615905, Roll : -0.04, Pitch : -16.96, Yaw : 354.09, Alt : 603.039978027, Lat : -35.3631394, Lng : 149.1652129, Q1 : 0.987742960453, Q2 : -0.00797459855676, Q3 : -0.147291883826, Q4 : -0.0510423667729}
2019-04-03 18:19:51.09: SIM {TimeUS : 95715865, Roll : 0.0, Pitch : -16.98, Yaw : 354.08, Alt : 603.039978027, Lat : -35.3631357, Lng : 149.1652124, Q1 : 0.987716197968, Q2 : -0.0076983445324, Q3 : -0.147478461266, Q4 : -0.0510639250278}
2019-04-03 18:19:51.19: SIM {TimeUS : 95815825, Roll : 0.0, Pitch : -17.0, Yaw : 354.07, Alt : 603.039978027, Lat : -35.3631321, Lng : 149.1652119, Q1 : 0.987686514854, Q2 : -0.00757788401097, Q3 : -0.147661164403, Q4 : -0.0511290803552}
2019-04-03 18:19:51.29: SIM {TimeUS : 95915785, Roll : 0.01, Pitch : -17.02, Yaw : 354.05, Alt : 603.039978027, Lat : -35.3631284, Lng : 149.1652114, Q1 : 0.987661004066, Q2 : -0.00753496959805, Q3 : -0.147794514894, Q4 : -0.0512422844768}
2019-04-03 18:19:51.39: SIM {TimeUS : 96015745, Roll : 0.0, Pitch : -17.05, Yaw : 354.04, Alt : 603.039978027, Lat : -35.3631246, Lng : 149.1652109, Q1 : 0.987612843513, Q2 : -0.00764947617427, Q3 : -0.148056715727, Q4 : -0.0513970591128}
2019-04-03 18:19:51.49: SIM {TimeUS : 96115705, Roll : -0.01, Pitch : -17.07, Yaw : 354.02, Alt : 603.039978027, Lat : -35.3631208, Lng : 149.1652104, Q1 : 0.98757737875, Q2 : -0.00784760154784, Q3 : -0.14821575582, Q4 : -0.0515891835093}
2019-04-03 18:19:51.59: SIM {TimeUS : 96215665, Roll : -0.04, Pitch : -17.08, Yaw : 354.0, Alt : 603.049987793, Lat : -35.3631169, Lng : 149.1652098, Q1 : 0.987553417683, Q2 : -0.00812600459903, Q3 : -0.148284927011, Q4 : -0.0518051944673}
2019-04-03 18:19:51.70: SIM {TimeUS : 96316458, Roll : -0.05, Pitch : -17.08, Yaw : 353.97, Alt : 603.049987793, Lat : -35.3631132, Lng : 149.1652093, Q1 : 0.987535834312, Q2 : -0.00828625354916, Q3 : -0.148324623704, Q4 : -0.0520009249449}
2019-04-03 18:19:51.80: SIM {TimeUS : 96416418, Roll : -0.04, Pitch : -17.09, Yaw : 353.96, Alt : 603.049987793, Lat : -35.3631093, Lng : 149.1652088, Q1 : 0.987515866756, Q2 : -0.00823860242963, Q3 : -0.148408323526, Q4 : -0.0521490313113}
2019-04-03 18:19:51.90: SIM {TimeUS : 96516378, Roll : 0.0, Pitch : -17.12, Yaw : 353.94, Alt : 603.049987793, Lat : -35.3631054, Lng : 149.1652083, Q1 : 0.987468004227, Q2 : -0.00794117059559, Q3 : -0.148710042238, Q4 : -0.0522421896458}
2019-04-03 18:19:52.00: SIM {TimeUS : 96616338, Roll : 0.03, Pitch : -17.18, Yaw : 353.92, Alt : 603.049987793, Lat : -35.3631016, Lng : 149.1652078, Q1 : 0.987392127514, Q2 : -0.00760147254914, Q3 : -0.149205759168, Q4 : -0.0523134917021}
2019-04-03 18:19:52.10: SIM {TimeUS : 96716298, Roll : 0.05, Pitch : -17.22, Yaw : 353.91, Alt : 603.049987793, Lat : -35.3630977, Lng : 149.1652073, Q1 : 0.98733484745, Q2 : -0.00751346070319, Q3 : -0.149550944567, Q4 : -0.0524205379188}
2019-04-03 18:19:52.20: SIM {TimeUS : 96816258, Roll : 0.04, Pitch : -17.24, Yaw : 353.89, Alt : 603.049987793, Lat : -35.3630938, Lng : 149.1652068, Q1 : 0.987305879593, Q2 : -0.00759631581604, Q3 : -0.149692222476, Q4 : -0.0525515675545}
2019-04-03 18:19:52.30: SIM {TimeUS : 96916218, Roll : 0.03, Pitch : -17.24, Yaw : 353.88, Alt : 603.049987793, Lat : -35.3630898, Lng : 149.1652064, Q1 : 0.987291514874, Q2 : -0.00768930371851, Q3 : -0.14973847568, Q4 : -0.0526762381196}
2019-04-03 18:19:52.40: SIM {TimeUS : 97016178, Roll : 0.0, Pitch : -17.26, Yaw : 353.87, Alt : 603.049987793, Lat : -35.3630859, Lng : 149.1652058, Q1 : 0.987265646458, Q2 : -0.00794517528266, Q3 : -0.149844691157, Q4 : -0.0528207235038}
2019-04-03 18:19:52.50: SIM {TimeUS : 97116138, Roll : -0.02, Pitch : -17.27, Yaw : 353.86, Alt : 603.049987793, Lat : -35.3630819, Lng : 149.1652053, Q1 : 0.987240254879, Q2 : -0.0082808341831, Q3 : -0.149936765432, Q4 : -0.0529814586043}
2019-04-03 18:19:52.59: SIM {TimeUS : 97216098, Roll : -0.03, Pitch : -17.29, Yaw : 353.84, Alt : 603.049987793, Lat : -35.3630779, Lng : 149.1652048, Q1 : 0.987205862999, Q2 : -0.00840578321368, Q3 : -0.150107264519, Q4 : -0.0531203225255}
2019-04-03 18:19:52.69: SIM {TimeUS : 97316058, Roll : -0.02, Pitch : -17.32, Yaw : 353.82, Alt : 603.049987793, Lat : -35.3630738, Lng : 149.1652043, Q1 : 0.987160801888, Q2 : -0.00833533052355, Q3 : -0.150365144014, Q4 : -0.0532392002642}
2019-04-03 18:19:52.79: SIM {TimeUS : 97416018, Roll : -0.02, Pitch : -17.36, Yaw : 353.81, Alt : 603.049987793, Lat : -35.3630699, Lng : 149.1652038, Q1 : 0.987099349499, Q2 : -0.00833679083735, Q3 : -0.150719344616, Q4 : -0.0533767566085}
2019-04-03 18:19:52.89: SIM {TimeUS : 97515978, Roll : -0.02, Pitch : -17.39, Yaw : 353.79, Alt : 603.049987793, Lat : -35.3630658, Lng : 149.1652033, Q1 : 0.987049162388, Q2 : -0.00843770150095, Q3 : -0.15098656714, Q4 : -0.0535341389477}
2019-04-03 18:19:52.99: SIM {TimeUS : 97615938, Roll : -0.01, Pitch : -17.42, Yaw : 353.77, Alt : 603.059997559, Lat : -35.3630619, Lng : 149.1652026, Q1 : 0.98700851202, Q2 : -0.00837624445558, Q3 : -0.151209518313, Q4 : -0.0536635182798}
2019-04-03 18:19:53.09: SIM {TimeUS : 97715898, Roll : 0.01, Pitch : -17.44, Yaw : 353.76, Alt : 603.059997559, Lat : -35.3630579, Lng : 149.1652021, Q1 : 0.986975371838, Q2 : -0.00810508802533, Q3 : -0.151405736804, Q4 : -0.0537608526647}
2019-04-03 18:19:53.19: SIM {TimeUS : 97815858, Roll : 0.05, Pitch : -17.46, Yaw : 353.74, Alt : 603.059997559, Lat : -35.3630537, Lng : 149.1652016, Q1 : 0.986942470074, Q2 : -0.00779448030517, Q3 : -0.151605978608, Q4 : -0.053846437484}
2019-04-03 18:19:53.29: SIM {TimeUS : 97915818, Roll : 0.07, Pitch : -17.47, Yaw : 353.73, Alt : 603.059997559, Lat : -35.3630498, Lng : 149.1652011, Q1 : 0.986917674541, Q2 : -0.00768798775971, Q3 : -0.151733770967, Q4 : -0.0539565980434}
2019-04-03 18:19:53.39: SIM {TimeUS : 98015778, Roll : 0.07, Pitch : -17.51, Yaw : 353.71, Alt : 603.059997559, Lat : -35.3630457, Lng : 149.1652006, Q1 : 0.986863553524, Q2 : -0.00766078848392, Q3 : -0.152049064636, Q4 : -0.0540620237589}
2019-04-03 18:19:53.49: SIM {TimeUS : 98115738, Roll : 0.08, Pitch : -17.56, Yaw : 353.7, Alt : 603.059997559, Lat : -35.3630415, Lng : 149.1652001, Q1 : 0.986791491508, Q2 : -0.00760990008712, Q3 : -0.152484819293, Q4 : -0.0541571564972}
2019-04-03 18:19:53.59: SIM {TimeUS : 98215698, Roll : 0.09, Pitch : -17.59, Yaw : 353.69, Alt : 603.059997559, Lat : -35.3630375, Lng : 149.1651995, Q1 : 0.98674094677, Q2 : -0.00763359060511, Q3 : -0.152775228024, Q4 : -0.0542569123209}
2019-04-03 18:19:53.70: SIM {TimeUS : 98316491, Roll : 0.08, Pitch : -17.6, Yaw : 353.67, Alt : 603.059997559, Lat : -35.3630334, Lng : 149.165199, Q1 : 0.986729085445, Q2 : -0.00767807196826, Q3 : -0.152812182903, Q4 : -0.0543623231351}
2019-04-03 18:19:53.80: SIM {TimeUS : 98416451, Roll : 0.08, Pitch : -17.59, Yaw : 353.66, Alt : 603.059997559, Lat : -35.3630293, Lng : 149.1651985, Q1 : 0.986737966537, Q2 : -0.00771220913157, Q3 : -0.1527133286, Q4 : -0.0544741339982}
2019-04-03 18:19:53.90: SIM {TimeUS : 98516411, Roll : 0.08, Pitch : -17.56, Yaw : 353.65, Alt : 603.070007324, Lat : -35.3630251, Lng : 149.1651978, Q1 : 0.986759543419, Q2 : -0.00772702414542, Q3 : -0.15253059566, Q4 : -0.0545917712152}
2019-04-03 18:19:54.00: SIM {TimeUS : 98616371, Roll : 0.08, Pitch : -17.56, Yaw : 353.64, Alt : 603.070007324, Lat : -35.3630211, Lng : 149.1651973, Q1 : 0.986763954163, Q2 : -0.00773432757705, Q3 : -0.152460098267, Q4 : -0.0547088570893}
2019-04-03 18:19:54.10: SIM {TimeUS : 98716331, Roll : 0.07, Pitch : -17.56, Yaw : 353.62, Alt : 603.070007324, Lat : -35.3630169, Lng : 149.1651968, Q1 : 0.986750125885, Q2 : -0.00781554263085, Q3 : -0.152499169111, Q4 : -0.0548375472426}
2019-04-03 18:19:54.20: SIM {TimeUS : 98816291, Roll : 0.06, Pitch : -17.59, Yaw : 353.61, Alt : 603.070007324, Lat : -35.3630128, Lng : 149.1651963, Q1 : 0.986709535122, Q2 : -0.0079546328634, Q3 : -0.152707859874, Q4 : -0.0549661144614}
2019-04-03 18:19:54.30: SIM {TimeUS : 98916251, Roll : 0.06, Pitch : -17.62, Yaw : 353.6, Alt : 603.070007324, Lat : -35.3630086, Lng : 149.1651958, Q1 : 0.986660718918, Q2 : -0.00797224137932, Q3 : -0.152985036373, Q4 : -0.0550701543689}
2019-04-03 18:19:54.40: SIM {TimeUS : 99016211, Roll : 0.07, Pitch : -17.66, Yaw : 353.58, Alt : 603.070007324, Lat : -35.3630044, Lng : 149.1651952, Q1 : 0.986597716808, Q2 : -0.00793583039194, Q3 : -0.153360024095, Q4 : -0.0551604777575}
2019-04-03 18:19:54.50: SIM {TimeUS : 99116171, Roll : 0.08, Pitch : -17.7, Yaw : 353.57, Alt : 603.070007324, Lat : -35.3630002, Lng : 149.1651947, Q1 : 0.986543715, Q2 : -0.00792875420302, Q3 : -0.153673142195, Q4 : -0.0552562810481}
2019-04-03 18:19:54.59: SIM {TimeUS : 99216131, Roll : 0.08, Pitch : -17.73, Yaw : 353.56, Alt : 603.070007324, Lat : -35.3629962, Lng : 149.165194, Q1 : 0.986496806145, Q2 : -0.00792967155576, Q3 : -0.153938144445, Q4 : -0.0553550943732}
2019-04-03 18:19:54.69: SIM {TimeUS : 99316091, Roll : 0.07, Pitch : -17.75, Yaw : 353.55, Alt : 603.070007324, Lat : -35.362992, Lng : 149.1651935, Q1 : 0.986457884312, Q2 : -0.00804252643138, Q3 : -0.154138684273, Q4 : -0.0554753392935}
2019-04-03 18:19:54.79: SIM {TimeUS : 99416051, Roll : 0.05, Pitch : -17.76, Yaw : 353.53, Alt : 603.08001709, Lat : -35.3629878, Lng : 149.165193, Q1 : 0.986445724964, Q2 : -0.00826401263475, Q3 : -0.15415738523, Q4 : -0.0556058436632}
2019-04-03 18:19:54.89: SIM {TimeUS : 99516011, Roll : 0.02, Pitch : -17.76, Yaw : 353.52, Alt : 603.08001709, Lat : -35.3629836, Lng : 149.1651925, Q1 : 0.986434578896, Q2 : -0.00847507547587, Q3 : -0.154171973467, Q4 : -0.0557312779129}
2019-04-03 18:19:54.99: SIM {TimeUS : 99615971, Roll : 0.02, Pitch : -17.76, Yaw : 353.51, Alt : 603.08001709, Lat : -35.3629794, Lng : 149.165192, Q1 : 0.986424744129, Q2 : -0.00850507430732, Q3 : -0.154197514057, Q4 : -0.0558298453689}
2019-04-03 18:19:55.09: SIM {TimeUS : 99715931, Roll : 0.06, Pitch : -17.77, Yaw : 353.5, Alt : 603.08001709, Lat : -35.3629752, Lng : 149.1651914, Q1 : 0.986405670643, Q2 : -0.0082150278613, Q3 : -0.154318317771, Q4 : -0.0558769851923}
