2019-04-03 18:51:04.30: SIM {TimeUS : 53516085, Roll : 0.0, Pitch : 0.0, Yaw : 353.0, Alt : 584.090026855, Lat : -35.363261, Lng : 149.1652299, Q1 : 0.998134791851, Q2 : 0.0, Q3 : 0.0, Q4 : -0.0610485821962}
2019-04-03 18:51:04.40: SIM {TimeUS : 53616045, Roll : 0.0, Pitch : 0.0, Yaw : 353.0, Alt : 584.090026855, Lat : -35.363261, Lng : 149.1652299, Q1 : 0.998134791851, Q2 : 0.0, Q3 : 0.0, Q4 : -0.0610485821962}
2019-04-03 18:51:04.49: SIM {TimeUS : 53716005, Roll : 0.0, Pitch : 0.0, Yaw : 353.0, Alt : 584.090026855, Lat : -35.363261, Lng : 149.1652299, Q1 : 0.998134791851, Q2 : 0.0, Q3 : 0.0, Q4 : -0.0610485821962}
2019-04-03 18:51:04.59: SIM {TimeUS : 53815965, Roll : 0.0, Pitch : 0.0, Yaw : 353.0, Alt : 584.090026855, Lat : -35.363261, Lng : 149.1652299, Q1 : 0.998134791851, Q2 : 0.0, Q3 : 0.0, Q4 : -0.0610485821962}
2019-04-03 18:51:04.69: SIM {TimeUS : 53915925, Roll : 0.0, Pitch : 0.0, Yaw : 353.0, Alt : 584.090026855, Lat : -35.363261, Lng : 149.1652299, Q1 : 0.998134791851, Q2 : 0.0, Q3 : 0.0, Q4 : -0.0610485821962}
2019-04-03 18:51:04.79: SIM {TimeUS : 54015885, Roll : 0.0, Pitch : 0.0, Yaw : 353.0, Alt : 584.090026855, Lat : -35.363261, Lng : 149.1652299, Q1 : 0.998134791851, Q2 : 0.0, Q3 : 0.0, Q4 : -0.0610485821962}
2019-04-03 18:51:04.89: SIM {TimeUS : 54115845, Roll : 0.0, Pitch : 0.0, Yaw : 353.0, Alt : 584.090026855, Lat : -35.363261, Lng : 149.1652299, Q1 : 0.998134791851, Q2 : 0.0, Q3 : 0.0, Q4 : -0.0610485821962}
2019-04-03 18:51:04.99: SIM {TimeUS : 54215805, Roll : 0.0, Pitch : 0.0, Yaw : 353.0, Alt : 584.090026855, Lat : -35.363261, Lng : 149.1652299, Q1 : 0.998134791851, Q2 : 0.0, Q3 : 0.0, Q4 : -0.0610485821962}
2019-04-03 18:51:05.09: SIM {TimeUS : 54315765, Roll : 0.0, Pitch : 0.0, Yaw : 353.0, Alt : 584.090026855, Lat : -35.363261, Lng : 149.1652299, Q1 : 0.998134791851, Q2 : 0.0, Q3 : 0.0, Q4 : -0.0610485821962}
2019-04-03 18:51:05.19: SIM {TimeUS : 54415725, Roll : 0.0, Pitch : 0.0, Yaw : 353.0, Alt : 584.090026855, Lat : -35.363261, Lng : 149.1652299, Q1 : 0.998134791851, Q2 : 0.0, Q3 : 0.0, Q4 : -0.0610485821962}
2019-04-03 18:51:05.29: SIM {TimeUS : 54515685, Roll : 0.0, Pitch : 0.0, Yaw : 353.0, Alt : 584.090026855, Lat : -35.363261, Lng : 149.1652299, Q1 : 0.998134791851, Q2 : 0.0, Q3 : 0.0, Q4 : -0.0610485821962}
2019-04-03 18:51:05.40: SIM {TimeUS : 54616478, Roll : 0.0, Pitch : 0.0, Yaw : 353.0, Alt : 584.090026855, Lat : -35.363261, Lng : 149.1652299, Q1 : 0.998134791851, Q2 : 0.0, Q3 : 0.0, Q4 : -0.0610485821962}
2019-04-03 18:51:05.50: SIM {TimeUS : 54716438, Roll : 0.0, Pitch : 0.0, Yaw : 353.0, Alt : 584.090026855, Lat : -35.363261, Lng : 149.1652299, Q1 : 0.998134791851, Q2 : 0.0, Q3 : 0.0, Q4 : -0.0610485821962}
2019-04-03 18:51:05.60: SIM {TimeUS : 54816398, Roll : 0.0, Pitch : 0.0, Yaw : 353.0, Alt : 584.090026855, Lat : -35.363261, Lng : 149.1652299, Q1 : 0.998134791851, Q2 : 0.0, Q3 : 0.0, Q4 : -0.0610485821962}
2019-04-03 18:51:05.70: SIM {TimeUS : 54916358, Roll : 0.0, Pitch : 0.0, Yaw : 353.0, Alt : 584.090026855, Lat : -35.363261, Lng : 149.1652299, Q1 : 0.998134791851, Q2 : 0.0, Q3 : 0.0, Q4 : -0.0610485821962}
2019-04-03 18:51:05.80: SIM {TimeUS : 55016318, Roll : 0.0, Pitch : 0.0, Yaw : 353.0, Alt : 584.090026855, Lat : -35.363261, Lng : 149.1652299, Q1 : 0.998134791851, Q2 : 0.0, Q3 : 0.0, Q4 : -0.0610485821962}
2019-04-03 18:51:05.90: SIM {TimeUS : 55116278, Roll : 0.0, Pitch : 0.0, Yaw : 353.0, Alt : 584.090026855, Lat : -35.363261, Lng : 149.1652299, Q1 : 0.998134791851, Q2 : 0.0, Q3 : 0.0, Q4 : -0.0610485821962}
2019-04-03 18:51:06.00: SIM {TimeUS : 55216238, Roll : 0.0, Pitch : 0.0, Yaw : 353.0, Alt : 584.090026855, Lat : -35.363261, Lng : 149.1652299, Q1 : 0.998134791851, Q2 : 0.0, Q3 : 0.0, Q4 : -0.0610485821962}
2019-04-03 18:51:06.10: SIM {TimeUS : 55316198, Roll : 0.0, Pitch : 0.0, Yaw : 353.0, Alt : 584.090026855, Lat : -35.363261, Lng : 149.1652299, Q1 : 0.998134791851, Q2 : 0.0, Q3 : 0.0, Q4 : -0.0610485821962}
2019-04-03 18:51:06.20: SIM {TimeUS : 55416158, Roll : 0.0, Pitch : 0.0, Yaw : 353.0, Alt : 584.090026855, Lat : -35.363261, Lng : 149.1652299, Q1 : 0.998134791851, Q2 : 0.0, Q3 : 0.0, Q4 : -0.0610485821962}
2019-04-03 18:51:06.30: SIM {TimeUS : 55516118, Roll : 0.0, Pitch : 0.0, Yaw : 353.0, Alt : 584.090026855, Lat : -35.363261, Lng : 149.1652299, Q1 : 0.998134791851, Q2 : 0.0, Q3 : 0.0, Q4 : -0.0610485821962}
2019-04-03 18:51:06.40: SIM {TimeUS : 55616078, Roll : 0.0, Pitch : 0.0, Yaw : 353.0, Alt : 584.090026855, Lat : -35.363261, Lng : 149.1652299, Q1 : 0.998134791851, Q2 : 0.0, Q3 : 0.0, Q4 : -0.0610485821962}
2019-04-03 18:51:06.49: SIM {TimeUS : 55716038, Roll : 0.0, Pitch : 0.0, Yaw : 353.0, Alt : 584.090026855, Lat : -35.363261, Lng : 149.1652299, Q1 : 0.998134791851, Q2 : 0.0, Q3 : 0.0, Q4 : -0.0610485821962}
2019-04-03 18:51:06.59: SIM {TimeUS : 55815998, Roll : 0.0, Pitch : 0.0, Yaw : 353.0, Alt : 584.090026855, Lat : -35.363261, Lng : 149.1652299, Q1 : 0.998134791851, Q2 : 0.0, Q3 : 0.0, Q4 : -0.0610485821962}
2019-04-03 18:51:06.69: SIM {TimeUS : 55915958, Roll : 0.0, Pitch : 0.0, Yaw : 353.0, Alt : 584.090026855, Lat : -35.363261, Lng : 149.1652299, Q1 : 0.998134791851, Q2 : 0.0, Q3 : 0.0, Q4 : -0.0610485821962}
2019-04-03 18:51:06.79: SIM {TimeUS : 56015918, Roll : 0.0, Pitch : 0.0, Yaw : 353.0, Alt : 584.090026855, Lat : -35.363261, Lng : 149.1652299, Q1 : 0.998134791851, Q2 : 0.0, Q3 : 0.0, Q4 : -0.0610485821962}
2019-04-03 18:51:06.89: SIM {TimeUS : 56115878, Roll : 0.0, Pitch : 0.0, Yaw : 353.0, Alt : 584.090026855, Lat : -35.363261, Lng : 149.1652299, Q1 : 0.998134791851, Q2 : 0.0, Q3 : 0.0, Q4 : -0.0610485821962}
2019-04-03 18:51:06.99: SIM {TimeUS : 56215838, Roll : 0.0, Pitch : 0.0, Yaw : 353.0, Alt : 584.090026855, Lat : -35.363261, Lng : 149.1652299, Q1 : 0.998134791851, Q2 : 0.0, Q3 : 0.0, Q4 : -0.0610485821962}
2019-04-03 18:51:07.09: SIM {TimeUS : 56315798, Roll : 0.0, Pitch : 0.0, Yaw : 353.0, Alt : 584.090026855, Lat : -35.363261, Lng : 149.1652299, Q1 : 0.998134791851, Q2 : 0.0, Q3 : 0.0, Q4 : -0.0610485821962}
2019-04-03 18:51:07.19: SIM {TimeUS : 56415758, Roll : 0.0, Pitch : 0.0, Yaw : 353.0, Alt : 584.090026855, Lat : -35.363261, Lng : 149.1652299, Q1 : 0.998134791851, Q2 : 0.0, Q3 : 0.0, Q4 : -0.0610485821962}
2019-04-03 18:51:07.29: SIM {TimeUS : 56515718, Roll : 0.0, Pitch : 0.0, Yaw : 353.0, Alt : 584.090026855, Lat : -35.363261, Lng : 149.1652299, Q1 : 0.998134791851, Q2 : 0.0, Q3 : 0.0, Q4 : -0.0610485821962}
2019-04-03 18:51:07.39: SIM {TimeUS : 56615678, Roll : 0.0, Pitch : 0.0, Yaw : 353.0, Alt : 584.090026855, Lat : -35.363261, Lng : 149.1652299, Q1 : 0.998134791851, Q2 : 0.0, Q3 : 0.0, Q4 : -0.0610485821962}
2019-04-03 18:51:07.50: SIM {TimeUS : 56716471, Roll : 0.0, Pitch : 0.0, Yaw : 353.0, Alt : 584.090026855, Lat : -35.363261, Lng : 149.1652299, Q1 : 0.998134791851, Q2 : 0.0, Q3 : 0.0, Q4 : -0.0610485821962}
2019-04-03 18:51:07.60: SIM {TimeUS : 56816431, Roll : 0.0, Pitch : 0.0, Yaw : 353.0, Alt : 584.090026855, Lat : -35.363261, Lng : 149.1652299, Q1 : 0.998134791851, Q2 : 0.0, Q3 : 0.0, Q4 : -0.0610485821962}
2019-04-03 18:51:07.70: SIM {TimeUS : 56916391, Roll : 0.0, Pitch : 0.0, Yaw : 353.0, Alt : 584.090026855, Lat : -35.363261, Lng : 149.1652299, Q1 : 0.998134791851, Q2 : 0.0, Q3 : 0.0, Q4 : -0.0610485821962}
2019-04-03 18:51:07.80: SIM {TimeUS : 57016351, Roll : 0.0, Pitch : 0.0, Yaw : 353.0, Alt : 584.090026855, Lat : -35.363261, Lng : 149.1652299, Q1 : 0.998134791851, Q2 : 0.0, Q3 : 0.0, Q4 : -0.0610485821962}
2019-04-03 18:51:07.90: SIM {TimeUS : 57116311, Roll : 0.0, Pitch : 0.0, Yaw : 353.0, Alt : 584.090026855, Lat : -35.363261, Lng : 149.1652299, Q1 : 0.998134791851, Q2 : 0.0, Q3 : 0.0, Q4 : -0.0610485821962}
2019-04-03 18:51:08.00: SIM {TimeUS : 57216271, Roll : 0.0, Pitch : 0.0, Yaw : 353.0, Alt : 584.090026855, Lat : -35.363261, Lng : 149.1652299, Q1 : 0.998134791851, Q2 : 0.0, Q3 : 0.0, Q4 : -0.0610485821962}
2019-04-03 18:51:08.10: SIM {TimeUS : 57316231, Roll : 0.0, Pitch : 0.0, Yaw : 353.0, Alt : 584.090026855, Lat : -35.363261, Lng : 149.1652299, Q1 : 0.998134791851, Q2 : 0.0, Q3 : 0.0, Q4 : -0.0610485821962}
2019-04-03 18:51:08.20: SIM {TimeUS : 57416191, Roll : 0.0, Pitch : 0.0, Yaw : 353.0, Alt : 584.090026855, Lat : -35.363261, Lng : 149.1652299, Q1 : 0.998134791851, Q2 : 0.0, Q3 : 0.0, Q4 : -0.0610486716032}
2019-04-03 18:51:08.30: SIM {TimeUS : 57516151, Roll : 0.0, Pitch : 0.0, Yaw : 353.0, Alt : 584.090026855, Lat : -35.363261, Lng : 149.1652299, Q1 : 0.998134791851, Q2 : 0.0, Q3 : 0.0, Q4 : -0.0610486753285}
2019-04-03 18:51:08.40: SIM {TimeUS : 57616111, Roll : 0.0, Pitch : 0.0, Yaw : 353.0, Alt : 584.090026855, Lat : -35.363261, Lng : 149.1652299, Q1 : 0.998134791851, Q2 : 0.0, Q3 : 0.0, Q4 : -0.0610486641526}
2019-04-03 18:51:08.50: SIM {TimeUS : 57716071, Roll : 0.0, Pitch : 0.0, Yaw : 353.0, Alt : 584.090026855, Lat : -35.363261, Lng : 149.1652299, Q1 : 0.998134791851, Q2 : 0.0, Q3 : 0.0, Q4 : -0.0610486753285}
2019-04-03 18:51:08.59: SIM {TimeUS : 57816031, Roll : 0.0, Pitch : 0.0, Yaw : 353.0, Alt : 584.090026855, Lat : -35.363261, Lng : 149.1652299, Q1 : 0.998134791851, Q2 : 0.0, Q3 : 0.0, Q4 : -0.0610486753285}
2019-04-03 18:51:08.69: SIM {TimeUS : 57915991, Roll : 0.0, Pitch : 0.0, Yaw : 353.0, Alt : 584.090026855, Lat : -35.363261, Lng : 149.1652299, Q1 : 0.998134791851, Q2 : 0.0, Q3 : 0.0, Q4 : -0.0610486753285}
2019-04-03 18:51:08.79: SIM {TimeUS : 58015951, Roll : 0.0, Pitch : 0.0, Yaw : 353.0, Alt : 584.090026855, Lat : -35.363261, Lng : 149.1652299, Q1 : 0.998134791851, Q2 : 0.0, Q3 : 0.0, Q4 : -0.0610486753285}
2019-04-03 18:51:08.89: SIM {TimeUS : 58115911, Roll : 0.0, Pitch : 0.0, Yaw : 353.0, Alt : 584.090026855, Lat : -35.363261, Lng : 149.1652299, Q1 : 0.998134791851, Q2 : 0.0, Q3 : 0.0, Q4 : -0.0610486641526}
2019-04-03 18:51:08.99: SIM {TimeUS : 58215871, Roll : 0.0, Pitch : 0.0, Yaw : 353.0, Alt : 584.099975586, Lat : -35.363261, Lng : 149.1652299, Q1 : 0.998134791851, Q2 : 0.0, Q3 : 0.0, Q4 : -0.0610486641526}
2019-04-03 18:51:09.09: SIM {TimeUS : 58315831, Roll : 0.0, Pitch : 0.0, Yaw : 353.0, Alt : 584.099975586, Lat : -35.363261, Lng : 149.1652299, Q1 : 0.998134791851, Q2 : 0.0, Q3 : 0.0, Q4 : -0.0610486753285}
2019-04-03 18:51:09.19: SIM {TimeUS : 58415791, Roll : 0.0, Pitch : 0.0, Yaw : 353.0, Alt : 584.109985352, Lat : -35.363261, Lng : 149.1652299, Q1 : 0.998134791851, Q2 : 0.0, Q3 : 0.0, Q4 : -0.0610486753285}
2019-04-03 18:51:09.29: SIM {TimeUS : 58515751, Roll : 0.0, Pitch : 0.0, Yaw : 353.0, Alt : 584.130004883, Lat : -35.363261, Lng : 149.1652299, Q1 : 0.998134791851, Q2 : 0.0, Q3 : 0.0, Q4 : -0.0610486753285}
2019-04-03 18:51:09.39: SIM {TimeUS : 58615711, Roll : 0.0, Pitch : 0.0, Yaw : 353.0, Alt : 584.159973145, Lat : -35.363261, Lng : 149.1652299, Q1 : 0.998134791851, Q2 : 0.0, Q3 : 0.0, Q4 : -0.0610486529768}
2019-04-03 18:51:09.49: SIM {TimeUS : 58715671, Roll : 0.0, Pitch : 0.0, Yaw : 353.0, Alt : 584.200012207, Lat : -35.363261, Lng : 149.1652299, Q1 : 0.998134791851, Q2 : 0.0, Q3 : 0.0, Q4 : -0.0610486753285}
2019-04-03 18:51:09.60: SIM {TimeUS : 58816464, Roll : -0.01, Pitch : -0.01, Yaw : 352.99, Alt : 584.239990234, Lat : -35.363261, Lng : 149.1652299, Q1 : 0.998134732246, Q2 : -0.000126972343423, Q3 : -0.000149246654473, Q4 : -0.061049759388}
2019-04-03 18:51:09.70: SIM {TimeUS : 58916424, Roll : -0.06, Pitch : -0.07, Yaw : 352.99, Alt : 584.340026855, Lat : -35.363261, Lng : 149.1652299, Q1 : 0.998133957386, Q2 : -0.000598755141255, Q3 : -0.000654948002193, Q4 : -0.0610566735268}
2019-04-03 18:51:09.80: SIM {TimeUS : 59016384, Roll : -0.12, Pitch : -0.15, Yaw : 352.99, Alt : 584.479980469, Lat : -35.363261, Lng : 149.1652299, Q1 : 0.998131752014, Q2 : -0.00113387859892, Q3 : -0.00124908960424, Q4 : -0.0610746778548}
2019-04-03 18:51:09.90: SIM {TimeUS : 59116344, Roll : -0.16, Pitch : -0.18, Yaw : 352.99, Alt : 584.630004883, Lat : -35.363261, Lng : 149.1652299, Q1 : 0.998129546642, Q2 : -0.0015545503702, Q3 : -0.00150619633496, Q4 : -0.0610970743001}
2019-04-03 18:51:10.00: SIM {TimeUS : 59216304, Roll : -0.18, Pitch : -0.17, Yaw : 352.99, Alt : 584.789978027, Lat : -35.363261, Lng : 149.1652299, Q1 : 0.998127579689, Q2 : -0.00174006458838, Q3 : -0.00146271300036, Q4 : -0.0611246936023}
2019-04-03 18:51:10.10: SIM {TimeUS : 59316264, Roll : -0.18, Pitch : -0.14, Yaw : 352.98, Alt : 584.940002441, Lat : -35.363261, Lng : 149.1652299, Q1 : 0.998126387596, Q2 : -0.00165722006932, Q3 : -0.00120839336887, Q4 : -0.0611522682011}
2019-04-03 18:51:10.20: SIM {TimeUS : 59416224, Roll : -0.14, Pitch : -0.09, Yaw : 352.98, Alt : 585.090026855, Lat : -35.363261, Lng : 149.1652299, Q1 : 0.99812579155, Q2 : -0.00132774561644, Q3 : -0.000792832404841, Q4 : -0.0611761286855}
2019-04-03 18:51:10.30: SIM {TimeUS : 59516184, Roll : -0.09, Pitch : -0.04, Yaw : 352.98, Alt : 585.25, Lat : -35.363261, Lng : 149.1652299, Q1 : 0.998125374317, Q2 : -0.000809924094938, Q3 : -0.000343126710504, Q4 : -0.0611971355975}
2019-04-03 18:51:10.40: SIM {TimeUS : 59616144, Roll : -0.03, Pitch : 0.0, Yaw : 352.98, Alt : 585.409973145, Lat : -35.363261, Lng : 149.1652299, Q1 : 0.998124957085, Q2 : -0.000293536839308, Q3 : -2.10828857234e-05, Q4 : -0.0612086877227}
2019-04-03 18:51:10.50: SIM {TimeUS : 59716104, Roll : 0.0, Pitch : 0.01, Yaw : 352.98, Alt : 585.58001709, Lat : -35.363261, Lng : 149.1652299, Q1 : 0.998124539852, Q2 : 2.03537601919e-05, Q3 : 0.000129895997816, Q4 : -0.0612155124545}
2019-04-03 18:51:10.60: SIM {TimeUS : 59816064, Roll : 0.01, Pitch : 0.01, Yaw : 352.98, Alt : 585.760009766, Lat : -35.363261, Lng : 149.1652299, Q1 : 0.998124659061, Q2 : 0.000123267745948, Q3 : 0.000153400367708, Q4 : -0.0612138696015}
2019-04-03 18:51:10.69: SIM {TimeUS : 59916024, Roll : 0.01, Pitch : 0.01, Yaw : 352.98, Alt : 585.940002441, Lat : -35.363261, Lng : 149.1652299, Q1 : 0.998125076294, Q2 : 0.000113498674182, Q3 : 9.33128467295e-05, Q4 : -0.0612072534859}
2019-04-03 18:51:10.79: SIM {TimeUS : 60015984, Roll : 0.0, Pitch : 0.0, Yaw : 352.98, Alt : 586.130004883, Lat : -35.363261, Lng : 149.1652298, Q1 : 0.99812579155, Q2 : -2.01581315196e-05, Q3 : -2.49931144936e-05, Q4 : -0.0611962080002}
2019-04-03 18:51:10.89: SIM {TimeUS : 60115944, Roll : -0.03, Pitch : 0.0, Yaw : 352.98, Alt : 586.320007324, Lat : -35.363261, Lng : 149.1652298, Q1 : 0.998126149178, Q2 : -0.000289948424324, Q3 : -6.58722346998e-05, Q4 : -0.0611891932786}
2019-04-03 18:51:10.99: SIM {TimeUS : 60215904, Roll : -0.07, Pitch : 0.0, Yaw : 352.98, Alt : 586.510009766, Lat : -35.363261, Lng : 149.1652298, Q1 : 0.998126387596, Q2 : -0.00066472979961, Q3 : 1.53916898853e-05, Q4 : -0.0611825510859}
2019-04-03 18:51:11.09: SIM {TimeUS : 60315864, Roll : -0.11, Pitch : 0.0, Yaw : 352.98, Alt : 586.700012207, Lat : -35.363261, Lng : 149.1652298, Q1 : 0.998126506805, Q2 : -0.00103800429497, Q3 : 0.000145802812767, Q4 : -0.0611755475402}
2019-04-03 18:51:11.19: SIM {TimeUS : 60415824, Roll : -0.13, Pitch : 0.0, Yaw : 352.98, Alt : 586.900024414, Lat : -35.363261, Lng : 149.1652298, Q1 : 0.99812734127, Q2 : -0.00114631466568, Q3 : 0.000152264459757, Q4 : -0.0611593872309}
2019-04-03 18:51:11.29: SIM {TimeUS : 60515784, Roll : -0.11, Pitch : 0.0, Yaw : 352.98, Alt : 587.099975586, Lat : -35.3632609, Lng : 149.1652298, Q1 : 0.998128533363, Q2 : -0.00098885234911, Q3 : 0.000116715345939, Q4 : -0.061142925173}
2019-04-03 18:51:11.39: SIM {TimeUS : 60615744, Roll : -0.07, Pitch : 0.0, Yaw : 352.99, Alt : 587.309997559, Lat : -35.3632609, Lng : 149.1652298, Q1 : 0.998129367828, Q2 : -0.000677992764395, Q3 : -3.43248939316e-05, Q4 : -0.0611345358193}
2019-04-03 18:51:11.49: SIM {TimeUS : 60715704, Roll : -0.02, Pitch : -0.03, Yaw : 352.99, Alt : 587.510009766, Lat : -35.3632609, Lng : 149.1652298, Q1 : 0.998129665852, Q2 : -0.000227701821132, Q3 : -0.000270403950708, Q4 : -0.0611315071583}
2019-04-03 18:51:11.59: SIM {TimeUS : 60815664, Roll : 0.01, Pitch : -0.05, Yaw : 352.99, Alt : 587.719970703, Lat : -35.3632609, Lng : 149.1652298, Q1 : 0.998129487038, Q2 : 0.000113504429464, Q3 : -0.000467401434435, Q4 : -0.0611332170665}
2019-04-03 18:51:11.70: SIM {TimeUS : 60916457, Roll : 0.01, Pitch : -0.04, Yaw : 352.98, Alt : 587.929992676, Lat : -35.3632609, Lng : 149.1652298, Q1 : 0.998128950596, Q2 : 0.000132239612867, Q3 : -0.000430807704106, Q4 : -0.0611428171396}
2019-04-03 18:51:11.80: SIM {TimeUS : 61016417, Roll : -0.01, Pitch : -0.03, Yaw : 352.98, Alt : 588.140014648, Lat : -35.3632609, Lng : 149.1652298, Q1 : 0.998127579689, Q2 : -0.000133211768116, Q3 : -0.000275145372143, Q4 : -0.0611661486328}
2019-04-03 18:51:11.90: SIM {TimeUS : 61116377, Roll : -0.03, Pitch : 0.0, Yaw : 352.98, Alt : 588.349975586, Lat : -35.3632609, Lng : 149.1652298, Q1 : 0.998125374317, Q2 : -0.000303961947793, Q3 : 4.17024821218e-05, Q4 : -0.0612021833658}
2019-04-03 18:51:12.00: SIM {TimeUS : 61216337, Roll : -0.05, Pitch : 0.02, Yaw : 352.97, Alt : 588.559997559, Lat : -35.3632609, Lng : 149.1652298, Q1 : 0.998122513294, Q2 : -0.000464706507046, Q3 : 0.000228587872698, Q4 : -0.0612471066415}
2019-04-03 18:51:12.10: SIM {TimeUS : 61316297, Roll : -0.04, Pitch : 0.01, Yaw : 352.97, Alt : 588.770019531, Lat : -35.3632609, Lng : 149.1652298, Q1 : 0.998120009899, Q2 : -0.000403023208492, Q3 : 0.000196414315724, Q4 : -0.061288330704}
2019-04-03 18:51:12.20: SIM {TimeUS : 61416257, Roll : -0.02, Pitch : -0.02, Yaw : 352.96, Alt : 588.989990234, Lat : -35.3632609, Lng : 149.1652298, Q1 : 0.998116970062, Q2 : -0.000255302467849, Q3 : -0.000192271283595, Q4 : -0.0613385625184}
2019-04-03 18:51:12.30: SIM {TimeUS : 61516217, Roll : -0.01, Pitch : -0.05, Yaw : 352.96, Alt : 589.200012207, Lat : -35.3632609, Lng : 149.1652298, Q1 : 0.998114526272, Q2 : -0.000125177219161, Q3 : -0.000484727352159, Q4 : -0.0613775067031}
2019-04-03 18:51:12.40: SIM {TimeUS : 61616177, Roll : 0.0, Pitch : -0.05, Yaw : 352.95, Alt : 589.41998291, Lat : -35.3632609, Lng : 149.1652298, Q1 : 0.998112976551, Q2 : -5.06836768182e-05, Q3 : -0.000464333803393, Q4 : -0.0614025369287}
2019-04-03 18:51:12.50: SIM {TimeUS : 61716137, Roll : 0.0, Pitch : -0.04, Yaw : 352.95, Alt : 589.630004883, Lat : -35.3632609, Lng : 149.1652298, Q1 : 0.998111307621, Q2 : -6.33708332316e-05, Q3 : -0.000404297694331, Q4 : -0.061429720372}
2019-04-03 18:51:12.60: SIM {TimeUS : 61816097, Roll : -0.04, Pitch : -0.06, Yaw : 352.95, Alt : 589.849975586, Lat : -35.3632609, Lng : 149.1652298, Q1 : 0.998109281063, Q2 : -0.000394579663407, Q3 : -0.000511704070959, Q4 : -0.0614615194499}
2019-04-03 18:51:12.70: SIM {TimeUS : 61916057, Roll : -0.07, Pitch : -0.06, Yaw : 352.95, Alt : 590.070007324, Lat : -35.3632609, Lng : 149.1652297, Q1 : 0.998107731342, Q2 : -0.000667397049256, Q3 : -0.000520243949722, Q4 : -0.0614835433662}
2019-04-03 18:51:12.79: SIM {TimeUS : 62016017, Roll : -0.09, Pitch : -0.06, Yaw : 352.94, Alt : 590.289978027, Lat : -35.3632609, Lng : 149.1652297, Q1 : 0.998107194901, Q2 : -0.0008675425197, Q3 : -0.000504970666952, Q4 : -0.0614903047681}
2019-04-03 18:51:12.89: SIM {TimeUS : 62115977, Roll : -0.11, Pitch : -0.05, Yaw : 352.94, Alt : 590.510009766, Lat : -35.3632609, Lng : 149.1652297, Q1 : 0.998107194901, Q2 : -0.00100213533733, Q3 : -0.000428752449807, Q4 : -0.0614885985851}
2019-04-03 18:51:12.99: SIM {TimeUS : 62215937, Roll : -0.11, Pitch : -0.05, Yaw : 352.95, Alt : 590.729980469, Lat : -35.3632609, Lng : 149.1652297, Q1 : 0.998107552528, Q2 : -0.00103392777964, Q3 : -0.000389216613257, Q4 : -0.0614822991192}
2019-04-03 18:51:13.09: SIM {TimeUS : 62315897, Roll : -0.1, Pitch : -0.04, Yaw : 352.95, Alt : 590.950012207, Lat : -35.3632609, Lng : 149.1652297, Q1 : 0.998107910156, Q2 : -0.000925316300709, Q3 : -0.000306508358335, Q4 : -0.0614783428609}
2019-04-03 18:51:13.19: SIM {TimeUS : 62415857, Roll : -0.06, Pitch : -0.03, Yaw : 352.95, Alt : 591.179992676, Lat : -35.3632609, Lng : 149.1652297, Q1 : 0.99810808897, Q2 : -0.000610709248576, Q3 : -0.000271268247161, Q4 : -0.0614805109799}
2019-04-03 18:51:13.29: SIM {TimeUS : 62515817, Roll : -0.02, Pitch : -0.03, Yaw : 352.95, Alt : 591.400024414, Lat : -35.3632608, Lng : 149.1652296, Q1 : 0.998108029366, Q2 : -0.000253486272413, Q3 : -0.000299567822367, Q4 : -0.0614834055305}
2019-04-03 18:51:13.39: SIM {TimeUS : 62615777, Roll : -0.01, Pitch : -0.05, Yaw : 352.95, Alt : 591.619995117, Lat : -35.3632608, Lng : 149.1652296, Q1 : 0.998108029366, Q2 : -0.000180155198905, Q3 : -0.000458028662251, Q4 : -0.0614828430116}
2019-04-03 18:51:13.49: SIM {TimeUS : 62715737, Roll : -0.03, Pitch : -0.07, Yaw : 352.95, Alt : 591.849975586, Lat : -35.3632608, Lng : 149.1652296, Q1 : 0.998107850552, Q2 : -0.000331074639689, Q3 : -0.000675543909892, Q4 : -0.0614833496511}
2019-04-03 18:51:13.59: SIM {TimeUS : 62815697, Roll : -0.05, Pitch : -0.1, Yaw : 352.94, Alt : 592.070007324, Lat : -35.3632608, Lng : 149.1652296, Q1 : 0.998106837273, Q2 : -0.000571581884287, Q3 : -0.000859984196723, Q4 : -0.0614954531193}
2019-04-03 18:51:13.70: SIM {TimeUS : 62916490, Roll : -0.05, Pitch : -0.11, Yaw : 352.94, Alt : 592.299987793, Lat : -35.3632608, Lng : 149.1652294, Q1 : 0.998105764389, Q2 : -0.000546888739336, Q3 : -0.000956642674282, Q4 : -0.0615118220448}
2019-04-03 18:51:13.80: SIM {TimeUS : 63016450, Roll : -0.04, Pitch : -0.1, Yaw : 352.94, Alt : 592.530029297, Lat : -35.3632608, Lng : 149.1652294, Q1 : 0.99810397625, Q2 : -0.000426354701631, Q3 : -0.000861348991748, Q4 : -0.0615434758365}
2019-04-03 18:51:13.90: SIM {TimeUS : 63116410, Roll : -0.02, Pitch : -0.05, Yaw : 352.93, Alt : 592.75, Lat : -35.3632608, Lng : 149.1652294, Q1 : 0.998101294041, Q2 : -0.000249132077442, Q3 : -0.000469280377729, Q4 : -0.0615919604897}
2019-04-03 18:51:14.00: SIM {TimeUS : 63216370, Roll : -0.02, Pitch : -0.01, Yaw : 352.93, Alt : 592.979980469, Lat : -35.3632608, Lng : 149.1652294, Q1 : 0.998098194599, Q2 : -0.000217073029489, Q3 : -0.000108283660666, Q4 : -0.0616444647312}
2019-04-03 18:51:14.10: SIM {TimeUS : 63316330, Roll : -0.01, Pitch : 0.02, Yaw : 352.92, Alt : 593.200012207, Lat : -35.3632608, Lng : 149.1652294, Q1 : 0.998095571995, Q2 : -0.000157079935889, Q3 : 0.000239046552451, Q4 : -0.0616857893765}
2019-04-03 18:51:14.20: SIM {TimeUS : 63416290, Roll : 0.0, Pitch : 0.07, Yaw : 352.92, Alt : 593.41998291, Lat : -35.3632607, Lng : 149.1652293, Q1 : 0.99809384346, Q2 : -1.0256006135e-05, Q3 : 0.000623429950792, Q4 : -0.0617115236819}
2019-04-03 18:51:14.30: SIM {TimeUS : 63516250, Roll : 0.0, Pitch : 0.09, Yaw : 352.92, Alt : 593.630004883, Lat : -35.3632607, Lng : 149.1652293, Q1 : 0.998092770576, Q2 : 0.000134986839839, Q3 : 0.00081959849922, Q4 : -0.0617261268198}
2019-04-03 18:51:14.40: SIM {TimeUS : 63616210, Roll : 0.03, Pitch : 0.09, Yaw : 352.92, Alt : 593.820007324, Lat : -35.3632607, Lng : 149.1652293, Q1 : 0.998092353344, Q2 : 0.000349755835487, Q3 : 0.000846200913657, Q4 : -0.061732031405}
2019-04-03 18:51:14.50: SIM {TimeUS : 63716170, Roll : 0.04, Pitch : 0.08, Yaw : 352.92, Alt : 594.010009766, Lat : -35.3632607, Lng : 149.1652293, Q1 : 0.998092293739, Q2 : 0.000418856216129, Q3 : 0.000678944052197, Q4 : -0.0617342740297}
2019-04-03 18:51:14.60: SIM {TimeUS : 63816130, Roll : 0.04, Pitch : 0.04, Yaw : 352.92, Alt : 594.179992676, Lat : -35.3632607, Lng : 149.1652293, Q1 : 0.998092710972, Q2 : 0.000410298525821, Q3 : 0.000356130622094, Q4 : -0.0617299303412}
2019-04-03 18:51:14.70: SIM {TimeUS : 63916090, Roll : 0.05, Pitch : 0.02, Yaw : 352.92, Alt : 594.340026855, Lat : -35.3632607, Lng : 149.1652293, Q1 : 0.998092889786, Q2 : 0.000516535947099, Q3 : 0.000181277122465, Q4 : -0.0617275722325}
2019-04-03 18:51:14.80: SIM {TimeUS : 64016050, Roll : 0.14, Pitch : -0.06, Yaw : 352.92, Alt : 594.489990234, Lat : -35.3632607, Lng : 149.1652293, Q1 : 0.998092293739, Q2 : 0.00123254396021, Q3 : -0.000627691682894, Q4 : -0.0617235451937}
2019-04-03 18:51:14.89: SIM {TimeUS : 64116010, Roll : 0.42, Pitch : -0.34, Yaw : 352.92, Alt : 594.630004883, Lat : -35.3632607, Lng : 149.1652293, Q1 : 0.998081922531, Q2 : 0.00350369722582, Q3 : -0.00321801169775, Q4 : -0.0617245398462}
2019-04-03 18:51:14.99: SIM {TimeUS : 64215970, Roll : 0.92, Pitch : -0.82, Yaw : 352.91, Alt : 594.75, Lat : -35.3632607, Lng : 149.1652293, Q1 : 0.998035311699, Q2 : 0.00757142389193, Q3 : -0.00764043116942, Q4 : -0.0617244355381}
2019-04-03 18:51:15.09: SIM {TimeUS : 64315930, Roll : 1.59, Pitch : -1.48, Yaw : 352.9, Alt : 594.859985352, Lat : -35.3632605, Lng : 149.1652293, Q1 : 0.997913002968, Q2 : 0.0131014576182, Q3 : -0.0138078536838, Q4 : -0.0617032572627}
2019-04-03 18:51:15.19: SIM {TimeUS : 64415890, Roll : 2.34, Pitch : -2.27, Yaw : 352.88, Alt : 594.960021973, Lat : -35.3632605, Lng : 149.1652293, Q1 : 0.99769115448, Q2 : 0.0191728193313, Q3 : -0.0211088955402, Q4 : -0.0616373978555}
2019-04-03 18:51:15.29: SIM {TimeUS : 64515850, Roll : 3.08, Pitch : -3.06, Yaw : 352.86, Alt : 595.049987793, Lat : -35.3632604, Lng : 149.1652294, Q1 : 0.997385203838, Q2 : 0.0252081695944, Q3 : -0.0283995680511, Q4 : -0.0614883564413}
2019-04-03 18:51:15.39: SIM {TimeUS : 64615810, Roll : 3.72, Pitch : -3.73, Yaw : 352.84, Alt : 595.130004883, Lat : -35.3632604, Lng : 149.1652296, Q1 : 0.997061729431, Q2 : 0.0303678754717, Q3 : -0.0345578752458, Q4 : -0.0612488463521}
2019-04-03 18:51:15.49: SIM {TimeUS : 64715770, Roll : 4.2, Pitch : -4.24, Yaw : 352.84, Alt : 595.200012207, Lat : -35.3632602, Lng : 149.1652298, Q1 : 0.996781826019, Q2 : 0.0342982299626, Q3 : -0.0391926020384, Q4 : -0.0609398521483}
2019-04-03 18:51:15.59: SIM {TimeUS : 64815730, Roll : 4.53, Pitch : -4.61, Yaw : 352.85, Alt : 595.260009766, Lat : -35.3632599, Lng : 149.1652299, Q1 : 0.996565639973, Q2 : 0.0369823724031, Q3 : -0.0426256097853, Q4 : -0.0605992674828}
2019-04-03 18:51:15.69: SIM {TimeUS : 64915690, Roll : 4.78, Pitch : -4.93, Yaw : 352.87, Alt : 595.309997559, Lat : -35.3632597, Lng : 149.1652301, Q1 : 0.996386170387, Q2 : 0.0389325730503, Q3 : -0.0454799644649, Q4 : -0.0602531209588}
2019-04-03 18:51:15.80: SIM {TimeUS : 65016483, Roll : 5.0, Pitch : -5.2, Yaw : 352.89, Alt : 595.349975586, Lat : -35.3632592, Lng : 149.1652305, Q1 : 0.996217727661, Q2 : 0.0407343804836, Q3 : -0.0479854159057, Q4 : -0.0599027313292}
2019-04-03 18:51:15.90: SIM {TimeUS : 65116443, Roll : 5.24, Pitch : -5.45, Yaw : 352.9, Alt : 595.390014648, Lat : -35.3632589, Lng : 149.1652308, Q1 : 0.996040582657, Q2 : 0.0427044890821, Q3 : -0.0503165870905, Q4 : -0.0595628246665}
2019-04-03 18:51:16.00: SIM {TimeUS : 65216403, Roll : 5.49, Pitch : -5.7, Yaw : 352.91, Alt : 595.429992676, Lat : -35.3632584, Lng : 149.1652312, Q1 : 0.995856821537, Q2 : 0.04467799142, Q3 : -0.05255760625, Q4 : -0.0592521689832}
2019-04-03 18:51:16.10: SIM {TimeUS : 65316363, Roll : 5.68, Pitch : -5.9, Yaw : 352.92, Alt : 595.460021973, Lat : -35.3632579, Lng : 149.1652317, Q1 : 0.995699524879, Q2 : 0.0462694205344, Q3 : -0.0544209629297, Q4 : -0.0589914470911}
2019-04-03 18:51:16.20: SIM {TimeUS : 65416323, Roll : 5.8, Pitch : -6.06, Yaw : 352.93, Alt : 595.489990234, Lat : -35.3632573, Lng : 149.1652323, Q1 : 0.995589375496, Q2 : 0.0472022183239, Q3 : -0.0558210089803, Q4 : -0.0588032267988}
2019-04-03 18:51:16.30: SIM {TimeUS : 65516283, Roll : 5.85, Pitch : -6.18, Yaw : 352.93, Alt : 595.510009766, Lat : -35.3632566, Lng : 149.165233, Q1 : 0.9955124259, Q2 : 0.0476223379374, Q3 : -0.0569410063326, Q4 : -0.0586929880083}
2019-04-03 18:51:16.40: SIM {TimeUS : 65616243, Roll : 5.9, Pitch : -6.29, Yaw : 352.93, Alt : 595.539978027, Lat : -35.3632559, Lng : 149.1652336, Q1 : 0.995442688465, Q2 : 0.0479471124709, Q3 : -0.0579258129001, Q4 : -0.0586476251483}
2019-04-03 18:51:16.50: SIM {TimeUS : 65716203, Roll : 5.99, Pitch : -6.41, Yaw : 352.92, Alt : 595.559997559, Lat : -35.363255, Lng : 149.1652344, Q1 : 0.995348572731, Q2 : 0.0486418195069, Q3 : -0.0589734874666, Q4 : -0.0586294718087}
2019-04-03 18:51:16.60: SIM {TimeUS : 65816163, Roll : 6.25, Pitch : -6.46, Yaw : 353.0, Alt : 595.58001709, Lat : -35.3632542, Lng : 149.1652351, Q1 : 0.995253026485, Q2 : 0.0509338490665, Q3 : -0.059514015913, Q4 : -0.0577514693141}
2019-04-03 18:51:16.70: SIM {TimeUS : 65916123, Roll : 6.79, Pitch : -6.39, Yaw : 353.67, Alt : 595.599975586, Lat : -35.3632532, Lng : 149.165236, Q1 : 0.995353221893, Q2 : 0.0560321100056, Q3 : -0.058861579746, Q4 : -0.0516499616206}
2019-04-03 18:51:16.80: SIM {TimeUS : 66016083, Roll : 7.42, Pitch : -6.41, Yaw : 355.65, Alt : 595.619995117, Lat : -35.3632524, Lng : 149.1652369, Q1 : 0.995758831501, Q2 : 0.062503606081, Q3 : -0.0582416020334, Q4 : -0.034142266959}
2019-04-03 18:51:16.89: SIM {TimeUS : 66116043, Roll : 7.79, Pitch : -6.8, Yaw : 359.29, Alt : 595.640014648, Lat : -35.3632513, Lng : 149.1652378, Q1 : 0.995930433273, Q2 : 0.0675212964416, Q3 : -0.0596563667059, Q4 : -0.002128345659}
2019-04-03 18:51:16.99: SIM {TimeUS : 66216003, Roll : 7.65, Pitch : -7.62, Yaw : 4.5, Alt : 595.650024414, Lat : -35.3632504, Lng : 149.1652388, Q1 : 0.994620323181, Q2 : 0.0691454336047, Q3 : -0.0636606439948, Q4 : 0.0435510501266}
2019-04-03 18:51:17.09: SIM {TimeUS : 66315963, Roll : 6.86, Pitch : -8.76, Yaw : 11.04, Alt : 595.66998291, Lat : -35.3632493, Lng : 149.1652399, Q1 : 0.990226984024, Q2 : 0.0667575076222, Q3 : -0.070192836225, Q4 : 0.10033390671}
2019-04-03 18:51:17.19: SIM {TimeUS : 66415923, Roll : 5.38, Pitch : -10.05, Yaw : 18.61, Alt : 595.690002441, Lat : -35.3632482, Lng : 149.1652412, Q1 : 0.98127758503, Q2 : 0.0603397898376, Q3 : -0.0788420215249, Q4 : 0.165037766099}
2019-04-03 18:51:17.29: SIM {TimeUS : 66515883, Roll : 3.03, Pitch : -11.23, Yaw : 26.79, Alt : 595.710021973, Lat : -35.363247, Lng : 149.1652425, Q1 : 0.967166602612, Q2 : 0.0483118370175, Q3 : -0.0891205817461, Q4 : 0.23304989934}
2019-04-03 18:51:17.39: SIM {TimeUS : 66615843, Roll : -0.05, Pitch : -12.05, Yaw : 34.75, Alt : 595.729980469, Lat : -35.3632458, Lng : 149.1652437, Q1 : 0.949082374573, Q2 : 0.0309568233788, Q3 : -0.100381352007, Q4 : 0.296998292208}
2019-04-03 18:51:17.49: SIM {TimeUS : 66715803, Roll : -3.2, Pitch : -12.41, Yaw : 41.58, Alt : 595.75, Lat : -35.3632445, Lng : 149.1652451, Q1 : 0.930112659931, Q2 : 0.0123826405033, Q3 : -0.110895633698, Q4 : 0.349913269281}
2019-04-03 18:51:17.59: SIM {TimeUS : 66815763, Roll : -5.74, Pitch : -12.39, Yaw : 46.58, Alt : 595.770019531, Lat : -35.3632431, Lng : 149.1652466, Q1 : 0.914105713367, Q2 : -0.00306850578636, Q3 : -0.118750438094, Q4 : 0.387685000896}
2019-04-03 18:51:17.69: SIM {TimeUS : 66915723, Roll : -7.22, Pitch : -12.26, Yaw : 49.53, Alt : 595.789978027, Lat : -35.3632415, Lng : 149.165248, Q1 : 0.903843224049, Q2 : -0.0122159961611, Q3 : -0.123022086918, Q4 : 0.409614235163}
2019-04-03 18:51:17.79: SIM {TimeUS : 67015683, Roll : -7.59, Pitch : -12.21, Yaw : 50.57, Alt : 595.809997559, Lat : -35.36324, Lng : 149.1652494, Q1 : 0.900074601173, Q2 : -0.0142180602998, Q3 : -0.124134853482, Q4 : 0.417437553406}
2019-04-03 18:51:17.90: SIM {TimeUS : 67116476, Roll : -7.03, Pitch : -12.4, Yaw : 50.04, Alt : 595.83001709, Lat : -35.3632383, Lng : 149.1652509, Q1 : 0.901947379112, Q2 : -0.00970146153122, Q3 : -0.12349268049, Q4 : 0.413698464632}
2019-04-03 18:51:18.00: SIM {TimeUS : 67216436, Roll : -5.83, Pitch : -12.85, Yaw : 48.33, Alt : 595.859985352, Lat : -35.3632364, Lng : 149.1652523, Q1 : 0.907763302326, Q2 : -0.000379865290597, Q3 : -0.122695736587, Q4 : 0.401137709618}
2019-04-03 18:51:18.10: SIM {TimeUS : 67316396, Roll : -4.25, Pitch : -13.51, Yaw : 45.82, Alt : 595.880004883, Lat : -35.3632345, Lng : 149.1652537, Q1 : 0.915772378445, Q2 : 0.0117707690224, Q3 : -0.122646309435, Q4 : 0.382335394621}
2019-04-03 18:51:18.20: SIM {TimeUS : 67416356, Roll : -2.51, Pitch : -14.22, Yaw : 42.84, Alt : 595.909973145, Lat : -35.3632325, Lng : 149.1652552, Q1 : 0.924524247646, Q2 : 0.024931229651, Q3 : -0.123178355396, Q4 : 0.359806120396}
2019-04-03 18:51:18.30: SIM {TimeUS : 67516316, Roll : -0.78, Pitch : -14.81, Yaw : 39.72, Alt : 595.940002441, Lat : -35.3632305, Lng : 149.1652567, Q1 : 0.932930469513, Q2 : 0.0374415889382, Q3 : -0.123563073575, Q4 : 0.336111664772}
2019-04-03 18:51:18.40: SIM {TimeUS : 67616276, Roll : 0.76, Pitch : -15.2, Yaw : 36.82, Alt : 595.960021973, Lat : -35.3632283, Lng : 149.1652585, Q1 : 0.940171897411, Q2 : 0.0480337999761, Q3 : -0.123403191566, Q4 : 0.313912719488}
2019-04-03 18:51:18.50: SIM {TimeUS : 67716236, Roll : 1.97, Pitch : -15.38, Yaw : 34.43, Alt : 595.989990234, Lat : -35.3632263, Lng : 149.16526, Q1 : 0.94575637579, Q2 : 0.0559428036213, Q3 : -0.122778907418, Q4 : 0.295534610748}
2019-04-03 18:51:18.60: SIM {TimeUS : 67816196, Roll : 2.76, Pitch : -15.43, Yaw : 32.76, Alt : 596.020019531, Lat : -35.363224, Lng : 149.1652619, Q1 : 0.949528455734, Q2 : 0.0608210153878, Q3 : -0.122036725283, Q4 : 0.282495260239}
2019-04-03 18:51:18.70: SIM {TimeUS : 67916156, Roll : 3.11, Pitch : -15.41, Yaw : 31.86, Alt : 596.049987793, Lat : -35.3632218, Lng : 149.1652638, Q1 : 0.951554715633, Q2 : 0.0626662969589, Q3 : -0.121556811035, Q4 : 0.275391578674}
2019-04-03 18:51:18.80: SIM {TimeUS : 68016116, Roll : 3.03, Pitch : -15.4, Yaw : 31.69, Alt : 596.08001709, Lat : -35.3632196, Lng : 149.1652657, Q1 : 0.951995432377, Q2 : 0.0618230178952, Q3 : -0.121749632061, Q4 : 0.27397018671}
2019-04-03 18:51:18.90: SIM {TimeUS : 68116076, Roll : 2.6, Pitch : -15.45, Yaw : 32.15, Alt : 596.109985352, Lat : -35.3632172, Lng : 149.1652677, Q1 : 0.951058983803, Q2 : 0.0588986165822, Q3 : -0.122900992632, Q4 : 0.277332216501}
2019-04-03 18:51:18.99: SIM {TimeUS : 68216036, Roll : 1.92, Pitch : -15.54, Yaw : 33.07, Alt : 596.140014648, Lat : -35.3632148, Lng : 149.1652699, Q1 : 0.949039280415, Q2 : 0.0544774197042, Q3 : -0.12491876632, Q4 : 0.284168988466}
2019-04-03 18:51:19.09: SIM {TimeUS : 68315996, Roll : 1.12, Pitch : -15.67, Yaw : 34.25, Alt : 596.16998291, Lat : -35.3632126, Lng : 149.165272, Q1 : 0.946278870106, Q2 : 0.0494180209935, Q3 : -0.127449005842, Q4 : 0.293037474155}
2019-04-03 18:51:19.19: SIM {TimeUS : 68415956, Roll : 0.31, Pitch : -15.79, Yaw : 35.52, Alt : 596.200012207, Lat : -35.36321, Lng : 149.1652743, Q1 : 0.943175077438, Q2 : 0.0445184893906, Q3 : -0.130060523748, Q4 : 0.302527964115}
2019-04-03 18:51:19.29: SIM {TimeUS : 68515916, Roll : -0.39, Pitch : -15.9, Yaw : 36.71, Alt : 596.229980469, Lat : -35.3632076, Lng : 149.1652766, Q1 : 0.940145373344, Q2 : 0.0402854122221, Q3 : -0.1323582232, Q4 : 0.311424165964}
2019-04-03 18:51:19.39: SIM {TimeUS : 68615876, Roll : -0.94, Pitch : -15.97, Yaw : 37.69, Alt : 596.260009766, Lat : -35.3632051, Lng : 149.1652789, Q1 : 0.937550008297, Q2 : 0.0371213108301, Q3 : -0.134120762348, Q4 : 0.31880030036}
2019-04-03 18:51:19.49: SIM {TimeUS : 68715836, Roll : -1.29, Pitch : -16.02, Yaw : 38.39, Alt : 596.289978027, Lat : -35.3632026, Lng : 149.1652811, Q1 : 0.935634851456, Q2 : 0.0352920517325, Q3 : -0.135302111506, Q4 : 0.324091374874}
2019-04-03 18:51:19.59: SIM {TimeUS : 68815796, Roll : -1.41, Pitch : -16.07, Yaw : 38.77, Alt : 596.320007324, Lat : -35.3632, Lng : 149.1652834, Q1 : 0.934522151947, Q2 : 0.0348485484719, Q3 : -0.13593108952, Q4 : 0.32707297802}
2019-04-03 18:51:19.69: SIM {TimeUS : 68915756, Roll : -1.36, Pitch : -16.1, Yaw : 38.86, Alt : 596.349975586, Lat : -35.3631974, Lng : 149.1652858, Q1 : 0.934219419956, Q2 : 0.0354765616357, Q3 : -0.136048108339, Q4 : 0.327820718288}
2019-04-03 18:51:19.79: SIM {TimeUS : 69015716, Roll : -1.18, Pitch : -16.15, Yaw : 38.69, Alt : 596.380004883, Lat : -35.3631947, Lng : 149.1652882, Q1 : 0.93459880352, Q2 : 0.0368746072054, Q3 : -0.135934576392, Q4 : 0.326629966497}
2019-04-03 18:51:19.89: SIM {TimeUS : 69115676, Roll : -0.92, Pitch : -16.18, Yaw : 38.33, Alt : 596.409973145, Lat : -35.3631918, Lng : 149.1652906, Q1 : 0.935498416424, Q2 : 0.0386657267809, Q3 : -0.135603025556, Q4 : 0.323974639177}
2019-04-03 18:51:20.00: SIM {TimeUS : 69216469, Roll : -0.62, Pitch : -16.23, Yaw : 37.85, Alt : 596.440002441, Lat : -35.3631892, Lng : 149.165293, Q1 : 0.936691105366, Q2 : 0.0407219901681, Q3 : -0.135295629501, Q4 : 0.320384979248}
2019-04-03 18:51:20.10: SIM {TimeUS : 69316429, Roll : -0.31, Pitch : -16.27, Yaw : 37.33, Alt : 596.469970703, Lat : -35.3631863, Lng : 149.1652956, Q1 : 0.937963843346, Q2 : 0.0427823849022, Q3 : -0.134998992085, Q4 : 0.316494613886}
2019-04-03 18:51:20.20: SIM {TimeUS : 69416389, Roll : -0.03, Pitch : -16.34, Yaw : 36.84, Alt : 596.5, Lat : -35.3631835, Lng : 149.1652981, Q1 : 0.939130365849, Q2 : 0.0446320287883, Q3 : -0.135006651282, Q4 : 0.312754452229}
2019-04-03 18:51:20.30: SIM {TimeUS : 69516349, Roll : 0.18, Pitch : -16.42, Yaw : 36.42, Alt : 596.530029297, Lat : -35.3631807, Lng : 149.1653006, Q1 : 0.940086722374, Q2 : 0.0461929105222, Q3 : -0.135142549872, Q4 : 0.309579879045}
2019-04-03 18:51:20.40: SIM {TimeUS : 69616309, Roll : 0.34, Pitch : -16.47, Yaw : 36.11, Alt : 596.559997559, Lat : -35.3631777, Lng : 149.1653031, Q1 : 0.940784394741, Q2 : 0.0472320765257, Q3 : -0.135317444801, Q4 : 0.307218164206}
2019-04-03 18:51:20.50: SIM {TimeUS : 69716269, Roll : 0.43, Pitch : -16.51, Yaw : 35.93, Alt : 596.590026855, Lat : -35.3631749, Lng : 149.1653057, Q1 : 0.941195368767, Q2 : 0.0478360578418, Q3 : -0.135463908315, Q4 : 0.305798143148}
2019-04-03 18:51:20.60: SIM {TimeUS : 69816229, Roll : 0.45, Pitch : -16.54, Yaw : 35.87, Alt : 596.619995117, Lat : -35.363172, Lng : 149.1653083, Q1 : 0.941323697567, Q2 : 0.0480068325996, Q3 : -0.135667100549, Q4 : 0.305285871029}
2019-04-03 18:51:20.70: SIM {TimeUS : 69916189, Roll : 0.4, Pitch : -16.54, Yaw : 35.91, Alt : 596.650024414, Lat : -35.3631691, Lng : 149.165311, Q1 : 0.941225409508, Q2 : 0.0477102361619, Q3 : -0.135820150375, Q4 : 0.305567294359}
2019-04-03 18:51:20.80: SIM {TimeUS : 70016149, Roll : 0.29, Pitch : -16.55, Yaw : 36.03, Alt : 596.679992676, Lat : -35.3631661, Lng : 149.1653136, Q1 : 0.940933763981, Q2 : 0.0469809323549, Q3 : -0.136141434312, Q4 : 0.306434303522}
2019-04-03 18:51:20.90: SIM {TimeUS : 70116109, Roll : 0.15, Pitch : -16.57, Yaw : 36.2, Alt : 596.710021973, Lat : -35.3631631, Lng : 149.1653163, Q1 : 0.940508723259, Q2 : 0.0460890196264, Q3 : -0.136601537466, Q4 : 0.307667315006}
2019-04-03 18:51:21.00: SIM {TimeUS : 70216069, Roll : 0.01, Pitch : -16.6, Yaw : 36.39, Alt : 596.739990234, Lat : -35.3631601, Lng : 149.1653189, Q1 : 0.940022528172, Q2 : 0.0452244281769, Q3 : -0.137111529708, Q4 : 0.309051513672}
2019-04-03 18:51:21.09: SIM {TimeUS : 70316029, Roll : -0.1, Pitch : -16.62, Yaw : 36.57, Alt : 596.770019531, Lat : -35.363157, Lng : 149.1653217, Q1 : 0.939545333385, Q2 : 0.0445275716484, Q3 : -0.137571826577, Q4 : 0.310396373272}
2019-04-03 18:51:21.19: SIM {TimeUS : 70415989, Roll : -0.21, Pitch : -16.65, Yaw : 36.73, Alt : 596.809997559, Lat : -35.363154, Lng : 149.1653245, Q1 : 0.939142882824, Q2 : 0.0438970923424, Q3 : -0.137999087572, Q4 : 0.311512410641}
2019-04-03 18:51:21.29: SIM {TimeUS : 70515949, Roll : -0.28, Pitch : -16.68, Yaw : 36.84, Alt : 596.840026855, Lat : -35.3631509, Lng : 149.1653272, Q1 : 0.938832342625, Q2 : 0.0434809401631, Q3 : -0.138442590833, Q4 : 0.312308877707}
2019-04-03 18:51:21.39: SIM {TimeUS : 70615909, Roll : -0.31, Pitch : -16.74, Yaw : 36.9, Alt : 596.869995117, Lat : -35.3631479, Lng : 149.1653299, Q1 : 0.938607931137, Q2 : 0.0434760674834, Q3 : -0.138975992799, Q4 : 0.312746942043}
2019-04-03 18:51:21.49: SIM {TimeUS : 70715869, Roll : -0.3, Pitch : -16.79, Yaw : 36.91, Alt : 596.900024414, Lat : -35.3631449, Lng : 149.1653327, Q1 : 0.938516736031, Q2 : 0.0437214635313, Q3 : -0.139329597354, Q4 : 0.312829166651}
2019-04-03 18:51:21.59: SIM {TimeUS : 70815829, Roll : -0.26, Pitch : -16.82, Yaw : 36.88, Alt : 596.929992676, Lat : -35.3631418, Lng : 149.1653356, Q1 : 0.938549339771, Q2 : 0.0441370159388, Q3 : -0.139501318336, Q4 : 0.312596440315}
2019-04-03 18:51:21.69: SIM {TimeUS : 70915789, Roll : -0.2, Pitch : -16.84, Yaw : 36.81, Alt : 596.960021973, Lat : -35.3631386, Lng : 149.1653384, Q1 : 0.938688755035, Q2 : 0.0445745922625, Q3 : -0.139494225383, Q4 : 0.312118470669}
2019-04-03 18:51:21.79: SIM {TimeUS : 71015749, Roll : -0.16, Pitch : -16.85, Yaw : 36.72, Alt : 597.0, Lat : -35.3631355, Lng : 149.1653412, Q1 : 0.938896358013, Q2 : 0.0448226071894, Q3 : -0.139518216252, Q4 : 0.311447054148}
2019-04-03 18:51:21.89: SIM {TimeUS : 71115709, Roll : -0.13, Pitch : -16.86, Yaw : 36.63, Alt : 597.030029297, Lat : -35.3631322, Lng : 149.165344, Q1 : 0.939133942127, Q2 : 0.0449776239693, Q3 : -0.139561012387, Q4 : 0.310688346624}
2019-04-03 18:51:21.99: SIM {TimeUS : 71215669, Roll : -0.11, Pitch : -16.87, Yaw : 36.53, Alt : 597.059997559, Lat : -35.3631291, Lng : 149.1653469, Q1 : 0.939371824265, Q2 : 0.0450614951551, Q3 : -0.13961879909, Q4 : 0.309930026531}
2019-04-03 18:51:22.10: SIM {TimeUS : 71316462, Roll : -0.07, Pitch : -16.89, Yaw : 36.44, Alt : 597.090026855, Lat : -35.363126, Lng : 149.1653498, Q1 : 0.939559876919, Q2 : 0.0453394576907, Q3 : -0.139738455415, Q4 : 0.309264838696}
2019-04-03 18:51:22.20: SIM {TimeUS : 71416422, Roll : -0.03, Pitch : -16.94, Yaw : 36.38, Alt : 597.130004883, Lat : -35.3631228, Lng : 149.1653526, Q1 : 0.939675331116, Q2 : 0.0456725135446, Q3 : -0.140054225922, Q4 : 0.30872169137}
2019-04-03 18:51:22.30: SIM {TimeUS : 71516382, Roll : -0.02, Pitch : -16.99, Yaw : 36.33, Alt : 597.159973145, Lat : -35.3631196, Lng : 149.1653555, Q1 : 0.939739346504, Q2 : 0.0458468310535, Q3 : -0.140499189496, Q4 : 0.308298557997}
2019-04-03 18:51:22.40: SIM {TimeUS : 71616342, Roll : -0.03, Pitch : -17.03, Yaw : 36.29, Alt : 597.190002441, Lat : -35.3631163, Lng : 149.1653584, Q1 : 0.939775109291, Q2 : 0.045857489109, Q3 : -0.140870600939, Q4 : 0.308018296957}
2019-04-03 18:51:22.50: SIM {TimeUS : 71716302, Roll : -0.04, Pitch : -17.05, Yaw : 36.28, Alt : 597.219970703, Lat : -35.3631131, Lng : 149.1653613, Q1 : 0.93979549408, Q2 : 0.0457931496203, Q3 : -0.141021564603, Q4 : 0.307896703482}
2019-04-03 18:51:22.60: SIM {TimeUS : 71816262, Roll : -0.04, Pitch : -17.05, Yaw : 36.28, Alt : 597.25, Lat : -35.3631099, Lng : 149.1653642, Q1 : 0.939788520336, Q2 : 0.0458132363856, Q3 : -0.141033664346, Q4 : 0.307909369469}
2019-04-03 18:51:22.70: SIM {TimeUS : 71916222, Roll : -0.04, Pitch : -17.05, Yaw : 36.29, Alt : 597.289978027, Lat : -35.3631066, Lng : 149.1653671, Q1 : 0.939762890339, Q2 : 0.0458051897585, Q3 : -0.141000449657, Q4 : 0.308004051447}
2019-04-03 18:51:22.80: SIM {TimeUS : 72016182, Roll : -0.06, Pitch : -17.03, Yaw : 36.31, Alt : 597.320007324, Lat : -35.3631034, Lng : 149.16537, Q1 : 0.939744889736, Q2 : 0.0456318594515, Q3 : -0.140934988856, Q4 : 0.308114647865}
2019-04-03 18:51:22.90: SIM {TimeUS : 72116142, Roll : -0.07, Pitch : -17.02, Yaw : 36.33, Alt : 597.349975586, Lat : -35.3631, Lng : 149.165373, Q1 : 0.939724624157, Q2 : 0.0455197282135, Q3 : -0.140864193439, Q4 : 0.308225333691}
2019-04-03 18:51:23.00: SIM {TimeUS : 72216102, Roll : -0.08, Pitch : -17.03, Yaw : 36.34, Alt : 597.380004883, Lat : -35.3630968, Lng : 149.1653758, Q1 : 0.939685285091, Q2 : 0.0455276295543, Q3 : -0.140925556421, Q4 : 0.30831605196}
2019-04-03 18:51:23.10: SIM {TimeUS : 72316062, Roll : -0.07, Pitch : -17.06, Yaw : 36.34, Alt : 597.409973145, Lat : -35.3630935, Lng : 149.1653789, Q1 : 0.939624130726, Q2 : 0.0456574633718, Q3 : -0.141194656491, Q4 : 0.308360099792}
2019-04-03 18:51:23.19: SIM {TimeUS : 72416022, Roll : -0.06, Pitch : -17.1, Yaw : 36.34, Alt : 597.440002441, Lat : -35.3630901, Lng : 149.1653818, Q1 : 0.939570724964, Q2 : 0.0458712205291, Q3 : -0.141506701708, Q4 : 0.30834800005}
2019-04-03 18:51:23.29: SIM {TimeUS : 72515982, Roll : -0.04, Pitch : -17.14, Yaw : 36.33, Alt : 597.479980469, Lat : -35.3630869, Lng : 149.1653848, Q1 : 0.939536809921, Q2 : 0.04610440135, Q3 : -0.141793146729, Q4 : 0.308285057545}
2019-04-03 18:51:23.39: SIM {TimeUS : 72615942, Roll : -0.02, Pitch : -17.2, Yaw : 36.32, Alt : 597.510009766, Lat : -35.3630835, Lng : 149.1653878, Q1 : 0.939496338367, Q2 : 0.0463848598301, Q3 : -0.142222285271, Q4 : 0.308168619871}
2019-04-03 18:51:23.49: SIM {TimeUS : 72715902, Roll : -0.01, Pitch : -17.26, Yaw : 36.3, Alt : 597.539978027, Lat : -35.3630803, Lng : 149.1653907, Q1 : 0.939463496208, Q2 : 0.0466251932085, Q3 : -0.142645001411, Q4 : 0.308037102222}
2019-04-03 18:51:23.59: SIM {TimeUS : 72815862, Roll : 0.0, Pitch : -17.27, Yaw : 36.29, Alt : 597.570007324, Lat : -35.3630769, Lng : 149.1653936, Q1 : 0.939483225346, Q2 : 0.0467300079763, Q3 : -0.142743363976, Q4 : 0.307915478945}
2019-04-03 18:51:23.69: SIM {TimeUS : 72915822, Roll : 0.0, Pitch : -17.26, Yaw : 36.27, Alt : 597.599975586, Lat : -35.3630736, Lng : 149.1653967, Q1 : 0.939540803432, Q2 : 0.0467444136739, Q3 : -0.142611443996, Q4 : 0.307798653841}
2019-04-03 18:51:23.79: SIM {TimeUS : 73015782, Roll : 0.01, Pitch : -17.25, Yaw : 36.26, Alt : 597.640014648, Lat : -35.3630702, Lng : 149.1653997, Q1 : 0.939591348171, Q2 : 0.0467847399414, Q3 : -0.142508476973, Q4 : 0.307685941458}
2019-04-03 18:51:23.89: SIM {TimeUS : 73115742, Roll : 0.02, Pitch : -17.25, Yaw : 36.24, Alt : 597.66998291, Lat : -35.3630669, Lng : 149.1654026, Q1 : 0.939617693424, Q2 : 0.0469176620245, Q3 : -0.142520993948, Q4 : 0.307579427958}
2019-04-03 18:51:23.99: SIM {TimeUS : 73215702, Roll : 0.04, Pitch : -17.28, Yaw : 36.23, Alt : 597.700012207, Lat : -35.3630635, Lng : 149.1654056, Q1 : 0.939610779285, Q2 : 0.0471015162766, Q3 : -0.14273789525, Q4 : 0.307471841574}
2019-04-03 18:51:24.09: SIM {TimeUS : 73315662, Roll : 0.04, Pitch : -17.32, Yaw : 36.22, Alt : 597.729980469, Lat : -35.3630602, Lng : 149.1654088, Q1 : 0.939602613449, Q2 : 0.0471749231219, Q3 : -0.143000900745, Q4 : 0.30736336112}
2019-04-03 18:51:24.20: SIM {TimeUS : 73416455, Roll : 0.02, Pitch : -17.33, Yaw : 36.21, Alt : 597.760009766, Lat : -35.3630567, Lng : 149.1654117, Q1 : 0.939613819122, Q2 : 0.047073982656, Q3 : -0.143196627498, Q4 : 0.307253360748}
2019-04-03 18:51:24.30: SIM {TimeUS : 73516415, Roll : 0.0, Pitch : -17.34, Yaw : 36.2, Alt : 597.789978027, Lat : -35.3630534, Lng : 149.1654147, Q1 : 0.939640045166, Q2 : 0.0468881055713, Q3 : -0.143315002322, Q4 : 0.307146400213}
2019-04-03 18:51:24.40: SIM {TimeUS : 73616375, Roll : -0.01, Pitch : -17.33, Yaw : 36.19, Alt : 597.83001709, Lat : -35.36305, Lng : 149.1654179, Q1 : 0.939677655697, Q2 : 0.0467045009136, Q3 : -0.143312186003, Q4 : 0.307060658932}
2019-04-03 18:51:24.50: SIM {TimeUS : 73716335, Roll : 0.0, Pitch : -17.32, Yaw : 36.18, Alt : 597.859985352, Lat : -35.3630467, Lng : 149.1654208, Q1 : 0.939710497856, Q2 : 0.0467892438173, Q3 : -0.143163651228, Q4 : 0.307016432285}
2019-04-03 18:51:24.60: SIM {TimeUS : 73816295, Roll : 0.02, Pitch : -17.32, Yaw : 36.17, Alt : 597.890014648, Lat : -35.3630433, Lng : 149.165424, Q1 : 0.93972235918, Q2 : 0.0469781905413, Q3 : -0.143098384142, Q4 : 0.306981682777}
2019-04-03 18:51:24.70: SIM {TimeUS : 73916255, Roll : 0.04, Pitch : -17.35, Yaw : 36.17, Alt : 597.91998291, Lat : -35.3630398, Lng : 149.165427, Q1 : 0.939697623253, Q2 : 0.047197163105, Q3 : -0.143290832639, Q4 : 0.306934177876}
2019-04-03 18:51:24.80: SIM {TimeUS : 74016215, Roll : 0.06, Pitch : -17.39, Yaw : 36.16, Alt : 597.950012207, Lat : -35.3630365, Lng : 149.16543, Q1 : 0.939653873444, Q2 : 0.0474318750203, Q3 : -0.143598690629, Q4 : 0.306888103485}
2019-04-03 18:51:24.90: SIM {TimeUS : 74116175, Roll : 0.05, Pitch : -17.42, Yaw : 36.15, Alt : 597.989990234, Lat : -35.363033, Lng : 149.1654331, Q1 : 0.939633369446, Q2 : 0.047482509166, Q3 : -0.143849253654, Q4 : 0.306825637817}
2019-04-03 18:51:25.00: SIM {TimeUS : 74216135, Roll : 0.05, Pitch : -17.44, Yaw : 36.15, Alt : 598.020019531, Lat : -35.3630296, Lng : 149.1654361, Q1 : 0.939627826214, Q2 : 0.0474887192249, Q3 : -0.144039914012, Q4 : 0.30675214529}
2019-04-03 18:51:25.10: SIM {TimeUS : 74316095, Roll : 0.05, Pitch : -17.47, Yaw : 36.14, Alt : 598.049987793, Lat : -35.3630262, Lng : 149.1654391, Q1 : 0.939619481564, Q2 : 0.0475440211594, Q3 : -0.14424020052, Q4 : 0.306674957275}
2019-04-03 18:51:25.20: SIM {TimeUS : 74416055, Roll : 0.06, Pitch : -17.48, Yaw : 36.13, Alt : 598.08001709, Lat : -35.3630227, Lng : 149.1654423, Q1 : 0.93962675333, Q2 : 0.0476434677839, Q3 : -0.144332528114, Q4 : 0.306593894958}
2019-04-03 18:51:25.29: SIM {TimeUS : 74516015, Roll : 0.07, Pitch : -17.49, Yaw : 36.12, Alt : 598.109985352, Lat : -35.3630194, Lng : 149.1654453, Q1 : 0.939635276794, Q2 : 0.0477753058076, Q3 : -0.144394129515, Q4 : 0.306518316269}
2019-04-03 18:51:25.39: SIM {TimeUS : 74615975, Roll : 0.08, Pitch : -17.51, Yaw : 36.11, Alt : 598.150024414, Lat : -35.3630159, Lng : 149.1654485, Q1 : 0.939628243446, Q2 : 0.0479316562414, Q3 : -0.144548401237, Q4 : 0.306442648172}
2019-04-03 18:51:25.49: SIM {TimeUS : 74715935, Roll : 0.1, Pitch : -17.55, Yaw : 36.1, Alt : 598.179992676, Lat : -35.3630124, Lng : 149.1654515, Q1 : 0.939598798752, Q2 : 0.0481545738876, Q3 : -0.144823119044, Q4 : 0.306368261576}
2019-04-03 18:51:25.59: SIM {TimeUS : 74815895, Roll : 0.1, Pitch : -17.59, Yaw : 36.09, Alt : 598.210021973, Lat : -35.3630091, Lng : 149.1654546, Q1 : 0.939577162266, Q2 : 0.048258010298, Q3 : -0.14514182508, Q4 : 0.306267529726}
2019-04-03 18:51:25.69: SIM {TimeUS : 74915855, Roll : 0.08, Pitch : -17.61, Yaw : 36.08, Alt : 598.239990234, Lat : -35.3630056, Lng : 149.1654577, Q1 : 0.939592719078, Q2 : 0.0481003299356, Q3 : -0.14535357058, Q4 : 0.306144267321}
2019-04-03 18:51:25.79: SIM {TimeUS : 75015815, Roll : 0.05, Pitch : -17.62, Yaw : 36.07, Alt : 598.270019531, Lat : -35.3630021, Lng : 149.1654608, Q1 : 0.939616560936, Q2 : 0.0478546060622, Q3 : -0.145560845733, Q4 : 0.306010991335}
2019-04-03 18:51:25.89: SIM {TimeUS : 75115775, Roll : 0.03, Pitch : -17.62, Yaw : 36.06, Alt : 598.299987793, Lat : -35.3629987, Lng : 149.1654639, Q1 : 0.939651250839, Q2 : 0.0476813316345, Q3 : -0.145622596145, Q4 : 0.305902123451}
2019-04-03 18:51:25.99: SIM {TimeUS : 75215735, Roll : 0.04, Pitch : -17.63, Yaw : 36.05, Alt : 598.340026855, Lat : -35.3629953, Lng : 149.165467, Q1 : 0.939658582211, Q2 : 0.0477812476456, Q3 : -0.145668312907, Q4 : 0.305842131376}
2019-04-03 18:51:26.09: SIM {TimeUS : 75315695, Roll : 0.05, Pitch : -17.65, Yaw : 36.04, Alt : 598.369995117, Lat : -35.3629917, Lng : 149.1654701, Q1 : 0.939659059048, Q2 : 0.047903444618, Q3 : -0.145756244659, Q4 : 0.305779784918}
2019-04-03 18:51:26.20: SIM {TimeUS : 75416488, Roll : 0.06, Pitch : -17.66, Yaw : 36.03, Alt : 598.400024414, Lat : -35.3629883, Lng : 149.1654733, Q1 : 0.939658939838, Q2 : 0.0480150915682, Q3 : -0.145868107677, Q4 : 0.305709332228}
2019-04-03 18:51:26.30: SIM {TimeUS : 75516448, Roll : 0.07, Pitch : -17.66, Yaw : 36.02, Alt : 598.429992676, Lat : -35.3629848, Lng : 149.1654764, Q1 : 0.939687430859, Q2 : 0.0480955950916, Q3 : -0.145789891481, Q4 : 0.305646389723}
2019-04-03 18:51:26.40: SIM {TimeUS : 75616408, Roll : 0.08, Pitch : -17.66, Yaw : 36.01, Alt : 598.460021973, Lat : -35.3629813, Lng : 149.1654795, Q1 : 0.939705789089, Q2 : 0.0481915995479, Q3 : -0.145791515708, Q4 : 0.305573910475}
2019-04-03 18:51:26.50: SIM {TimeUS : 75716368, Roll : 0.1, Pitch : -17.67, Yaw : 36.0, Alt : 598.5, Lat : -35.3629779, Lng : 149.1654826, Q1 : 0.939720273018, Q2 : 0.0483000092208, Q3 : -0.145812764764, Q4 : 0.305502057076}
2019-04-03 18:51:26.60: SIM {TimeUS : 75816328, Roll : 0.09, Pitch : -17.68, Yaw : 35.99, Alt : 598.530029297, Lat : -35.3629744, Lng : 149.1654857, Q1 : 0.939729273319, Q2 : 0.0482743047178, Q3 : -0.145970597863, Q4 : 0.30540317297}
2019-04-03 18:51:26.70: SIM {TimeUS : 75916288, Roll : 0.06, Pitch : -17.71, Yaw : 35.98, Alt : 598.559997559, Lat : -35.3629709, Lng : 149.1654888, Q1 : 0.939729332924, Q2 : 0.0481063760817, Q3 : -0.146284148097, Q4 : 0.305279523134}
2019-04-03 18:51:26.80: SIM {TimeUS : 76016248, Roll : 0.02, Pitch : -17.73, Yaw : 35.97, Alt : 598.590026855, Lat : -35.3629673, Lng : 149.165492, Q1 : 0.939748644829, Q2 : 0.0477783717215, Q3 : -0.146563515067, Q4 : 0.305137336254}
2019-04-03 18:51:26.90: SIM {TimeUS : 76116208, Roll : 0.0, Pitch : -17.74, Yaw : 35.96, Alt : 598.619995117, Lat : -35.3629638, Lng : 149.165495, Q1 : 0.939768493176, Q2 : 0.0476277135313, Q3 : -0.146713986993, Q4 : 0.305027514696}
2019-04-03 18:51:27.00: SIM {TimeUS : 76216168, Roll : -0.01, Pitch : -17.75, Yaw : 35.95, Alt : 598.659973145, Lat : -35.3629604, Lng : 149.1654983, Q1 : 0.939786434174, Q2 : 0.0475118942559, Q3 : -0.146847337484, Q4 : 0.304926097393}
2019-04-03 18:51:27.10: SIM {TimeUS : 76316128, Roll : -0.01, Pitch : -17.76, Yaw : 35.94, Alt : 598.690002441, Lat : -35.3629569, Lng : 149.1655013, Q1 : 0.939792454243, Q2 : 0.0475603677332, Q3 : -0.146925374866, Q4 : 0.304862499237}
2019-04-03 18:51:27.20: SIM {TimeUS : 76416088, Roll : 0.02, Pitch : -17.77, Yaw : 35.93, Alt : 598.719970703, Lat : -35.3629533, Lng : 149.1655046, Q1 : 0.939791321754, Q2 : 0.0478343553841, Q3 : -0.146904423833, Q4 : 0.304833263159}
2019-04-03 18:51:27.30: SIM {TimeUS : 76516048, Roll : 0.04, Pitch : -17.77, Yaw : 35.93, Alt : 598.75, Lat : -35.3629498, Lng : 149.1655077, Q1 : 0.939797580242, Q2 : 0.0480442233384, Q3 : -0.146878421307, Q4 : 0.304793328047}
2019-04-03 18:51:27.39: SIM {TimeUS : 76616008, Roll : 0.05, Pitch : -17.79, Yaw : 35.92, Alt : 598.780029297, Lat : -35.3629464, Lng : 149.1655108, Q1 : 0.939804673195, Q2 : 0.0481055527925, Q3 : -0.146970853209, Q4 : 0.304717302322}
2019-04-03 18:51:27.49: SIM {TimeUS : 76715968, Roll : 0.04, Pitch : -17.79, Yaw : 35.91, Alt : 598.820007324, Lat : -35.3629429, Lng : 149.165514, Q1 : 0.939833462238, Q2 : 0.0480243451893, Q3 : -0.147013887763, Q4 : 0.304620414972}
2019-04-03 18:51:27.59: SIM {TimeUS : 76815928, Roll : 0.03, Pitch : -17.79, Yaw : 35.89, Alt : 598.849975586, Lat : -35.3629394, Lng : 149.1655171, Q1 : 0.939862370491, Q2 : 0.0479834787548, Q3 : -0.147035971284, Q4 : 0.304527133703}
2019-04-03 18:51:27.69: SIM {TimeUS : 76915888, Roll : 0.04, Pitch : -17.81, Yaw : 35.88, Alt : 598.880004883, Lat : -35.3629358, Lng : 149.1655203, Q1 : 0.939859986305, Q2 : 0.0481040105224, Q3 : -0.147180303931, Q4 : 0.304445832968}
2019-04-03 18:51:27.79: SIM {TimeUS : 77015848, Roll : 0.08, Pitch : -17.84, Yaw : 35.88, Alt : 598.909973145, Lat : -35.3629323, Lng : 149.1655233, Q1 : 0.939826309681, Q2 : 0.0484664440155, Q3 : -0.147367551923, Q4 : 0.304401487112}
2019-04-03 18:51:27.89: SIM {TimeUS : 77115808, Roll : 0.12, Pitch : -17.84, Yaw : 35.87, Alt : 598.940002441, Lat : -35.3629288, Lng : 149.1655266, Q1 : 0.939831078053, Q2 : 0.0488342829049, Q3 : -0.147243306041, Q4 : 0.304388284683}
2019-04-03 18:51:27.99: SIM {TimeUS : 77215768, Roll : 0.15, Pitch : -17.82, Yaw : 35.86, Alt : 598.969970703, Lat : -35.3629253, Lng : 149.1655298, Q1 : 0.939875245094, Q2 : 0.048990573734, Q3 : -0.146946817636, Q4 : 0.30436989665}
2019-04-03 18:51:28.09: SIM {TimeUS : 77315728, Roll : 0.16, Pitch : -17.79, Yaw : 35.85, Alt : 599.010009766, Lat : -35.3629217, Lng : 149.1655329, Q1 : 0.939924240112, Q2 : 0.0489901006222, Q3 : -0.146711930633, Q4 : 0.304332107306}
2019-04-03 18:51:28.19: SIM {TimeUS : 77415688, Roll : 0.14, Pitch : -17.81, Yaw : 35.84, Alt : 599.039978027, Lat : -35.3629181, Lng : 149.1655361, Q1 : 0.939929485321, Q2 : 0.0488094650209, Q3 : -0.146925598383, Q4 : 0.304241836071}
2019-04-03 18:51:28.30: SIM {TimeUS : 77516481, Roll : 0.11, Pitch : -17.86, Yaw : 35.84, Alt : 599.070007324, Lat : -35.3629145, Lng : 149.1655393, Q1 : 0.939889490604, Q2 : 0.0486895777285, Q3 : -0.147400990129, Q4 : 0.304154634476}
2019-04-03 18:51:28.40: SIM {TimeUS : 77616441, Roll : 0.09, Pitch : -17.9, Yaw : 35.84, Alt : 599.099975586, Lat : -35.3629111, Lng : 149.1655424, Q1 : 0.939840018749, Q2 : 0.048660106957, Q3 : -0.14782486856, Q4 : 0.304106503725}
2019-04-03 18:51:28.50: SIM {TimeUS : 77716401, Roll : 0.09, Pitch : -17.92, Yaw : 35.84, Alt : 599.130004883, Lat : -35.3629075, Lng : 149.1655456, Q1 : 0.939815282822, Q2 : 0.0486927330494, Q3 : -0.147996306419, Q4 : 0.304094433784}
2019-04-03 18:51:28.60: SIM {TimeUS : 77816361, Roll : 0.09, Pitch : -17.91, Yaw : 35.84, Alt : 599.16998291, Lat : -35.362904, Lng : 149.1655487, Q1 : 0.9398265481, Q2 : 0.0486997552216, Q3 : -0.147893384099, Q4 : 0.304108411074}
2019-04-03 18:51:28.70: SIM {TimeUS : 77916321, Roll : 0.08, Pitch : -17.88, Yaw : 35.84, Alt : 599.200012207, Lat : -35.3629004, Lng : 149.165552, Q1 : 0.9398676157, Q2 : 0.0485402457416, Q3 : -0.147694990039, Q4 : 0.3041036129}
2019-04-03 18:51:28.80: SIM {TimeUS : 78016281, Roll : 0.07, Pitch : -17.85, Yaw : 35.84, Alt : 599.229980469, Lat : -35.3628968, Lng : 149.1655551, Q1 : 0.939920783043, Q2 : 0.048333261162, Q3 : -0.147472828627, Q4 : 0.304079949856}
2019-04-03 18:51:28.90: SIM {TimeUS : 78116241, Roll : 0.07, Pitch : -17.82, Yaw : 35.83, Alt : 599.260009766, Lat : -35.3628934, Lng : 149.1655582, Q1 : 0.93996989727, Q2 : 0.0482806377113, Q3 : -0.147206783295, Q4 : 0.304065465927}
2019-04-03 18:51:29.00: SIM {TimeUS : 78216201, Roll : 0.08, Pitch : -17.8, Yaw : 35.83, Alt : 599.289978027, Lat : -35.3628898, Lng : 149.1655615, Q1 : 0.939999043941, Q2 : 0.0483416579664, Q3 : -0.147055625916, Q4 : 0.304038852453}
2019-04-03 18:51:29.10: SIM {TimeUS : 78316161, Roll : 0.08, Pitch : -17.82, Yaw : 35.82, Alt : 599.33001709, Lat : -35.3628863, Lng : 149.1655647, Q1 : 0.940003454685, Q2 : 0.0483321584761, Q3 : -0.147155851126, Q4 : 0.303978055716}
2019-04-03 18:51:29.20: SIM {TimeUS : 78416121, Roll : 0.07, Pitch : -17.84, Yaw : 35.82, Alt : 599.359985352, Lat : -35.3628827, Lng : 149.1655678, Q1 : 0.93999761343, Q2 : 0.0483046174049, Q3 : -0.147359102964, Q4 : 0.3039021492}
2019-04-03 18:51:29.30: SIM {TimeUS : 78516081, Roll : 0.06, Pitch : -17.85, Yaw : 35.81, Alt : 599.390014648, Lat : -35.3628791, Lng : 149.1655711, Q1 : 0.940000116825, Q2 : 0.0482251420617, Q3 : -0.147528931499, Q4 : 0.303824543953}
2019-04-03 18:51:29.39: SIM {TimeUS : 78616041, Roll : 0.05, Pitch : -17.86, Yaw : 35.8, Alt : 599.41998291, Lat : -35.3628755, Lng : 149.1655741, Q1 : 0.940017044544, Q2 : 0.0481607355177, Q3 : -0.147581219673, Q4 : 0.303756952286}
2019-04-03 18:51:29.49: SIM {TimeUS : 78716001, Roll : 0.03, Pitch : -17.85, Yaw : 35.79, Alt : 599.450012207, Lat : -35.3628719, Lng : 149.1655774, Q1 : 0.940050840378, Q2 : 0.0479810163379, Q3 : -0.147599473596, Q4 : 0.303671896458}
2019-04-03 18:51:29.59: SIM {TimeUS : 78815961, Roll : 0.01, Pitch : -17.87, Yaw : 35.78, Alt : 599.489990234, Lat : -35.3628685, Lng : 149.1655806, Q1 : 0.940064609051, Q2 : 0.0478471294045, Q3 : -0.147785261273, Q4 : 0.303560107946}
2019-04-03 18:51:29.69: SIM {TimeUS : 78915921, Roll : 0.0, Pitch : -17.9, Yaw : 35.77, Alt : 599.520019531, Lat : -35.3628649, Lng : 149.1655838, Q1 : 0.940054357052, Q2 : 0.0478733107448, Q3 : -0.148054018617, Q4 : 0.303456693888}
2019-04-03 18:51:29.79: SIM {TimeUS : 79015881, Roll : 0.01, Pitch : -17.92, Yaw : 35.76, Alt : 599.549987793, Lat : -35.3628613, Lng : 149.1655869, Q1 : 0.940051972866, Q2 : 0.0479373000562, Q3 : -0.148225486279, Q4 : 0.303370296955}
2019-04-03 18:51:29.89: SIM {TimeUS : 79115841, Roll : 0.02, Pitch : -17.92, Yaw : 35.76, Alt : 599.58001709, Lat : -35.3628578, Lng : 149.1655902, Q1 : 0.940063357353, Q2 : 0.0480510443449, Q3 : -0.148236140609, Q4 : 0.303311854601}
2019-04-03 18:51:29.99: SIM {TimeUS : 79215801, Roll : 0.05, Pitch : -17.94, Yaw : 35.75, Alt : 599.609985352, Lat : -35.3628542, Lng : 149.1655934, Q1 : 0.940060377121, Q2 : 0.0482808239758, Q3 : -0.148256912827, Q4 : 0.303274393082}
2019-04-03 18:51:30.09: SIM {TimeUS : 79315761, Roll : 0.08, Pitch : -17.94, Yaw : 35.74, Alt : 599.640014648, Lat : -35.3628506, Lng : 149.1655965, Q1 : 0.940059065819, Q2 : 0.0485524311662, Q3 : -0.14821690321, Q4 : 0.303254693747}
2019-04-03 18:51:30.19: SIM {TimeUS : 79415721, Roll : 0.1, Pitch : -17.94, Yaw : 35.73, Alt : 599.679992676, Lat : -35.3628469, Lng : 149.1655998, Q1 : 0.940069437027, Q2 : 0.0487383008003, Q3 : -0.14813041687, Q4 : 0.303234994411}
