2019-04-03 18:54:49.00: SIM {TimeUS : 55016318, Roll : 0.0, Pitch : 0.0, Yaw : 353.0, Alt : 584.090026855, Lat : -35.363261, Lng : 149.1652299, Q1 : 0.998134791851, Q2 : 0.0, Q3 : 0.0, Q4 : -0.0610485821962}
2019-04-03 18:54:49.09: SIM {TimeUS : 55116278, Roll : 0.0, Pitch : 0.0, Yaw : 353.0, Alt : 584.090026855, Lat : -35.363261, Lng : 149.1652299, Q1 : 0.998134791851, Q2 : 0.0, Q3 : 0.0, Q4 : -0.0610485821962}
2019-04-03 18:54:49.19: SIM {TimeUS : 55216238, Roll : 0.0, Pitch : 0.0, Yaw : 353.0, Alt : 584.090026855, Lat : -35.363261, Lng : 149.1652299, Q1 : 0.998134791851, Q2 : 0.0, Q3 : 0.0, Q4 : -0.0610485821962}
2019-04-03 18:54:49.29: SIM {TimeUS : 55316198, Roll : 0.0, Pitch : 0.0, Yaw : 353.0, Alt : 584.090026855, Lat : -35.363261, Lng : 149.1652299, Q1 : 0.998134791851, Q2 : 0.0, Q3 : 0.0, Q4 : -0.0610485821962}
2019-04-03 18:54:49.39: SIM {TimeUS : 55416158, Roll : 0.0, Pitch : 0.0, Yaw : 353.0, Alt : 584.090026855, Lat : -35.363261, Lng : 149.1652299, Q1 : 0.998134791851, Q2 : 0.0, Q3 : 0.0, Q4 : -0.0610485821962}
2019-04-03 18:54:49.49: SIM {TimeUS : 55516118, Roll : 0.0, Pitch : 0.0, Yaw : 353.0, Alt : 584.090026855, Lat : -35.363261, Lng : 149.1652299, Q1 : 0.998134791851, Q2 : 0.0, Q3 : 0.0, Q4 : -0.0610485821962}
2019-04-03 18:54:49.59: SIM {TimeUS : 55616078, Roll : 0.0, Pitch : 0.0, Yaw : 353.0, Alt : 584.090026855, Lat : -35.363261, Lng : 149.1652299, Q1 : 0.998134791851, Q2 : 0.0, Q3 : 0.0, Q4 : -0.0610485821962}
2019-04-03 18:54:49.69: SIM {TimeUS : 55716038, Roll : 0.0, Pitch : 0.0, Yaw : 353.0, Alt : 584.090026855, Lat : -35.363261, Lng : 149.1652299, Q1 : 0.998134791851, Q2 : 0.0, Q3 : 0.0, Q4 : -0.0610485821962}
2019-04-03 18:54:49.79: SIM {TimeUS : 55815998, Roll : 0.0, Pitch : 0.0, Yaw : 353.0, Alt : 584.090026855, Lat : -35.363261, Lng : 149.1652299, Q1 : 0.998134791851, Q2 : 0.0, Q3 : 0.0, Q4 : -0.0610485821962}
2019-04-03 18:54:49.89: SIM {TimeUS : 55915958, Roll : 0.0, Pitch : 0.0, Yaw : 353.0, Alt : 584.090026855, Lat : -35.363261, Lng : 149.1652299, Q1 : 0.998134791851, Q2 : 0.0, Q3 : 0.0, Q4 : -0.0610485821962}
2019-04-03 18:54:49.99: SIM {TimeUS : 56015918, Roll : 0.0, Pitch : 0.0, Yaw : 353.0, Alt : 584.090026855, Lat : -35.363261, Lng : 149.1652299, Q1 : 0.998134791851, Q2 : 0.0, Q3 : 0.0, Q4 : -0.0610485821962}
2019-04-03 18:54:50.09: SIM {TimeUS : 56115878, Roll : 0.0, Pitch : 0.0, Yaw : 353.0, Alt : 584.090026855, Lat : -35.363261, Lng : 149.1652299, Q1 : 0.998134791851, Q2 : 0.0, Q3 : 0.0, Q4 : -0.0610485821962}
2019-04-03 18:54:50.19: SIM {TimeUS : 56215838, Roll : 0.0, Pitch : 0.0, Yaw : 353.0, Alt : 584.090026855, Lat : -35.363261, Lng : 149.1652299, Q1 : 0.998134791851, Q2 : 0.0, Q3 : 0.0, Q4 : -0.0610485821962}
2019-04-03 18:54:50.29: SIM {TimeUS : 56315798, Roll : 0.0, Pitch : 0.0, Yaw : 353.0, Alt : 584.090026855, Lat : -35.363261, Lng : 149.1652299, Q1 : 0.998134791851, Q2 : 0.0, Q3 : 0.0, Q4 : -0.0610485821962}
2019-04-03 18:54:50.39: SIM {TimeUS : 56415758, Roll : 0.0, Pitch : 0.0, Yaw : 353.0, Alt : 584.090026855, Lat : -35.363261, Lng : 149.1652299, Q1 : 0.998134791851, Q2 : 0.0, Q3 : 0.0, Q4 : -0.0610485821962}
2019-04-03 18:54:50.49: SIM {TimeUS : 56515718, Roll : 0.0, Pitch : 0.0, Yaw : 353.0, Alt : 584.090026855, Lat : -35.363261, Lng : 149.1652299, Q1 : 0.998134791851, Q2 : 0.0, Q3 : 0.0, Q4 : -0.0610485821962}
2019-04-03 18:54:50.59: SIM {TimeUS : 56615678, Roll : 0.0, Pitch : 0.0, Yaw : 353.0, Alt : 584.090026855, Lat : -35.363261, Lng : 149.1652299, Q1 : 0.998134791851, Q2 : 0.0, Q3 : 0.0, Q4 : -0.0610485821962}
2019-04-03 18:54:50.70: SIM {TimeUS : 56716471, Roll : 0.0, Pitch : 0.0, Yaw : 353.0, Alt : 584.090026855, Lat : -35.363261, Lng : 149.1652299, Q1 : 0.998134791851, Q2 : 0.0, Q3 : 0.0, Q4 : -0.0610485821962}
2019-04-03 18:54:50.80: SIM {TimeUS : 56816431, Roll : 0.0, Pitch : 0.0, Yaw : 353.0, Alt : 584.090026855, Lat : -35.363261, Lng : 149.1652299, Q1 : 0.998134791851, Q2 : 0.0, Q3 : 0.0, Q4 : -0.0610485821962}
2019-04-03 18:54:50.90: SIM {TimeUS : 56916391, Roll : 0.0, Pitch : 0.0, Yaw : 353.0, Alt : 584.090026855, Lat : -35.363261, Lng : 149.1652299, Q1 : 0.998134791851, Q2 : 0.0, Q3 : 0.0, Q4 : -0.0610485821962}
2019-04-03 18:54:51.00: SIM {TimeUS : 57016351, Roll : 0.0, Pitch : 0.0, Yaw : 353.0, Alt : 584.090026855, Lat : -35.363261, Lng : 149.1652299, Q1 : 0.998134791851, Q2 : 0.0, Q3 : 0.0, Q4 : -0.0610485821962}
2019-04-03 18:54:51.09: SIM {TimeUS : 57116311, Roll : 0.0, Pitch : 0.0, Yaw : 353.0, Alt : 584.090026855, Lat : -35.363261, Lng : 149.1652299, Q1 : 0.998134791851, Q2 : 0.0, Q3 : 0.0, Q4 : -0.0610485821962}
2019-04-03 18:54:51.19: SIM {TimeUS : 57216271, Roll : 0.0, Pitch : 0.0, Yaw : 353.0, Alt : 584.090026855, Lat : -35.363261, Lng : 149.1652299, Q1 : 0.998134791851, Q2 : 0.0, Q3 : 0.0, Q4 : -0.0610485821962}
2019-04-03 18:54:51.29: SIM {TimeUS : 57316231, Roll : 0.0, Pitch : 0.0, Yaw : 353.0, Alt : 584.090026855, Lat : -35.363261, Lng : 149.1652299, Q1 : 0.998134791851, Q2 : 0.0, Q3 : 0.0, Q4 : -0.0610485821962}
2019-04-03 18:54:51.39: SIM {TimeUS : 57416191, Roll : 0.0, Pitch : 0.0, Yaw : 353.0, Alt : 584.090026855, Lat : -35.363261, Lng : 149.1652299, Q1 : 0.998134791851, Q2 : 0.0, Q3 : 0.0, Q4 : -0.0610485821962}
2019-04-03 18:54:51.49: SIM {TimeUS : 57516151, Roll : 0.0, Pitch : 0.0, Yaw : 353.0, Alt : 584.090026855, Lat : -35.363261, Lng : 149.1652299, Q1 : 0.998134791851, Q2 : 0.0, Q3 : 0.0, Q4 : -0.0610485821962}
2019-04-03 18:54:51.59: SIM {TimeUS : 57616111, Roll : 0.0, Pitch : 0.0, Yaw : 353.0, Alt : 584.090026855, Lat : -35.363261, Lng : 149.1652299, Q1 : 0.998134791851, Q2 : 0.0, Q3 : 0.0, Q4 : -0.0610485821962}
2019-04-03 18:54:51.69: SIM {TimeUS : 57716071, Roll : 0.0, Pitch : 0.0, Yaw : 353.0, Alt : 584.090026855, Lat : -35.363261, Lng : 149.1652299, Q1 : 0.998134791851, Q2 : 0.0, Q3 : 0.0, Q4 : -0.0610485821962}
2019-04-03 18:54:51.79: SIM {TimeUS : 57816031, Roll : 0.0, Pitch : 0.0, Yaw : 353.0, Alt : 584.090026855, Lat : -35.363261, Lng : 149.1652299, Q1 : 0.998134791851, Q2 : 0.0, Q3 : 0.0, Q4 : -0.0610485821962}
2019-04-03 18:54:51.89: SIM {TimeUS : 57915991, Roll : 0.0, Pitch : 0.0, Yaw : 353.0, Alt : 584.090026855, Lat : -35.363261, Lng : 149.1652299, Q1 : 0.998134791851, Q2 : 0.0, Q3 : 0.0, Q4 : -0.0610485821962}
2019-04-03 18:54:51.99: SIM {TimeUS : 58015951, Roll : 0.0, Pitch : 0.0, Yaw : 353.0, Alt : 584.090026855, Lat : -35.363261, Lng : 149.1652299, Q1 : 0.998134791851, Q2 : 0.0, Q3 : 0.0, Q4 : -0.0610485821962}
2019-04-03 18:54:52.09: SIM {TimeUS : 58115911, Roll : 0.0, Pitch : 0.0, Yaw : 353.0, Alt : 584.090026855, Lat : -35.363261, Lng : 149.1652299, Q1 : 0.998134791851, Q2 : 0.0, Q3 : 0.0, Q4 : -0.0610485821962}
2019-04-03 18:54:52.19: SIM {TimeUS : 58215871, Roll : 0.0, Pitch : 0.0, Yaw : 353.0, Alt : 584.090026855, Lat : -35.363261, Lng : 149.1652299, Q1 : 0.998134791851, Q2 : 0.0, Q3 : 0.0, Q4 : -0.0610485821962}
2019-04-03 18:54:52.29: SIM {TimeUS : 58315831, Roll : 0.0, Pitch : 0.0, Yaw : 353.0, Alt : 584.090026855, Lat : -35.363261, Lng : 149.1652299, Q1 : 0.998134791851, Q2 : 0.0, Q3 : 0.0, Q4 : -0.0610485821962}
2019-04-03 18:54:52.39: SIM {TimeUS : 58415791, Roll : 0.0, Pitch : 0.0, Yaw : 353.0, Alt : 584.090026855, Lat : -35.363261, Lng : 149.1652299, Q1 : 0.998134791851, Q2 : 0.0, Q3 : 0.0, Q4 : -0.0610486380756}
2019-04-03 18:54:52.49: SIM {TimeUS : 58515751, Roll : 0.0, Pitch : 0.0, Yaw : 353.0, Alt : 584.090026855, Lat : -35.363261, Lng : 149.1652299, Q1 : 0.998134791851, Q2 : 0.0, Q3 : 0.0, Q4 : -0.0610486753285}
2019-04-03 18:54:52.59: SIM {TimeUS : 58615711, Roll : 0.0, Pitch : 0.0, Yaw : 353.0, Alt : 584.090026855, Lat : -35.363261, Lng : 149.1652299, Q1 : 0.998134791851, Q2 : 0.0, Q3 : 0.0, Q4 : -0.0610486753285}
2019-04-03 18:54:52.69: SIM {TimeUS : 58715671, Roll : 0.0, Pitch : 0.0, Yaw : 353.0, Alt : 584.090026855, Lat : -35.363261, Lng : 149.1652299, Q1 : 0.998134791851, Q2 : 0.0, Q3 : 0.0, Q4 : -0.0610486753285}
2019-04-03 18:54:52.80: SIM {TimeUS : 58816464, Roll : 0.0, Pitch : 0.0, Yaw : 353.0, Alt : 584.090026855, Lat : -35.363261, Lng : 149.1652299, Q1 : 0.998134791851, Q2 : 0.0, Q3 : 0.0, Q4 : -0.0610486641526}
2019-04-03 18:54:52.90: SIM {TimeUS : 58916424, Roll : 0.0, Pitch : 0.0, Yaw : 353.0, Alt : 584.090026855, Lat : -35.363261, Lng : 149.1652299, Q1 : 0.998134791851, Q2 : 0.0, Q3 : 0.0, Q4 : -0.0610486753285}
2019-04-03 18:54:53.00: SIM {TimeUS : 59016384, Roll : 0.0, Pitch : 0.0, Yaw : 353.0, Alt : 584.090026855, Lat : -35.363261, Lng : 149.1652299, Q1 : 0.998134791851, Q2 : 0.0, Q3 : 0.0, Q4 : -0.0610486753285}
2019-04-03 18:54:53.10: SIM {TimeUS : 59116344, Roll : 0.0, Pitch : 0.0, Yaw : 353.0, Alt : 584.090026855, Lat : -35.363261, Lng : 149.1652299, Q1 : 0.998134791851, Q2 : 0.0, Q3 : 0.0, Q4 : -0.0610486753285}
2019-04-03 18:54:53.19: SIM {TimeUS : 59216304, Roll : 0.0, Pitch : 0.0, Yaw : 353.0, Alt : 584.099975586, Lat : -35.363261, Lng : 149.1652299, Q1 : 0.998134791851, Q2 : 0.0, Q3 : 0.0, Q4 : -0.0610486753285}
2019-04-03 18:54:53.29: SIM {TimeUS : 59316264, Roll : 0.0, Pitch : 0.0, Yaw : 353.0, Alt : 584.099975586, Lat : -35.363261, Lng : 149.1652299, Q1 : 0.998134791851, Q2 : 0.0, Q3 : 0.0, Q4 : -0.0610486753285}
2019-04-03 18:54:53.39: SIM {TimeUS : 59416224, Roll : 0.0, Pitch : 0.0, Yaw : 353.0, Alt : 584.109985352, Lat : -35.363261, Lng : 149.1652299, Q1 : 0.998134791851, Q2 : 0.0, Q3 : 0.0, Q4 : -0.0610486753285}
2019-04-03 18:54:53.49: SIM {TimeUS : 59516184, Roll : 0.0, Pitch : 0.0, Yaw : 353.0, Alt : 584.130004883, Lat : -35.363261, Lng : 149.1652299, Q1 : 0.998134791851, Q2 : 0.0, Q3 : 0.0, Q4 : -0.0610486753285}
2019-04-03 18:54:53.59: SIM {TimeUS : 59616144, Roll : 0.0, Pitch : 0.0, Yaw : 353.0, Alt : 584.159973145, Lat : -35.363261, Lng : 149.1652299, Q1 : 0.998134791851, Q2 : 0.0, Q3 : 0.0, Q4 : -0.0610486753285}
2019-04-03 18:54:53.69: SIM {TimeUS : 59716104, Roll : 0.0, Pitch : 0.0, Yaw : 353.0, Alt : 584.190002441, Lat : -35.363261, Lng : 149.1652299, Q1 : 0.998134791851, Q2 : 0.0, Q3 : 0.0, Q4 : -0.0610486753285}
2019-04-03 18:54:53.79: SIM {TimeUS : 59816064, Roll : -0.01, Pitch : 0.0, Yaw : 352.99, Alt : 584.239990234, Lat : -35.363261, Lng : 149.1652299, Q1 : 0.998134732246, Q2 : -0.000102418649476, Q3 : -4.80365779367e-05, Q4 : -0.0610494837165}
2019-04-03 18:54:53.89: SIM {TimeUS : 59916024, Roll : -0.05, Pitch : -0.04, Yaw : 352.99, Alt : 584.33001709, Lat : -35.363261, Lng : 149.1652299, Q1 : 0.998134016991, Q2 : -0.000485419877805, Q3 : -0.00033917473047, Q4 : -0.0610587075353}
2019-04-03 18:54:53.99: SIM {TimeUS : 60015984, Roll : -0.1, Pitch : -0.08, Yaw : 352.99, Alt : 584.460021973, Lat : -35.363261, Lng : 149.1652299, Q1 : 0.998132109642, Q2 : -0.000961445330177, Q3 : -0.000704520498402, Q4 : -0.0610812678933}
2019-04-03 18:54:54.09: SIM {TimeUS : 60115944, Roll : -0.15, Pitch : -0.11, Yaw : 352.99, Alt : 584.619995117, Lat : -35.363261, Lng : 149.1652299, Q1 : 0.998129665852, Q2 : -0.00143746752292, Q3 : -0.000925497850403, Q4 : -0.0611086934805}
2019-04-03 18:54:54.19: SIM {TimeUS : 60215904, Roll : -0.2, Pitch : -0.1, Yaw : 352.99, Alt : 584.770019531, Lat : -35.363261, Lng : 149.1652299, Q1 : 0.998127520084, Q2 : -0.00180821912363, Q3 : -0.00084912154125, Q4 : -0.0611356981099}
2019-04-03 18:54:54.29: SIM {TimeUS : 60315864, Roll : -0.22, Pitch : -0.08, Yaw : 352.98, Alt : 584.929992676, Lat : -35.363261, Lng : 149.1652299, Q1 : 0.998125851154, Q2 : -0.00200271629728, Q3 : -0.000591457472183, Q4 : -0.0611596815288}
2019-04-03 18:54:54.39: SIM {TimeUS : 60415824, Roll : -0.21, Pitch : -0.05, Yaw : 352.98, Alt : 585.08001709, Lat : -35.363261, Lng : 149.1652299, Q1 : 0.998125076294, Q2 : -0.00189741502982, Q3 : -0.000384269253118, Q4 : -0.0611769780517}
2019-04-03 18:54:54.49: SIM {TimeUS : 60515784, Roll : -0.16, Pitch : -0.03, Yaw : 352.98, Alt : 585.229980469, Lat : -35.363261, Lng : 149.1652299, Q1 : 0.998125195503, Q2 : -0.00149542849977, Q3 : -0.000243673217483, Q4 : -0.0611871518195}
2019-04-03 18:54:54.59: SIM {TimeUS : 60615744, Roll : -0.11, Pitch : -0.03, Yaw : 352.98, Alt : 585.400024414, Lat : -35.363261, Lng : 149.1652299, Q1 : 0.998125374317, Q2 : -0.000994893605821, Q3 : -0.000232575781411, Q4 : -0.0611940510571}
2019-04-03 18:54:54.69: SIM {TimeUS : 60715704, Roll : -0.04, Pitch : -0.04, Yaw : 352.98, Alt : 585.570007324, Lat : -35.363261, Lng : 149.1652299, Q1 : 0.998125612736, Q2 : -0.000407696497859, Q3 : -0.000398997974116, Q4 : -0.0611970834434}
2019-04-03 18:54:54.79: SIM {TimeUS : 60815664, Roll : 0.0, Pitch : -0.06, Yaw : 352.98, Alt : 585.75, Lat : -35.363261, Lng : 149.1652299, Q1 : 0.99812567234, Q2 : -7.03401237843e-05, Q3 : -0.000561507476959, Q4 : -0.0611954405904}
2019-04-03 18:54:54.90: SIM {TimeUS : 60916457, Roll : 0.0, Pitch : -0.04, Yaw : 352.98, Alt : 585.929992676, Lat : -35.363261, Lng : 149.1652299, Q1 : 0.99812567234, Q2 : -5.32626290806e-05, Q3 : -0.000421567441663, Q4 : -0.0611960291862}
2019-04-03 18:54:55.00: SIM {TimeUS : 61016417, Roll : -0.03, Pitch : -0.02, Yaw : 352.98, Alt : 586.109985352, Lat : -35.363261, Lng : 149.1652298, Q1 : 0.998125076294, Q2 : -0.000279512954876, Q3 : -0.000187166282558, Q4 : -0.0612068101764}
2019-04-03 18:54:55.10: SIM {TimeUS : 61116377, Roll : -0.03, Pitch : 0.01, Yaw : 352.98, Alt : 586.299987793, Lat : -35.363261, Lng : 149.1652298, Q1 : 0.998124241829, Q2 : -0.00032849580748, Q3 : 0.000108755826659, Q4 : -0.0612198673189}
2019-04-03 18:54:55.20: SIM {TimeUS : 61216337, Roll : -0.04, Pitch : 0.02, Yaw : 352.97, Alt : 586.489990234, Lat : -35.363261, Lng : 149.1652298, Q1 : 0.998123884201, Q2 : -0.000335767137585, Q3 : 0.000246964511462, Q4 : -0.0612247660756}
2019-04-03 18:54:55.29: SIM {TimeUS : 61316297, Roll : -0.02, Pitch : 0.02, Yaw : 352.97, Alt : 586.690002441, Lat : -35.363261, Lng : 149.1652298, Q1 : 0.998123407364, Q2 : -0.000182751842658, Q3 : 0.000208384240977, Q4 : -0.0612341426313}
2019-04-03 18:54:55.39: SIM {TimeUS : 61416257, Roll : 0.0, Pitch : -0.02, Yaw : 352.97, Alt : 586.890014648, Lat : -35.363261, Lng : 149.1652298, Q1 : 0.998122930527, Q2 : 5.33978891326e-05, Q3 : -0.000179633396328, Q4 : -0.0612423457205}
2019-04-03 18:54:55.49: SIM {TimeUS : 61516217, Roll : 0.04, Pitch : -0.05, Yaw : 352.97, Alt : 587.090026855, Lat : -35.363261, Lng : 149.1652298, Q1 : 0.998122394085, Q2 : 0.000322291918565, Q3 : -0.000472637650091, Q4 : -0.0612482205033}
2019-04-03 18:54:55.59: SIM {TimeUS : 61616177, Roll : 0.06, Pitch : -0.03, Yaw : 352.97, Alt : 587.289978027, Lat : -35.363261, Lng : 149.1652298, Q1 : 0.998122870922, Q2 : 0.00054240366444, Q3 : -0.000304024637444, Q4 : -0.0612401664257}
2019-04-03 18:54:55.69: SIM {TimeUS : 61716137, Roll : 0.05, Pitch : 0.0, Yaw : 352.97, Alt : 587.489990234, Lat : -35.363261, Lng : 149.1652298, Q1 : 0.998123645782, Q2 : 0.00050259049749, Q3 : -1.91961098608e-05, Q4 : -0.0612290948629}
2019-04-03 18:54:55.79: SIM {TimeUS : 61816097, Roll : 0.02, Pitch : 0.0, Yaw : 352.98, Alt : 587.700012207, Lat : -35.363261, Lng : 149.1652298, Q1 : 0.998124241829, Q2 : 0.000259449821897, Q3 : 4.95796157338e-05, Q4 : -0.0612200945616}
2019-04-03 18:54:55.89: SIM {TimeUS : 61916057, Roll : 0.0, Pitch : 0.0, Yaw : 352.98, Alt : 587.900024414, Lat : -35.363261, Lng : 149.1652298, Q1 : 0.998124659061, Q2 : 3.71091373381e-05, Q3 : 4.20586111431e-05, Q4 : -0.0612140670419}
2019-04-03 18:54:55.99: SIM {TimeUS : 62016017, Roll : -0.01, Pitch : 0.0, Yaw : 352.98, Alt : 588.109985352, Lat : -35.363261, Lng : 149.1652298, Q1 : 0.998124957085, Q2 : -0.000139542040415, Q3 : -1.59709379659e-05, Q4 : -0.0612100474536}
2019-04-03 18:54:56.09: SIM {TimeUS : 62115977, Roll : -0.02, Pitch : -0.01, Yaw : 352.98, Alt : 588.320007324, Lat : -35.3632609, Lng : 149.1652298, Q1 : 0.998125016689, Q2 : -0.000254742335528, Q3 : -8.407504356e-05, Q4 : -0.0612087287009}
2019-04-03 18:54:56.19: SIM {TimeUS : 62215937, Roll : -0.02, Pitch : -0.03, Yaw : 352.98, Alt : 588.539978027, Lat : -35.3632609, Lng : 149.1652298, Q1 : 0.998124301434, Q2 : -0.000223627735977, Q3 : -0.000263521913439, Q4 : -0.061219163239}
2019-04-03 18:54:56.29: SIM {TimeUS : 62315897, Roll : -0.01, Pitch : -0.03, Yaw : 352.97, Alt : 588.75, Lat : -35.3632609, Lng : 149.1652298, Q1 : 0.998122692108, Q2 : -0.000167036254425, Q3 : -0.000320210034261, Q4 : -0.0612450540066}
2019-04-03 18:54:56.39: SIM {TimeUS : 62415857, Roll : -0.01, Pitch : -0.04, Yaw : 352.97, Alt : 588.960021973, Lat : -35.3632609, Lng : 149.1652298, Q1 : 0.998121082783, Q2 : -0.000109540706035, Q3 : -0.000357553974027, Q4 : -0.0612711831927}
2019-04-03 18:54:56.49: SIM {TimeUS : 62515817, Roll : 0.0, Pitch : -0.04, Yaw : 352.97, Alt : 589.179992676, Lat : -35.3632609, Lng : 149.1652298, Q1 : 0.998119950294, Q2 : -3.53715695383e-05, Q3 : -0.000386342668207, Q4 : -0.0612903535366}
2019-04-03 18:54:56.59: SIM {TimeUS : 62615777, Roll : -0.01, Pitch : -0.06, Yaw : 352.97, Alt : 589.390014648, Lat : -35.3632609, Lng : 149.1652297, Q1 : 0.998118698597, Q2 : -0.000159710078151, Q3 : -0.000533628219273, Q4 : -0.061308350414}
2019-04-03 18:54:56.69: SIM {TimeUS : 62715737, Roll : -0.04, Pitch : -0.08, Yaw : 352.96, Alt : 589.609985352, Lat : -35.3632609, Lng : 149.1652297, Q1 : 0.998117446899, Q2 : -0.000451513100415, Q3 : -0.000726113503333, Q4 : -0.0613257177174}
2019-04-03 18:54:56.79: SIM {TimeUS : 62815697, Roll : -0.08, Pitch : -0.11, Yaw : 352.96, Alt : 589.83001709, Lat : -35.3632609, Lng : 149.1652297, Q1 : 0.998115837574, Q2 : -0.000819033302832, Q3 : -0.000927032378968, Q4 : -0.0613450147212}
2019-04-03 18:54:56.90: SIM {TimeUS : 62916490, Roll : -0.09, Pitch : -0.12, Yaw : 352.96, Alt : 590.049987793, Lat : -35.3632609, Lng : 149.1652297, Q1 : 0.998114049435, Q2 : -0.000886360416189, Q3 : -0.00100554688834, Q4 : -0.0613727718592}
2019-04-03 18:54:57.00: SIM {TimeUS : 63016450, Roll : -0.07, Pitch : -0.1, Yaw : 352.95, Alt : 590.270019531, Lat : -35.3632609, Lng : 149.1652297, Q1 : 0.998112678528, Q2 : -0.000733924680389, Q3 : -0.00088458659593, Q4 : -0.0613988414407}
2019-04-03 18:54:57.10: SIM {TimeUS : 63116410, Roll : -0.04, Pitch : -0.05, Yaw : 352.95, Alt : 590.489990234, Lat : -35.3632609, Lng : 149.1652297, Q1 : 0.998112201691, Q2 : -0.000422151613748, Q3 : -0.000466228055302, Q4 : -0.0614141002297}
2019-04-03 18:54:57.20: SIM {TimeUS : 63216370, Roll : -0.03, Pitch : -0.03, Yaw : 352.95, Alt : 590.710021973, Lat : -35.3632609, Lng : 149.1652297, Q1 : 0.998111248016, Q2 : -0.000358460616553, Q3 : -0.000275386672001, Q4 : -0.0614313222468}
2019-04-03 18:54:57.30: SIM {TimeUS : 63316330, Roll : -0.04, Pitch : -0.01, Yaw : 352.95, Alt : 590.91998291, Lat : -35.3632609, Lng : 149.1652296, Q1 : 0.998110234737, Q2 : -0.000419224408688, Q3 : -6.41777151031e-05, Q4 : -0.0614475570619}
2019-04-03 18:54:57.39: SIM {TimeUS : 63416290, Roll : -0.05, Pitch : 0.02, Yaw : 352.95, Alt : 591.130004883, Lat : -35.3632608, Lng : 149.1652296, Q1 : 0.998109340668, Q2 : -0.000464659213321, Q3 : 0.00022803999309, Q4 : -0.0614611767232}
2019-04-03 18:54:57.49: SIM {TimeUS : 63516250, Roll : -0.06, Pitch : 0.03, Yaw : 352.95, Alt : 591.33001709, Lat : -35.3632608, Lng : 149.1652296, Q1 : 0.998108148575, Q2 : -0.000554021389689, Q3 : 0.000369511806639, Q4 : -0.0614795461297}
2019-04-03 18:54:57.59: SIM {TimeUS : 63616210, Roll : -0.06, Pitch : 0.04, Yaw : 352.94, Alt : 591.510009766, Lat : -35.3632608, Lng : 149.1652296, Q1 : 0.998106896877, Q2 : -0.000533707439899, Q3 : 0.000389079388697, Q4 : -0.061500236392}
2019-04-03 18:54:57.69: SIM {TimeUS : 63716170, Roll : -0.06, Pitch : 0.02, Yaw : 352.94, Alt : 591.690002441, Lat : -35.3632608, Lng : 149.1652296, Q1 : 0.998105585575, Q2 : -0.000552142038941, Q3 : 0.000238630178501, Q4 : -0.0615210309625}
2019-04-03 18:54:57.79: SIM {TimeUS : 63816130, Roll : -0.05, Pitch : -0.01, Yaw : 352.94, Alt : 591.849975586, Lat : -35.3632608, Lng : 149.1652296, Q1 : 0.998104333878, Q2 : -0.000523032620549, Q3 : -9.97651659418e-05, Q4 : -0.061541929841}
2019-04-03 18:54:57.89: SIM {TimeUS : 63916090, Roll : 0.06, Pitch : -0.13, Yaw : 352.94, Alt : 592.0, Lat : -35.3632608, Lng : 149.1652294, Q1 : 0.998102605343, Q2 : 0.000456322013633, Q3 : -0.00121924676932, Q4 : -0.061558816582}
2019-04-03 18:54:57.99: SIM {TimeUS : 64016050, Roll : 0.38, Pitch : -0.46, Yaw : 352.93, Alt : 592.140014648, Lat : -35.3632608, Lng : 149.1652294, Q1 : 0.998088657856, Q2 : 0.00309048988856, Q3 : -0.00427214475349, Q4 : -0.0615732744336}
2019-04-03 18:54:58.09: SIM {TimeUS : 64116010, Roll : 0.91, Pitch : -1.01, Yaw : 352.93, Alt : 592.270019531, Lat : -35.3632607, Lng : 149.1652294, Q1 : 0.998030781746, Q2 : 0.00741138402373, Q3 : -0.00936637911946, Q4 : -0.0615788213909}
2019-04-03 18:54:58.19: SIM {TimeUS : 64215970, Roll : 1.6, Pitch : -1.71, Yaw : 352.91, Alt : 592.380004883, Lat : -35.3632607, Lng : 149.1652294, Q1 : 0.997893631458, Q2 : 0.0130747212097, Q3 : -0.0157768484205, Q4 : -0.0615499950945}
2019-04-03 18:54:58.29: SIM {TimeUS : 64315930, Roll : 2.4, Pitch : -2.5, Yaw : 352.89, Alt : 592.479980469, Lat : -35.3632605, Lng : 149.1652296, Q1 : 0.997650265694, Q2 : 0.0195465032011, Q3 : -0.0231158155948, Q4 : -0.061462149024}
2019-04-03 18:54:58.39: SIM {TimeUS : 64415890, Roll : 3.16, Pitch : -3.3, Yaw : 352.87, Alt : 592.570007324, Lat : -35.3632605, Lng : 149.1652296, Q1 : 0.997319877148, Q2 : 0.0257672220469, Q3 : -0.0305099897087, Q4 : -0.0613052397966}
2019-04-03 18:54:58.49: SIM {TimeUS : 64515850, Roll : 3.8, Pitch : -3.97, Yaw : 352.85, Alt : 592.650024414, Lat : -35.3632604, Lng : 149.1652297, Q1 : 0.996981143951, Q2 : 0.030971005559, Q3 : -0.036633554846, Q4 : -0.0610524453223}
2019-04-03 18:54:58.59: SIM {TimeUS : 64615810, Roll : 4.28, Pitch : -4.44, Yaw : 352.86, Alt : 592.719970703, Lat : -35.3632602, Lng : 149.1652298, Q1 : 0.996700286865, Q2 : 0.03487855196, Q3 : -0.0410460196435, Q4 : -0.0607229210436}
2019-04-03 18:54:58.69: SIM {TimeUS : 64715770, Roll : 4.63, Pitch : -4.78, Yaw : 352.87, Alt : 592.780029297, Lat : -35.3632599, Lng : 149.1652299, Q1 : 0.996486067772, Q2 : 0.0377300269902, Q3 : -0.0441513210535, Q4 : -0.0603538155556}
2019-04-03 18:54:58.79: SIM {TimeUS : 64815730, Roll : 4.88, Pitch : -5.05, Yaw : 352.89, Alt : 592.840026855, Lat : -35.3632596, Lng : 149.1652303, Q1 : 0.996314406395, Q2 : 0.0397825948894, Q3 : -0.0466545708477, Q4 : -0.0599866770208}
2019-04-03 18:54:58.89: SIM {TimeUS : 64915690, Roll : 5.1, Pitch : -5.33, Yaw : 352.9, Alt : 592.880004883, Lat : -35.3632592, Lng : 149.1652306, Q1 : 0.996142029762, Q2 : 0.0415398441255, Q3 : -0.0491788350046, Q4 : -0.0596405528486}
2019-04-03 18:54:59.00: SIM {TimeUS : 65016483, Roll : 5.33, Pitch : -5.6, Yaw : 352.92, Alt : 592.929992676, Lat : -35.3632587, Lng : 149.165231, Q1 : 0.995961487293, Q2 : 0.0433373786509, Q3 : -0.0516292899847, Q4 : -0.0593045130372}
2019-04-03 18:54:59.10: SIM {TimeUS : 65116443, Roll : 5.53, Pitch : -5.82, Yaw : 352.93, Alt : 592.960021973, Lat : -35.3632583, Lng : 149.1652313, Q1 : 0.995800793171, Q2 : 0.045040410012, Q3 : -0.0535929612815, Q4 : -0.0589909553528}
2019-04-03 18:54:59.20: SIM {TimeUS : 65216403, Roll : 5.71, Pitch : -5.98, Yaw : 352.95, Alt : 593.0, Lat : -35.3632577, Lng : 149.1652318, Q1 : 0.995666801929, Q2 : 0.0464665144682, Q3 : -0.0551380440593, Q4 : -0.0587219297886}
2019-04-03 18:54:59.30: SIM {TimeUS : 65316363, Roll : 5.84, Pitch : -6.11, Yaw : 352.95, Alt : 593.030029297, Lat : -35.3632571, Lng : 149.1652325, Q1 : 0.995565056801, Q2 : 0.0475267469883, Q3 : -0.0562773421407, Q4 : -0.058518089354}
2019-04-03 18:54:59.40: SIM {TimeUS : 65416323, Roll : 5.91, Pitch : -6.21, Yaw : 352.96, Alt : 593.059997559, Lat : -35.3632564, Lng : 149.1652331, Q1 : 0.995490193367, Q2 : 0.048117376864, Q3 : -0.0572099946439, Q4 : -0.0584039725363}
2019-04-03 18:54:59.49: SIM {TimeUS : 65516283, Roll : 5.95, Pitch : -6.32, Yaw : 352.95, Alt : 593.090026855, Lat : -35.3632556, Lng : 149.1652337, Q1 : 0.995423853397, Q2 : 0.0484104752541, Q3 : -0.0581397935748, Q4 : -0.058374542743}
2019-04-03 18:54:59.59: SIM {TimeUS : 65616243, Roll : 6.05, Pitch : -6.43, Yaw : 352.95, Alt : 593.109985352, Lat : -35.3632549, Lng : 149.1652345, Q1 : 0.995329618454, Q2 : 0.0492051877081, Q3 : -0.0591575577855, Q4 : -0.0582939721644}
2019-04-03 18:54:59.69: SIM {TimeUS : 65716203, Roll : 6.41, Pitch : -6.43, Yaw : 353.17, Alt : 593.140014648, Lat : -35.363254, Lng : 149.1652353, Q1 : 0.995280742645, Q2 : 0.0524155907333, Q3 : -0.05928741768, Q4 : -0.0561593845487}
2019-04-03 18:54:59.79: SIM {TimeUS : 65816163, Roll : 7.02, Pitch : -6.35, Yaw : 354.26, Alt : 593.159973145, Lat : -35.3632531, Lng : 149.165236, Q1 : 0.995508551598, Q2 : 0.0582828000188, Q3 : -0.0583526566625, Q4 : -0.0464847050607}
2019-04-03 18:54:59.89: SIM {TimeUS : 65916123, Roll : 7.6, Pitch : -6.48, Yaw : 356.84, Alt : 593.179992676, Lat : -35.363252, Lng : 149.165237, Q1 : 0.995929062366, Q2 : 0.0646279528737, Q3 : -0.0582052506506, Q4 : -0.0236782934517}
2019-04-03 18:54:59.99: SIM {TimeUS : 66016083, Roll : 7.81, Pitch : -7.02, Yaw : 1.08, Alt : 593.200012207, Lat : -35.3632511, Lng : 149.1652379, Q1 : 0.995718300343, Q2 : 0.0685910284519, Q3 : -0.0604582540691, Q4 : 0.0136069627479}
2019-04-03 18:55:00.09: SIM {TimeUS : 66116043, Roll : 7.43, Pitch : -7.97, Yaw : 6.81, Alt : 593.229980469, Lat : -35.36325, Lng : 149.165239, Q1 : 0.993448853493, Q2 : 0.0687027350068, Q3 : -0.0654459893703, Q4 : 0.0636881366372}
2019-04-03 18:55:00.19: SIM {TimeUS : 66216003, Roll : 6.37, Pitch : -9.19, Yaw : 13.76, Alt : 593.25, Lat : -35.3632489, Lng : 149.1652403, Q1 : 0.987534403801, Q2 : 0.0645999759436, Q3 : -0.0727889835835, Q4 : 0.123710937798}
2019-04-03 18:55:00.29: SIM {TimeUS : 66315963, Roll : 4.6, Pitch : -10.46, Yaw : 21.62, Alt : 593.270019531, Lat : -35.3632477, Lng : 149.1652414, Q1 : 0.976672530174, Q2 : 0.0563848987222, Q3 : -0.0820105448365, Q4 : 0.190278366208}
2019-04-03 18:55:00.39: SIM {TimeUS : 66415923, Roll : 1.98, Pitch : -11.56, Yaw : 29.83, Alt : 593.299987793, Lat : -35.3632465, Lng : 149.1652427, Q1 : 0.960789620876, Q2 : 0.0425776429474, Q3 : -0.0928745046258, Q4 : 0.257768720388}
2019-04-03 18:55:00.49: SIM {TimeUS : 66515883, Roll : -1.16, Pitch : -12.21, Yaw : 37.49, Alt : 593.33001709, Lat : -35.3632453, Lng : 149.1652442, Q1 : 0.941864967346, Q2 : 0.0246156547219, Q3 : -0.104002594948, Q4 : 0.318540304899}
2019-04-03 18:55:00.59: SIM {TimeUS : 66615843, Roll : -4.15, Pitch : -12.4, Yaw : 43.74, Alt : 593.349975586, Lat : -35.363244, Lng : 149.1652456, Q1 : 0.923438072205, Q2 : 0.00675971945748, Q3 : -0.113643683493, Q4 : 0.366471767426}
2019-04-03 18:55:00.69: SIM {TimeUS : 66715803, Roll : -6.33, Pitch : -12.32, Yaw : 48.04, Alt : 593.380004883, Lat : -35.3632426, Lng : 149.165247, Q1 : 0.909137129784, Q2 : -0.0065686693415, Q3 : -0.120302580297, Q4 : 0.398690283298}
2019-04-03 18:55:00.79: SIM {TimeUS : 66815763, Roll : -7.45, Pitch : -12.2, Yaw : 50.3, Alt : 593.409973145, Lat : -35.363241, Lng : 149.1652484, Q1 : 0.901084244251, Q2 : -0.0134044373408, Q3 : -0.123450890183, Q4 : 0.415484577417}
2019-04-03 18:55:00.89: SIM {TimeUS : 66915723, Roll : -7.5, Pitch : -12.21, Yaw : 50.77, Alt : 593.440002441, Lat : -35.3632394, Lng : 149.1652499, Q1 : 0.899371087551, Q2 : -0.0132956607267, Q3 : -0.123844631016, Q4 : 0.419067323208}
2019-04-03 18:55:00.99: SIM {TimeUS : 67015683, Roll : -6.71, Pitch : -12.48, Yaw : 49.81, Alt : 593.469970703, Lat : -35.3632376, Lng : 149.1652513, Q1 : 0.902763843536, Q2 : -0.00712652085349, Q3 : -0.1229698807, Q4 : 0.412122666836}
2019-04-03 18:55:01.10: SIM {TimeUS : 67116476, Roll : -5.34, Pitch : -12.99, Yaw : 47.77, Alt : 593.5, Lat : -35.3632358, Lng : 149.1652527, Q1 : 0.909600019455, Q2 : 0.0034413698595, Q3 : -0.122134819627, Q4 : 0.397113442421}
2019-04-03 18:55:01.20: SIM {TimeUS : 67216436, Roll : -3.67, Pitch : -13.65, Yaw : 45.06, Alt : 593.530029297, Lat : -35.3632337, Lng : 149.1652542, Q1 : 0.918093204498, Q2 : 0.0161314494908, Q3 : -0.121963232756, Q4 : 0.37678861618}
2019-04-03 18:55:01.30: SIM {TimeUS : 67316396, Roll : -1.92, Pitch : -14.33, Yaw : 41.99, Alt : 593.570007324, Lat : -35.3632318, Lng : 149.1652557, Q1 : 0.926917910576, Q2 : 0.0291422232985, Q3 : -0.122421771288, Q4 : 0.353534847498}
2019-04-03 18:55:01.40: SIM {TimeUS : 67416356, Roll : -0.25, Pitch : -14.88, Yaw : 38.9, Alt : 593.599975586, Lat : -35.3632298, Lng : 149.1652572, Q1 : 0.935060799122, Q2 : 0.0411002598703, Q3 : -0.122889347374, Q4 : 0.329955011606}
2019-04-03 18:55:01.49: SIM {TimeUS : 67516316, Roll : 1.19, Pitch : -15.21, Yaw : 36.13, Alt : 593.640014648, Lat : -35.3632276, Lng : 149.1652589, Q1 : 0.941849052906, Q2 : 0.0508568324149, Q3 : -0.122669436038, Q4 : 0.308684617281}
2019-04-03 18:55:01.59: SIM {TimeUS : 67616276, Roll : 2.26, Pitch : -15.33, Yaw : 33.95, Alt : 593.679992676, Lat : -35.3632255, Lng : 149.1652607, Q1 : 0.94692838192, Q2 : 0.0576814934611, Q3 : -0.121839664876, Q4 : 0.291812688112}
2019-04-03 18:55:01.69: SIM {TimeUS : 67716236, Roll : 2.9, Pitch : -15.32, Yaw : 32.5, Alt : 593.719970703, Lat : -35.3632233, Lng : 149.1652624, Q1 : 0.950203835964, Q2 : 0.0614131242037, Q3 : -0.120946489275, Q4 : 0.280558407307}
2019-04-03 18:55:01.79: SIM {TimeUS : 67816196, Roll : 3.09, Pitch : -15.29, Yaw : 31.84, Alt : 593.760009766, Lat : -35.3632209, Lng : 149.1652643, Q1 : 0.951759397984, Q2 : 0.0622289665043, Q3 : -0.120548211038, Q4 : 0.275226682425}
2019-04-03 18:55:01.89: SIM {TimeUS : 67916156, Roll : 2.9, Pitch : -15.28, Yaw : 31.88, Alt : 593.789978027, Lat : -35.3632187, Lng : 149.1652664, Q1 : 0.951764881611, Q2 : 0.0606540329754, Q3 : -0.120982259512, Q4 : 0.275368958712}
2019-04-03 18:55:01.99: SIM {TimeUS : 68016116, Roll : 2.39, Pitch : -15.34, Yaw : 32.49, Alt : 593.83001709, Lat : -35.3632164, Lng : 149.1652685, Q1 : 0.950461685658, Q2 : 0.0572543516755, Q3 : -0.122392848134, Q4 : 0.279936611652}
2019-04-03 18:55:02.09: SIM {TimeUS : 68116076, Roll : 1.69, Pitch : -15.46, Yaw : 33.51, Alt : 593.869995117, Lat : -35.363214, Lng : 149.1652705, Q1 : 0.948146522045, Q2 : 0.0528086423874, Q3 : -0.124637320638, Q4 : 0.287567317486}
2019-04-03 18:55:02.19: SIM {TimeUS : 68216036, Roll : 0.88, Pitch : -15.61, Yaw : 34.74, Alt : 593.909973145, Lat : -35.3632117, Lng : 149.1652728, Q1 : 0.945209562778, Q2 : 0.0478698424995, Q3 : -0.127318933606, Q4 : 0.296778082848}
2019-04-03 18:55:02.29: SIM {TimeUS : 68315996, Roll : 0.09, Pitch : -15.73, Yaw : 35.99, Alt : 593.950012207, Lat : -35.3632092, Lng : 149.1652751, Q1 : 0.942065179348, Q2 : 0.0431056544185, Q3 : -0.129965409636, Q4 : 0.30620932579}
2019-04-03 18:55:02.39: SIM {TimeUS : 68415956, Roll : -0.58, Pitch : -15.83, Yaw : 37.13, Alt : 593.989990234, Lat : -35.3632067, Lng : 149.1652772, Q1 : 0.939114272594, Q2 : 0.0390946418047, Q3 : -0.132209688425, Q4 : 0.314732551575}
2019-04-03 18:55:02.49: SIM {TimeUS : 68515916, Roll : -1.08, Pitch : -15.89, Yaw : 38.04, Alt : 594.030029297, Lat : -35.3632042, Lng : 149.1652796, Q1 : 0.936696767807, Q2 : 0.0362082496285, Q3 : -0.13380150497, Q4 : 0.321535885334}
2019-04-03 18:55:02.59: SIM {TimeUS : 68615876, Roll : -1.37, Pitch : -15.93, Yaw : 38.65, Alt : 594.070007324, Lat : -35.3632015, Lng : 149.165282, Q1 : 0.935027360916, Q2 : 0.0346280783415, Q3 : -0.134726971388, Q4 : 0.326149314642}
2019-04-03 18:55:02.69: SIM {TimeUS : 68715836, Roll : -1.45, Pitch : -15.96, Yaw : 38.94, Alt : 594.119995117, Lat : -35.363199, Lng : 149.1652843, Q1 : 0.934176683426, Q2 : 0.0344020724297, Q3 : -0.135099053383, Q4 : 0.328448921442}
2019-04-03 18:55:02.79: SIM {TimeUS : 68815796, Roll : -1.35, Pitch : -16.0, Yaw : 38.95, Alt : 594.159973145, Lat : -35.3631964, Lng : 149.1652867, Q1 : 0.934092462063, Q2 : 0.0353696681559, Q3 : -0.135116517544, Q4 : 0.32857838273}
2019-04-03 18:55:02.89: SIM {TimeUS : 68915756, Roll : -1.12, Pitch : -16.03, Yaw : 38.71, Alt : 594.200012207, Lat : -35.3631936, Lng : 149.1652891, Q1 : 0.934655845165, Q2 : 0.0370947420597, Q3 : -0.134832426906, Q4 : 0.326898545027}
2019-04-03 18:55:02.99: SIM {TimeUS : 69015716, Roll : -0.82, Pitch : -16.08, Yaw : 38.3, Alt : 594.239990234, Lat : -35.3631909, Lng : 149.1652915, Q1 : 0.935656487942, Q2 : 0.0391948856413, Q3 : -0.134531766176, Q4 : 0.323901116848}
2019-04-03 18:55:03.09: SIM {TimeUS : 69115676, Roll : -0.51, Pitch : -16.13, Yaw : 37.8, Alt : 594.280029297, Lat : -35.363188, Lng : 149.165294, Q1 : 0.936901807785, Q2 : 0.0412892103195, Q3 : -0.134197875857, Q4 : 0.320158034563}
2019-04-03 18:55:03.20: SIM {TimeUS : 69216469, Roll : -0.21, Pitch : -16.18, Yaw : 37.28, Alt : 594.320007324, Lat : -35.3631853, Lng : 149.1652964, Q1 : 0.938186705112, Q2 : 0.0432674773037, Q3 : -0.133983910084, Q4 : 0.316199272871}
2019-04-03 18:55:03.30: SIM {TimeUS : 69316429, Roll : 0.05, Pitch : -16.23, Yaw : 36.8, Alt : 594.359985352, Lat : -35.3631825, Lng : 149.165299, Q1 : 0.939341425896, Q2 : 0.0450130440295, Q3 : -0.13380523026, Q4 : 0.312582343817}
2019-04-03 18:55:03.40: SIM {TimeUS : 69416389, Roll : 0.25, Pitch : -16.29, Yaw : 36.41, Alt : 594.400024414, Lat : -35.3631795, Lng : 149.1653015, Q1 : 0.940244555473, Q2 : 0.0463529229164, Q3 : -0.133931860328, Q4 : 0.309602737427}
2019-04-03 18:55:03.50: SIM {TimeUS : 69516349, Roll : 0.37, Pitch : -16.35, Yaw : 36.14, Alt : 594.440002441, Lat : -35.3631768, Lng : 149.165304, Q1 : 0.940861165524, Q2 : 0.0472022816539, Q3 : -0.134204342961, Q4 : 0.307475984097}
2019-04-03 18:55:03.59: SIM {TimeUS : 69616309, Roll : 0.42, Pitch : -16.4, Yaw : 35.99, Alt : 594.479980469, Lat : -35.3631739, Lng : 149.1653067, Q1 : 0.941178202629, Q2 : 0.0475412532687, Q3 : -0.134600788355, Q4 : 0.306277811527}
2019-04-03 18:55:03.69: SIM {TimeUS : 69716269, Roll : 0.4, Pitch : -16.44, Yaw : 35.95, Alt : 594.520019531, Lat : -35.363171, Lng : 149.1653093, Q1 : 0.941221177578, Q2 : 0.0475125610828, Q3 : -0.134982898831, Q4 : 0.305981904268}
2019-04-03 18:55:03.79: SIM {TimeUS : 69816229, Roll : 0.34, Pitch : -16.48, Yaw : 36.02, Alt : 594.559997559, Lat : -35.363168, Lng : 149.1653119, Q1 : 0.94103884697, Q2 : 0.0471263453364, Q3 : -0.135405957699, Q4 : 0.306415081024}
2019-04-03 18:55:03.89: SIM {TimeUS : 69916189, Roll : 0.23, Pitch : -16.49, Yaw : 36.15, Alt : 594.599975586, Lat : -35.363165, Lng : 149.1653145, Q1 : 0.940707564354, Q2 : 0.0464344769716, Q3 : -0.135752528906, Q4 : 0.307383060455}
2019-04-03 18:55:03.99: SIM {TimeUS : 70016149, Roll : 0.09, Pitch : -16.5, Yaw : 36.33, Alt : 594.640014648, Lat : -35.363162, Lng : 149.1653173, Q1 : 0.940287947655, Q2 : 0.0455222725868, Q3 : -0.136096552014, Q4 : 0.308648765087}
2019-04-03 18:55:04.09: SIM {TimeUS : 70116109, Roll : -0.04, Pitch : -16.51, Yaw : 36.51, Alt : 594.690002441, Lat : -35.3631591, Lng : 149.1653199, Q1 : 0.939824163914, Q2 : 0.0446402579546, Q3 : -0.136520043015, Q4 : 0.310000240803}
2019-04-03 18:55:04.19: SIM {TimeUS : 70216069, Roll : -0.16, Pitch : -16.53, Yaw : 36.68, Alt : 594.729980469, Lat : -35.3631559, Lng : 149.1653227, Q1 : 0.939378559589, Q2 : 0.0438872650266, Q3 : -0.136969089508, Q4 : 0.31125754118}
2019-04-03 18:55:04.29: SIM {TimeUS : 70316029, Roll : -0.25, Pitch : -16.55, Yaw : 36.82, Alt : 594.770019531, Lat : -35.3631529, Lng : 149.1653255, Q1 : 0.939012527466, Q2 : 0.0433518849313, Q3 : -0.137301951647, Q4 : 0.312288731337}
2019-04-03 18:55:04.39: SIM {TimeUS : 70415989, Roll : -0.31, Pitch : -16.57, Yaw : 36.92, Alt : 594.809997559, Lat : -35.3631498, Lng : 149.1653283, Q1 : 0.938752353191, Q2 : 0.0430506020784, Q3 : -0.137586757541, Q4 : 0.312986522913}
2019-04-03 18:55:04.49: SIM {TimeUS : 70515949, Roll : -0.34, Pitch : -16.6, Yaw : 36.96, Alt : 594.849975586, Lat : -35.3631468, Lng : 149.1653311, Q1 : 0.938604295254, Q2 : 0.0429799407721, Q3 : -0.137923359871, Q4 : 0.313291996717}
2019-04-03 18:55:04.59: SIM {TimeUS : 70615909, Roll : -0.32, Pitch : -16.66, Yaw : 36.96, Alt : 594.900024414, Lat : -35.3631437, Lng : 149.1653337, Q1 : 0.93855214119, Q2 : 0.0432319156826, Q3 : -0.138324856758, Q4 : 0.313236504793}
2019-04-03 18:55:04.69: SIM {TimeUS : 70715869, Roll : -0.27, Pitch : -16.7, Yaw : 36.91, Alt : 594.940002441, Lat : -35.3631406, Lng : 149.1653366, Q1 : 0.938607633114, Q2 : 0.0437305159867, Q3 : -0.13855932653, Q4 : 0.312897264957}
2019-04-03 18:55:04.79: SIM {TimeUS : 70815829, Roll : -0.2, Pitch : -16.74, Yaw : 36.83, Alt : 594.979980469, Lat : -35.3631375, Lng : 149.1653394, Q1 : 0.938739478588, Q2 : 0.0443266704679, Q3 : -0.138742342591, Q4 : 0.312336206436}
2019-04-03 18:55:04.89: SIM {TimeUS : 70915789, Roll : -0.12, Pitch : -16.76, Yaw : 36.74, Alt : 595.020019531, Lat : -35.3631344, Lng : 149.1653423, Q1 : 0.93894469738, Q2 : 0.0448971688747, Q3 : -0.138721138239, Q4 : 0.311646491289}
2019-04-03 18:55:04.99: SIM {TimeUS : 71015749, Roll : -0.08, Pitch : -16.77, Yaw : 36.64, Alt : 595.059997559, Lat : -35.3631312, Lng : 149.1653451, Q1 : 0.939182341099, Q2 : 0.0451710298657, Q3 : -0.138724043965, Q4 : 0.31088873744}
2019-04-03 18:55:05.09: SIM {TimeUS : 71115709, Roll : -0.05, Pitch : -16.78, Yaw : 36.55, Alt : 595.109985352, Lat : -35.3631281, Lng : 149.165348, Q1 : 0.939411401749, Q2 : 0.0452875867486, Q3 : -0.138761237264, Q4 : 0.310162246227}
2019-04-03 18:55:05.19: SIM {TimeUS : 71215669, Roll : -0.04, Pitch : -16.79, Yaw : 36.47, Alt : 595.150024414, Lat : -35.3631248, Lng : 149.1653508, Q1 : 0.939607799053, Q2 : 0.0452948100865, Q3 : -0.138836532831, Q4 : 0.309531927109}
2019-04-03 18:55:05.30: SIM {TimeUS : 71316462, Roll : -0.03, Pitch : -16.81, Yaw : 36.41, Alt : 595.190002441, Lat : -35.3631216, Lng : 149.1653537, Q1 : 0.939739525318, Q2 : 0.0453839153051, Q3 : -0.138985589147, Q4 : 0.309051722288}
2019-04-03 18:55:05.40: SIM {TimeUS : 71416422, Roll : -0.02, Pitch : -16.86, Yaw : 36.37, Alt : 595.229980469, Lat : -35.3631184, Lng : 149.1653566, Q1 : 0.939780116081, Q2 : 0.0455429181457, Q3 : -0.139381229877, Q4 : 0.308726459742}
2019-04-03 18:55:05.50: SIM {TimeUS : 71516382, Roll : -0.03, Pitch : -16.92, Yaw : 36.35, Alt : 595.280029297, Lat : -35.3631151, Lng : 149.1653595, Q1 : 0.939764559269, Q2 : 0.0456183180213, Q3 : -0.139903962612, Q4 : 0.308526366949}
2019-04-03 18:55:05.60: SIM {TimeUS : 71616342, Roll : -0.05, Pitch : -16.96, Yaw : 36.35, Alt : 595.320007324, Lat : -35.363112, Lng : 149.1653624, Q1 : 0.939733207226, Q2 : 0.0455274246633, Q3 : -0.140323191881, Q4 : 0.308444827795}
2019-04-03 18:55:05.69: SIM {TimeUS : 71716302, Roll : -0.07, Pitch : -16.97, Yaw : 36.35, Alt : 595.359985352, Lat : -35.3631088, Lng : 149.1653653, Q1 : 0.939712524414, Q2 : 0.0453990250826, Q3 : -0.140442058444, Q4 : 0.308472573757}
2019-04-03 18:55:05.79: SIM {TimeUS : 71816262, Roll : -0.08, Pitch : -16.97, Yaw : 36.37, Alt : 595.400024414, Lat : -35.3631054, Lng : 149.1653682, Q1 : 0.939679861069, Q2 : 0.045362636447, Q3 : -0.140468344092, Q4 : 0.308565527201}
2019-04-03 18:55:05.89: SIM {TimeUS : 71916222, Roll : -0.09, Pitch : -16.96, Yaw : 36.38, Alt : 595.450012207, Lat : -35.3631022, Lng : 149.1653711, Q1 : 0.939658463001, Q2 : 0.0453079901636, Q3 : -0.140382632613, Q4 : 0.308677613735}
2019-04-03 18:55:05.99: SIM {TimeUS : 72016182, Roll : -0.1, Pitch : -16.93, Yaw : 36.39, Alt : 595.489990234, Lat : -35.363099, Lng : 149.165374, Q1 : 0.939660847187, Q2 : 0.0451462417841, Q3 : -0.140202268958, Q4 : 0.308776140213}
2019-04-03 18:55:06.09: SIM {TimeUS : 72116142, Roll : -0.1, Pitch : -16.93, Yaw : 36.4, Alt : 595.530029297, Lat : -35.3630956, Lng : 149.1653771, Q1 : 0.939645946026, Q2 : 0.0451440475881, Q3 : -0.140138372779, Q4 : 0.308850824833}
2019-04-03 18:55:06.19: SIM {TimeUS : 72216102, Roll : -0.09, Pitch : -16.94, Yaw : 36.4, Alt : 595.570007324, Lat : -35.3630924, Lng : 149.16538, Q1 : 0.939619421959, Q2 : 0.0452293120325, Q3 : -0.140244618058, Q4 : 0.308870643377}
2019-04-03 18:55:06.29: SIM {TimeUS : 72316062, Roll : -0.09, Pitch : -16.99, Yaw : 36.4, Alt : 595.609985352, Lat : -35.363089, Lng : 149.165383, Q1 : 0.939569652081, Q2 : 0.0453983619809, Q3 : -0.140626952052, Q4 : 0.308823436499}
2019-04-03 18:55:06.39: SIM {TimeUS : 72416022, Roll : -0.08, Pitch : -17.04, Yaw : 36.39, Alt : 595.659973145, Lat : -35.3630858, Lng : 149.1653859, Q1 : 0.939535498619, Q2 : 0.0456217862666, Q3 : -0.141009390354, Q4 : 0.308720111847}
2019-04-03 18:55:06.49: SIM {TimeUS : 72515982, Roll : -0.06, Pitch : -17.08, Yaw : 36.37, Alt : 595.700012207, Lat : -35.3630825, Lng : 149.1653888, Q1 : 0.939523458481, Q2 : 0.0458797104657, Q3 : -0.141311302781, Q4 : 0.308580428362}
2019-04-03 18:55:06.59: SIM {TimeUS : 72615942, Roll : -0.04, Pitch : -17.14, Yaw : 36.35, Alt : 595.739990234, Lat : -35.3630791, Lng : 149.1653919, Q1 : 0.939506649971, Q2 : 0.0461445711553, Q3 : -0.141735628247, Q4 : 0.308397382498}
2019-04-03 18:55:06.69: SIM {TimeUS : 72715902, Roll : -0.03, Pitch : -17.19, Yaw : 36.32, Alt : 595.780029297, Lat : -35.3630758, Lng : 149.1653949, Q1 : 0.939495027065, Q2 : 0.0463636592031, Q3 : -0.14215990901, Q4 : 0.308204680681}
2019-04-03 18:55:06.79: SIM {TimeUS : 72815862, Roll : -0.02, Pitch : -17.21, Yaw : 36.3, Alt : 595.83001709, Lat : -35.3630725, Lng : 149.1653978, Q1 : 0.939535260201, Q2 : 0.0464435406029, Q3 : -0.142245069146, Q4 : 0.308030635118}
2019-04-03 18:55:06.89: SIM {TimeUS : 72915822, Roll : -0.01, Pitch : -17.19, Yaw : 36.28, Alt : 595.869995117, Lat : -35.3630691, Lng : 149.1654008, Q1 : 0.93960827589, Q2 : 0.0464454255998, Q3 : -0.142098769546, Q4 : 0.307875007391}
2019-04-03 18:55:06.99: SIM {TimeUS : 73015782, Roll : 0.0, Pitch : -17.17, Yaw : 36.26, Alt : 595.909973145, Lat : -35.3630658, Lng : 149.1654039, Q1 : 0.939674198627, Q2 : 0.0464698709548, Q3 : -0.141941934824, Q4 : 0.307742536068}
2019-04-03 18:55:07.09: SIM {TimeUS : 73115742, Roll : 0.01, Pitch : -17.18, Yaw : 36.25, Alt : 595.950012207, Lat : -35.3630623, Lng : 149.1654069, Q1 : 0.939707875252, Q2 : 0.046610403806, Q3 : -0.141907513142, Q4 : 0.30763438344}
2019-04-03 18:55:07.19: SIM {TimeUS : 73215702, Roll : 0.03, Pitch : -17.21, Yaw : 36.23, Alt : 595.989990234, Lat : -35.363059, Lng : 149.1654098, Q1 : 0.939695596695, Q2 : 0.0468110740185, Q3 : -0.142134204507, Q4 : 0.307536661625}
2019-04-03 18:55:07.29: SIM {TimeUS : 73315662, Roll : 0.02, Pitch : -17.24, Yaw : 36.22, Alt : 596.039978027, Lat : -35.3630556, Lng : 149.165413, Q1 : 0.939677536488, Q2 : 0.0468569770455, Q3 : -0.142438903451, Q4 : 0.307443767786}
2019-04-03 18:55:07.40: SIM {TimeUS : 73416455, Roll : 0.0, Pitch : -17.26, Yaw : 36.22, Alt : 596.08001709, Lat : -35.3630523, Lng : 149.165416, Q1 : 0.939678788185, Q2 : 0.0467240810394, Q3 : -0.142672762275, Q4 : 0.307351887226}
2019-04-03 18:55:07.50: SIM {TimeUS : 73516415, Roll : -0.02, Pitch : -17.27, Yaw : 36.21, Alt : 596.119995117, Lat : -35.3630488, Lng : 149.165419, Q1 : 0.939695239067, Q2 : 0.0465070009232, Q3 : -0.142829611897, Q4 : 0.307261496782}
2019-04-03 18:55:07.60: SIM {TimeUS : 73616375, Roll : -0.04, Pitch : -17.26, Yaw : 36.21, Alt : 596.159973145, Lat : -35.3630455, Lng : 149.1654221, Q1 : 0.939733028412, Q2 : 0.0462872385979, Q3 : -0.142806351185, Q4 : 0.307189971209}
2019-04-03 18:55:07.70: SIM {TimeUS : 73716335, Roll : -0.02, Pitch : -17.25, Yaw : 36.2, Alt : 596.200012207, Lat : -35.3630421, Lng : 149.1654251, Q1 : 0.939767181873, Q2 : 0.046362567693, Q3 : -0.142627999187, Q4 : 0.307156980038}
2019-04-03 18:55:07.79: SIM {TimeUS : 73816295, Roll : 0.0, Pitch : -17.24, Yaw : 36.19, Alt : 596.25, Lat : -35.3630387, Lng : 149.1654281, Q1 : 0.939781188965, Q2 : 0.0465620905161, Q3 : -0.142537146807, Q4 : 0.307126045227}
2019-04-03 18:55:07.89: SIM {TimeUS : 73916255, Roll : 0.02, Pitch : -17.27, Yaw : 36.18, Alt : 596.289978027, Lat : -35.3630353, Lng : 149.1654313, Q1 : 0.939756155014, Q2 : 0.0468160770833, Q3 : -0.142728939652, Q4 : 0.307075083256}
2019-04-03 18:55:07.99: SIM {TimeUS : 74016215, Roll : 0.03, Pitch : -17.31, Yaw : 36.18, Alt : 596.33001709, Lat : -35.3630318, Lng : 149.1654342, Q1 : 0.939716815948, Q2 : 0.0470600649714, Q3 : -0.143025770783, Q4 : 0.307020008564}
2019-04-03 18:55:08.09: SIM {TimeUS : 74116175, Roll : 0.04, Pitch : -17.34, Yaw : 36.17, Alt : 596.369995117, Lat : -35.3630284, Lng : 149.1654374, Q1 : 0.939701378345, Q2 : 0.0471499152482, Q3 : -0.143244996667, Q4 : 0.306951195002}
2019-04-03 18:55:08.19: SIM {TimeUS : 74216135, Roll : 0.04, Pitch : -17.36, Yaw : 36.16, Alt : 596.409973145, Lat : -35.363025, Lng : 149.1654404, Q1 : 0.939703762531, Q2 : 0.0471943058074, Q3 : -0.143386781216, Q4 : 0.306871026754}
2019-04-03 18:55:08.29: SIM {TimeUS : 74316095, Roll : 0.04, Pitch : -17.38, Yaw : 36.15, Alt : 596.460021973, Lat : -35.3630215, Lng : 149.1654434, Q1 : 0.939701557159, Q2 : 0.0472728721797, Q3 : -0.143545731902, Q4 : 0.306791216135}
2019-04-03 18:55:08.39: SIM {TimeUS : 74416055, Roll : 0.05, Pitch : -17.39, Yaw : 36.14, Alt : 596.5, Lat : -35.3630181, Lng : 149.1654466, Q1 : 0.939710974693, Q2 : 0.0473738946021, Q3 : -0.143598765135, Q4 : 0.306722044945}
2019-04-03 18:55:08.49: SIM {TimeUS : 74516015, Roll : 0.06, Pitch : -17.4, Yaw : 36.13, Alt : 596.539978027, Lat : -35.3630147, Lng : 149.1654496, Q1 : 0.939722537994, Q2 : 0.0474676080048, Q3 : -0.143628850579, Q4 : 0.306658029556}
2019-04-03 18:55:08.59: SIM {TimeUS : 74615975, Roll : 0.07, Pitch : -17.42, Yaw : 36.12, Alt : 596.58001709, Lat : -35.3630112, Lng : 149.1654527, Q1 : 0.939709722996, Q2 : 0.047595333308, Q3 : -0.143801346421, Q4 : 0.306596726179}
2019-04-03 18:55:08.69: SIM {TimeUS : 74715935, Roll : 0.09, Pitch : -17.46, Yaw : 36.12, Alt : 596.619995117, Lat : -35.3630078, Lng : 149.1654558, Q1 : 0.939665555954, Q2 : 0.0478206574917, Q3 : -0.144130930305, Q4 : 0.306542277336}
2019-04-03 18:55:08.79: SIM {TimeUS : 74815895, Roll : 0.08, Pitch : -17.5, Yaw : 36.11, Alt : 596.66998291, Lat : -35.3630044, Lng : 149.1654589, Q1 : 0.939634680748, Q2 : 0.047913800925, Q3 : -0.144462391734, Q4 : 0.306466251612}
2019-04-03 18:55:08.89: SIM {TimeUS : 74915855, Roll : 0.06, Pitch : -17.52, Yaw : 36.1, Alt : 596.710021973, Lat : -35.3630008, Lng : 149.165462, Q1 : 0.93964111805, Q2 : 0.047753430903, Q3 : -0.144677430391, Q4 : 0.306370198727}
2019-04-03 18:55:08.99: SIM {TimeUS : 75015815, Roll : 0.03, Pitch : -17.53, Yaw : 36.09, Alt : 596.75, Lat : -35.3629975, Lng : 149.1654651, Q1 : 0.939659118652, Q2 : 0.0475266724825, Q3 : -0.144851088524, Q4 : 0.306268125772}
2019-04-03 18:55:09.09: SIM {TimeUS : 75115775, Roll : 0.02, Pitch : -17.52, Yaw : 36.09, Alt : 596.789978027, Lat : -35.362994, Lng : 149.1654682, Q1 : 0.939699649811, Q2 : 0.0473663136363, Q3 : -0.144824683666, Q4 : 0.306180983782}
2019-04-03 18:55:09.19: SIM {TimeUS : 75215735, Roll : 0.03, Pitch : -17.53, Yaw : 36.08, Alt : 596.83001709, Lat : -35.3629905, Lng : 149.1654713, Q1 : 0.939709544182, Q2 : 0.0474630706012, Q3 : -0.144860774279, Q4 : 0.306118667126}
2019-04-03 18:55:09.29: SIM {TimeUS : 75315695, Roll : 0.03, Pitch : -17.55, Yaw : 36.07, Alt : 596.880004883, Lat : -35.3629871, Lng : 149.1654744, Q1 : 0.939710140228, Q2 : 0.0475671514869, Q3 : -0.144966423512, Q4 : 0.306050598621}
2019-04-03 18:55:09.40: SIM {TimeUS : 75416488, Roll : 0.05, Pitch : -17.56, Yaw : 36.06, Alt : 596.91998291, Lat : -35.3629836, Lng : 149.1654776, Q1 : 0.939707815647, Q2 : 0.0477019920945, Q3 : -0.1450740695, Q4 : 0.305985629559}
2019-04-03 18:55:09.50: SIM {TimeUS : 75516448, Roll : 0.06, Pitch : -17.56, Yaw : 36.05, Alt : 596.960021973, Lat : -35.3629801, Lng : 149.1654807, Q1 : 0.939727067947, Q2 : 0.0478005446494, Q3 : -0.14504930377, Q4 : 0.305923044682}
2019-04-03 18:55:09.60: SIM {TimeUS : 75616408, Roll : 0.07, Pitch : -17.57, Yaw : 36.04, Alt : 597.0, Lat : -35.3629765, Lng : 149.1654838, Q1 : 0.939747750759, Q2 : 0.0478371344507, Q3 : -0.145061016083, Q4 : 0.305848121643}
2019-04-03 18:55:09.70: SIM {TimeUS : 75716368, Roll : 0.07, Pitch : -17.57, Yaw : 36.03, Alt : 597.049987793, Lat : -35.3629731, Lng : 149.1654869, Q1 : 0.939769744873, Q2 : 0.0478567183018, Q3 : -0.145079165697, Q4 : 0.305768936872}
2019-04-03 18:55:09.80: SIM {TimeUS : 75816328, Roll : 0.06, Pitch : -17.58, Yaw : 36.02, Alt : 597.090026855, Lat : -35.3629696, Lng : 149.1654901, Q1 : 0.939785659313, Q2 : 0.0477829687297, Q3 : -0.145210906863, Q4 : 0.305668979883}
2019-04-03 18:55:09.89: SIM {TimeUS : 75916288, Roll : 0.03, Pitch : -17.61, Yaw : 36.01, Alt : 597.130004883, Lat : -35.3629661, Lng : 149.1654931, Q1 : 0.939788222313, Q2 : 0.0476351566613, Q3 : -0.145493552089, Q4 : 0.305549621582}
2019-04-03 18:55:09.99: SIM {TimeUS : 76016248, Roll : 0.0, Pitch : -17.62, Yaw : 36.0, Alt : 597.16998291, Lat : -35.3629627, Lng : 149.1654963, Q1 : 0.939807474613, Q2 : 0.0473685003817, Q3 : -0.145723074675, Q4 : 0.305422455072}
2019-04-03 18:55:10.09: SIM {TimeUS : 76116208, Roll : -0.01, Pitch : -17.63, Yaw : 35.99, Alt : 597.210021973, Lat : -35.3629592, Lng : 149.1654994, Q1 : 0.939825475216, Q2 : 0.0472816228867, Q3 : -0.145848557353, Q4 : 0.305320799351}
2019-04-03 18:55:10.19: SIM {TimeUS : 76216168, Roll : -0.02, Pitch : -17.65, Yaw : 35.98, Alt : 597.260009766, Lat : -35.3629557, Lng : 149.1655026, Q1 : 0.939841330051, Q2 : 0.0472057722509, Q3 : -0.145974799991, Q4 : 0.305223286152}
2019-04-03 18:55:10.29: SIM {TimeUS : 76316128, Roll : -0.01, Pitch : -17.66, Yaw : 35.97, Alt : 597.299987793, Lat : -35.3629521, Lng : 149.1655056, Q1 : 0.939846038818, Q2 : 0.0472635813057, Q3 : -0.146060660481, Q4 : 0.305158793926}
2019-04-03 18:55:10.39: SIM {TimeUS : 76416088, Roll : 0.01, Pitch : -17.66, Yaw : 35.97, Alt : 597.340026855, Lat : -35.3629485, Lng : 149.1655089, Q1 : 0.939845323563, Q2 : 0.0475400611758, Q3 : -0.146020948887, Q4 : 0.305137008429}
2019-04-03 18:55:10.49: SIM {TimeUS : 76516048, Roll : 0.04, Pitch : -17.67, Yaw : 35.96, Alt : 597.380004883, Lat : -35.3629451, Lng : 149.165512, Q1 : 0.939850449562, Q2 : 0.0477591268718, Q3 : -0.145976826549, Q4 : 0.305108040571}
2019-04-03 18:55:10.59: SIM {TimeUS : 76616008, Roll : 0.04, Pitch : -17.68, Yaw : 35.95, Alt : 597.429992676, Lat : -35.3629416, Lng : 149.1655151, Q1 : 0.939853072166, Q2 : 0.0478095971048, Q3 : -0.146075859666, Q4 : 0.305044651031}
2019-04-03 18:55:10.69: SIM {TimeUS : 76715968, Roll : 0.03, Pitch : -17.68, Yaw : 35.94, Alt : 597.469970703, Lat : -35.3629381, Lng : 149.1655183, Q1 : 0.939875304699, Q2 : 0.0477001555264, Q3 : -0.146140784025, Q4 : 0.304962307215}
2019-04-03 18:55:10.79: SIM {TimeUS : 76815928, Roll : 0.02, Pitch : -17.68, Yaw : 35.94, Alt : 597.510009766, Lat : -35.3629345, Lng : 149.1655214, Q1 : 0.939899981022, Q2 : 0.047624912113, Q3 : -0.146173208952, Q4 : 0.304882436991}
2019-04-03 18:55:10.89: SIM {TimeUS : 76915888, Roll : 0.03, Pitch : -17.7, Yaw : 35.93, Alt : 597.549987793, Lat : -35.3629309, Lng : 149.1655246, Q1 : 0.939892947674, Q2 : 0.0477344021201, Q3 : -0.146328568459, Q4 : 0.304812401533}
2019-04-03 18:55:10.99: SIM {TimeUS : 77015848, Roll : 0.06, Pitch : -17.74, Yaw : 35.92, Alt : 597.590026855, Lat : -35.3629275, Lng : 149.1655278, Q1 : 0.939857900143, Q2 : 0.0480912365019, Q3 : -0.146516039968, Q4 : 0.304774463177}
2019-04-03 18:55:11.09: SIM {TimeUS : 77115808, Roll : 0.11, Pitch : -17.74, Yaw : 35.91, Alt : 597.640014648, Lat : -35.362924, Lng : 149.1655309, Q1 : 0.939859986305, Q2 : 0.048468619585, Q3 : -0.146390095353, Q4 : 0.304768592119}
2019-04-03 18:55:11.19: SIM {TimeUS : 77215768, Roll : 0.14, Pitch : -17.71, Yaw : 35.9, Alt : 597.679992676, Lat : -35.3629204, Lng : 149.1655341, Q1 : 0.939903020859, Q2 : 0.0486499816179, Q3 : -0.146076917648, Q4 : 0.304757386446}
2019-04-03 18:55:11.29: SIM {TimeUS : 77315728, Roll : 0.15, Pitch : -17.68, Yaw : 35.9, Alt : 597.719970703, Lat : -35.3629169, Lng : 149.1655372, Q1 : 0.939946055412, Q2 : 0.0486938804388, Q3 : -0.145845815539, Q4 : 0.304728299379}
2019-04-03 18:55:11.39: SIM {TimeUS : 77415688, Roll : 0.13, Pitch : -17.71, Yaw : 35.89, Alt : 597.760009766, Lat : -35.3629133, Lng : 149.1655404, Q1 : 0.93994641304, Q2 : 0.0485200993717, Q3 : -0.146093532443, Q4 : 0.304636359215}
2019-04-03 18:55:11.50: SIM {TimeUS : 77516481, Roll : 0.09, Pitch : -17.76, Yaw : 35.89, Alt : 597.799987793, Lat : -35.3629098, Lng : 149.1655436, Q1 : 0.93990623951, Q2 : 0.0483628623188, Q3 : -0.146615371108, Q4 : 0.304534435272}
2019-04-03 18:55:11.60: SIM {TimeUS : 77616441, Roll : 0.07, Pitch : -17.8, Yaw : 35.88, Alt : 597.849975586, Lat : -35.3629063, Lng : 149.1655467, Q1 : 0.939862310886, Q2 : 0.0483299642801, Q3 : -0.147035583854, Q4 : 0.304472655058}
2019-04-03 18:55:11.70: SIM {TimeUS : 77716401, Roll : 0.07, Pitch : -17.82, Yaw : 35.88, Alt : 597.890014648, Lat : -35.3629027, Lng : 149.16555, Q1 : 0.939842641354, Q2 : 0.04832149297, Q3 : -0.147234559059, Q4 : 0.304438471794}
2019-04-03 18:55:11.80: SIM {TimeUS : 77816361, Roll : 0.07, Pitch : -17.81, Yaw : 35.88, Alt : 597.929992676, Lat : -35.3628992, Lng : 149.165553, Q1 : 0.939858794212, Q2 : 0.0483138263226, Q3 : -0.147139057517, Q4 : 0.304436057806}
2019-04-03 18:55:11.90: SIM {TimeUS : 77916321, Roll : 0.06, Pitch : -17.78, Yaw : 35.88, Alt : 597.969970703, Lat : -35.3628956, Lng : 149.1655563, Q1 : 0.939907968044, Q2 : 0.0481675378978, Q3 : -0.146895438433, Q4 : 0.304425179958}
2019-04-03 18:55:11.99: SIM {TimeUS : 78016281, Roll : 0.05, Pitch : -17.75, Yaw : 35.87, Alt : 598.020019531, Lat : -35.362892, Lng : 149.1655595, Q1 : 0.939966261387, Q2 : 0.0479837097228, Q3 : -0.146634057164, Q4 : 0.304400235415}
2019-04-03 18:55:12.09: SIM {TimeUS : 78116241, Roll : 0.06, Pitch : -17.71, Yaw : 35.87, Alt : 598.059997559, Lat : -35.3628884, Lng : 149.1655626, Q1 : 0.940020799637, Q2 : 0.0479230955243, Q3 : -0.146339073777, Q4 : 0.304383218288}
2019-04-03 18:55:12.19: SIM {TimeUS : 78216201, Roll : 0.07, Pitch : -17.7, Yaw : 35.86, Alt : 598.099975586, Lat : -35.362885, Lng : 149.1655659, Q1 : 0.940045297146, Q2 : 0.0479633025825, Q3 : -0.146226212382, Q4 : 0.304355561733}
2019-04-03 18:55:12.29: SIM {TimeUS : 78316161, Roll : 0.06, Pitch : -17.71, Yaw : 35.86, Alt : 598.140014648, Lat : -35.3628814, Lng : 149.165569, Q1 : 0.94004714489, Q2 : 0.047946896404, Q3 : -0.146359786391, Q4 : 0.304288059473}
2019-04-03 18:55:12.39: SIM {TimeUS : 78416121, Roll : 0.05, Pitch : -17.74, Yaw : 35.85, Alt : 598.179992676, Lat : -35.3628778, Lng : 149.1655721, Q1 : 0.94003880024, Q2 : 0.0479307845235, Q3 : -0.146606847644, Q4 : 0.304197490215}
2019-04-03 18:55:12.49: SIM {TimeUS : 78516081, Roll : 0.04, Pitch : -17.76, Yaw : 35.84, Alt : 598.229980469, Lat : -35.3628743, Lng : 149.1655754, Q1 : 0.940044879913, Q2 : 0.0478860959411, Q3 : -0.146764680743, Q4 : 0.304109692574}
2019-04-03 18:55:12.59: SIM {TimeUS : 78616041, Roll : 0.04, Pitch : -17.75, Yaw : 35.83, Alt : 598.270019531, Lat : -35.3628706, Lng : 149.1655786, Q1 : 0.940073251724, Q2 : 0.047820366919, Q3 : -0.146757677197, Q4 : 0.304035693407}
2019-04-03 18:55:12.69: SIM {TimeUS : 78716001, Roll : 0.02, Pitch : -17.74, Yaw : 35.82, Alt : 598.309997559, Lat : -35.3628671, Lng : 149.1655817, Q1 : 0.940114140511, Q2 : 0.0476352646947, Q3 : -0.146733134985, Q4 : 0.303950101137}
2019-04-03 18:55:12.79: SIM {TimeUS : 78815961, Roll : 0.0, Pitch : -17.76, Yaw : 35.82, Alt : 598.349975586, Lat : -35.3628636, Lng : 149.165585, Q1 : 0.940126359463, Q2 : 0.0475216172636, Q3 : -0.14688052237, Q4 : 0.30385902524}
2019-04-03 18:55:12.89: SIM {TimeUS : 78915921, Roll : 0.0, Pitch : -17.79, Yaw : 35.81, Alt : 598.400024414, Lat : -35.36286, Lng : 149.1655882, Q1 : 0.940108776093, Q2 : 0.0475764535367, Q3 : -0.147133782506, Q4 : 0.303782135248}
2019-04-03 18:55:12.99: SIM {TimeUS : 79015881, Roll : 0.0, Pitch : -17.81, Yaw : 35.8, Alt : 598.440002441, Lat : -35.3628565, Lng : 149.1655913, Q1 : 0.940099954605, Q2 : 0.0476506464183, Q3 : -0.147287398577, Q4 : 0.30372351408}
2019-04-03 18:55:13.09: SIM {TimeUS : 79115841, Roll : 0.02, Pitch : -17.81, Yaw : 35.8, Alt : 598.479980469, Lat : -35.3628529, Lng : 149.1655946, Q1 : 0.940105557442, Q2 : 0.0477591007948, Q3 : -0.147298768163, Q4 : 0.303683638573}
2019-04-03 18:55:13.19: SIM {TimeUS : 79215801, Roll : 0.04, Pitch : -17.82, Yaw : 35.79, Alt : 598.520019531, Lat : -35.3628493, Lng : 149.1655978, Q1 : 0.940100669861, Q2 : 0.0479539223015, Q3 : -0.147325232625, Q4 : 0.30365511775}
2019-04-03 18:55:13.29: SIM {TimeUS : 79315761, Roll : 0.06, Pitch : -17.83, Yaw : 35.78, Alt : 598.559997559, Lat : -35.3628457, Lng : 149.1656008, Q1 : 0.940098404884, Q2 : 0.0481629744172, Q3 : -0.14731746912, Q4 : 0.303632795811}
2019-04-03 18:55:13.39: SIM {TimeUS : 79415721, Roll : 0.08, Pitch : -17.83, Yaw : 35.78, Alt : 598.609985352, Lat : -35.3628421, Lng : 149.1656041, Q1 : 0.940101742744, Q2 : 0.0483507327735, Q3 : -0.147278368473, Q4 : 0.303611516953}
2019-04-03 18:55:13.49: SIM {TimeUS : 79515681, Roll : 0.08, Pitch : -17.82, Yaw : 35.77, Alt : 598.650024414, Lat : -35.3628385, Lng : 149.1656073, Q1 : 0.940127313137, Q2 : 0.0483289994299, Q3 : -0.147208720446, Q4 : 0.303569793701}
2019-04-03 18:55:13.60: SIM {TimeUS : 79616474, Roll : 0.08, Pitch : -17.82, Yaw : 35.77, Alt : 598.690002441, Lat : -35.3628349, Lng : 149.1656105, Q1 : 0.940146327019, Q2 : 0.0482711195946, Q3 : -0.14722122252, Q4 : 0.303513973951}
2019-04-03 18:55:13.70: SIM {TimeUS : 79716434, Roll : 0.08, Pitch : -17.85, Yaw : 35.76, Alt : 598.729980469, Lat : -35.3628314, Lng : 149.1656138, Q1 : 0.940125882626, Q2 : 0.0483093596995, Q3 : -0.147459387779, Q4 : 0.303455561399}
2019-04-03 18:55:13.80: SIM {TimeUS : 79816394, Roll : 0.07, Pitch : -17.86, Yaw : 35.76, Alt : 598.770019531, Lat : -35.3628278, Lng : 149.165617, Q1 : 0.940128684044, Q2 : 0.0482499152422, Q3 : -0.147556722164, Q4 : 0.303409010172}
2019-04-03 18:55:13.90: SIM {TimeUS : 79916354, Roll : 0.04, Pitch : -17.86, Yaw : 35.75, Alt : 598.820007324, Lat : -35.3628242, Lng : 149.1656202, Q1 : 0.940148949623, Q2 : 0.0480276308954, Q3 : -0.147616297007, Q4 : 0.303352504969}
2019-04-03 18:55:13.99: SIM {TimeUS : 80016314, Roll : 0.02, Pitch : -17.84, Yaw : 35.75, Alt : 598.859985352, Lat : -35.3628206, Lng : 149.1656233, Q1 : 0.940178334713, Q2 : 0.0478431358933, Q3 : -0.147563502192, Q4 : 0.303316265345}
2019-04-03 18:55:14.09: SIM {TimeUS : 80116274, Roll : 0.03, Pitch : -17.82, Yaw : 35.75, Alt : 598.900024414, Lat : -35.3628171, Lng : 149.1656266, Q1 : 0.940205395222, Q2 : 0.0478702113032, Q3 : -0.147388979793, Q4 : 0.30331286788}
2019-04-03 18:55:14.19: SIM {TimeUS : 80216234, Roll : 0.06, Pitch : -17.81, Yaw : 35.75, Alt : 598.940002441, Lat : -35.3628135, Lng : 149.1656298, Q1 : 0.940221965313, Q2 : 0.0480805598199, Q3 : -0.147166028619, Q4 : 0.303336620331}
2019-04-03 18:55:14.29: SIM {TimeUS : 80316194, Roll : 0.09, Pitch : -17.82, Yaw : 35.74, Alt : 598.989990234, Lat : -35.3628098, Lng : 149.1656329, Q1 : 0.940206885338, Q2 : 0.0483218319714, Q3 : -0.147167205811, Q4 : 0.303344398737}
2019-04-03 18:55:14.39: SIM {TimeUS : 80416154, Roll : 0.08, Pitch : -17.84, Yaw : 35.74, Alt : 599.030029297, Lat : -35.3628062, Lng : 149.1656362, Q1 : 0.940189838409, Q2 : 0.0483255535364, Q3 : -0.1473646909, Q4 : 0.303300797939}
2019-04-03 18:55:14.49: SIM {TimeUS : 80516114, Roll : 0.08, Pitch : -17.87, Yaw : 35.74, Alt : 599.070007324, Lat : -35.3628026, Lng : 149.1656394, Q1 : 0.94015455246, Q2 : 0.0483756139874, Q3 : -0.14767305553, Q4 : 0.303252220154}
2019-04-03 18:55:14.59: SIM {TimeUS : 80616074, Roll : 0.08, Pitch : -17.9, Yaw : 35.73, Alt : 599.109985352, Lat : -35.362799, Lng : 149.1656425, Q1 : 0.940126955509, Q2 : 0.0484728366137, Q3 : -0.147887527943, Q4 : 0.303217828274}
2019-04-03 18:55:14.69: SIM {TimeUS : 80716034, Roll : 0.09, Pitch : -17.91, Yaw : 35.73, Alt : 599.159973145, Lat : -35.3627955, Lng : 149.1656458, Q1 : 0.940124690533, Q2 : 0.0485465750098, Q3 : -0.147929683328, Q4 : 0.303192436695}
2019-04-03 18:55:14.79: SIM {TimeUS : 80815994, Roll : 0.1, Pitch : -17.92, Yaw : 35.73, Alt : 599.200012207, Lat : -35.3627919, Lng : 149.165649, Q1 : 0.940117359161, Q2 : 0.0486743934453, Q3 : -0.147969767451, Q4 : 0.303175121546}
2019-04-03 18:55:14.89: SIM {TimeUS : 80915954, Roll : 0.11, Pitch : -17.91, Yaw : 35.72, Alt : 599.239990234, Lat : -35.3627883, Lng : 149.1656521, Q1 : 0.940128862858, Q2 : 0.0487089194357, Q3 : -0.147921487689, Q4 : 0.303157448769}
