2019-04-03 18:13:49.60: SIM {TimeUS : 43815800, Roll : 0.0, Pitch : 0.0, Yaw : 353.0, Alt : 584.090026855, Lat : -35.363261, Lng : 149.1652299, Q1 : 0.998134791851, Q2 : 0.0, Q3 : 0.0, Q4 : -0.0610485821962}
2019-04-03 18:13:49.69: SIM {TimeUS : 43915760, Roll : 0.0, Pitch : 0.0, Yaw : 353.0, Alt : 584.090026855, Lat : -35.363261, Lng : 149.1652299, Q1 : 0.998134791851, Q2 : 0.0, Q3 : 0.0, Q4 : -0.0610485821962}
2019-04-03 18:13:49.79: SIM {TimeUS : 44015720, Roll : 0.0, Pitch : 0.0, Yaw : 353.0, Alt : 584.090026855, Lat : -35.363261, Lng : 149.1652299, Q1 : 0.998134791851, Q2 : 0.0, Q3 : 0.0, Q4 : -0.0610485821962}
2019-04-03 18:13:49.89: SIM {TimeUS : 44115680, Roll : 0.0, Pitch : 0.0, Yaw : 353.0, Alt : 584.090026855, Lat : -35.363261, Lng : 149.1652299, Q1 : 0.998134791851, Q2 : 0.0, Q3 : 0.0, Q4 : -0.0610485821962}
2019-04-03 18:13:50.00: SIM {TimeUS : 44216473, Roll : 0.0, Pitch : 0.0, Yaw : 353.0, Alt : 584.090026855, Lat : -35.363261, Lng : 149.1652299, Q1 : 0.998134791851, Q2 : 0.0, Q3 : 0.0, Q4 : -0.0610485821962}
2019-04-03 18:13:50.10: SIM {TimeUS : 44316433, Roll : 0.0, Pitch : 0.0, Yaw : 353.0, Alt : 584.090026855, Lat : -35.363261, Lng : 149.1652299, Q1 : 0.998134791851, Q2 : 0.0, Q3 : 0.0, Q4 : -0.0610485821962}
2019-04-03 18:13:50.20: SIM {TimeUS : 44416393, Roll : 0.0, Pitch : 0.0, Yaw : 353.0, Alt : 584.090026855, Lat : -35.363261, Lng : 149.1652299, Q1 : 0.998134791851, Q2 : 0.0, Q3 : 0.0, Q4 : -0.0610485821962}
2019-04-03 18:13:50.30: SIM {TimeUS : 44516353, Roll : 0.0, Pitch : 0.0, Yaw : 353.0, Alt : 584.090026855, Lat : -35.363261, Lng : 149.1652299, Q1 : 0.998134791851, Q2 : 0.0, Q3 : 0.0, Q4 : -0.0610485821962}
2019-04-03 18:13:50.40: SIM {TimeUS : 44616313, Roll : 0.0, Pitch : 0.0, Yaw : 353.0, Alt : 584.090026855, Lat : -35.363261, Lng : 149.1652299, Q1 : 0.998134791851, Q2 : 0.0, Q3 : 0.0, Q4 : -0.0610485821962}
2019-04-03 18:13:50.50: SIM {TimeUS : 44716273, Roll : 0.0, Pitch : 0.0, Yaw : 353.0, Alt : 584.090026855, Lat : -35.363261, Lng : 149.1652299, Q1 : 0.998134791851, Q2 : 0.0, Q3 : 0.0, Q4 : -0.0610485821962}
2019-04-03 18:13:50.60: SIM {TimeUS : 44816233, Roll : 0.0, Pitch : 0.0, Yaw : 353.0, Alt : 584.090026855, Lat : -35.363261, Lng : 149.1652299, Q1 : 0.998134791851, Q2 : 0.0, Q3 : 0.0, Q4 : -0.0610485821962}
2019-04-03 18:13:50.70: SIM {TimeUS : 44916193, Roll : 0.0, Pitch : 0.0, Yaw : 353.0, Alt : 584.090026855, Lat : -35.363261, Lng : 149.1652299, Q1 : 0.998134791851, Q2 : 0.0, Q3 : 0.0, Q4 : -0.0610485821962}
2019-04-03 18:13:50.80: SIM {TimeUS : 45016153, Roll : 0.0, Pitch : 0.0, Yaw : 353.0, Alt : 584.090026855, Lat : -35.363261, Lng : 149.1652299, Q1 : 0.998134791851, Q2 : 0.0, Q3 : 0.0, Q4 : -0.0610485821962}
2019-04-03 18:13:50.90: SIM {TimeUS : 45116113, Roll : 0.0, Pitch : 0.0, Yaw : 353.0, Alt : 584.090026855, Lat : -35.363261, Lng : 149.1652299, Q1 : 0.998134791851, Q2 : 0.0, Q3 : 0.0, Q4 : -0.0610485821962}
2019-04-03 18:13:51.00: SIM {TimeUS : 45216073, Roll : 0.0, Pitch : 0.0, Yaw : 353.0, Alt : 584.090026855, Lat : -35.363261, Lng : 149.1652299, Q1 : 0.998134791851, Q2 : 0.0, Q3 : 0.0, Q4 : -0.0610485821962}
2019-04-03 18:13:51.10: SIM {TimeUS : 45316033, Roll : 0.0, Pitch : 0.0, Yaw : 353.0, Alt : 584.090026855, Lat : -35.363261, Lng : 149.1652299, Q1 : 0.998134791851, Q2 : 0.0, Q3 : 0.0, Q4 : -0.0610485821962}
2019-04-03 18:13:51.20: SIM {TimeUS : 45415993, Roll : 0.0, Pitch : 0.0, Yaw : 353.0, Alt : 584.090026855, Lat : -35.363261, Lng : 149.1652299, Q1 : 0.998134791851, Q2 : 0.0, Q3 : 0.0, Q4 : -0.0610485821962}
2019-04-03 18:13:51.30: SIM {TimeUS : 45515953, Roll : 0.0, Pitch : 0.0, Yaw : 353.0, Alt : 584.090026855, Lat : -35.363261, Lng : 149.1652299, Q1 : 0.998134791851, Q2 : 0.0, Q3 : 0.0, Q4 : -0.0610485821962}
2019-04-03 18:13:51.40: SIM {TimeUS : 45615913, Roll : 0.0, Pitch : 0.0, Yaw : 353.0, Alt : 584.090026855, Lat : -35.363261, Lng : 149.1652299, Q1 : 0.998134791851, Q2 : 0.0, Q3 : 0.0, Q4 : -0.0610485821962}
2019-04-03 18:13:51.50: SIM {TimeUS : 45715873, Roll : 0.0, Pitch : 0.0, Yaw : 353.0, Alt : 584.090026855, Lat : -35.363261, Lng : 149.1652299, Q1 : 0.998134791851, Q2 : 0.0, Q3 : 0.0, Q4 : -0.0610485821962}
2019-04-03 18:13:51.60: SIM {TimeUS : 45815833, Roll : 0.0, Pitch : 0.0, Yaw : 353.0, Alt : 584.090026855, Lat : -35.363261, Lng : 149.1652299, Q1 : 0.998134791851, Q2 : 0.0, Q3 : 0.0, Q4 : -0.0610485821962}
2019-04-03 18:13:51.69: SIM {TimeUS : 45915793, Roll : 0.0, Pitch : 0.0, Yaw : 353.0, Alt : 584.090026855, Lat : -35.363261, Lng : 149.1652299, Q1 : 0.998134791851, Q2 : 0.0, Q3 : 0.0, Q4 : -0.0610485821962}
2019-04-03 18:13:51.79: SIM {TimeUS : 46015753, Roll : 0.0, Pitch : 0.0, Yaw : 353.0, Alt : 584.090026855, Lat : -35.363261, Lng : 149.1652299, Q1 : 0.998134791851, Q2 : 0.0, Q3 : 0.0, Q4 : -0.0610485821962}
2019-04-03 18:13:51.89: SIM {TimeUS : 46115713, Roll : 0.0, Pitch : 0.0, Yaw : 353.0, Alt : 584.090026855, Lat : -35.363261, Lng : 149.1652299, Q1 : 0.998134791851, Q2 : 0.0, Q3 : 0.0, Q4 : -0.0610485821962}
2019-04-03 18:13:51.99: SIM {TimeUS : 46215673, Roll : 0.0, Pitch : 0.0, Yaw : 353.0, Alt : 584.090026855, Lat : -35.363261, Lng : 149.1652299, Q1 : 0.998134791851, Q2 : 0.0, Q3 : 0.0, Q4 : -0.0610485821962}
2019-04-03 18:13:52.10: SIM {TimeUS : 46316466, Roll : 0.0, Pitch : 0.0, Yaw : 353.0, Alt : 584.090026855, Lat : -35.363261, Lng : 149.1652299, Q1 : 0.998134791851, Q2 : 0.0, Q3 : 0.0, Q4 : -0.0610485821962}
2019-04-03 18:13:52.20: SIM {TimeUS : 46416426, Roll : 0.0, Pitch : 0.0, Yaw : 353.0, Alt : 584.090026855, Lat : -35.363261, Lng : 149.1652299, Q1 : 0.998134791851, Q2 : 0.0, Q3 : 0.0, Q4 : -0.0610485821962}
2019-04-03 18:13:52.30: SIM {TimeUS : 46516386, Roll : 0.0, Pitch : 0.0, Yaw : 353.0, Alt : 584.090026855, Lat : -35.363261, Lng : 149.1652299, Q1 : 0.998134791851, Q2 : 0.0, Q3 : 0.0, Q4 : -0.0610485821962}
2019-04-03 18:13:52.40: SIM {TimeUS : 46616346, Roll : 0.0, Pitch : 0.0, Yaw : 353.0, Alt : 584.090026855, Lat : -35.363261, Lng : 149.1652299, Q1 : 0.998134791851, Q2 : 0.0, Q3 : 0.0, Q4 : -0.0610485821962}
2019-04-03 18:13:52.50: SIM {TimeUS : 46716306, Roll : 0.0, Pitch : 0.0, Yaw : 353.0, Alt : 584.090026855, Lat : -35.363261, Lng : 149.1652299, Q1 : 0.998134791851, Q2 : 0.0, Q3 : 0.0, Q4 : -0.0610485821962}
2019-04-03 18:13:52.60: SIM {TimeUS : 46816266, Roll : 0.0, Pitch : 0.0, Yaw : 353.0, Alt : 584.090026855, Lat : -35.363261, Lng : 149.1652299, Q1 : 0.998134791851, Q2 : 0.0, Q3 : 0.0, Q4 : -0.0610485821962}
2019-04-03 18:13:52.70: SIM {TimeUS : 46916226, Roll : 0.0, Pitch : 0.0, Yaw : 353.0, Alt : 584.090026855, Lat : -35.363261, Lng : 149.1652299, Q1 : 0.998134791851, Q2 : 0.0, Q3 : 0.0, Q4 : -0.0610485821962}
2019-04-03 18:13:52.80: SIM {TimeUS : 47016186, Roll : 0.0, Pitch : 0.0, Yaw : 353.0, Alt : 584.090026855, Lat : -35.363261, Lng : 149.1652299, Q1 : 0.998134791851, Q2 : 0.0, Q3 : 0.0, Q4 : -0.0610485821962}
2019-04-03 18:13:52.90: SIM {TimeUS : 47116146, Roll : 0.0, Pitch : 0.0, Yaw : 353.0, Alt : 584.090026855, Lat : -35.363261, Lng : 149.1652299, Q1 : 0.998134791851, Q2 : 0.0, Q3 : 0.0, Q4 : -0.0610485821962}
2019-04-03 18:13:53.00: SIM {TimeUS : 47216106, Roll : 0.0, Pitch : 0.0, Yaw : 353.0, Alt : 584.090026855, Lat : -35.363261, Lng : 149.1652299, Q1 : 0.998134791851, Q2 : 0.0, Q3 : 0.0, Q4 : -0.0610485821962}
2019-04-03 18:13:53.10: SIM {TimeUS : 47316066, Roll : 0.0, Pitch : 0.0, Yaw : 353.0, Alt : 584.090026855, Lat : -35.363261, Lng : 149.1652299, Q1 : 0.998134791851, Q2 : 0.0, Q3 : 0.0, Q4 : -0.0610485821962}
2019-04-03 18:13:53.20: SIM {TimeUS : 47416026, Roll : 0.0, Pitch : 0.0, Yaw : 353.0, Alt : 584.090026855, Lat : -35.363261, Lng : 149.1652299, Q1 : 0.998134791851, Q2 : 0.0, Q3 : 0.0, Q4 : -0.0610485821962}
2019-04-03 18:13:53.30: SIM {TimeUS : 47515986, Roll : 0.0, Pitch : 0.0, Yaw : 353.0, Alt : 584.090026855, Lat : -35.363261, Lng : 149.1652299, Q1 : 0.998134791851, Q2 : 0.0, Q3 : 0.0, Q4 : -0.061048604548}
2019-04-03 18:13:53.40: SIM {TimeUS : 47615946, Roll : 0.0, Pitch : 0.0, Yaw : 353.0, Alt : 584.090026855, Lat : -35.363261, Lng : 149.1652299, Q1 : 0.998134791851, Q2 : 0.0, Q3 : 0.0, Q4 : -0.0610486492515}
2019-04-03 18:13:53.50: SIM {TimeUS : 47715906, Roll : 0.0, Pitch : 0.0, Yaw : 353.0, Alt : 584.090026855, Lat : -35.363261, Lng : 149.1652299, Q1 : 0.998134791851, Q2 : 0.0, Q3 : 0.0, Q4 : -0.0610486753285}
2019-04-03 18:13:53.60: SIM {TimeUS : 47815866, Roll : 0.0, Pitch : 0.0, Yaw : 353.0, Alt : 584.090026855, Lat : -35.363261, Lng : 149.1652299, Q1 : 0.998134791851, Q2 : 0.0, Q3 : 0.0, Q4 : -0.0610486641526}
2019-04-03 18:13:53.70: SIM {TimeUS : 47915826, Roll : 0.0, Pitch : 0.0, Yaw : 353.0, Alt : 584.090026855, Lat : -35.363261, Lng : 149.1652299, Q1 : 0.998134791851, Q2 : 0.0, Q3 : 0.0, Q4 : -0.0610486418009}
2019-04-03 18:13:53.79: SIM {TimeUS : 48015786, Roll : 0.0, Pitch : 0.0, Yaw : 353.0, Alt : 584.090026855, Lat : -35.363261, Lng : 149.1652299, Q1 : 0.998134791851, Q2 : 0.0, Q3 : 0.0, Q4 : -0.0610486753285}
2019-04-03 18:13:53.89: SIM {TimeUS : 48115746, Roll : 0.0, Pitch : 0.0, Yaw : 353.0, Alt : 584.090026855, Lat : -35.363261, Lng : 149.1652299, Q1 : 0.998134791851, Q2 : 0.0, Q3 : 0.0, Q4 : -0.0610486753285}
2019-04-03 18:13:53.99: SIM {TimeUS : 48215706, Roll : 0.0, Pitch : 0.0, Yaw : 353.0, Alt : 584.090026855, Lat : -35.363261, Lng : 149.1652299, Q1 : 0.998134791851, Q2 : 0.0, Q3 : 0.0, Q4 : -0.0610486753285}
2019-04-03 18:13:54.09: SIM {TimeUS : 48315666, Roll : 0.0, Pitch : 0.0, Yaw : 353.0, Alt : 584.099975586, Lat : -35.363261, Lng : 149.1652299, Q1 : 0.998134791851, Q2 : 0.0, Q3 : 0.0, Q4 : -0.0610486753285}
2019-04-03 18:13:54.20: SIM {TimeUS : 48416459, Roll : 0.0, Pitch : 0.0, Yaw : 353.0, Alt : 584.099975586, Lat : -35.363261, Lng : 149.1652299, Q1 : 0.998134791851, Q2 : 0.0, Q3 : 0.0, Q4 : -0.0610486753285}
2019-04-03 18:13:54.30: SIM {TimeUS : 48516419, Roll : 0.0, Pitch : 0.0, Yaw : 353.0, Alt : 584.109985352, Lat : -35.363261, Lng : 149.1652299, Q1 : 0.998134791851, Q2 : 0.0, Q3 : 0.0, Q4 : -0.0610486753285}
2019-04-03 18:13:54.40: SIM {TimeUS : 48616379, Roll : 0.0, Pitch : 0.0, Yaw : 353.0, Alt : 584.130004883, Lat : -35.363261, Lng : 149.1652299, Q1 : 0.998134791851, Q2 : 0.0, Q3 : 0.0, Q4 : -0.0610486641526}
2019-04-03 18:13:54.50: SIM {TimeUS : 48716339, Roll : 0.0, Pitch : 0.0, Yaw : 353.0, Alt : 584.159973145, Lat : -35.363261, Lng : 149.1652299, Q1 : 0.998134791851, Q2 : 0.0, Q3 : 0.0, Q4 : -0.0610486231744}
2019-04-03 18:13:54.60: SIM {TimeUS : 48816299, Roll : 0.0, Pitch : 0.0, Yaw : 353.0, Alt : 584.200012207, Lat : -35.363261, Lng : 149.1652299, Q1 : 0.998134791851, Q2 : 0.0, Q3 : 0.0, Q4 : -0.0610486753285}
2019-04-03 18:13:54.70: SIM {TimeUS : 48916259, Roll : 0.0, Pitch : 0.0, Yaw : 352.99, Alt : 584.239990234, Lat : -35.363261, Lng : 149.1652299, Q1 : 0.998134732246, Q2 : -1.50286887219e-05, Q3 : -2.26457923418e-05, Q4 : -0.0610499940813}
2019-04-03 18:13:54.80: SIM {TimeUS : 49016219, Roll : -0.01, Pitch : 0.0, Yaw : 352.99, Alt : 584.33001709, Lat : -35.363261, Lng : 149.1652299, Q1 : 0.998134255409, Q2 : -0.000148488907143, Q3 : -3.36403027177e-05, Q4 : -0.0610574185848}
2019-04-03 18:13:54.90: SIM {TimeUS : 49116179, Roll : -0.05, Pitch : 0.01, Yaw : 352.99, Alt : 584.469970703, Lat : -35.363261, Lng : 149.1652299, Q1 : 0.998133480549, Q2 : -0.000479059846839, Q3 : 0.000167577483808, Q4 : -0.0610678046942}
2019-04-03 18:13:55.00: SIM {TimeUS : 49216139, Roll : -0.1, Pitch : 0.05, Yaw : 352.99, Alt : 584.630004883, Lat : -35.363261, Lng : 149.1652299, Q1 : 0.998132288456, Q2 : -0.000930438924115, Q3 : 0.000506145239342, Q4 : -0.0610809028149}
2019-04-03 18:13:55.10: SIM {TimeUS : 49316099, Roll : -0.12, Pitch : 0.07, Yaw : 352.99, Alt : 584.780029297, Lat : -35.363261, Lng : 149.1652299, Q1 : 0.998130738735, Q2 : -0.00108665390871, Q3 : 0.000737606722396, Q4 : -0.0611010268331}
2019-04-03 18:13:55.20: SIM {TimeUS : 49416059, Roll : -0.11, Pitch : 0.08, Yaw : 352.99, Alt : 584.929992676, Lat : -35.363261, Lng : 149.1652299, Q1 : 0.998129606247, Q2 : -0.000969686370809, Q3 : 0.000759567774367, Q4 : -0.0611214004457}
2019-04-03 18:13:55.30: SIM {TimeUS : 49516019, Roll : -0.08, Pitch : 0.06, Yaw : 352.98, Alt : 585.090026855, Lat : -35.363261, Lng : 149.1652299, Q1 : 0.998128771782, Q2 : -0.000695232651196, Q3 : 0.000603545107879, Q4 : -0.0611404292285}
2019-04-03 18:13:55.40: SIM {TimeUS : 49615979, Roll : -0.05, Pitch : 0.06, Yaw : 352.98, Alt : 585.239990234, Lat : -35.363261, Lng : 149.1652299, Q1 : 0.998127996922, Q2 : -0.000413838395616, Q3 : 0.000565847381949, Q4 : -0.0611559264362}
2019-04-03 18:13:55.50: SIM {TimeUS : 49715939, Roll : -0.01, Pitch : 0.07, Yaw : 352.98, Alt : 585.409973145, Lat : -35.363261, Lng : 149.1652299, Q1 : 0.998127102852, Q2 : -4.93218758493e-05, Q3 : 0.000688328756951, Q4 : -0.0611705780029}
2019-04-03 18:13:55.60: SIM {TimeUS : 49815899, Roll : 0.03, Pitch : 0.08, Yaw : 352.98, Alt : 585.58001709, Lat : -35.363261, Lng : 149.1652299, Q1 : 0.998126447201, Q2 : 0.000377915159333, Q3 : 0.000761049974244, Q4 : -0.0611795932055}
2019-04-03 18:13:55.70: SIM {TimeUS : 49915859, Roll : 0.06, Pitch : 0.06, Yaw : 352.98, Alt : 585.75, Lat : -35.363261, Lng : 149.1652299, Q1 : 0.998126268387, Q2 : 0.000640348007437, Q3 : 0.000543265778106, Q4 : -0.061182167381}
2019-04-03 18:13:55.80: SIM {TimeUS : 50015819, Roll : 0.05, Pitch : 0.02, Yaw : 352.98, Alt : 585.929992676, Lat : -35.363261, Lng : 149.1652299, Q1 : 0.998126506805, Q2 : 0.000523247756064, Q3 : 0.000162354001077, Q4 : -0.0611822232604}
2019-04-03 18:13:55.89: SIM {TimeUS : 50115779, Roll : 0.01, Pitch : 0.0, Yaw : 352.98, Alt : 586.119995117, Lat : -35.363261, Lng : 149.1652299, Q1 : 0.998126387596, Q2 : 0.000146251390106, Q3 : -5.43424503121e-05, Q4 : -0.0611861534417}
2019-04-03 18:13:55.99: SIM {TimeUS : 50215739, Roll : -0.03, Pitch : -0.01, Yaw : 352.98, Alt : 586.309997559, Lat : -35.363261, Lng : 149.1652299, Q1 : 0.998126268387, Q2 : -0.000299756648019, Q3 : -0.000131982640596, Q4 : -0.0611876808107}
2019-04-03 18:13:56.09: SIM {TimeUS : 50315699, Roll : -0.06, Pitch : 0.0, Yaw : 352.98, Alt : 586.5, Lat : -35.363261, Lng : 149.1652299, Q1 : 0.998125970364, Q2 : -0.00054127041949, Q3 : 1.74183860508e-05, Q4 : -0.0611910037696}
2019-04-03 18:13:56.19: SIM {TimeUS : 50415659, Roll : -0.06, Pitch : 0.0, Yaw : 352.98, Alt : 586.690002441, Lat : -35.363261, Lng : 149.1652299, Q1 : 0.998125731945, Q2 : -0.000582882261369, Q3 : 7.97414322733e-05, Q4 : -0.0611941963434}
2019-04-03 18:13:56.30: SIM {TimeUS : 50516452, Roll : -0.06, Pitch : 0.0, Yaw : 352.98, Alt : 586.890014648, Lat : -35.363261, Lng : 149.1652299, Q1 : 0.99812567234, Q2 : -0.000525991374161, Q3 : 3.46278247889e-05, Q4 : -0.0611962229013}
2019-04-03 18:13:56.40: SIM {TimeUS : 50616412, Roll : -0.06, Pitch : -0.01, Yaw : 352.98, Alt : 587.090026855, Lat : -35.363261, Lng : 149.1652299, Q1 : 0.998125255108, Q2 : -0.000560431857593, Q3 : -5.49212309124e-05, Q4 : -0.0612023100257}
2019-04-03 18:13:56.50: SIM {TimeUS : 50716372, Roll : -0.06, Pitch : -0.01, Yaw : 352.98, Alt : 587.289978027, Lat : -35.363261, Lng : 149.1652299, Q1 : 0.998124539852, Q2 : -0.000599052698817, Q3 : -0.000134153757244, Q4 : -0.0612124092877}
2019-04-03 18:13:56.60: SIM {TimeUS : 50816332, Roll : -0.05, Pitch : -0.02, Yaw : 352.98, Alt : 587.5, Lat : -35.363261, Lng : 149.1652299, Q1 : 0.998124063015, Q2 : -0.000517502310686, Q3 : -0.000171190011315, Q4 : -0.0612209029496}
2019-04-03 18:13:56.70: SIM {TimeUS : 50916292, Roll : -0.05, Pitch : -0.01, Yaw : 352.97, Alt : 587.700012207, Lat : -35.363261, Lng : 149.1652299, Q1 : 0.998123943806, Q2 : -0.000485037424369, Q3 : -0.000111972440209, Q4 : -0.0612233877182}
2019-04-03 18:13:56.80: SIM {TimeUS : 51016252, Roll : -0.06, Pitch : -0.02, Yaw : 352.98, Alt : 587.909973145, Lat : -35.363261, Lng : 149.1652299, Q1 : 0.99812400341, Q2 : -0.000594802259002, Q3 : -0.000140386400744, Q4 : -0.0612219795585}
2019-04-03 18:13:56.90: SIM {TimeUS : 51116212, Roll : -0.07, Pitch : -0.04, Yaw : 352.97, Alt : 588.119995117, Lat : -35.363261, Lng : 149.1652299, Q1 : 0.998123466969, Q2 : -0.000655466283206, Q3 : -0.000345393898897, Q4 : -0.0612289570272}
2019-04-03 18:13:57.00: SIM {TimeUS : 51216172, Roll : -0.07, Pitch : -0.06, Yaw : 352.97, Alt : 588.33001709, Lat : -35.363261, Lng : 149.1652299, Q1 : 0.998122513294, Q2 : -0.000654594332445, Q3 : -0.000500104913954, Q4 : -0.0612439885736}
2019-04-03 18:13:57.10: SIM {TimeUS : 51316132, Roll : -0.06, Pitch : -0.06, Yaw : 352.97, Alt : 588.539978027, Lat : -35.363261, Lng : 149.1652299, Q1 : 0.998121619225, Q2 : -0.000560789252631, Q3 : -0.000525686773472, Q4 : -0.0612590201199}
2019-04-03 18:13:57.20: SIM {TimeUS : 51416092, Roll : -0.06, Pitch : -0.06, Yaw : 352.97, Alt : 588.75, Lat : -35.363261, Lng : 149.1652299, Q1 : 0.998120844364, Q2 : -0.000595360121224, Q3 : -0.00053797592409, Q4 : -0.0612711235881}
2019-04-03 18:13:57.30: SIM {TimeUS : 51516052, Roll : -0.08, Pitch : -0.06, Yaw : 352.97, Alt : 588.969970703, Lat : -35.363261, Lng : 149.1652299, Q1 : 0.998119950294, Q2 : -0.000791791651864, Q3 : -0.000486222299514, Q4 : -0.0612840652466}
2019-04-03 18:13:57.40: SIM {TimeUS : 51616012, Roll : -0.12, Pitch : -0.06, Yaw : 352.97, Alt : 589.179992676, Lat : -35.363261, Lng : 149.1652299, Q1 : 0.998119056225, Q2 : -0.00113527907524, Q3 : -0.000465268094558, Q4 : -0.0612930133939}
2019-04-03 18:13:57.50: SIM {TimeUS : 51715972, Roll : -0.15, Pitch : -0.06, Yaw : 352.97, Alt : 589.400024414, Lat : -35.363261, Lng : 149.1652298, Q1 : 0.998118340969, Q2 : -0.00139487185515, Q3 : -0.00045699760085, Q4 : -0.0612998045981}
2019-04-03 18:13:57.60: SIM {TimeUS : 51815932, Roll : -0.16, Pitch : -0.05, Yaw : 352.97, Alt : 589.619995117, Lat : -35.363261, Lng : 149.1652298, Q1 : 0.998117744923, Q2 : -0.00149908510502, Q3 : -0.000405962084187, Q4 : -0.0613069608808}
2019-04-03 18:13:57.70: SIM {TimeUS : 51915892, Roll : -0.15, Pitch : -0.03, Yaw : 352.96, Alt : 589.83001709, Lat : -35.363261, Lng : 149.1652298, Q1 : 0.99811732769, Q2 : -0.00140918232501, Q3 : -0.000260878994595, Q4 : -0.0613168776035}
2019-04-03 18:13:57.80: SIM {TimeUS : 52015852, Roll : -0.13, Pitch : -0.02, Yaw : 352.96, Alt : 590.049987793, Lat : -35.363261, Lng : 149.1652298, Q1 : 0.998117148876, Q2 : -0.00121901975945, Q3 : -0.000112257577712, Q4 : -0.0613246001303}
2019-04-03 18:13:57.90: SIM {TimeUS : 52115812, Roll : -0.11, Pitch : -0.01, Yaw : 352.96, Alt : 590.270019531, Lat : -35.363261, Lng : 149.1652298, Q1 : 0.998116910458, Q2 : -0.00101359991822, Q3 : -6.503106124e-05, Q4 : -0.0613323897123}
2019-04-03 18:13:57.99: SIM {TimeUS : 52215772, Roll : -0.1, Pitch : -0.02, Yaw : 352.96, Alt : 590.5, Lat : -35.3632609, Lng : 149.1652298, Q1 : 0.998116374016, Q2 : -0.000909768219572, Q3 : -0.000177314970642, Q4 : -0.0613416545093}
2019-04-03 18:13:58.09: SIM {TimeUS : 52315732, Roll : -0.08, Pitch : -0.05, Yaw : 352.96, Alt : 590.719970703, Lat : -35.3632609, Lng : 149.1652298, Q1 : 0.998115479946, Q2 : -0.0008102079737, Q3 : -0.000474077794934, Q4 : -0.0613566450775}
2019-04-03 18:13:58.19: SIM {TimeUS : 52415692, Roll : -0.07, Pitch : -0.09, Yaw : 352.96, Alt : 590.940002441, Lat : -35.3632609, Lng : 149.1652298, Q1 : 0.998114228249, Q2 : -0.000693651847541, Q3 : -0.000828182965051, Q4 : -0.0613743886352}
2019-04-03 18:13:58.30: SIM {TimeUS : 52516485, Roll : -0.06, Pitch : -0.12, Yaw : 352.96, Alt : 591.159973145, Lat : -35.3632609, Lng : 149.1652298, Q1 : 0.998112976551, Q2 : -0.000620129751042, Q3 : -0.00106088002212, Q4 : -0.0613924860954}
2019-04-03 18:13:58.40: SIM {TimeUS : 52616445, Roll : -0.07, Pitch : -0.14, Yaw : 352.95, Alt : 591.390014648, Lat : -35.3632609, Lng : 149.1652298, Q1 : 0.99811142683, Q2 : -0.000766317592934, Q3 : -0.00124609575141, Q4 : -0.061412025243}
2019-04-03 18:13:58.50: SIM {TimeUS : 52716405, Roll : -0.05, Pitch : -0.14, Yaw : 352.95, Alt : 591.609985352, Lat : -35.3632609, Lng : 149.1652298, Q1 : 0.998110711575, Q2 : -0.00059562647948, Q3 : -0.00121946807485, Q4 : -0.0614265687764}
2019-04-03 18:13:58.60: SIM {TimeUS : 52816365, Roll : -0.01, Pitch : -0.11, Yaw : 352.95, Alt : 591.840026855, Lat : -35.3632609, Lng : 149.1652298, Q1 : 0.99811065197, Q2 : -0.000220575806452, Q3 : -0.000964042730629, Q4 : -0.0614342354238}
2019-04-03 18:13:58.70: SIM {TimeUS : 52916325, Roll : 0.02, Pitch : -0.07, Yaw : 352.95, Alt : 592.059997559, Lat : -35.3632609, Lng : 149.1652297, Q1 : 0.998110532761, Q2 : 0.000135554626468, Q3 : -0.000672524736729, Q4 : -0.0614406056702}
2019-04-03 18:13:58.80: SIM {TimeUS : 53016285, Roll : 0.04, Pitch : -0.04, Yaw : 352.95, Alt : 592.289978027, Lat : -35.3632609, Lng : 149.1652297, Q1 : 0.99810987711, Q2 : 0.000327702320646, Q3 : -0.00037188117858, Q4 : -0.0614536032081}
2019-04-03 18:13:58.90: SIM {TimeUS : 53116245, Roll : 0.05, Pitch : -0.01, Yaw : 352.95, Alt : 592.520019531, Lat : -35.3632609, Lng : 149.1652297, Q1 : 0.998108804226, Q2 : 0.000430740095908, Q3 : -0.000155428351718, Q4 : -0.0614703893661}
2019-04-03 18:13:59.00: SIM {TimeUS : 53216205, Roll : 0.04, Pitch : -0.01, Yaw : 352.95, Alt : 592.739990234, Lat : -35.3632608, Lng : 149.1652297, Q1 : 0.998108327389, Q2 : 0.000392343703425, Q3 : -0.000180548318895, Q4 : -0.061478883028}
2019-04-03 18:13:59.10: SIM {TimeUS : 53316165, Roll : 0.0, Pitch : -0.03, Yaw : 352.95, Alt : 592.969970703, Lat : -35.3632608, Lng : 149.1652296, Q1 : 0.998108446598, Q2 : 6.49633439025e-05, Q3 : -0.000286472088192, Q4 : -0.0614769011736}
2019-04-03 18:13:59.20: SIM {TimeUS : 53416125, Roll : -0.02, Pitch : -0.03, Yaw : 352.95, Alt : 593.200012207, Lat : -35.3632608, Lng : 149.1652296, Q1 : 0.998108327389, Q2 : -0.000206197975785, Q3 : -0.000283917237539, Q4 : -0.0614784248173}
2019-04-03 18:13:59.30: SIM {TimeUS : 53516085, Roll : -0.04, Pitch : -0.02, Yaw : 352.94, Alt : 593.429992676, Lat : -35.3632608, Lng : 149.1652296, Q1 : 0.998107373714, Q2 : -0.000365373649402, Q3 : -0.000185930519365, Q4 : -0.0614937767386}
2019-04-03 18:13:59.40: SIM {TimeUS : 53616045, Roll : -0.04, Pitch : 0.0, Yaw : 352.94, Alt : 593.659973145, Lat : -35.3632608, Lng : 149.1652296, Q1 : 0.998106181622, Q2 : -0.00039167815703, Q3 : 1.0190005014e-05, Q4 : -0.0615133978426}
2019-04-03 18:13:59.50: SIM {TimeUS : 53716005, Roll : -0.01, Pitch : 0.03, Yaw : 352.94, Alt : 593.880004883, Lat : -35.3632608, Lng : 149.1652296, Q1 : 0.998104989529, Q2 : -0.000134903864819, Q3 : 0.000281466258457, Q4 : -0.0615339502692}
2019-04-03 18:13:59.60: SIM {TimeUS : 53815965, Roll : 0.02, Pitch : 0.06, Yaw : 352.94, Alt : 594.109985352, Lat : -35.3632608, Lng : 149.1652296, Q1 : 0.998103618622, Q2 : 0.000250823941315, Q3 : 0.000522441696376, Q4 : -0.0615535266697}
2019-04-03 18:13:59.70: SIM {TimeUS : 53915925, Roll : 0.05, Pitch : 0.05, Yaw : 352.93, Alt : 594.340026855, Lat : -35.3632608, Lng : 149.1652294, Q1 : 0.998102009296, Q2 : 0.0005124550662, Q3 : 0.000489317520987, Q4 : -0.0615781508386}
2019-04-03 18:13:59.80: SIM {TimeUS : 54015885, Roll : 0.05, Pitch : 0.04, Yaw : 352.93, Alt : 594.570007324, Lat : -35.3632608, Lng : 149.1652294, Q1 : 0.99810063839, Q2 : 0.000471092294902, Q3 : 0.000328905880451, Q4 : -0.0616020336747}
2019-04-03 18:13:59.90: SIM {TimeUS : 54115845, Roll : 0.03, Pitch : 0.0, Yaw : 352.93, Alt : 594.799987793, Lat : -35.3632608, Lng : 149.1652294, Q1 : 0.998099505901, Q2 : 0.000282279739622, Q3 : 3.45290609403e-05, Q4 : -0.0616226680577}
2019-04-03 18:14:00.00: SIM {TimeUS : 54215805, Roll : 0.01, Pitch : -0.02, Yaw : 352.93, Alt : 595.030029297, Lat : -35.3632608, Lng : 149.1652294, Q1 : 0.998098254204, Q2 : 0.000143231751281, Q3 : -0.000247652264079, Q4 : -0.0616431087255}
2019-04-03 18:14:00.09: SIM {TimeUS : 54315765, Roll : 0.01, Pitch : -0.03, Yaw : 352.92, Alt : 595.270019531, Lat : -35.3632608, Lng : 149.1652294, Q1 : 0.998096942902, Q2 : 0.000148610139149, Q3 : -0.000325423054164, Q4 : -0.0616633854806}
2019-04-03 18:14:00.19: SIM {TimeUS : 54415725, Roll : 0.02, Pitch : -0.04, Yaw : 352.92, Alt : 595.5, Lat : -35.3632608, Lng : 149.1652294, Q1 : 0.998095750809, Q2 : 0.00015633367002, Q3 : -0.000387064908864, Q4 : -0.0616828799248}
2019-04-03 18:14:00.29: SIM {TimeUS : 54515685, Roll : 0.03, Pitch : -0.05, Yaw : 352.92, Alt : 595.729980469, Lat : -35.3632607, Lng : 149.1652294, Q1 : 0.998094677925, Q2 : 0.000236144958762, Q3 : -0.000456366775325, Q4 : -0.0616994164884}
2019-04-03 18:14:00.40: SIM {TimeUS : 54616478, Roll : 0.03, Pitch : -0.05, Yaw : 352.92, Alt : 595.960021973, Lat : -35.3632607, Lng : 149.1652294, Q1 : 0.998093664646, Q2 : 0.000296845042612, Q3 : -0.000490125268698, Q4 : -0.0617148391902}
2019-04-03 18:14:00.50: SIM {TimeUS : 54716438, Roll : 0.03, Pitch : -0.06, Yaw : 352.92, Alt : 596.190002441, Lat : -35.3632607, Lng : 149.1652294, Q1 : 0.998092770576, Q2 : 0.000232475125813, Q3 : -0.000541360524949, Q4 : -0.0617287345231}
2019-04-03 18:14:00.60: SIM {TimeUS : 54816398, Roll : 0.02, Pitch : -0.07, Yaw : 352.92, Alt : 596.429992676, Lat : -35.3632607, Lng : 149.1652294, Q1 : 0.998091757298, Q2 : 0.000217850043555, Q3 : -0.000669920176733, Q4 : -0.06174435094}
2019-04-03 18:14:00.70: SIM {TimeUS : 54916358, Roll : 0.05, Pitch : -0.08, Yaw : 352.91, Alt : 596.659973145, Lat : -35.3632607, Lng : 149.1652294, Q1 : 0.998090624809, Q2 : 0.000404062913731, Q3 : -0.00075113895582, Q4 : -0.061760161072}
2019-04-03 18:14:00.80: SIM {TimeUS : 55016318, Roll : 0.05, Pitch : -0.06, Yaw : 352.91, Alt : 596.890014648, Lat : -35.3632607, Lng : 149.1652294, Q1 : 0.998089909554, Q2 : 0.000471594190458, Q3 : -0.000584383495152, Q4 : -0.0617738291621}
2019-04-03 18:14:00.90: SIM {TimeUS : 55116278, Roll : 0.05, Pitch : -0.03, Yaw : 352.91, Alt : 597.119995117, Lat : -35.3632607, Lng : 149.1652294, Q1 : 0.99808883667, Q2 : 0.000428368861321, Q3 : -0.000369626039173, Q4 : -0.061792794615}
2019-04-03 18:14:01.00: SIM {TimeUS : 55216238, Roll : 0.01, Pitch : -0.02, Yaw : 352.91, Alt : 597.359985352, Lat : -35.3632607, Lng : 149.1652294, Q1 : 0.998087704182, Q2 : 0.00014023577387, Q3 : -0.000232445148868, Q4 : -0.0618127658963}
2019-04-03 18:14:01.10: SIM {TimeUS : 55316198, Roll : 0.0, Pitch : 0.0, Yaw : 352.91, Alt : 597.590026855, Lat : -35.3632607, Lng : 149.1652294, Q1 : 0.998086929321, Q2 : -6.82711906848e-05, Q3 : 3.68855739907e-06, Q4 : -0.0618262737989}
2019-04-03 18:14:01.20: SIM {TimeUS : 55416158, Roll : -0.03, Pitch : 0.02, Yaw : 352.91, Alt : 597.820007324, Lat : -35.3632607, Lng : 149.1652294, Q1 : 0.998086631298, Q2 : -0.000250367942499, Q3 : 0.000260477158008, Q4 : -0.0618298016489}
2019-04-03 18:14:01.30: SIM {TimeUS : 55516118, Roll : -0.04, Pitch : 0.04, Yaw : 352.9, Alt : 598.059997559, Lat : -35.3632607, Lng : 149.1652294, Q1 : 0.99808627367, Q2 : -0.000389355263906, Q3 : 0.000430228421465, Q4 : -0.0618341453373}
2019-04-03 18:14:01.40: SIM {TimeUS : 55616078, Roll : -0.05, Pitch : 0.05, Yaw : 352.9, Alt : 598.289978027, Lat : -35.3632607, Lng : 149.1652294, Q1 : 0.998085856438, Q2 : -0.000442062271759, Q3 : 0.000531748170033, Q4 : -0.0618399493396}
2019-04-03 18:14:01.50: SIM {TimeUS : 55716038, Roll : -0.02, Pitch : 0.04, Yaw : 352.9, Alt : 598.520019531, Lat : -35.3632607, Lng : 149.1652294, Q1 : 0.998085618019, Q2 : -0.000150812673382, Q3 : 0.000426328129834, Q4 : -0.0618458613753}
2019-04-03 18:14:01.60: SIM {TimeUS : 55815998, Roll : 0.02, Pitch : 0.03, Yaw : 352.9, Alt : 598.760009766, Lat : -35.3632607, Lng : 149.1652294, Q1 : 0.998085319996, Q2 : 0.000192518229596, Q3 : 0.000266764720436, Q4 : -0.0618512779474}
2019-04-03 18:14:01.70: SIM {TimeUS : 55915958, Roll : 0.03, Pitch : 0.02, Yaw : 352.9, Alt : 598.989990234, Lat : -35.3632607, Lng : 149.1652294, Q1 : 0.998084723949, Q2 : 0.000342531682691, Q3 : 0.000208983692573, Q4 : -0.0618610195816}
2019-04-03 18:14:01.80: SIM {TimeUS : 56015918, Roll : 0.03, Pitch : 0.03, Yaw : 352.9, Alt : 599.229980469, Lat : -35.3632607, Lng : 149.1652294, Q1 : 0.998084068298, Q2 : 0.000293197866995, Q3 : 0.000278643710772, Q4 : -0.0618711747229}
2019-04-03 18:14:01.90: SIM {TimeUS : 56115878, Roll : 0.01, Pitch : 0.03, Yaw : 352.9, Alt : 599.460021973, Lat : -35.3632607, Lng : 149.1652294, Q1 : 0.998083293438, Q2 : 0.000146083693835, Q3 : 0.00029706035275, Q4 : -0.0618839934468}
2019-04-03 18:14:02.00: SIM {TimeUS : 56215838, Roll : 0.0, Pitch : 0.01, Yaw : 352.9, Alt : 599.690002441, Lat : -35.3632607, Lng : 149.1652294, Q1 : 0.998082220554, Q2 : 8.31453580759e-05, Q3 : 0.000137614872074, Q4 : -0.061901871115}
2019-04-03 18:14:02.09: SIM {TimeUS : 56315798, Roll : 0.0, Pitch : -0.01, Yaw : 352.9, Alt : 599.91998291, Lat : -35.3632607, Lng : 149.1652294, Q1 : 0.998081207275, Q2 : -2.51626934187e-05, Q3 : -0.000101298326626, Q4 : -0.0619188807905}
2019-04-03 18:14:02.19: SIM {TimeUS : 56415758, Roll : -0.01, Pitch : -0.03, Yaw : 352.89, Alt : 600.140014648, Lat : -35.3632607, Lng : 149.1652294, Q1 : 0.998080074787, Q2 : -0.000164998797118, Q3 : -0.000255423656199, Q4 : -0.0619366653264}
2019-04-03 18:14:02.29: SIM {TimeUS : 56515718, Roll : -0.01, Pitch : -0.04, Yaw : 352.89, Alt : 600.369995117, Lat : -35.3632607, Lng : 149.1652294, Q1 : 0.998079001904, Q2 : -0.000136140442919, Q3 : -0.000386724073905, Q4 : -0.0619535259902}
2019-04-03 18:14:02.39: SIM {TimeUS : 56615678, Roll : 0.0, Pitch : -0.04, Yaw : 352.89, Alt : 600.58001709, Lat : -35.3632607, Lng : 149.1652294, Q1 : 0.998078346252, Q2 : 5.51512639504e-05, Q3 : -0.000435925001511, Q4 : -0.061963301152}
2019-04-03 18:14:02.50: SIM {TimeUS : 56716471, Roll : 0.04, Pitch : -0.05, Yaw : 352.89, Alt : 600.789978027, Lat : -35.3632607, Lng : 149.1652294, Q1 : 0.998077809811, Q2 : 0.000327004032442, Q3 : -0.000462323747342, Q4 : -0.0619705207646}
2019-04-03 18:14:02.60: SIM {TimeUS : 56816431, Roll : 0.06, Pitch : -0.06, Yaw : 352.89, Alt : 601.0, Lat : -35.3632607, Lng : 149.1652294, Q1 : 0.998077213764, Q2 : 0.000552338024136, Q3 : -0.000559440813959, Q4 : -0.061977673322}
2019-04-03 18:14:02.70: SIM {TimeUS : 56916391, Roll : 0.07, Pitch : -0.04, Yaw : 352.89, Alt : 601.190002441, Lat : -35.3632607, Lng : 149.1652294, Q1 : 0.998076915741, Q2 : 0.000636765093077, Q3 : -0.000437490059994, Q4 : -0.061982344836}
2019-04-03 18:14:02.80: SIM {TimeUS : 57016351, Roll : 0.07, Pitch : 0.0, Yaw : 352.89, Alt : 601.380004883, Lat : -35.3632607, Lng : 149.1652294, Q1 : 0.998076736927, Q2 : 0.000613223994151, Q3 : -0.000109256223368, Q4 : -0.0619875043631}
2019-04-03 18:14:02.90: SIM {TimeUS : 57116311, Roll : 0.07, Pitch : 0.02, Yaw : 352.89, Alt : 601.559997559, Lat : -35.3632607, Lng : 149.1652294, Q1 : 0.998076081276, Q2 : 0.00064179248875, Q3 : 0.000158999551786, Q4 : -0.0619973167777}
2019-04-03 18:14:03.00: SIM {TimeUS : 57216271, Roll : 0.06, Pitch : 0.04, Yaw : 352.88, Alt : 601.729980469, Lat : -35.3632607, Lng : 149.1652296, Q1 : 0.998075246811, Q2 : 0.000595026940573, Q3 : 0.000318180158501, Q4 : -0.0620108246803}
2019-04-03 18:14:03.10: SIM {TimeUS : 57316231, Roll : 0.05, Pitch : 0.05, Yaw : 352.88, Alt : 601.880004883, Lat : -35.3632607, Lng : 149.1652296, Q1 : 0.998074054718, Q2 : 0.000486583681777, Q3 : 0.000483681913465, Q4 : -0.0620298050344}
2019-04-03 18:14:03.20: SIM {TimeUS : 57416191, Roll : 0.02, Pitch : 0.06, Yaw : 352.88, Alt : 602.020019531, Lat : -35.3632607, Lng : 149.1652296, Q1 : 0.998072683811, Q2 : 0.000242783746216, Q3 : 0.000550809898414, Q4 : -0.0620534345508}
2019-04-03 18:14:03.30: SIM {TimeUS : 57516151, Roll : 0.0, Pitch : 0.06, Yaw : 352.88, Alt : 602.150024414, Lat : -35.3632605, Lng : 149.1652296, Q1 : 0.998071193695, Q2 : -3.25871988025e-05, Q3 : 0.000551316596102, Q4 : -0.0620772354305}
2019-04-03 18:14:03.40: SIM {TimeUS : 57616111, Roll : -0.03, Pitch : 0.05, Yaw : 352.87, Alt : 602.270019531, Lat : -35.3632605, Lng : 149.1652296, Q1 : 0.998069763184, Q2 : -0.000289616291411, Q3 : 0.000533022917807, Q4 : -0.0621001906693}
2019-04-03 18:14:03.50: SIM {TimeUS : 57716071, Roll : -0.06, Pitch : 0.05, Yaw : 352.87, Alt : 602.380004883, Lat : -35.3632605, Lng : 149.1652296, Q1 : 0.998068332672, Q2 : -0.00051337928744, Q3 : 0.000510538753588, Q4 : -0.0621214024723}
2019-04-03 18:14:03.60: SIM {TimeUS : 57816031, Roll : -0.07, Pitch : 0.05, Yaw : 352.87, Alt : 602.469970703, Lat : -35.3632605, Lng : 149.1652296, Q1 : 0.998067378998, Q2 : -0.000585706729908, Q3 : 0.000509883684572, Q4 : -0.062136746943}
2019-04-03 18:14:03.70: SIM {TimeUS : 57915991, Roll : -0.06, Pitch : 0.04, Yaw : 352.87, Alt : 602.559997559, Lat : -35.3632605, Lng : 149.1652296, Q1 : 0.998066723347, Q2 : -0.000539672211744, Q3 : 0.000405309867347, Q4 : -0.0621485486627}
2019-04-03 18:14:03.80: SIM {TimeUS : 58015951, Roll : -0.04, Pitch : 0.02, Yaw : 352.87, Alt : 602.630004883, Lat : -35.3632605, Lng : 149.1652297, Q1 : 0.9980661273, Q2 : -0.000421116943471, Q3 : 0.000234297491261, Q4 : -0.0621596239507}
2019-04-03 18:14:03.90: SIM {TimeUS : 58115911, Roll : -0.04, Pitch : 0.0, Yaw : 352.87, Alt : 602.690002441, Lat : -35.3632605, Lng : 149.1652297, Q1 : 0.99806535244, Q2 : -0.000402020872571, Q3 : 5.02623479406e-05, Q4 : -0.0621726661921}
2019-04-03 18:14:04.00: SIM {TimeUS : 58215871, Roll : -0.06, Pitch : 0.0, Yaw : 352.86, Alt : 602.739990234, Lat : -35.3632605, Lng : 149.1652297, Q1 : 0.998064279556, Q2 : -0.000522374466527, Q3 : 4.7573728807e-05, Q4 : -0.0621894858778}
2019-04-03 18:14:04.10: SIM {TimeUS : 58315831, Roll : -0.05, Pitch : 0.02, Yaw : 352.86, Alt : 602.789978027, Lat : -35.3632605, Lng : 149.1652297, Q1 : 0.998063445091, Q2 : -0.000435923109762, Q3 : 0.000263067369815, Q4 : -0.0622028671205}
2019-04-03 18:14:04.19: SIM {TimeUS : 58415791, Roll : -0.05, Pitch : 0.06, Yaw : 352.86, Alt : 602.820007324, Lat : -35.3632605, Lng : 149.1652297, Q1 : 0.998062491417, Q2 : -0.00046480805031, Q3 : 0.000588141323533, Q4 : -0.0622153058648}
2019-04-03 18:14:04.29: SIM {TimeUS : 58515751, Roll : -0.06, Pitch : 0.09, Yaw : 352.86, Alt : 602.859985352, Lat : -35.3632605, Lng : 149.1652297, Q1 : 0.998061418533, Q2 : -0.000479592505144, Q3 : 0.000854116049595, Q4 : -0.062229309231}
2019-04-03 18:14:04.39: SIM {TimeUS : 58615711, Roll : -0.04, Pitch : 0.11, Yaw : 352.86, Alt : 602.880004883, Lat : -35.3632605, Lng : 149.1652297, Q1 : 0.998059988022, Q2 : -0.000296361686196, Q3 : 0.00104391644709, Q4 : -0.0622503235936}
2019-04-03 18:14:04.49: SIM {TimeUS : 58715671, Roll : -0.01, Pitch : 0.14, Yaw : 352.85, Alt : 602.909973145, Lat : -35.3632605, Lng : 149.1652297, Q1 : 0.998058378696, Q2 : -8.76816920936e-05, Q3 : 0.00125207728706, Q4 : -0.0622727461159}
2019-04-03 18:14:04.60: SIM {TimeUS : 58816464, Roll : -0.01, Pitch : 0.15, Yaw : 352.85, Alt : 602.929992676, Lat : -35.3632605, Lng : 149.1652297, Q1 : 0.99805700779, Q2 : -6.10854331171e-05, Q3 : 0.00133678491693, Q4 : -0.0622929483652}
2019-04-03 18:14:04.70: SIM {TimeUS : 58916424, Roll : -0.03, Pitch : 0.13, Yaw : 352.85, Alt : 602.940002441, Lat : -35.3632605, Lng : 149.1652297, Q1 : 0.998056054115, Q2 : -0.000235975880059, Q3 : 0.00116241001524, Q4 : -0.0623114481568}
2019-04-03 18:14:04.80: SIM {TimeUS : 59016384, Roll : -0.06, Pitch : 0.08, Yaw : 352.85, Alt : 602.960021973, Lat : -35.3632605, Lng : 149.1652297, Q1 : 0.998054802418, Q2 : -0.00048393450561, Q3 : 0.000796923064627, Q4 : -0.0623357780278}
2019-04-03 18:14:04.90: SIM {TimeUS : 59116344, Roll : -0.08, Pitch : 0.05, Yaw : 352.84, Alt : 602.969970703, Lat : -35.3632607, Lng : 149.1652297, Q1 : 0.99805355072, Q2 : -0.000731803651433, Q3 : 0.000519825494848, Q4 : -0.0623562671244}
2019-04-03 18:14:05.00: SIM {TimeUS : 59216304, Roll : -0.1, Pitch : 0.03, Yaw : 352.84, Alt : 602.979980469, Lat : -35.3632607, Lng : 149.1652297, Q1 : 0.998052954674, Q2 : -0.000868664530572, Q3 : 0.000327234971337, Q4 : -0.0623659491539}
2019-04-03 18:14:05.10: SIM {TimeUS : 59316264, Roll : -0.11, Pitch : 0.01, Yaw : 352.84, Alt : 602.989990234, Lat : -35.3632607, Lng : 149.1652297, Q1 : 0.998052656651, Q2 : -0.000960665696766, Q3 : 0.000227270211326, Q4 : -0.0623692236841}
2019-04-03 18:14:05.20: SIM {TimeUS : 59416224, Roll : -0.11, Pitch : 0.02, Yaw : 352.84, Alt : 603.0, Lat : -35.3632607, Lng : 149.1652297, Q1 : 0.998053014278, Q2 : -0.000962800870184, Q3 : 0.000278209772659, Q4 : -0.0623631365597}
2019-04-03 18:14:05.30: SIM {TimeUS : 59516184, Roll : -0.09, Pitch : 0.03, Yaw : 352.85, Alt : 603.010009766, Lat : -35.3632607, Lng : 149.1652297, Q1 : 0.998053848743, Q2 : -0.000834047386888, Q3 : 0.000381592282793, Q4 : -0.0623517334461}
2019-04-03 18:14:05.40: SIM {TimeUS : 59616144, Roll : -0.07, Pitch : 0.04, Yaw : 352.85, Alt : 603.010009766, Lat : -35.3632607, Lng : 149.1652296, Q1 : 0.998054683208, Q2 : -0.000596132595092, Q3 : 0.000470202474389, Q4 : -0.0623395852745}
2019-04-03 18:14:05.50: SIM {TimeUS : 59716104, Roll : -0.05, Pitch : 0.05, Yaw : 352.85, Alt : 603.020019531, Lat : -35.3632607, Lng : 149.1652296, Q1 : 0.99805533886, Q2 : -0.000425450416515, Q3 : 0.000497749249917, Q4 : -0.0623307302594}
2019-04-03 18:14:05.60: SIM {TimeUS : 59816064, Roll : -0.04, Pitch : 0.04, Yaw : 352.85, Alt : 603.020019531, Lat : -35.3632607, Lng : 149.1652296, Q1 : 0.998055398464, Q2 : -0.000350782996975, Q3 : 0.000415143265855, Q4 : -0.0623310171068}
2019-04-03 18:14:05.70: SIM {TimeUS : 59916024, Roll : -0.03, Pitch : 0.02, Yaw : 352.85, Alt : 603.030029297, Lat : -35.3632607, Lng : 149.1652296, Q1 : 0.998054981232, Q2 : -0.000321864150465, Q3 : 0.000257476349361, Q4 : -0.0623378865421}
2019-04-03 18:14:05.80: SIM {TimeUS : 60015984, Roll : -0.04, Pitch : 0.0, Yaw : 352.85, Alt : 603.030029297, Lat : -35.3632607, Lng : 149.1652296, Q1 : 0.998054027557, Q2 : -0.000374995492166, Q3 : 4.21576187364e-05, Q4 : -0.0623541511595}
2019-04-03 18:14:05.90: SIM {TimeUS : 60115944, Roll : -0.06, Pitch : -0.01, Yaw : 352.84, Alt : 603.030029297, Lat : -35.3632607, Lng : 149.1652296, Q1 : 0.998052239418, Q2 : -0.000561769818887, Q3 : -0.000121573146316, Q4 : -0.0623815730214}
2019-04-03 18:14:06.00: SIM {TimeUS : 60215904, Roll : -0.09, Pitch : -0.01, Yaw : 352.84, Alt : 603.030029297, Lat : -35.3632607, Lng : 149.1652296, Q1 : 0.998050034046, Q2 : -0.000800761859864, Q3 : -0.000110670916911, Q4 : -0.0624133311212}
2019-04-03 18:14:06.10: SIM {TimeUS : 60315864, Roll : -0.11, Pitch : -0.01, Yaw : 352.83, Alt : 603.039978027, Lat : -35.3632608, Lng : 149.1652296, Q1 : 0.998047351837, Q2 : -0.00102755567059, Q3 : -3.94685375795e-05, Q4 : -0.0624539814889}
2019-04-03 18:14:06.20: SIM {TimeUS : 60415824, Roll : -0.12, Pitch : -0.02, Yaw : 352.83, Alt : 603.039978027, Lat : -35.3632608, Lng : 149.1652296, Q1 : 0.998044908047, Q2 : -0.00112908380106, Q3 : -0.000117062467325, Q4 : -0.0624910593033}
2019-04-03 18:14:06.29: SIM {TimeUS : 60515784, Roll : -0.11, Pitch : -0.03, Yaw : 352.82, Alt : 603.039978027, Lat : -35.3632608, Lng : 149.1652296, Q1 : 0.998042047024, Q2 : -0.000999500509351, Q3 : -0.000210773214349, Q4 : -0.0625378936529}
2019-04-03 18:14:06.39: SIM {TimeUS : 60615744, Roll : -0.08, Pitch : -0.04, Yaw : 352.82, Alt : 603.039978027, Lat : -35.3632608, Lng : 149.1652296, Q1 : 0.998039960861, Q2 : -0.000782647868618, Q3 : -0.000325274188071, Q4 : -0.0625739842653}
2019-04-03 18:14:06.49: SIM {TimeUS : 60715704, Roll : -0.04, Pitch : -0.06, Yaw : 352.82, Alt : 603.039978027, Lat : -35.3632608, Lng : 149.1652296, Q1 : 0.998038828373, Q2 : -0.000460870738607, Q3 : -0.000498046400025, Q4 : -0.0625948384404}
2019-04-03 18:14:06.59: SIM {TimeUS : 60815664, Roll : -0.02, Pitch : -0.07, Yaw : 352.82, Alt : 603.039978027, Lat : -35.3632608, Lng : 149.1652296, Q1 : 0.998038113117, Q2 : -0.000217500943108, Q3 : -0.000666794891004, Q4 : -0.0626054108143}
2019-04-03 18:14:06.70: SIM {TimeUS : 60916457, Roll : -0.01, Pitch : -0.07, Yaw : 352.82, Alt : 603.039978027, Lat : -35.3632608, Lng : 149.1652294, Q1 : 0.998038113117, Q2 : -0.000153077256982, Q3 : -0.000608749571256, Q4 : -0.06260612607}
2019-04-03 18:14:06.80: SIM {TimeUS : 61016417, Roll : -0.03, Pitch : -0.05, Yaw : 352.82, Alt : 603.039978027, Lat : -35.3632608, Lng : 149.1652294, Q1 : 0.998038470745, Q2 : -0.000361761427484, Q3 : -0.000431916094385, Q4 : -0.0626018941402}
2019-04-03 18:14:06.90: SIM {TimeUS : 61116377, Roll : -0.04, Pitch : -0.02, Yaw : 352.82, Alt : 603.039978027, Lat : -35.3632608, Lng : 149.1652294, Q1 : 0.998039126396, Q2 : -0.000399436801672, Q3 : -0.00017763908545, Q4 : -0.0625916048884}
2019-04-03 18:14:07.00: SIM {TimeUS : 61216337, Roll : -0.04, Pitch : 0.0, Yaw : 352.82, Alt : 603.039978027, Lat : -35.3632608, Lng : 149.1652294, Q1 : 0.998039960861, Q2 : -0.000406785053201, Q3 : 8.05764284451e-06, Q4 : -0.0625785216689}
2019-04-03 18:14:07.10: SIM {TimeUS : 61316297, Roll : -0.02, Pitch : 0.0, Yaw : 352.82, Alt : 603.039978027, Lat : -35.3632608, Lng : 149.1652294, Q1 : 0.99804008007, Q2 : -0.000228022880037, Q3 : 1.26621998788e-05, Q4 : -0.0625776648521}
2019-04-03 18:14:07.20: SIM {TimeUS : 61416257, Roll : 0.0, Pitch : -0.03, Yaw : 352.82, Alt : 603.039978027, Lat : -35.3632608, Lng : 149.1652294, Q1 : 0.998039662838, Q2 : 2.88059090963e-05, Q3 : -0.000285882095341, Q4 : -0.0625840723515}
2019-04-03 18:14:07.30: SIM {TimeUS : 61516217, Roll : 0.03, Pitch : -0.05, Yaw : 352.82, Alt : 603.039978027, Lat : -35.3632608, Lng : 149.1652294, Q1 : 0.998038768768, Q2 : 0.000263873400399, Q3 : -0.000493068015203, Q4 : -0.0625964328647}
2019-04-03 18:14:07.40: SIM {TimeUS : 61616177, Roll : 0.05, Pitch : -0.05, Yaw : 352.82, Alt : 603.039978027, Lat : -35.3632608, Lng : 149.1652294, Q1 : 0.998038053513, Q2 : 0.000430529966252, Q3 : -0.000476705929032, Q4 : -0.0626072660089}
2019-04-03 18:14:07.50: SIM {TimeUS : 61716137, Roll : 0.09, Pitch : -0.07, Yaw : 352.81, Alt : 603.039978027, Lat : -35.3632608, Lng : 149.1652293, Q1 : 0.998036682606, Q2 : 0.000806411146186, Q3 : -0.000712387845851, Q4 : -0.0626232922077}
2019-04-03 18:14:07.60: SIM {TimeUS : 61816097, Roll : 0.22, Pitch : -0.19, Yaw : 352.81, Alt : 603.039978027, Lat : -35.3632608, Lng : 149.1652293, Q1 : 0.998033165932, Q2 : 0.00182710273657, Q3 : -0.00184518564492, Q4 : -0.0626344680786}
2019-04-03 18:14:07.70: SIM {TimeUS : 61916057, Roll : 0.53, Pitch : -0.47, Yaw : 352.81, Alt : 603.039978027, Lat : -35.3632608, Lng : 149.1652293, Q1 : 0.998016774654, Q2 : 0.00435927417129, Q3 : -0.00441421754658, Q4 : -0.0626421794295}
2019-04-03 18:14:07.80: SIM {TimeUS : 62016017, Roll : 1.02, Pitch : -0.93, Yaw : 352.8, Alt : 603.039978027, Lat : -35.3632608, Lng : 149.1652293, Q1 : 0.997963309288, Q2 : 0.00838577840477, Q3 : -0.00866665411741, Q4 : -0.0626404881477}
2019-04-03 18:14:07.90: SIM {TimeUS : 62115977, Roll : 1.65, Pitch : -1.52, Yaw : 352.79, Alt : 603.039978027, Lat : -35.3632607, Lng : 149.1652294, Q1 : 0.997846007347, Q2 : 0.0135518005118, Q3 : -0.0141733316705, Q4 : -0.0626006796956}
2019-04-03 18:14:08.00: SIM {TimeUS : 62215937, Roll : 2.37, Pitch : -2.2, Yaw : 352.78, Alt : 603.039978027, Lat : -35.3632607, Lng : 149.1652294, Q1 : 0.997641324997, Q2 : 0.0195067934692, Q3 : -0.0205483790487, Q4 : -0.0625222399831}
2019-04-03 18:14:08.10: SIM {TimeUS : 62315897, Roll : 3.09, Pitch : -2.87, Yaw : 352.76, Alt : 603.039978027, Lat : -35.3632605, Lng : 149.1652296, Q1 : 0.997371733189, Q2 : 0.0253816954792, Q3 : -0.0267361663282, Q4 : -0.0623749680817}
2019-04-03 18:14:08.20: SIM {TimeUS : 62415857, Roll : 3.71, Pitch : -3.43, Yaw : 352.75, Alt : 603.039978027, Lat : -35.3632604, Lng : 149.1652297, Q1 : 0.997092306614, Q2 : 0.0304026976228, Q3 : -0.031927768141, Q4 : -0.0621556602418}
2019-04-03 18:14:08.30: SIM {TimeUS : 62515817, Roll : 4.17, Pitch : -3.85, Yaw : 352.75, Alt : 603.039978027, Lat : -35.3632603, Lng : 149.1652298, Q1 : 0.996852219105, Q2 : 0.0342345461249, Q3 : -0.0358393713832, Q4 : -0.0618802756071}
2019-04-03 18:14:08.39: SIM {TimeUS : 62615777, Roll : 4.5, Pitch : -4.17, Yaw : 352.76, Alt : 603.039978027, Lat : -35.3632599, Lng : 149.1652299, Q1 : 0.996662318707, Q2 : 0.0369136892259, Q3 : -0.0388470925391, Q4 : -0.0615840367973}
2019-04-03 18:14:08.49: SIM {TimeUS : 62715737, Roll : 4.75, Pitch : -4.46, Yaw : 352.77, Alt : 603.030029297, Lat : -35.3632598, Lng : 149.1652303, Q1 : 0.996498942375, Q2 : 0.0389133952558, Q3 : -0.0414739325643, Q4 : -0.0612823478878}
2019-04-03 18:14:08.59: SIM {TimeUS : 62815697, Roll : 4.98, Pitch : -4.74, Yaw : 352.78, Alt : 603.030029297, Lat : -35.3632593, Lng : 149.1652307, Q1 : 0.996334552765, Q2 : 0.0407595001161, Q3 : -0.0440280474722, Q4 : -0.06097208336}
2019-04-03 18:14:08.70: SIM {TimeUS : 62916490, Roll : 5.26, Pitch : -5.02, Yaw : 352.8, Alt : 603.030029297, Lat : -35.363259, Lng : 149.1652311, Q1 : 0.996143102646, Q2 : 0.0430123209953, Q3 : -0.0465958453715, Q4 : -0.0606446117163}
2019-04-03 18:14:08.80: SIM {TimeUS : 63016450, Roll : 5.54, Pitch : -5.27, Yaw : 352.81, Alt : 603.030029297, Lat : -35.3632585, Lng : 149.1652315, Q1 : 0.995949208736, Q2 : 0.0453054532409, Q3 : -0.0489291474223, Q4 : -0.0603204965591}
2019-04-03 18:14:08.90: SIM {TimeUS : 63116410, Roll : 5.78, Pitch : -5.46, Yaw : 352.82, Alt : 603.030029297, Lat : -35.363258, Lng : 149.165232, Q1 : 0.995787978172, Q2 : 0.0472904667258, Q3 : -0.0506644248962, Q4 : -0.0600257627666}
2019-04-03 18:14:09.00: SIM {TimeUS : 63216370, Roll : 5.94, Pitch : -5.59, Yaw : 352.83, Alt : 603.030029297, Lat : -35.3632574, Lng : 149.1652326, Q1 : 0.99567180872, Q2 : 0.0486901700497, Q3 : -0.0518693551421, Q4 : -0.059803634882}
2019-04-03 18:14:09.10: SIM {TimeUS : 63316330, Roll : 6.06, Pitch : -5.69, Yaw : 352.83, Alt : 603.030029297, Lat : -35.3632567, Lng : 149.1652332, Q1 : 0.995583772659, Q2 : 0.0496635288, Q3 : -0.0527948588133, Q4 : -0.0596589520574}
2019-04-03 18:14:09.20: SIM {TimeUS : 63416290, Roll : 6.16, Pitch : -5.77, Yaw : 352.83, Alt : 603.030029297, Lat : -35.3632561, Lng : 149.165234, Q1 : 0.995507240295, Q2 : 0.050486177206, Q3 : -0.0535427518189, Q4 : -0.059579052031}
2019-04-03 18:14:09.30: SIM {TimeUS : 63516250, Roll : 6.26, Pitch : -5.87, Yaw : 352.82, Alt : 603.030029297, Lat : -35.3632553, Lng : 149.1652346, Q1 : 0.995416104794, Q2 : 0.0512867234647, Q3 : -0.0544812381268, Q4 : -0.0595674403012}
2019-04-03 18:14:09.40: SIM {TimeUS : 63616210, Roll : 6.46, Pitch : -5.96, Yaw : 352.84, Alt : 603.030029297, Lat : -35.3632544, Lng : 149.1652355, Q1 : 0.995298147202, Q2 : 0.0529951043427, Q3 : -0.0553484521806, Q4 : -0.0592424422503}
2019-04-03 18:14:09.50: SIM {TimeUS : 63716170, Roll : 6.91, Pitch : -5.94, Yaw : 353.27, Alt : 603.030029297, Lat : -35.3632537, Lng : 149.1652364, Q1 : 0.995306074619, Q2 : 0.0570487007499, Q3 : -0.0551698021591, Q4 : -0.0553860403597}
2019-04-03 18:14:09.60: SIM {TimeUS : 63816130, Roll : 7.52, Pitch : -5.91, Yaw : 354.79, Alt : 603.030029297, Lat : -35.3632528, Lng : 149.1652373, Q1 : 0.995641589165, Q2 : 0.0631741508842, Q3 : -0.0543684996665, Q4 : -0.0418444350362}
2019-04-03 18:14:09.70: SIM {TimeUS : 63916090, Roll : 8.02, Pitch : -6.16, Yaw : 357.94, Alt : 603.030029297, Lat : -35.3632518, Lng : 149.1652383, Q1 : 0.996010363102, Q2 : 0.0689075812697, Q3 : -0.0549199841917, Q4 : -0.0141032543033}
2019-04-03 18:14:09.80: SIM {TimeUS : 64016050, Roll : 8.09, Pitch : -6.86, Yaw : 2.72, Alt : 603.030029297, Lat : -35.3632509, Lng : 149.1652394, Q1 : 0.995333492756, Q2 : 0.0718470215797, Q3 : -0.0580578297377, Q4 : 0.0279028881341}
2019-04-03 18:14:09.90: SIM {TimeUS : 64116010, Roll : 7.55, Pitch : -7.97, Yaw : 8.91, Alt : 603.030029297, Lat : -35.3632499, Lng : 149.1652406, Q1 : 0.992042601109, Q2 : 0.0709567889571, Q3 : -0.0640652030706, Q4 : 0.0819284617901}
2019-04-03 18:14:10.00: SIM {TimeUS : 64215970, Roll : 6.37, Pitch : -9.29, Yaw : 16.22, Alt : 603.030029297, Lat : -35.3632488, Lng : 149.1652418, Q1 : 0.984570086002, Q2 : 0.0662775859237, Q3 : -0.0723091140389, Q4 : 0.144915387034}
2019-04-03 18:14:10.10: SIM {TimeUS : 64315930, Roll : 4.53, Pitch : -10.66, Yaw : 24.35, Alt : 603.030029297, Lat : -35.3632476, Lng : 149.1652431, Q1 : 0.971735239029, Q2 : 0.0580763779581, Q3 : -0.0824290439487, Q4 : 0.213455542922}
2019-04-03 18:14:10.20: SIM {TimeUS : 64415890, Roll : 1.86, Pitch : -11.81, Yaw : 32.78, Alt : 603.030029297, Lat : -35.3632465, Lng : 149.1652445, Q1 : 0.953657269478, Q2 : 0.0445350296795, Q3 : -0.0941384807229, Q4 : 0.282298356295}
2019-04-03 18:14:10.30: SIM {TimeUS : 64515850, Roll : -1.32, Pitch : -12.49, Yaw : 40.62, Alt : 603.030029297, Lat : -35.3632453, Lng : 149.165246, Q1 : 0.932620942593, Q2 : 0.02701071091, Q3 : -0.105999998748, Q4 : 0.343878805637}
2019-04-03 18:14:10.40: SIM {TimeUS : 64615810, Roll : -4.31, Pitch : -12.66, Yaw : 46.97, Alt : 603.030029297, Lat : -35.363244, Lng : 149.1652475, Q1 : 0.912570297718, Q2 : 0.00961854867637, Q3 : -0.116004303098, Q4 : 0.392002522945}
2019-04-03 18:14:10.49: SIM {TimeUS : 64715770, Roll : -6.49, Pitch : -12.55, Yaw : 51.28, Alt : 603.030029297, Lat : -35.3632427, Lng : 149.165249, Q1 : 0.89734607935, Q2 : -0.00350052397698, Q3 : -0.122766524553, Q4 : 0.423894077539}
2019-04-03 18:14:10.59: SIM {TimeUS : 64815730, Roll : -7.59, Pitch : -12.42, Yaw : 53.5, Alt : 603.030029297, Lat : -35.3632412, Lng : 149.1652504, Q1 : 0.888991236687, Q2 : -0.0102181509137, Q3 : -0.126056775451, Q4 : 0.440113455057}
2019-04-03 18:14:10.69: SIM {TimeUS : 64915690, Roll : -7.66, Pitch : -12.48, Yaw : 53.89, Alt : 603.030029297, Lat : -35.3632396, Lng : 149.1652521, Q1 : 0.887432157993, Q2 : -0.0100580556318, Q3 : -0.126841127872, Q4 : 0.443028628826}
2019-04-03 18:14:10.80: SIM {TimeUS : 65016483, Roll : -6.88, Pitch : -12.8, Yaw : 52.83, Alt : 603.030029297, Lat : -35.3632379, Lng : 149.1652536, Q1 : 0.891374826431, Q2 : -0.0039427424781, Q3 : -0.126221239567, Q4 : 0.435320109129}
2019-04-03 18:14:10.90: SIM {TimeUS : 65116443, Roll : -5.5, Pitch : -13.32, Yaw : 50.71, Alt : 603.030029297, Lat : -35.3632361, Lng : 149.1652552, Q1 : 0.89890152216, Q2 : 0.00652726413682, Q3 : -0.125156447291, Q4 : 0.419844478369}
2019-04-03 18:14:11.00: SIM {TimeUS : 65216403, Roll : -3.76, Pitch : -13.98, Yaw : 47.91, Alt : 603.030029297, Lat : -35.3632342, Lng : 149.1652567, Q1 : 0.908196806908, Q2 : 0.0196424406022, Q3 : -0.124438934028, Q4 : 0.399133741856}
2019-04-03 18:14:11.10: SIM {TimeUS : 65316363, Roll : -1.9, Pitch : -14.65, Yaw : 44.76, Alt : 603.030029297, Lat : -35.3632322, Lng : 149.1652584, Q1 : 0.917787194252, Q2 : 0.0333227925003, Q3 : -0.124223463237, Q4 : 0.375665813684}
2019-04-03 18:14:11.20: SIM {TimeUS : 65416323, Roll : -0.15, Pitch : -15.2, Yaw : 41.62, Alt : 603.030029297, Lat : -35.3632301, Lng : 149.16526, Q1 : 0.926581501961, Q2 : 0.045800473541, Q3 : -0.124160379171, Q4 : 0.352041572332}
2019-04-03 18:14:11.30: SIM {TimeUS : 65516283, Roll : 1.32, Pitch : -15.56, Yaw : 38.84, Alt : 603.030029297, Lat : -35.3632282, Lng : 149.1652619, Q1 : 0.93382525444, Q2 : 0.0558010227978, Q3 : -0.12392706424, Q4 : 0.330906003714}
2019-04-03 18:14:11.40: SIM {TimeUS : 65616243, Roll : 2.41, Pitch : -15.73, Yaw : 36.68, Alt : 603.039978027, Lat : -35.3632261, Lng : 149.1652638, Q1 : 0.939150035381, Q2 : 0.0628321170807, Q3 : -0.123313620687, Q4 : 0.31439307332}
2019-04-03 18:14:11.50: SIM {TimeUS : 65716203, Roll : 3.06, Pitch : -15.76, Yaw : 35.29, Alt : 603.039978027, Lat : -35.3632239, Lng : 149.1652657, Q1 : 0.942483603954, Q2 : 0.0667878314853, Q3 : -0.122575499117, Q4 : 0.303709149361}
2019-04-03 18:14:11.60: SIM {TimeUS : 65816163, Roll : 3.25, Pitch : -15.74, Yaw : 34.7, Alt : 603.039978027, Lat : -35.3632218, Lng : 149.1652677, Q1 : 0.943944692612, Q2 : 0.0676978453994, Q3 : -0.122257187963, Q4 : 0.299062788486}
2019-04-03 18:14:11.70: SIM {TimeUS : 65916123, Roll : 3.03, Pitch : -15.73, Yaw : 34.83, Alt : 603.039978027, Lat : -35.3632196, Lng : 149.1652699, Q1 : 0.943743109703, Q2 : 0.0660309940577, Q3 : -0.122701913118, Q4 : 0.299888372421}
2019-04-03 18:14:11.80: SIM {TimeUS : 66016083, Roll : 2.48, Pitch : -15.78, Yaw : 35.53, Alt : 603.039978027, Lat : -35.3632173, Lng : 149.1652722, Q1 : 0.942148923874, Q2 : 0.0623695142567, Q3 : -0.124185450375, Q4 : 0.305030107498}
2019-04-03 18:14:11.90: SIM {TimeUS : 66116043, Roll : 1.72, Pitch : -15.89, Yaw : 36.61, Alt : 603.039978027, Lat : -35.3632151, Lng : 149.1652744, Q1 : 0.939496159554, Q2 : 0.0576166026294, Q3 : -0.126578629017, Q4 : 0.313057690859}
2019-04-03 18:14:12.00: SIM {TimeUS : 66216003, Roll : 0.89, Pitch : -16.03, Yaw : 37.88, Alt : 603.039978027, Lat : -35.3632128, Lng : 149.1652767, Q1 : 0.936215162277, Q2 : 0.0525744743645, Q3 : -0.129392638803, Q4 : 0.32248210907}
2019-04-03 18:14:12.10: SIM {TimeUS : 66315963, Roll : 0.11, Pitch : -16.16, Yaw : 39.16, Alt : 603.039978027, Lat : -35.3632105, Lng : 149.1652791, Q1 : 0.932757019997, Q2 : 0.0480818524957, Q3 : -0.132121890783, Q4 : 0.331958264112}
2019-04-03 18:14:12.20: SIM {TimeUS : 66415923, Roll : -0.52, Pitch : -16.28, Yaw : 40.29, Alt : 603.049987793, Lat : -35.3632081, Lng : 149.1652815, Q1 : 0.929562687874, Q2 : 0.0445120595396, Q3 : -0.134503558278, Q4 : 0.340353786945}
2019-04-03 18:14:12.30: SIM {TimeUS : 66515883, Roll : -1.01, Pitch : -16.35, Yaw : 41.17, Alt : 603.049987793, Lat : -35.3632057, Lng : 149.165284, Q1 : 0.92702704668, Q2 : 0.0418033674359, Q3 : -0.136215239763, Q4 : 0.346869915724}
2019-04-03 18:14:12.40: SIM {TimeUS : 66615843, Roll : -1.32, Pitch : -16.4, Yaw : 41.74, Alt : 603.049987793, Lat : -35.3632032, Lng : 149.1652866, Q1 : 0.92534416914, Q2 : 0.0401523970068, Q3 : -0.137349709868, Q4 : 0.35108551383}
2019-04-03 18:14:12.50: SIM {TimeUS : 66715803, Roll : -1.42, Pitch : -16.45, Yaw : 41.99, Alt : 603.049987793, Lat : -35.3632007, Lng : 149.1652892, Q1 : 0.924556851387, Q2 : 0.0397683866322, Q3 : -0.137979626656, Q4 : 0.352951467037}
2019-04-03 18:14:12.59: SIM {TimeUS : 66815763, Roll : -1.36, Pitch : -16.48, Yaw : 41.95, Alt : 603.049987793, Lat : -35.3631981, Lng : 149.1652916, Q1 : 0.92462939024, Q2 : 0.0403190776706, Q3 : -0.138049781322, Q4 : 0.352671444416}
2019-04-03 18:14:12.69: SIM {TimeUS : 66915723, Roll : -1.15, Pitch : -16.5, Yaw : 41.67, Alt : 603.049987793, Lat : -35.3631954, Lng : 149.1652943, Q1 : 0.925374746323, Q2 : 0.041728682816, Q3 : -0.137716382742, Q4 : 0.350677073002}
2019-04-03 18:14:12.79: SIM {TimeUS : 67015683, Roll : -0.84, Pitch : -16.53, Yaw : 41.24, Alt : 603.049987793, Lat : -35.3631929, Lng : 149.1652968, Q1 : 0.92655980587, Q2 : 0.0437820702791, Q3 : -0.137146681547, Q4 : 0.347506612539}
2019-04-03 18:14:12.90: SIM {TimeUS : 67116476, Roll : -0.49, Pitch : -16.56, Yaw : 40.71, Alt : 603.049987793, Lat : -35.3631902, Lng : 149.1652996, Q1 : 0.927963912487, Q2 : 0.0461210943758, Q3 : -0.136508002877, Q4 : 0.343687921762}
2019-04-03 18:14:13.00: SIM {TimeUS : 67216436, Roll : -0.15, Pitch : -16.6, Yaw : 40.19, Alt : 603.049987793, Lat : -35.3631874, Lng : 149.1653022, Q1 : 0.929345667362, Q2 : 0.0483156591654, Q3 : -0.136069387197, Q4 : 0.339805006981}
2019-04-03 18:14:13.10: SIM {TimeUS : 67316396, Roll : 0.11, Pitch : -16.66, Yaw : 39.72, Alt : 603.049987793, Lat : -35.3631848, Lng : 149.165305, Q1 : 0.930548846722, Q2 : 0.0501456074417, Q3 : -0.135953202844, Q4 : 0.336275219917}
2019-04-03 18:14:13.20: SIM {TimeUS : 67416356, Roll : 0.32, Pitch : -16.73, Yaw : 39.34, Alt : 603.049987793, Lat : -35.363182, Lng : 149.1653077, Q1 : 0.931468546391, Q2 : 0.0515879653394, Q3 : -0.136066615582, Q4 : 0.333452939987}
2019-04-03 18:14:13.30: SIM {TimeUS : 67516316, Roll : 0.45, Pitch : -16.77, Yaw : 39.09, Alt : 603.049987793, Lat : -35.3631793, Lng : 149.1653105, Q1 : 0.932089626789, Q2 : 0.0525043010712, Q3 : -0.136128008366, Q4 : 0.331543892622}
2019-04-03 18:14:13.40: SIM {TimeUS : 67616276, Roll : 0.5, Pitch : -16.79, Yaw : 38.96, Alt : 603.059997559, Lat : -35.3631765, Lng : 149.1653132, Q1 : 0.932397544384, Q2 : 0.0528446435928, Q3 : -0.136206716299, Q4 : 0.330590248108}
2019-04-03 18:14:13.50: SIM {TimeUS : 67716236, Roll : 0.48, Pitch : -16.82, Yaw : 38.96, Alt : 603.059997559, Lat : -35.3631737, Lng : 149.165316, Q1 : 0.932391107082, Q2 : 0.0527506135404, Q3 : -0.136489376426, Q4 : 0.330506950617}
2019-04-03 18:14:13.60: SIM {TimeUS : 67816196, Roll : 0.41, Pitch : -16.86, Yaw : 39.05, Alt : 603.059997559, Lat : -35.3631709, Lng : 149.1653189, Q1 : 0.932114541531, Q2 : 0.0523790493608, Q3 : -0.137037262321, Q4 : 0.331118941307}
2019-04-03 18:14:13.70: SIM {TimeUS : 67916156, Roll : 0.3, Pitch : -16.91, Yaw : 39.2, Alt : 603.059997559, Lat : -35.363168, Lng : 149.1653217, Q1 : 0.931655406952, Q2 : 0.0518690124154, Q3 : -0.13769210875, Q4 : 0.332217931747}
2019-04-03 18:14:13.80: SIM {TimeUS : 68016116, Roll : 0.18, Pitch : -16.97, Yaw : 39.39, Alt : 603.059997559, Lat : -35.3631652, Lng : 149.1653246, Q1 : 0.931107997894, Q2 : 0.0511995181441, Q3 : -0.138395041227, Q4 : 0.333561569452}
2019-04-03 18:14:13.90: SIM {TimeUS : 68116076, Roll : 0.05, Pitch : -17.02, Yaw : 39.58, Alt : 603.059997559, Lat : -35.3631623, Lng : 149.1653275, Q1 : 0.930546224117, Q2 : 0.0505193211138, Q3 : -0.139099493623, Q4 : 0.334937244654}
2019-04-03 18:14:14.00: SIM {TimeUS : 68216036, Roll : -0.07, Pitch : -17.06, Yaw : 39.75, Alt : 603.059997559, Lat : -35.3631595, Lng : 149.1653306, Q1 : 0.93004822731, Q2 : 0.0498270578682, Q3 : -0.139751315117, Q4 : 0.336150527}
2019-04-03 18:14:14.10: SIM {TimeUS : 68315996, Roll : -0.18, Pitch : -17.09, Yaw : 39.88, Alt : 603.059997559, Lat : -35.3631564, Lng : 149.1653335, Q1 : 0.929668605328, Q2 : 0.0492230467498, Q3 : -0.140245243907, Q4 : 0.337082594633}
2019-04-03 18:14:14.20: SIM {TimeUS : 68415956, Roll : -0.24, Pitch : -17.11, Yaw : 39.97, Alt : 603.070007324, Lat : -35.3631535, Lng : 149.1653365, Q1 : 0.929426193237, Q2 : 0.0488354563713, Q3 : -0.140584096313, Q4 : 0.337665677071}
2019-04-03 18:14:14.30: SIM {TimeUS : 68515916, Roll : -0.26, Pitch : -17.13, Yaw : 40.0, Alt : 603.070007324, Lat : -35.3631507, Lng : 149.1653394, Q1 : 0.929322004318, Q2 : 0.0487613752484, Q3 : -0.14074857533, Q4 : 0.337894588709}
2019-04-03 18:14:14.40: SIM {TimeUS : 68615876, Roll : -0.24, Pitch : -17.14, Yaw : 39.98, Alt : 603.070007324, Lat : -35.3631477, Lng : 149.1653424, Q1 : 0.929339647293, Q2 : 0.0489738434553, Q3 : -0.140819221735, Q4 : 0.337785959244}
2019-04-03 18:14:14.50: SIM {TimeUS : 68715836, Roll : -0.19, Pitch : -17.16, Yaw : 39.93, Alt : 603.070007324, Lat : -35.3631447, Lng : 149.1653455, Q1 : 0.92945343256, Q2 : 0.0493832454085, Q3 : -0.140877723694, Q4 : 0.337388694286}
2019-04-03 18:14:14.59: SIM {TimeUS : 68815796, Roll : -0.12, Pitch : -17.2, Yaw : 39.84, Alt : 603.070007324, Lat : -35.3631417, Lng : 149.1653485, Q1 : 0.929621994495, Q2 : 0.049997985363, Q3 : -0.140982478857, Q4 : 0.336789429188}
2019-04-03 18:14:14.69: SIM {TimeUS : 68915756, Roll : -0.03, Pitch : -17.23, Yaw : 39.75, Alt : 603.070007324, Lat : -35.3631387, Lng : 149.1653515, Q1 : 0.929836392403, Q2 : 0.0506235472858, Q3 : -0.141004815698, Q4 : 0.336093962193}
2019-04-03 18:14:14.79: SIM {TimeUS : 69015716, Roll : 0.02, Pitch : -17.26, Yaw : 39.65, Alt : 603.070007324, Lat : -35.3631357, Lng : 149.1653546, Q1 : 0.930051922798, Q2 : 0.051125228405, Q3 : -0.14115434885, Q4 : 0.335358291864}
2019-04-03 18:14:14.89: SIM {TimeUS : 69115676, Roll : 0.06, Pitch : -17.29, Yaw : 39.56, Alt : 603.070007324, Lat : -35.3631327, Lng : 149.1653576, Q1 : 0.930265426636, Q2 : 0.0514061823487, Q3 : -0.141298294067, Q4 : 0.334661692381}
2019-04-03 18:14:15.00: SIM {TimeUS : 69216469, Roll : 0.09, Pitch : -17.32, Yaw : 39.48, Alt : 603.070007324, Lat : -35.3631296, Lng : 149.1653608, Q1 : 0.930441737175, Q2 : 0.0516340062022, Q3 : -0.1414693892, Q4 : 0.33406367898}
2019-04-03 18:14:15.10: SIM {TimeUS : 69316429, Roll : 0.11, Pitch : -17.34, Yaw : 39.42, Alt : 603.070007324, Lat : -35.3631265, Lng : 149.1653639, Q1 : 0.930567443371, Q2 : 0.0517924502492, Q3 : -0.141639351845, Q4 : 0.333616733551}
2019-04-03 18:14:15.20: SIM {TimeUS : 69416389, Roll : 0.1, Pitch : -17.39, Yaw : 39.39, Alt : 603.08001709, Lat : -35.3631235, Lng : 149.165367, Q1 : 0.930619716644, Q2 : 0.0518494024873, Q3 : -0.142042353749, Q4 : 0.33329051733}
