2019-04-03 19:22:23.70: SIM {TimeUS : 40316367, Roll : 0.0, Pitch : 0.0, Yaw : 353.0, Alt : 584.090026855, Lat : -35.363261, Lng : 149.1652299, Q1 : 0.998134791851, Q2 : 0.0, Q3 : 0.0, Q4 : -0.0610485821962}
2019-04-03 19:22:23.80: SIM {TimeUS : 40416327, Roll : 0.0, Pitch : 0.0, Yaw : 353.0, Alt : 584.090026855, Lat : -35.363261, Lng : 149.1652299, Q1 : 0.998134791851, Q2 : 0.0, Q3 : 0.0, Q4 : -0.0610485821962}
2019-04-03 19:22:23.89: SIM {TimeUS : 40516287, Roll : 0.0, Pitch : 0.0, Yaw : 353.0, Alt : 584.090026855, Lat : -35.363261, Lng : 149.1652299, Q1 : 0.998134791851, Q2 : 0.0, Q3 : 0.0, Q4 : -0.0610485821962}
2019-04-03 19:22:23.99: SIM {TimeUS : 40616247, Roll : 0.0, Pitch : 0.0, Yaw : 353.0, Alt : 584.090026855, Lat : -35.363261, Lng : 149.1652299, Q1 : 0.998134791851, Q2 : 0.0, Q3 : 0.0, Q4 : -0.0610485821962}
2019-04-03 19:22:24.09: SIM {TimeUS : 40716207, Roll : 0.0, Pitch : 0.0, Yaw : 353.0, Alt : 584.090026855, Lat : -35.363261, Lng : 149.1652299, Q1 : 0.998134791851, Q2 : 0.0, Q3 : 0.0, Q4 : -0.0610485821962}
2019-04-03 19:22:24.19: SIM {TimeUS : 40816167, Roll : 0.0, Pitch : 0.0, Yaw : 353.0, Alt : 584.090026855, Lat : -35.363261, Lng : 149.1652299, Q1 : 0.998134791851, Q2 : 0.0, Q3 : 0.0, Q4 : -0.0610485821962}
2019-04-03 19:22:24.29: SIM {TimeUS : 40916127, Roll : 0.0, Pitch : 0.0, Yaw : 353.0, Alt : 584.090026855, Lat : -35.363261, Lng : 149.1652299, Q1 : 0.998134791851, Q2 : 0.0, Q3 : 0.0, Q4 : -0.0610485821962}
2019-04-03 19:22:24.39: SIM {TimeUS : 41016087, Roll : 0.0, Pitch : 0.0, Yaw : 353.0, Alt : 584.090026855, Lat : -35.363261, Lng : 149.1652299, Q1 : 0.998134791851, Q2 : 0.0, Q3 : 0.0, Q4 : -0.0610485821962}
2019-04-03 19:22:24.49: SIM {TimeUS : 41116047, Roll : 0.0, Pitch : 0.0, Yaw : 353.0, Alt : 584.090026855, Lat : -35.363261, Lng : 149.1652299, Q1 : 0.998134791851, Q2 : 0.0, Q3 : 0.0, Q4 : -0.0610485821962}
2019-04-03 19:22:24.59: SIM {TimeUS : 41216007, Roll : 0.0, Pitch : 0.0, Yaw : 353.0, Alt : 584.090026855, Lat : -35.363261, Lng : 149.1652299, Q1 : 0.998134791851, Q2 : 0.0, Q3 : 0.0, Q4 : -0.0610485821962}
2019-04-03 19:22:24.69: SIM {TimeUS : 41315967, Roll : 0.0, Pitch : 0.0, Yaw : 353.0, Alt : 584.090026855, Lat : -35.363261, Lng : 149.1652299, Q1 : 0.998134791851, Q2 : 0.0, Q3 : 0.0, Q4 : -0.0610485821962}
2019-04-03 19:22:24.79: SIM {TimeUS : 41415927, Roll : 0.0, Pitch : 0.0, Yaw : 353.0, Alt : 584.090026855, Lat : -35.363261, Lng : 149.1652299, Q1 : 0.998134791851, Q2 : 0.0, Q3 : 0.0, Q4 : -0.0610485821962}
2019-04-03 19:22:24.89: SIM {TimeUS : 41515887, Roll : 0.0, Pitch : 0.0, Yaw : 353.0, Alt : 584.090026855, Lat : -35.363261, Lng : 149.1652299, Q1 : 0.998134791851, Q2 : 0.0, Q3 : 0.0, Q4 : -0.0610485821962}
2019-04-03 19:22:24.99: SIM {TimeUS : 41615847, Roll : 0.0, Pitch : 0.0, Yaw : 353.0, Alt : 584.090026855, Lat : -35.363261, Lng : 149.1652299, Q1 : 0.998134791851, Q2 : 0.0, Q3 : 0.0, Q4 : -0.0610485821962}
2019-04-03 19:22:25.09: SIM {TimeUS : 41715807, Roll : 0.0, Pitch : 0.0, Yaw : 353.0, Alt : 584.090026855, Lat : -35.363261, Lng : 149.1652299, Q1 : 0.998134791851, Q2 : 0.0, Q3 : 0.0, Q4 : -0.0610485821962}
2019-04-03 19:22:25.19: SIM {TimeUS : 41815767, Roll : 0.0, Pitch : 0.0, Yaw : 353.0, Alt : 584.090026855, Lat : -35.363261, Lng : 149.1652299, Q1 : 0.998134791851, Q2 : 0.0, Q3 : 0.0, Q4 : -0.0610485821962}
2019-04-03 19:22:25.29: SIM {TimeUS : 41915727, Roll : 0.0, Pitch : 0.0, Yaw : 353.0, Alt : 584.090026855, Lat : -35.363261, Lng : 149.1652299, Q1 : 0.998134791851, Q2 : 0.0, Q3 : 0.0, Q4 : -0.0610485821962}
2019-04-03 19:22:25.39: SIM {TimeUS : 42015687, Roll : 0.0, Pitch : 0.0, Yaw : 353.0, Alt : 584.090026855, Lat : -35.363261, Lng : 149.1652299, Q1 : 0.998134791851, Q2 : 0.0, Q3 : 0.0, Q4 : -0.0610485821962}
2019-04-03 19:22:25.50: SIM {TimeUS : 42116480, Roll : 0.0, Pitch : 0.0, Yaw : 353.0, Alt : 584.090026855, Lat : -35.363261, Lng : 149.1652299, Q1 : 0.998134791851, Q2 : 0.0, Q3 : 0.0, Q4 : -0.0610485821962}
2019-04-03 19:22:25.60: SIM {TimeUS : 42216440, Roll : 0.0, Pitch : 0.0, Yaw : 353.0, Alt : 584.090026855, Lat : -35.363261, Lng : 149.1652299, Q1 : 0.998134791851, Q2 : 0.0, Q3 : 0.0, Q4 : -0.0610485821962}
2019-04-03 19:22:25.70: SIM {TimeUS : 42316400, Roll : 0.0, Pitch : 0.0, Yaw : 353.0, Alt : 584.090026855, Lat : -35.363261, Lng : 149.1652299, Q1 : 0.998134791851, Q2 : 0.0, Q3 : 0.0, Q4 : -0.0610485821962}
2019-04-03 19:22:25.80: SIM {TimeUS : 42416360, Roll : 0.0, Pitch : 0.0, Yaw : 353.0, Alt : 584.090026855, Lat : -35.363261, Lng : 149.1652299, Q1 : 0.998134791851, Q2 : 0.0, Q3 : 0.0, Q4 : -0.0610485821962}
2019-04-03 19:22:25.89: SIM {TimeUS : 42516320, Roll : 0.0, Pitch : 0.0, Yaw : 353.0, Alt : 584.090026855, Lat : -35.363261, Lng : 149.1652299, Q1 : 0.998134791851, Q2 : 0.0, Q3 : 0.0, Q4 : -0.0610485821962}
2019-04-03 19:22:25.99: SIM {TimeUS : 42616280, Roll : 0.0, Pitch : 0.0, Yaw : 353.0, Alt : 584.090026855, Lat : -35.363261, Lng : 149.1652299, Q1 : 0.998134791851, Q2 : 0.0, Q3 : 0.0, Q4 : -0.0610485821962}
2019-04-03 19:22:26.09: SIM {TimeUS : 42716240, Roll : 0.0, Pitch : 0.0, Yaw : 353.0, Alt : 584.090026855, Lat : -35.363261, Lng : 149.1652299, Q1 : 0.998134791851, Q2 : 0.0, Q3 : 0.0, Q4 : -0.0610485821962}
2019-04-03 19:22:26.19: SIM {TimeUS : 42816200, Roll : 0.0, Pitch : 0.0, Yaw : 353.0, Alt : 584.090026855, Lat : -35.363261, Lng : 149.1652299, Q1 : 0.998134791851, Q2 : 0.0, Q3 : 0.0, Q4 : -0.0610485821962}
2019-04-03 19:22:26.29: SIM {TimeUS : 42916160, Roll : 0.0, Pitch : 0.0, Yaw : 353.0, Alt : 584.090026855, Lat : -35.363261, Lng : 149.1652299, Q1 : 0.998134791851, Q2 : 0.0, Q3 : 0.0, Q4 : -0.0610485821962}
2019-04-03 19:22:26.39: SIM {TimeUS : 43016120, Roll : 0.0, Pitch : 0.0, Yaw : 353.0, Alt : 584.090026855, Lat : -35.363261, Lng : 149.1652299, Q1 : 0.998134791851, Q2 : 0.0, Q3 : 0.0, Q4 : -0.0610485821962}
2019-04-03 19:22:26.49: SIM {TimeUS : 43116080, Roll : 0.0, Pitch : 0.0, Yaw : 353.0, Alt : 584.090026855, Lat : -35.363261, Lng : 149.1652299, Q1 : 0.998134791851, Q2 : 0.0, Q3 : 0.0, Q4 : -0.0610485821962}
2019-04-03 19:22:26.59: SIM {TimeUS : 43216040, Roll : 0.0, Pitch : 0.0, Yaw : 353.0, Alt : 584.090026855, Lat : -35.363261, Lng : 149.1652299, Q1 : 0.998134791851, Q2 : 0.0, Q3 : 0.0, Q4 : -0.0610485821962}
2019-04-03 19:22:26.69: SIM {TimeUS : 43316000, Roll : 0.0, Pitch : 0.0, Yaw : 353.0, Alt : 584.090026855, Lat : -35.363261, Lng : 149.1652299, Q1 : 0.998134791851, Q2 : 0.0, Q3 : 0.0, Q4 : -0.0610485821962}
2019-04-03 19:22:26.79: SIM {TimeUS : 43415960, Roll : 0.0, Pitch : 0.0, Yaw : 353.0, Alt : 584.090026855, Lat : -35.363261, Lng : 149.1652299, Q1 : 0.998134791851, Q2 : 0.0, Q3 : 0.0, Q4 : -0.0610485821962}
2019-04-03 19:22:26.89: SIM {TimeUS : 43515920, Roll : 0.0, Pitch : 0.0, Yaw : 353.0, Alt : 584.090026855, Lat : -35.363261, Lng : 149.1652299, Q1 : 0.998134791851, Q2 : 0.0, Q3 : 0.0, Q4 : -0.0610485821962}
2019-04-03 19:22:26.99: SIM {TimeUS : 43615880, Roll : 0.0, Pitch : 0.0, Yaw : 353.0, Alt : 584.090026855, Lat : -35.363261, Lng : 149.1652299, Q1 : 0.998134791851, Q2 : 0.0, Q3 : 0.0, Q4 : -0.0610485821962}
2019-04-03 19:22:27.09: SIM {TimeUS : 43715840, Roll : 0.0, Pitch : 0.0, Yaw : 353.0, Alt : 584.090026855, Lat : -35.363261, Lng : 149.1652299, Q1 : 0.998134791851, Q2 : 0.0, Q3 : 0.0, Q4 : -0.0610485821962}
2019-04-03 19:22:27.19: SIM {TimeUS : 43815800, Roll : 0.0, Pitch : 0.0, Yaw : 353.0, Alt : 584.090026855, Lat : -35.363261, Lng : 149.1652299, Q1 : 0.998134791851, Q2 : 0.0, Q3 : 0.0, Q4 : -0.0610485821962}
2019-04-03 19:22:27.29: SIM {TimeUS : 43915760, Roll : 0.0, Pitch : 0.0, Yaw : 353.0, Alt : 584.090026855, Lat : -35.363261, Lng : 149.1652299, Q1 : 0.998134791851, Q2 : 0.0, Q3 : 0.0, Q4 : -0.0610485821962}
2019-04-03 19:22:27.39: SIM {TimeUS : 44015720, Roll : 0.0, Pitch : 0.0, Yaw : 353.0, Alt : 584.090026855, Lat : -35.363261, Lng : 149.1652299, Q1 : 0.998134791851, Q2 : 0.0, Q3 : 0.0, Q4 : -0.0610485821962}
2019-04-03 19:22:27.49: SIM {TimeUS : 44115680, Roll : 0.0, Pitch : 0.0, Yaw : 353.0, Alt : 584.090026855, Lat : -35.363261, Lng : 149.1652299, Q1 : 0.998134791851, Q2 : 0.0, Q3 : 0.0, Q4 : -0.0610485821962}
2019-04-03 19:22:27.60: SIM {TimeUS : 44216473, Roll : 0.0, Pitch : 0.0, Yaw : 353.0, Alt : 584.090026855, Lat : -35.363261, Lng : 149.1652299, Q1 : 0.998134791851, Q2 : 0.0, Q3 : 0.0, Q4 : -0.0610485821962}
2019-04-03 19:22:27.70: SIM {TimeUS : 44316433, Roll : 0.0, Pitch : 0.0, Yaw : 353.0, Alt : 584.090026855, Lat : -35.363261, Lng : 149.1652299, Q1 : 0.998134791851, Q2 : 0.0, Q3 : 0.0, Q4 : -0.0610485933721}
2019-04-03 19:22:27.80: SIM {TimeUS : 44416393, Roll : 0.0, Pitch : 0.0, Yaw : 353.0, Alt : 584.090026855, Lat : -35.363261, Lng : 149.1652299, Q1 : 0.998134791851, Q2 : 0.0, Q3 : 0.0, Q4 : -0.0610486753285}
2019-04-03 19:22:27.90: SIM {TimeUS : 44516353, Roll : 0.0, Pitch : 0.0, Yaw : 353.0, Alt : 584.090026855, Lat : -35.363261, Lng : 149.1652299, Q1 : 0.998134791851, Q2 : 0.0, Q3 : 0.0, Q4 : -0.0610486418009}
2019-04-03 19:22:27.99: SIM {TimeUS : 44616313, Roll : 0.0, Pitch : 0.0, Yaw : 353.0, Alt : 584.090026855, Lat : -35.363261, Lng : 149.1652299, Q1 : 0.998134791851, Q2 : 0.0, Q3 : 0.0, Q4 : -0.0610486753285}
2019-04-03 19:22:28.09: SIM {TimeUS : 44716273, Roll : 0.0, Pitch : 0.0, Yaw : 353.0, Alt : 584.090026855, Lat : -35.363261, Lng : 149.1652299, Q1 : 0.998134791851, Q2 : 0.0, Q3 : 0.0, Q4 : -0.0610486194491}
2019-04-03 19:22:28.19: SIM {TimeUS : 44816233, Roll : 0.0, Pitch : 0.0, Yaw : 353.0, Alt : 584.090026855, Lat : -35.363261, Lng : 149.1652299, Q1 : 0.998134791851, Q2 : 0.0, Q3 : 0.0, Q4 : -0.0610486753285}
2019-04-03 19:22:28.29: SIM {TimeUS : 44916193, Roll : 0.0, Pitch : 0.0, Yaw : 353.0, Alt : 584.090026855, Lat : -35.363261, Lng : 149.1652299, Q1 : 0.998134791851, Q2 : 0.0, Q3 : 0.0, Q4 : -0.0610486641526}
2019-04-03 19:22:28.39: SIM {TimeUS : 45016153, Roll : 0.0, Pitch : 0.0, Yaw : 353.0, Alt : 584.090026855, Lat : -35.363261, Lng : 149.1652299, Q1 : 0.998134791851, Q2 : 0.0, Q3 : 0.0, Q4 : -0.0610486641526}
2019-04-03 19:22:28.49: SIM {TimeUS : 45116113, Roll : 0.0, Pitch : 0.0, Yaw : 353.0, Alt : 584.099975586, Lat : -35.363261, Lng : 149.1652299, Q1 : 0.998134791851, Q2 : 0.0, Q3 : 0.0, Q4 : -0.0610486641526}
2019-04-03 19:22:28.59: SIM {TimeUS : 45216073, Roll : 0.0, Pitch : 0.0, Yaw : 353.0, Alt : 584.099975586, Lat : -35.363261, Lng : 149.1652299, Q1 : 0.998134791851, Q2 : 0.0, Q3 : 0.0, Q4 : -0.0610486194491}
2019-04-03 19:22:28.69: SIM {TimeUS : 45316033, Roll : 0.0, Pitch : 0.0, Yaw : 353.0, Alt : 584.109985352, Lat : -35.363261, Lng : 149.1652299, Q1 : 0.998134791851, Q2 : 0.0, Q3 : 0.0, Q4 : -0.0610486194491}
2019-04-03 19:22:28.79: SIM {TimeUS : 45415993, Roll : 0.0, Pitch : 0.0, Yaw : 353.0, Alt : 584.130004883, Lat : -35.363261, Lng : 149.1652299, Q1 : 0.998134791851, Q2 : 0.0, Q3 : 0.0, Q4 : -0.061048630625}
2019-04-03 19:22:28.89: SIM {TimeUS : 45515953, Roll : 0.0, Pitch : 0.0, Yaw : 353.0, Alt : 584.159973145, Lat : -35.363261, Lng : 149.1652299, Q1 : 0.998134791851, Q2 : 0.0, Q3 : 0.0, Q4 : -0.0610486529768}
2019-04-03 19:22:28.99: SIM {TimeUS : 45615913, Roll : 0.0, Pitch : 0.0, Yaw : 353.0, Alt : 584.200012207, Lat : -35.363261, Lng : 149.1652299, Q1 : 0.998134791851, Q2 : 0.0, Q3 : 0.0, Q4 : -0.0610486753285}
2019-04-03 19:22:29.09: SIM {TimeUS : 45715873, Roll : 0.0, Pitch : 0.0, Yaw : 352.99, Alt : 584.239990234, Lat : -35.363261, Lng : 149.1652299, Q1 : 0.998134672642, Q2 : -4.68947800982e-05, Q3 : -4.69810911454e-05, Q4 : -0.061050478369}
2019-04-03 19:22:29.19: SIM {TimeUS : 45815833, Roll : -0.03, Pitch : -0.02, Yaw : 352.99, Alt : 584.33001709, Lat : -35.363261, Lng : 149.1652299, Q1 : 0.998134195805, Q2 : -0.000278016086668, Q3 : -0.000158512848429, Q4 : -0.0610574968159}
2019-04-03 19:22:29.29: SIM {TimeUS : 45915793, Roll : -0.03, Pitch : 0.02, Yaw : 352.99, Alt : 584.469970703, Lat : -35.363261, Lng : 149.1652299, Q1 : 0.998133540154, Q2 : -0.000269805343123, Q3 : 0.000220472546062, Q4 : -0.0610684417188}
2019-04-03 19:22:29.39: SIM {TimeUS : 46015753, Roll : 0.04, Pitch : 0.32, Yaw : 352.99, Alt : 584.609985352, Lat : -35.363261, Lng : 149.1652299, Q1 : 0.998128771782, Q2 : 0.00055155181326, Q3 : 0.00280842557549, Q4 : -0.0610796250403}
2019-04-03 19:22:29.49: SIM {TimeUS : 46115713, Roll : 0.21, Pitch : 0.96, Yaw : 352.99, Alt : 584.739990234, Lat : -35.363261, Lng : 149.1652299, Q1 : 0.998094856739, Q2 : 0.00235191569664, Q3 : 0.00830850936472, Q4 : -0.0610917694867}
2019-04-03 19:22:29.59: SIM {TimeUS : 46215673, Roll : 0.45, Pitch : 1.87, Yaw : 352.99, Alt : 584.859985352, Lat : -35.363261, Lng : 149.1652299, Q1 : 0.997989475727, Q2 : 0.00492740888149, Q3 : 0.0160755440593, Q4 : -0.0611096732318}
2019-04-03 19:22:29.70: SIM {TimeUS : 46316466, Roll : 0.74, Pitch : 2.94, Yaw : 353.0, Alt : 584.960021973, Lat : -35.363261, Lng : 149.1652299, Q1 : 0.997778117657, Q2 : 0.00803154334426, Q3 : 0.025231314823, Q4 : -0.0611376315355}
2019-04-03 19:22:29.80: SIM {TimeUS : 46416426, Roll : 1.04, Pitch : 4.02, Yaw : 353.01, Alt : 585.059997559, Lat : -35.363261, Lng : 149.1652299, Q1 : 0.997465908527, Q2 : 0.0112236412242, Q3 : 0.0345162041485, Q4 : -0.0611921213567}
2019-04-03 19:22:29.90: SIM {TimeUS : 46516386, Roll : 1.3, Pitch : 5.03, Yaw : 353.02, Alt : 585.140014648, Lat : -35.3632611, Lng : 149.1652301, Q1 : 0.997089445591, Q2 : 0.014057806693, Q3 : 0.0431247875094, Q4 : -0.0612801872194}
2019-04-03 19:22:30.00: SIM {TimeUS : 46616346, Roll : 1.51, Pitch : 5.86, Yaw : 353.02, Alt : 585.219970703, Lat : -35.3632614, Lng : 149.1652302, Q1 : 0.996714651585, Q2 : 0.0163027290255, Q3 : 0.050231244415, Q4 : -0.0614085495472}
2019-04-03 19:22:30.09: SIM {TimeUS : 46716306, Roll : 1.67, Pitch : 6.51, Yaw : 353.02, Alt : 585.289978027, Lat : -35.3632616, Lng : 149.1652303, Q1 : 0.996378898621, Q2 : 0.0180614944547, Q3 : 0.0557805076241, Q4 : -0.0615745447576}
2019-04-03 19:22:30.19: SIM {TimeUS : 46816266, Roll : 1.8, Pitch : 6.99, Yaw : 353.01, Alt : 585.359985352, Lat : -35.363262, Lng : 149.1652305, Q1 : 0.996098875999, Q2 : 0.0194314531982, Q3 : 0.0599530749023, Q4 : -0.0617667846382}
2019-04-03 19:22:30.29: SIM {TimeUS : 46916226, Roll : 1.91, Pitch : 7.4, Yaw : 353.0, Alt : 585.41998291, Lat : -35.3632623, Lng : 149.1652307, Q1 : 0.995846092701, Q2 : 0.0206138920039, Q3 : 0.0634471029043, Q4 : -0.0619686096907}
2019-04-03 19:22:30.39: SIM {TimeUS : 47016186, Roll : 2.0, Pitch : 7.76, Yaw : 352.99, Alt : 585.469970703, Lat : -35.3632628, Lng : 149.1652308, Q1 : 0.995614767075, Q2 : 0.0215367823839, Q3 : 0.0665078312159, Q4 : -0.0621619261801}
2019-04-03 19:22:30.49: SIM {TimeUS : 47116146, Roll : 2.05, Pitch : 8.04, Yaw : 352.97, Alt : 585.520019531, Lat : -35.3632634, Lng : 149.1652312, Q1 : 0.995428562164, Q2 : 0.0221861358732, Q3 : 0.0688719004393, Q4 : -0.0623412281275}
2019-04-03 19:22:30.59: SIM {TimeUS : 47216106, Roll : 2.1, Pitch : 8.22, Yaw : 352.96, Alt : 585.559997559, Lat : -35.3632641, Lng : 149.1652315, Q1 : 0.995296180248, Q2 : 0.0226757079363, Q3 : 0.0704642161727, Q4 : -0.0624991171062}
2019-04-03 19:22:30.69: SIM {TimeUS : 47316066, Roll : 2.11, Pitch : 8.33, Yaw : 352.95, Alt : 585.599975586, Lat : -35.3632649, Lng : 149.1652318, Q1 : 0.995216488838, Q2 : 0.0228770244867, Q3 : 0.0714145749807, Q4 : -0.0626159757376}
2019-04-03 19:22:30.79: SIM {TimeUS : 47416026, Roll : 2.11, Pitch : 8.4, Yaw : 352.94, Alt : 585.640014648, Lat : -35.3632657, Lng : 149.1652322, Q1 : 0.995170235634, Q2 : 0.0228411518037, Q3 : 0.0720107629895, Q4 : -0.0626815408468}
2019-04-03 19:22:30.89: SIM {TimeUS : 47515986, Roll : 2.1, Pitch : 8.49, Yaw : 352.94, Alt : 585.679992676, Lat : -35.3632665, Lng : 149.1652327, Q1 : 0.995110571384, Q2 : 0.0228040069342, Q3 : 0.0728263258934, Q4 : -0.0626993402839}
2019-04-03 19:22:30.99: SIM {TimeUS : 47615946, Roll : 1.95, Pitch : 8.73, Yaw : 353.04, Alt : 585.719970703, Lat : -35.3632675, Lng : 149.1652332, Q1 : 0.995039105415, Q2 : 0.0216262321919, Q3 : 0.0749287679791, Q4 : -0.0617672130466}
2019-04-03 19:22:31.09: SIM {TimeUS : 47715906, Roll : 1.61, Pitch : 9.15, Yaw : 353.73, Alt : 585.75, Lat : -35.3632684, Lng : 149.1652336, Q1 : 0.995159447193, Q2 : 0.018351694569, Q3 : 0.0789465233684, Q4 : -0.0555732436478}
2019-04-03 19:22:31.19: SIM {TimeUS : 47815866, Roll : 1.29, Pitch : 9.7, Yaw : 355.73, Alt : 585.789978027, Lat : -35.3632695, Lng : 149.1652341, Q1 : 0.995622813702, Q2 : 0.0143720973283, Q3 : 0.0841469019651, Q4 : -0.0380527637899}
2019-04-03 19:22:31.29: SIM {TimeUS : 47915826, Roll : 1.4, Pitch : 10.2, Yaw : 359.4, Alt : 585.83001709, Lat : -35.3632707, Lng : 149.1652346, Q1 : 0.995942890644, Q2 : 0.0127086183056, Q3 : 0.0888649150729, Q4 : -0.00626863632351}
2019-04-03 19:22:31.39: SIM {TimeUS : 48015786, Roll : 2.15, Pitch : 10.44, Yaw : 4.67, Alt : 585.859985352, Lat : -35.3632719, Lng : 149.1652351, Q1 : 0.99491506815, Q2 : 0.0150386588648, Q3 : 0.0916833505034, Q4 : 0.0388848856091}
2019-04-03 19:22:31.49: SIM {TimeUS : 48115746, Roll : 3.53, Pitch : 10.29, Yaw : 11.25, Alt : 585.900024414, Lat : -35.3632734, Lng : 149.1652356, Q1 : 0.990961968899, Q2 : 0.021745737642, Q3 : 0.0922773778439, Q4 : 0.0949020534754}
2019-04-03 19:22:31.59: SIM {TimeUS : 48215706, Roll : 5.38, Pitch : 9.69, Yaw : 18.81, Alt : 585.940002441, Lat : -35.3632748, Lng : 149.1652361, Q1 : 0.982580006123, Q2 : 0.0323822535574, Q3 : 0.0909705385566, Q4 : 0.158783882856}
2019-04-03 19:22:31.69: SIM {TimeUS : 48315666, Roll : 7.46, Pitch : 8.62, Yaw : 27.0, Alt : 585.979980469, Lat : -35.3632762, Lng : 149.1652366, Q1 : 0.968698918819, Q2 : 0.0455657877028, Q3 : 0.0881500914693, Q4 : 0.227542921901}
2019-04-03 19:22:31.80: SIM {TimeUS : 48416459, Roll : 9.5, Pitch : 7.08, Yaw : 35.56, Alt : 586.030029297, Lat : -35.3632779, Lng : 149.1652372, Q1 : 0.948692917824, Q2 : 0.0599109344184, Q3 : 0.0838504210114, Q4 : 0.298934012651}
2019-04-03 19:22:31.90: SIM {TimeUS : 48516419, Roll : 11.23, Pitch : 5.21, Yaw : 44.1, Alt : 586.08001709, Lat : -35.3632796, Lng : 149.1652378, Q1 : 0.923112809658, Q2 : 0.0736168697476, Q3 : 0.0786331295967, Q4 : 0.369134277105}
2019-04-03 19:22:32.00: SIM {TimeUS : 48616379, Roll : 12.48, Pitch : 3.12, Yaw : 52.43, Alt : 586.119995117, Lat : -35.3632813, Lng : 149.1652384, Q1 : 0.892784357071, Q2 : 0.0855556949973, Q3 : 0.0723901689053, Q4 : 0.436320960522}
2019-04-03 19:22:32.10: SIM {TimeUS : 48716339, Roll : 13.24, Pitch : 1.01, Yaw : 60.38, Alt : 586.179992676, Lat : -35.363283, Lng : 149.165239, Q1 : 0.85907381773, Q2 : 0.0952607393265, Q3 : 0.0655546411872, Q4 : 0.498618364334}
2019-04-03 19:22:32.19: SIM {TimeUS : 48816299, Roll : 13.56, Pitch : -0.96, Yaw : 67.84, Alt : 586.229980469, Lat : -35.363285, Lng : 149.1652398, Q1 : 0.823416233063, Q2 : 0.102644398808, Q3 : 0.0589405074716, Q4 : 0.554955780506}
2019-04-03 19:22:32.29: SIM {TimeUS : 48916259, Roll : 13.57, Pitch : -2.71, Yaw : 74.77, Alt : 586.289978027, Lat : -35.363287, Lng : 149.1652407, Q1 : 0.787060856819, Q2 : 0.108208216727, Q3 : 0.0530526861548, Q4 : 0.60498893261}
2019-04-03 19:22:32.39: SIM {TimeUS : 49016219, Roll : 13.39, Pitch : -4.23, Yaw : 81.17, Alt : 586.349975586, Lat : -35.363289, Lng : 149.1652416, Q1 : 0.750902056694, Q2 : 0.112376257777, Q3 : 0.0480011478066, Q4 : 0.64900970459}
2019-04-03 19:22:32.49: SIM {TimeUS : 49116179, Roll : 13.06, Pitch : -5.52, Yaw : 87.1, Alt : 586.409973145, Lat : -35.3632911, Lng : 149.1652425, Q1 : 0.715404391289, Q2 : 0.115301027894, Q3 : 0.0436015985906, Q4 : 0.687750816345}
2019-04-03 19:22:32.59: SIM {TimeUS : 49216139, Roll : 12.61, Pitch : -6.62, Yaw : 92.66, Alt : 586.469970703, Lat : -35.3632932, Lng : 149.1652436, Q1 : 0.680572986603, Q2 : 0.1172721982, Q3 : 0.0396871641278, Q4 : 0.722144424915}
2019-04-03 19:22:32.69: SIM {TimeUS : 49316099, Roll : 12.12, Pitch : -7.6, Yaw : 97.94, Alt : 586.539978027, Lat : -35.3632956, Lng : 149.1652446, Q1 : 0.646025359631, Q2 : 0.118894189596, Q3 : 0.036206394434, Q4 : 0.753129780293}
2019-04-03 19:22:32.79: SIM {TimeUS : 49416059, Roll : 11.6, Pitch : -8.52, Yaw : 103.08, Alt : 586.599975586, Lat : -35.3632979, Lng : 149.1652457, Q1 : 0.611175179482, Q2 : 0.120571322739, Q3 : 0.0329320207238, Q4 : 0.781564474106}
2019-04-03 19:22:32.89: SIM {TimeUS : 49516019, Roll : 11.02, Pitch : -9.43, Yaw : 108.18, Alt : 586.66998291, Lat : -35.3633003, Lng : 149.1652469, Q1 : 0.575361847878, Q2 : 0.122433662415, Q3 : 0.0295295119286, Q4 : 0.808144032955}
2019-04-03 19:22:32.99: SIM {TimeUS : 49615979, Roll : 10.35, Pitch : -10.32, Yaw : 113.37, Alt : 586.739990234, Lat : -35.3633028, Lng : 149.165248, Q1 : 0.537950992584, Q2 : 0.124258957803, Q3 : 0.0259050577879, Q4 : 0.833365142345}
2019-04-03 19:22:33.09: SIM {TimeUS : 49715939, Roll : 9.57, Pitch : -11.22, Yaw : 118.71, Alt : 586.820007324, Lat : -35.3633053, Lng : 149.1652494, Q1 : 0.498413264751, Q2 : 0.126196175814, Q3 : 0.0218079276383, Q4 : 0.857428252697}
2019-04-03 19:22:33.19: SIM {TimeUS : 49815899, Roll : 8.63, Pitch : -12.13, Yaw : 124.27, Alt : 586.890014648, Lat : -35.3633078, Lng : 149.1652506, Q1 : 0.456399768591, Q2 : 0.128167331219, Q3 : 0.0169333349913, Q4 : 0.880332708359}
2019-04-03 19:22:33.29: SIM {TimeUS : 49915859, Roll : 7.47, Pitch : -13.03, Yaw : 130.05, Alt : 586.960021973, Lat : -35.3633105, Lng : 149.1652518, Q1 : 0.411862552166, Q2 : 0.130017638206, Q3 : 0.0108485883102, Q4 : 0.901857495308}
2019-04-03 19:22:33.39: SIM {TimeUS : 50015819, Roll : 6.05, Pitch : -13.86, Yaw : 136.05, Alt : 587.039978027, Lat : -35.3633133, Lng : 149.1652532, Q1 : 0.364961326122, Q2 : 0.131446406245, Q3 : 0.00354442140087, Q4 : 0.921690046787}
2019-04-03 19:22:33.49: SIM {TimeUS : 50115779, Roll : 4.42, Pitch : -14.54, Yaw : 142.25, Alt : 587.109985352, Lat : -35.363316, Lng : 149.1652545, Q1 : 0.316028594971, Q2 : 0.132076129317, Q3 : -0.00466183712706, Q4 : 0.939499974251}
2019-04-03 19:22:33.59: SIM {TimeUS : 50215739, Roll : 2.62, Pitch : -15.01, Yaw : 148.57, Alt : 587.190002441, Lat : -35.3633188, Lng : 149.1652557, Q1 : 0.265577822924, Q2 : 0.131899148226, Q3 : -0.013535994105, Q4 : 0.954928159714}
2019-04-03 19:22:33.69: SIM {TimeUS : 50315699, Roll : 0.44, Pitch : -15.26, Yaw : 154.81, Alt : 587.260009766, Lat : -35.3633217, Lng : 149.1652571, Q1 : 0.215620920062, Q2 : 0.130482435226, Q3 : -0.0252382587641, Q4 : 0.967390835285}
2019-04-03 19:22:33.79: SIM {TimeUS : 50415659, Roll : -2.03, Pitch : -15.25, Yaw : 160.41, Alt : 587.340026855, Lat : -35.3633246, Lng : 149.1652585, Q1 : 0.170904010534, Q2 : 0.127822548151, Q3 : -0.0399367585778, Q4 : 0.976144552231}
2019-04-03 19:22:33.90: SIM {TimeUS : 50516452, Roll : -4.34, Pitch : -15.02, Yaw : 164.83, Alt : 587.409973145, Lat : -35.3633276, Lng : 149.16526, Q1 : 0.135659217834, Q2 : 0.124585740268, Q3 : -0.0545080974698, Q4 : 0.981378555298}
2019-04-03 19:22:34.00: SIM {TimeUS : 50616412, Roll : -5.98, Pitch : -14.71, Yaw : 167.68, Alt : 587.489990234, Lat : -35.3633306, Lng : 149.1652615, Q1 : 0.112857051194, Q2 : 0.121580600739, Q3 : -0.065155826509, Q4 : 0.983989953995}
2019-04-03 19:22:34.10: SIM {TimeUS : 50716372, Roll : -6.69, Pitch : -14.45, Yaw : 169.0, Alt : 587.570007324, Lat : -35.3633336, Lng : 149.1652632, Q1 : 0.102172471583, Q2 : 0.119471035898, Q3 : -0.0696822851896, Q4 : 0.985104978085}
2019-04-03 19:22:34.20: SIM {TimeUS : 50816332, Roll : -6.47, Pitch : -14.36, Yaw : 168.98, Alt : 587.640014648, Lat : -35.3633365, Lng : 149.1652648, Q1 : 0.102075047791, Q2 : 0.118875473738, Q3 : -0.0677698478103, Q4 : 0.98532050848}
2019-04-03 19:22:34.29: SIM {TimeUS : 50916292, Roll : -5.53, Pitch : -14.47, Yaw : 167.9, Alt : 587.719970703, Lat : -35.3633395, Lng : 149.1652666, Q1 : 0.110410138965, Q2 : 0.120134875178, Q3 : -0.0608586557209, Q4 : 0.984719991684}
2019-04-03 19:22:34.39: SIM {TimeUS : 51016252, Roll : -4.1, Pitch : -14.77, Yaw : 166.06, Alt : 587.789978027, Lat : -35.3633426, Lng : 149.1652684, Q1 : 0.124809995294, Q2 : 0.123257376254, Q3 : -0.0508396923542, Q4 : 0.983181297779}
2019-04-03 19:22:34.49: SIM {TimeUS : 51116212, Roll : -2.45, Pitch : -15.18, Yaw : 163.74, Alt : 587.869995117, Lat : -35.3633456, Lng : 149.1652701, Q1 : 0.142906710505, Q2 : 0.127752050757, Q3 : -0.0397004634142, Q4 : 0.980653345585}
2019-04-03 19:22:34.59: SIM {TimeUS : 51216172, Roll : -0.81, Pitch : -15.57, Yaw : 161.25, Alt : 587.950012207, Lat : -35.3633488, Lng : 149.165272, Q1 : 0.162336349487, Q2 : 0.132539734244, Q3 : -0.0290185268968, Q4 : 0.977362811565}
2019-04-03 19:22:34.69: SIM {TimeUS : 51316132, Roll : 0.63, Pitch : -15.86, Yaw : 158.87, Alt : 588.030029297, Lat : -35.363352, Lng : 149.1652739, Q1 : 0.180759191513, Q2 : 0.136638969183, Q3 : -0.0198951177299, Q4 : 0.973786473274}
2019-04-03 19:22:34.79: SIM {TimeUS : 51416092, Roll : 1.74, Pitch : -16.01, Yaw : 156.89, Alt : 588.109985352, Lat : -35.3633551, Lng : 149.1652758, Q1 : 0.196243047714, Q2 : 0.139447122812, Q3 : -0.0131005635485, Q4 : 0.970500707626}
2019-04-03 19:22:34.89: SIM {TimeUS : 51516052, Roll : 2.43, Pitch : -16.02, Yaw : 155.45, Alt : 588.179992676, Lat : -35.3633583, Lng : 149.1652776, Q1 : 0.20752479136, Q2 : 0.140675410628, Q3 : -0.0090374071151, Q4 : 0.968019783497}
2019-04-03 19:22:34.99: SIM {TimeUS : 51616012, Roll : 2.7, Pitch : -15.98, Yaw : 154.64, Alt : 588.260009766, Lat : -35.3633616, Lng : 149.1652794, Q1 : 0.214030653238, Q2 : 0.140757843852, Q3 : -0.00769716780633, Q4 : 0.966601729393}
2019-04-03 19:22:35.09: SIM {TimeUS : 51715972, Roll : 2.61, Pitch : -15.94, Yaw : 154.45, Alt : 588.340026855, Lat : -35.3633649, Lng : 149.165281, Q1 : 0.21581415832, Q2 : 0.140189096332, Q3 : -0.00863931979984, Q4 : 0.966279804707}
2019-04-03 19:22:35.19: SIM {TimeUS : 51815932, Roll : 2.24, Pitch : -15.92, Yaw : 154.78, Alt : 588.41998291, Lat : -35.3633683, Lng : 149.1652828, Q1 : 0.213458657265, Q2 : 0.139379754663, Q3 : -0.0112686473876, Q4 : 0.966892838478}
2019-04-03 19:22:35.29: SIM {TimeUS : 51915892, Roll : 1.7, Pitch : -15.93, Yaw : 155.52, Alt : 588.5, Lat : -35.3633717, Lng : 149.1652844, Q1 : 0.207910597324, Q2 : 0.138554826379, Q3 : -0.0149585921317, Q4 : 0.96816945076}
2019-04-03 19:22:35.39: SIM {TimeUS : 52015852, Roll : 1.07, Pitch : -15.98, Yaw : 156.5, Alt : 588.570007324, Lat : -35.3633751, Lng : 149.1652863, Q1 : 0.200321525335, Q2 : 0.138007670641, Q3 : -0.0192155912519, Q4 : 0.96977108717}
2019-04-03 19:22:35.49: SIM {TimeUS : 52115812, Roll : 0.42, Pitch : -16.06, Yaw : 157.59, Alt : 588.650024414, Lat : -35.3633786, Lng : 149.165288, Q1 : 0.191877886653, Q2 : 0.137756571174, Q3 : -0.0235300660133, Q4 : 0.971417665482}
2019-04-03 19:22:35.59: SIM {TimeUS : 52215772, Roll : -0.17, Pitch : -16.14, Yaw : 158.64, Alt : 588.729980469, Lat : -35.363382, Lng : 149.1652897, Q1 : 0.183672264218, Q2 : 0.13772803545, Q3 : -0.0275312401354, Q4 : 0.972901642323}
2019-04-03 19:22:35.69: SIM {TimeUS : 52315732, Roll : -0.66, Pitch : -16.22, Yaw : 159.54, Alt : 588.809997559, Lat : -35.3633855, Lng : 149.1652914, Q1 : 0.176545530558, Q2 : 0.137887760997, Q3 : -0.0306990835816, Q4 : 0.974102795124}
2019-04-03 19:22:35.79: SIM {TimeUS : 52415692, Roll : -0.99, Pitch : -16.29, Yaw : 160.23, Alt : 588.890014648, Lat : -35.363389, Lng : 149.165293, Q1 : 0.171087235212, Q2 : 0.13816036284, Q3 : -0.0327846035361, Q4 : 0.974969744682}
2019-04-03 19:22:35.90: SIM {TimeUS : 52516485, Roll : -1.17, Pitch : -16.33, Yaw : 160.67, Alt : 588.969970703, Lat : -35.3633926, Lng : 149.1652949, Q1 : 0.167605936527, Q2 : 0.13836877048, Q3 : -0.033861450851, Q4 : 0.975507974625}
2019-04-03 19:22:36.00: SIM {TimeUS : 52616445, Roll : -1.22, Pitch : -16.35, Yaw : 160.84, Alt : 589.039978027, Lat : -35.3633961, Lng : 149.1652966, Q1 : 0.166180178523, Q2 : 0.138479799032, Q3 : -0.0340618751943, Q4 : 0.975729107857}
2019-04-03 19:22:36.10: SIM {TimeUS : 52716405, Roll : -1.1, Pitch : -16.35, Yaw : 160.78, Alt : 589.119995117, Lat : -35.3633996, Lng : 149.1652983, Q1 : 0.166507855058, Q2 : 0.138648211956, Q3 : -0.0331574641168, Q4 : 0.975680470467}
2019-04-03 19:22:36.20: SIM {TimeUS : 52816365, Roll : -0.87, Pitch : -16.35, Yaw : 160.55, Alt : 589.200012207, Lat : -35.3634033, Lng : 149.1653002, Q1 : 0.168228253722, Q2 : 0.138922140002, Q3 : -0.0315033681691, Q4 : 0.975401222706}
2019-04-03 19:22:36.29: SIM {TimeUS : 52916325, Roll : -0.59, Pitch : -16.36, Yaw : 160.2, Alt : 589.280029297, Lat : -35.3634069, Lng : 149.1653021, Q1 : 0.170900434256, Q2 : 0.139314010739, Q3 : -0.02955679968, Q4 : 0.974941551685}
2019-04-03 19:22:36.39: SIM {TimeUS : 53016285, Roll : -0.32, Pitch : -16.37, Yaw : 159.79, Alt : 589.359985352, Lat : -35.3634105, Lng : 149.1653039, Q1 : 0.174050241709, Q2 : 0.13972350955, Q3 : -0.027709890157, Q4 : 0.974379837513}
2019-04-03 19:22:36.49: SIM {TimeUS : 53116245, Roll : -0.06, Pitch : -16.4, Yaw : 159.38, Alt : 589.429992676, Lat : -35.3634141, Lng : 149.1653057, Q1 : 0.177201107144, Q2 : 0.140271067619, Q3 : -0.0260689146817, Q4 : 0.973778307438}
2019-04-03 19:22:36.59: SIM {TimeUS : 53216205, Roll : 0.14, Pitch : -16.45, Yaw : 159.02, Alt : 589.510009766, Lat : -35.3634178, Lng : 149.1653074, Q1 : 0.179994791746, Q2 : 0.140948534012, Q3 : -0.0248516239226, Q4 : 0.973199784756}
2019-04-03 19:22:36.69: SIM {TimeUS : 53316165, Roll : 0.25, Pitch : -16.5, Yaw : 158.74, Alt : 589.590026855, Lat : -35.3634215, Lng : 149.1653093, Q1 : 0.182202905416, Q2 : 0.141488552094, Q3 : -0.0242819767445, Q4 : 0.972724795341}
2019-04-03 19:22:36.79: SIM {TimeUS : 53416125, Roll : 0.31, Pitch : -16.52, Yaw : 158.56, Alt : 589.66998291, Lat : -35.3634251, Lng : 149.1653112, Q1 : 0.183656841516, Q2 : 0.141729801893, Q3 : -0.0240321978927, Q4 : 0.972422420979}
2019-04-03 19:22:36.89: SIM {TimeUS : 53516085, Roll : 0.31, Pitch : -16.54, Yaw : 158.48, Alt : 589.75, Lat : -35.3634288, Lng : 149.165313, Q1 : 0.184349060059, Q2 : 0.141831114888, Q3 : -0.0242129061371, Q4 : 0.972272157669}
2019-04-03 19:22:36.99: SIM {TimeUS : 53616045, Roll : 0.26, Pitch : -16.54, Yaw : 158.49, Alt : 589.820007324, Lat : -35.3634325, Lng : 149.1653148, Q1 : 0.184323683381, Q2 : 0.141808077693, Q3 : -0.024613102898, Q4 : 0.972270309925}
2019-04-03 19:22:37.09: SIM {TimeUS : 53716005, Roll : 0.2, Pitch : -16.54, Yaw : 158.57, Alt : 589.900024414, Lat : -35.3634362, Lng : 149.1653165, Q1 : 0.183674618602, Q2 : 0.141719728708, Q3 : -0.0250037014484, Q4 : 0.972396016121}
2019-04-03 19:22:37.19: SIM {TimeUS : 53815965, Roll : 0.13, Pitch : -16.55, Yaw : 158.71, Alt : 589.979980469, Lat : -35.36344, Lng : 149.1653184, Q1 : 0.182602122426, Q2 : 0.141732215881, Q3 : -0.025445220992, Q4 : 0.972584724426}
2019-04-03 19:22:37.29: SIM {TimeUS : 53915925, Roll : 0.05, Pitch : -16.59, Yaw : 158.87, Alt : 590.059997559, Lat : -35.3634438, Lng : 149.1653203, Q1 : 0.181333646178, Q2 : 0.141971036792, Q3 : -0.0260290186852, Q4 : 0.972771763802}
2019-04-03 19:22:37.39: SIM {TimeUS : 54015885, Roll : -0.05, Pitch : -16.64, Yaw : 159.03, Alt : 590.130004883, Lat : -35.3634475, Lng : 149.1653221, Q1 : 0.180078178644, Q2 : 0.142227292061, Q3 : -0.0267590470612, Q4 : 0.972947716713}
2019-04-03 19:22:37.49: SIM {TimeUS : 54115845, Roll : -0.16, Pitch : -16.69, Yaw : 159.17, Alt : 590.210021973, Lat : -35.3634513, Lng : 149.1653239, Q1 : 0.17897798121, Q2 : 0.142550319433, Q3 : -0.0276073198766, Q4 : 0.973079741001}
2019-04-03 19:22:37.59: SIM {TimeUS : 54215805, Roll : -0.25, Pitch : -16.75, Yaw : 159.29, Alt : 590.289978027, Lat : -35.363455, Lng : 149.1653256, Q1 : 0.178114876151, Q2 : 0.142887175083, Q3 : -0.0283307787031, Q4 : 0.973167896271}
2019-04-03 19:22:37.69: SIM {TimeUS : 54315765, Roll : -0.31, Pitch : -16.77, Yaw : 159.36, Alt : 590.369995117, Lat : -35.3634589, Lng : 149.1653275, Q1 : 0.177554368973, Q2 : 0.143048718572, Q3 : -0.0287833344191, Q4 : 0.973233282566}
2019-04-03 19:22:37.79: SIM {TimeUS : 54415725, Roll : -0.34, Pitch : -16.79, Yaw : 159.39, Alt : 590.450012207, Lat : -35.3634627, Lng : 149.1653294, Q1 : 0.177329197526, Q2 : 0.143153831363, Q3 : -0.0290432162583, Q4 : 0.97325116396}
2019-04-03 19:22:37.89: SIM {TimeUS : 54515685, Roll : -0.33, Pitch : -16.81, Yaw : 159.38, Alt : 590.520019531, Lat : -35.3634665, Lng : 149.1653313, Q1 : 0.177402079105, Q2 : 0.14333447814, Q3 : -0.0290441755205, Q4 : 0.973211288452}
2019-04-03 19:22:38.00: SIM {TimeUS : 54616478, Roll : -0.31, Pitch : -16.83, Yaw : 159.34, Alt : 590.599975586, Lat : -35.3634704, Lng : 149.1653331, Q1 : 0.177717730403, Q2 : 0.143504440784, Q3 : -0.0289081390947, Q4 : 0.97313272953}
2019-04-03 19:22:38.10: SIM {TimeUS : 54716438, Roll : -0.28, Pitch : -16.85, Yaw : 159.28, Alt : 590.679992676, Lat : -35.3634742, Lng : 149.165335, Q1 : 0.178229823709, Q2 : 0.14374409616, Q3 : -0.0287988595665, Q4 : 0.973006904125}
2019-04-03 19:22:38.20: SIM {TimeUS : 54816398, Roll : -0.23, Pitch : -16.89, Yaw : 159.2, Alt : 590.760009766, Lat : -35.3634781, Lng : 149.1653369, Q1 : 0.178818181157, Q2 : 0.144099593163, Q3 : -0.0285317488015, Q4 : 0.972854197025}
2019-04-03 19:22:38.30: SIM {TimeUS : 54916358, Roll : -0.17, Pitch : -16.92, Yaw : 159.12, Alt : 590.83001709, Lat : -35.3634818, Lng : 149.1653387, Q1 : 0.179417997599, Q2 : 0.144428700209, Q3 : -0.0281301643699, Q4 : 0.972706675529}
2019-04-03 19:22:38.39: SIM {TimeUS : 55016318, Roll : -0.13, Pitch : -16.93, Yaw : 159.04, Alt : 590.909973145, Lat : -35.3634858, Lng : 149.1653405, Q1 : 0.180011540651, Q2 : 0.144569084048, Q3 : -0.0279096681625, Q4 : 0.97258245945}
2019-04-03 19:22:38.49: SIM {TimeUS : 55116278, Roll : -0.11, Pitch : -16.93, Yaw : 158.98, Alt : 590.989990234, Lat : -35.3634896, Lng : 149.1653424, Q1 : 0.180542036891, Q2 : 0.144599705935, Q3 : -0.0278372652829, Q4 : 0.972481667995}
2019-04-03 19:22:38.59: SIM {TimeUS : 55216238, Roll : -0.11, Pitch : -16.94, Yaw : 158.93, Alt : 591.070007324, Lat : -35.3634936, Lng : 149.1653442, Q1 : 0.180967658758, Q2 : 0.144696071744, Q3 : -0.0279166661203, Q4 : 0.972385942936}
2019-04-03 19:22:38.69: SIM {TimeUS : 55316198, Roll : -0.11, Pitch : -16.95, Yaw : 158.89, Alt : 591.150024414, Lat : -35.3634974, Lng : 149.1653461, Q1 : 0.181279659271, Q2 : 0.144741639495, Q3 : -0.0279919560999, Q4 : 0.972318887711}
2019-04-03 19:22:38.79: SIM {TimeUS : 55416158, Roll : -0.12, Pitch : -16.95, Yaw : 158.87, Alt : 591.219970703, Lat : -35.3635012, Lng : 149.1653481, Q1 : 0.181471049786, Q2 : 0.144700840116, Q3 : -0.0281004533172, Q4 : 0.972286164761}
2019-04-03 19:22:38.89: SIM {TimeUS : 55516118, Roll : -0.13, Pitch : -16.95, Yaw : 158.86, Alt : 591.299987793, Lat : -35.3635053, Lng : 149.16535, Q1 : 0.181548431516, Q2 : 0.144667893648, Q3 : -0.0282142087817, Q4 : 0.972273290157}
2019-04-03 19:22:38.99: SIM {TimeUS : 55616078, Roll : -0.15, Pitch : -16.95, Yaw : 158.87, Alt : 591.380004883, Lat : -35.3635091, Lng : 149.1653519, Q1 : 0.181530684233, Q2 : 0.144667685032, Q3 : -0.0283123515546, Q4 : 0.972273766994}
2019-04-03 19:22:39.09: SIM {TimeUS : 55716038, Roll : -0.14, Pitch : -16.96, Yaw : 158.88, Alt : 591.460021973, Lat : -35.3635131, Lng : 149.1653538, Q1 : 0.181423649192, Q2 : 0.144797354937, Q3 : -0.0282336454839, Q4 : 0.972276747227}
2019-04-03 19:22:39.19: SIM {TimeUS : 55815998, Roll : -0.13, Pitch : -16.98, Yaw : 158.89, Alt : 591.539978027, Lat : -35.363517, Lng : 149.1653557, Q1 : 0.181297570467, Q2 : 0.144988834858, Q3 : -0.0281647481024, Q4 : 0.97227370739}
2019-04-03 19:22:39.29: SIM {TimeUS : 55915958, Roll : -0.13, Pitch : -17.0, Yaw : 158.9, Alt : 591.609985352, Lat : -35.363521, Lng : 149.1653576, Q1 : 0.181180685759, Q2 : 0.145170420408, Q3 : -0.0282179675996, Q4 : 0.972266852856}
2019-04-03 19:22:39.39: SIM {TimeUS : 56015918, Roll : -0.14, Pitch : -17.02, Yaw : 158.92, Alt : 591.690002441, Lat : -35.3635249, Lng : 149.1653595, Q1 : 0.181086018682, Q2 : 0.145278051496, Q3 : -0.0283286813647, Q4 : 0.972265183926}
2019-04-03 19:22:39.49: SIM {TimeUS : 56115878, Roll : -0.17, Pitch : -17.04, Yaw : 158.93, Alt : 591.770019531, Lat : -35.3635289, Lng : 149.1653614, Q1 : 0.181033700705, Q2 : 0.145424768329, Q3 : -0.0285468045622, Q4 : 0.972246646881}
2019-04-03 19:22:39.59: SIM {TimeUS : 56215838, Roll : -0.17, Pitch : -17.08, Yaw : 158.93, Alt : 591.849975586, Lat : -35.3635328, Lng : 149.1653633, Q1 : 0.181006968021, Q2 : 0.145728096366, Q3 : -0.0286631118506, Q4 : 0.972202777863}
2019-04-03 19:22:39.69: SIM {TimeUS : 56315798, Roll : -0.18, Pitch : -17.11, Yaw : 158.92, Alt : 591.929992676, Lat : -35.3635368, Lng : 149.1653652, Q1 : 0.181042313576, Q2 : 0.145997896791, Q3 : -0.0287648010999, Q4 : 0.972152709961}
2019-04-03 19:22:39.79: SIM {TimeUS : 56415758, Roll : -0.18, Pitch : -17.13, Yaw : 158.91, Alt : 592.0, Lat : -35.3635407, Lng : 149.1653671, Q1 : 0.181143015623, Q2 : 0.14613507688, Q3 : -0.0288569759578, Q4 : 0.972110629082}
2019-04-03 19:22:39.89: SIM {TimeUS : 56515718, Roll : -0.18, Pitch : -17.14, Yaw : 158.9, Alt : 592.08001709, Lat : -35.3635447, Lng : 149.1653691, Q1 : 0.181277558208, Q2 : 0.14627507329, Q3 : -0.0288674961776, Q4 : 0.972064137459}
2019-04-03 19:22:39.99: SIM {TimeUS : 56615678, Roll : -0.16, Pitch : -17.16, Yaw : 158.88, Alt : 592.159973145, Lat : -35.3635486, Lng : 149.165371, Q1 : 0.181419417262, Q2 : 0.146454513073, Q3 : -0.0287456288934, Q4 : 0.972014307976}
2019-04-03 19:22:40.10: SIM {TimeUS : 56716471, Roll : -0.13, Pitch : -17.17, Yaw : 158.85, Alt : 592.239990234, Lat : -35.3635527, Lng : 149.1653729, Q1 : 0.18157748878, Q2 : 0.146592795849, Q3 : -0.0285532101989, Q4 : 0.971969604492}
2019-04-03 19:22:40.20: SIM {TimeUS : 56816431, Roll : -0.11, Pitch : -17.19, Yaw : 158.83, Alt : 592.320007324, Lat : -35.3635566, Lng : 149.1653749, Q1 : 0.181732818484, Q2 : 0.146802410483, Q3 : -0.0284038241953, Q4 : 0.971913337708}
2019-04-03 19:22:40.30: SIM {TimeUS : 56916391, Roll : -0.09, Pitch : -17.2, Yaw : 158.81, Alt : 592.390014648, Lat : -35.3635607, Lng : 149.1653768, Q1 : 0.181893840432, Q2 : 0.146864756942, Q3 : -0.0283227264881, Q4 : 0.971876144409}
2019-04-03 19:22:40.40: SIM {TimeUS : 57016351, Roll : -0.1, Pitch : -17.19, Yaw : 158.79, Alt : 592.469970703, Lat : -35.3635647, Lng : 149.1653787, Q1 : 0.182059407234, Q2 : 0.146736949682, Q3 : -0.0283600576222, Q4 : 0.971863329411}
2019-04-03 19:22:40.49: SIM {TimeUS : 57116311, Roll : -0.1, Pitch : -17.17, Yaw : 158.77, Alt : 592.549987793, Lat : -35.3635687, Lng : 149.1653806, Q1 : 0.182202681899, Q2 : 0.146590217948, Q3 : -0.0283957887441, Q4 : 0.971857607365}
2019-04-03 19:22:40.59: SIM {TimeUS : 57216271, Roll : -0.12, Pitch : -17.16, Yaw : 158.76, Alt : 592.630004883, Lat : -35.3635727, Lng : 149.1653825, Q1 : 0.182321861386, Q2 : 0.146465092897, Q3 : -0.0285374745727, Q4 : 0.97184997797}
2019-04-03 19:22:40.69: SIM {TimeUS : 57316231, Roll : -0.13, Pitch : -17.15, Yaw : 158.76, Alt : 592.700012207, Lat : -35.3635766, Lng : 149.1653845, Q1 : 0.182392567396, Q2 : 0.146358907223, Q3 : -0.0286464951932, Q4 : 0.971849501133}
2019-04-03 19:22:40.79: SIM {TimeUS : 57416191, Roll : -0.15, Pitch : -17.16, Yaw : 158.75, Alt : 592.780029297, Lat : -35.3635807, Lng : 149.1653864, Q1 : 0.182451948524, Q2 : 0.146396994591, Q3 : -0.0287850257009, Q4 : 0.971828520298}
2019-04-03 19:22:40.89: SIM {TimeUS : 57516151, Roll : -0.16, Pitch : -17.18, Yaw : 158.75, Alt : 592.859985352, Lat : -35.3635846, Lng : 149.1653885, Q1 : 0.182506635785, Q2 : 0.146555900574, Q3 : -0.0289321318269, Q4 : 0.971789896488}
2019-04-03 19:22:40.99: SIM {TimeUS : 57616111, Roll : -0.17, Pitch : -17.2, Yaw : 158.74, Alt : 592.940002441, Lat : -35.3635887, Lng : 149.1653904, Q1 : 0.182557091117, Q2 : 0.146758645773, Q3 : -0.0290530733764, Q4 : 0.971746265888}
2019-04-03 19:22:41.09: SIM {TimeUS : 57716071, Roll : -0.17, Pitch : -17.23, Yaw : 158.74, Alt : 593.010009766, Lat : -35.3635928, Lng : 149.1653922, Q1 : 0.182601302862, Q2 : 0.146959006786, Q3 : -0.0291319023818, Q4 : 0.971705317497}
2019-04-03 19:22:41.19: SIM {TimeUS : 57816031, Roll : -0.16, Pitch : -17.24, Yaw : 158.73, Alt : 593.090026855, Lat : -35.3635967, Lng : 149.1653943, Q1 : 0.182633444667, Q2 : 0.147075116634, Q3 : -0.0290452428162, Q4 : 0.971684277058}
2019-04-03 19:22:41.29: SIM {TimeUS : 57915991, Roll : -0.14, Pitch : -17.25, Yaw : 158.72, Alt : 593.16998291, Lat : -35.3636009, Lng : 149.1653963, Q1 : 0.182659059763, Q2 : 0.147211134434, Q3 : -0.0288856197149, Q4 : 0.971663653851}
2019-04-03 19:22:41.39: SIM {TimeUS : 58015951, Roll : -0.11, Pitch : -17.28, Yaw : 158.71, Alt : 593.25, Lat : -35.3636049, Lng : 149.1653982, Q1 : 0.182697013021, Q2 : 0.147474706173, Q3 : -0.0287254285067, Q4 : 0.971621274948}
2019-04-03 19:22:41.49: SIM {TimeUS : 58115911, Roll : -0.1, Pitch : -17.32, Yaw : 158.7, Alt : 593.320007324, Lat : -35.3636088, Lng : 149.1654002, Q1 : 0.182758688927, Q2 : 0.147817403078, Q3 : -0.0286951474845, Q4 : 0.971558511257}
2019-04-03 19:22:41.59: SIM {TimeUS : 58215871, Roll : -0.1, Pitch : -17.32, Yaw : 158.69, Alt : 593.400024414, Lat : -35.363613, Lng : 149.1654021, Q1 : 0.182843014598, Q2 : 0.147888600826, Q3 : -0.0287528280169, Q4 : 0.971530079842}
2019-04-03 19:22:41.69: SIM {TimeUS : 58315831, Roll : -0.09, Pitch : -17.31, Yaw : 158.69, Alt : 593.479980469, Lat : -35.363617, Lng : 149.1654041, Q1 : 0.182903498411, Q2 : 0.147767663002, Q3 : -0.0285934973508, Q4 : 0.971541821957}
2019-04-03 19:22:41.79: SIM {TimeUS : 58415791, Roll : -0.08, Pitch : -17.28, Yaw : 158.68, Alt : 593.549987793, Lat : -35.363621, Lng : 149.165406, Q1 : 0.182978063822, Q2 : 0.147574737668, Q3 : -0.028540391475, Q4 : 0.971558630466}
2019-04-03 19:22:41.89: SIM {TimeUS : 58515751, Roll : -0.07, Pitch : -17.27, Yaw : 158.67, Alt : 593.630004883, Lat : -35.3636252, Lng : 149.165408, Q1 : 0.18304052949, Q2 : 0.147460982203, Q3 : -0.0284518878907, Q4 : 0.971566736698}
2019-04-03 19:22:41.99: SIM {TimeUS : 58615711, Roll : -0.04, Pitch : -17.26, Yaw : 158.66, Alt : 593.710021973, Lat : -35.3636292, Lng : 149.1654099, Q1 : 0.183071091771, Q2 : 0.147381991148, Q3 : -0.0281922332942, Q4 : 0.971580505371}
2019-04-03 19:22:42.09: SIM {TimeUS : 58715671, Roll : -0.02, Pitch : -17.24, Yaw : 158.65, Alt : 593.789978027, Lat : -35.3636332, Lng : 149.165412, Q1 : 0.183110848069, Q2 : 0.147288113832, Q3 : -0.0279989428818, Q4 : 0.971592843533}
2019-04-03 19:22:42.20: SIM {TimeUS : 58816464, Roll : -0.03, Pitch : -17.24, Yaw : 158.65, Alt : 593.859985352, Lat : -35.3636374, Lng : 149.165414, Q1 : 0.183178439736, Q2 : 0.147292464972, Q3 : -0.0280501265079, Q4 : 0.971578001976}
2019-04-03 19:22:42.30: SIM {TimeUS : 58916424, Roll : -0.05, Pitch : -17.26, Yaw : 158.64, Alt : 593.940002441, Lat : -35.3636415, Lng : 149.165416, Q1 : 0.183253154159, Q2 : 0.147396862507, Q3 : -0.0283070001751, Q4 : 0.971540629864}
2019-04-03 19:22:42.40: SIM {TimeUS : 59016384, Roll : -0.08, Pitch : -17.29, Yaw : 158.64, Alt : 594.020019531, Lat : -35.3636454, Lng : 149.1654179, Q1 : 0.183315396309, Q2 : 0.147650793195, Q3 : -0.0285765789449, Q4 : 0.97148245573}
2019-04-03 19:22:42.50: SIM {TimeUS : 59116344, Roll : -0.1, Pitch : -17.32, Yaw : 158.63, Alt : 594.099975586, Lat : -35.3636495, Lng : 149.1654199, Q1 : 0.183376595378, Q2 : 0.147841289639, Q3 : -0.0287946797907, Q4 : 0.97143548727}
2019-04-03 19:22:42.59: SIM {TimeUS : 59216304, Roll : -0.11, Pitch : -17.34, Yaw : 158.63, Alt : 594.179992676, Lat : -35.3636537, Lng : 149.1654218, Q1 : 0.183433711529, Q2 : 0.147995874286, Q3 : -0.0289641320705, Q4 : 0.971396148205}
2019-04-03 19:22:42.69: SIM {TimeUS : 59316264, Roll : -0.11, Pitch : -17.35, Yaw : 158.62, Alt : 594.25, Lat : -35.3636578, Lng : 149.1654238, Q1 : 0.183478027582, Q2 : 0.148084104061, Q3 : -0.0289891120046, Q4 : 0.971373558044}
2019-04-03 19:22:42.79: SIM {TimeUS : 59416224, Roll : -0.1, Pitch : -17.36, Yaw : 158.62, Alt : 594.33001709, Lat : -35.3636617, Lng : 149.1654257, Q1 : 0.183509021997, Q2 : 0.148161157966, Q3 : -0.0289176236838, Q4 : 0.971358060837}
2019-04-03 19:22:42.89: SIM {TimeUS : 59516184, Roll : -0.09, Pitch : -17.36, Yaw : 158.61, Alt : 594.409973145, Lat : -35.3636659, Lng : 149.1654278, Q1 : 0.183533608913, Q2 : 0.148218512535, Q3 : -0.0287836175412, Q4 : 0.971348643303}
2019-04-03 19:22:42.99: SIM {TimeUS : 59616144, Roll : -0.06, Pitch : -17.36, Yaw : 158.6, Alt : 594.489990234, Lat : -35.36367, Lng : 149.1654298, Q1 : 0.183550462127, Q2 : 0.148274362087, Q3 : -0.0285749342293, Q4 : 0.971343100071}
2019-04-03 19:22:43.09: SIM {TimeUS : 59716104, Roll : -0.04, Pitch : -17.36, Yaw : 158.6, Alt : 594.559997559, Lat : -35.3636741, Lng : 149.1654318, Q1 : 0.183580413461, Q2 : 0.148234203458, Q3 : -0.0283842943609, Q4 : 0.971349179745}
2019-04-03 19:22:43.19: SIM {TimeUS : 59816064, Roll : -0.02, Pitch : -17.35, Yaw : 158.59, Alt : 594.640014648, Lat : -35.3636781, Lng : 149.1654338, Q1 : 0.183625459671, Q2 : 0.148185655475, Q3 : -0.0282654240727, Q4 : 0.971351504326}
2019-04-03 19:22:43.29: SIM {TimeUS : 59916024, Roll : -0.02, Pitch : -17.35, Yaw : 158.58, Alt : 594.719970703, Lat : -35.3636823, Lng : 149.1654357, Q1 : 0.183691814542, Q2 : 0.14823924005, Q3 : -0.0282747801393, Q4 : 0.971330523491}
2019-04-03 19:22:43.39: SIM {TimeUS : 60015984, Roll : -0.03, Pitch : -17.37, Yaw : 158.57, Alt : 594.799987793, Lat : -35.3636864, Lng : 149.1654378, Q1 : 0.183767005801, Q2 : 0.148372143507, Q3 : -0.0283711757511, Q4 : 0.971293210983}
2019-04-03 19:22:43.49: SIM {TimeUS : 60115944, Roll : -0.06, Pitch : -17.38, Yaw : 158.56, Alt : 594.880004883, Lat : -35.3636905, Lng : 149.1654397, Q1 : 0.183870449662, Q2 : 0.148387908936, Q3 : -0.0286180209368, Q4 : 0.971264004707}
2019-04-03 19:22:43.59: SIM {TimeUS : 60215904, Roll : -0.1, Pitch : -17.36, Yaw : 158.56, Alt : 594.950012207, Lat : -35.3636945, Lng : 149.1654417, Q1 : 0.183993473649, Q2 : 0.14816083014, Q3 : -0.0289550349116, Q4 : 0.971265375614}
2019-04-03 19:22:43.69: SIM {TimeUS : 60315864, Roll : -0.14, Pitch : -17.33, Yaw : 158.55, Alt : 595.030029297, Lat : -35.3636987, Lng : 149.1654437, Q1 : 0.184106871486, Q2 : 0.147854745388, Q3 : -0.0292372908443, Q4 : 0.971282064915}
2019-04-03 19:22:43.79: SIM {TimeUS : 60415824, Roll : -0.15, Pitch : -17.32, Yaw : 158.54, Alt : 595.109985352, Lat : -35.3637028, Lng : 149.1654457, Q1 : 0.184183239937, Q2 : 0.147715449333, Q3 : -0.0293245464563, Q4 : 0.971286177635}
2019-04-03 19:22:43.89: SIM {TimeUS : 60515784, Roll : -0.13, Pitch : -17.31, Yaw : 158.54, Alt : 595.190002441, Lat : -35.3637068, Lng : 149.1654476, Q1 : 0.184223562479, Q2 : 0.147684454918, Q3 : -0.0291638728231, Q4 : 0.971288084984}
2019-04-03 19:22:43.99: SIM {TimeUS : 60615744, Roll : -0.09, Pitch : -17.32, Yaw : 158.53, Alt : 595.260009766, Lat : -35.3637109, Lng : 149.1654496, Q1 : 0.184232622385, Q2 : 0.147798195481, Q3 : -0.0288830865175, Q4 : 0.971277415752}
2019-04-03 19:22:44.09: SIM {TimeUS : 60715704, Roll : -0.05, Pitch : -17.34, Yaw : 158.52, Alt : 595.340026855, Lat : -35.3637151, Lng : 149.1654517, Q1 : 0.184218540788, Q2 : 0.148105591536, Q3 : -0.028522061184, Q4 : 0.971243917942}
2019-04-03 19:22:44.19: SIM {TimeUS : 60815664, Roll : -0.02, Pitch : -17.36, Yaw : 158.52, Alt : 595.41998291, Lat : -35.3637192, Lng : 149.1654537, Q1 : 0.184236124158, Q2 : 0.148310825229, Q3 : -0.0283186323941, Q4 : 0.971215248108}
2019-04-03 19:22:44.30: SIM {TimeUS : 60916457, Roll : -0.02, Pitch : -17.36, Yaw : 158.51, Alt : 595.5, Lat : -35.3637232, Lng : 149.1654557, Q1 : 0.184294715524, Q2 : 0.148280784488, Q3 : -0.0283181611449, Q4 : 0.971208691597}
2019-04-03 19:22:44.40: SIM {TimeUS : 61016417, Roll : -0.05, Pitch : -17.34, Yaw : 158.5, Alt : 595.570007324, Lat : -35.3637274, Lng : 149.1654577, Q1 : 0.184382840991, Q2 : 0.14808896184, Q3 : -0.0285660177469, Q4 : 0.97121399641}
2019-04-03 19:22:44.50: SIM {TimeUS : 61116377, Roll : -0.05, Pitch : -17.31, Yaw : 158.5, Alt : 595.650024414, Lat : -35.3637315, Lng : 149.1654596, Q1 : 0.184436619282, Q2 : 0.147832661867, Q3 : -0.0285635758191, Q4 : 0.971242904663}
2019-04-03 19:22:44.60: SIM {TimeUS : 61216337, Roll : -0.05, Pitch : -17.3, Yaw : 158.49, Alt : 595.729980469, Lat : -35.3637356, Lng : 149.1654615, Q1 : 0.184469237924, Q2 : 0.147718757391, Q3 : -0.0284855756909, Q4 : 0.971256315708}
2019-04-03 19:22:44.69: SIM {TimeUS : 61316297, Roll : -0.02, Pitch : -17.31, Yaw : 158.49, Alt : 595.799987793, Lat : -35.3637396, Lng : 149.1654635, Q1 : 0.184471011162, Q2 : 0.147816672921, Q3 : -0.0282854102552, Q4 : 0.971246957779}
2019-04-03 19:22:44.79: SIM {TimeUS : 61416257, Roll : 0.0, Pitch : -17.34, Yaw : 158.49, Alt : 595.880004883, Lat : -35.3637438, Lng : 149.1654656, Q1 : 0.184463083744, Q2 : 0.148156180978, Q3 : -0.0281385816634, Q4 : 0.971201002598}
2019-04-03 19:22:44.89: SIM {TimeUS : 61516217, Roll : 0.01, Pitch : -17.36, Yaw : 158.48, Alt : 595.960021973, Lat : -35.3637479, Lng : 149.1654676, Q1 : 0.184469953179, Q2 : 0.148289635777, Q3 : -0.0280576124787, Q4 : 0.971181631088}
2019-04-03 19:22:44.99: SIM {TimeUS : 61616177, Roll : 0.01, Pitch : -17.33, Yaw : 158.48, Alt : 596.030029297, Lat : -35.363752, Lng : 149.1654696, Q1 : 0.184483960271, Q2 : 0.148108825088, Q3 : -0.0279779713601, Q4 : 0.971208870411}
2019-04-03 19:22:45.09: SIM {TimeUS : 61716137, Roll : 0.01, Pitch : -17.31, Yaw : 158.48, Alt : 596.109985352, Lat : -35.363756, Lng : 149.1654716, Q1 : 0.184525027871, Q2 : 0.147892594337, Q3 : -0.0280076730996, Q4 : 0.971233189106}
2019-04-03 19:22:45.19: SIM {TimeUS : 61816097, Roll : -0.01, Pitch : -17.3, Yaw : 158.47, Alt : 596.190002441, Lat : -35.3637602, Lng : 149.1654735, Q1 : 0.184588313103, Q2 : 0.147811323404, Q3 : -0.0281841754913, Q4 : 0.971228420734}
2019-04-03 19:22:45.29: SIM {TimeUS : 61916057, Roll : -0.01, Pitch : -17.3, Yaw : 158.47, Alt : 596.260009766, Lat : -35.3637643, Lng : 149.1654755, Q1 : 0.184639811516, Q2 : 0.14779022336, Q3 : -0.0282188430429, Q4 : 0.971220850945}
2019-04-03 19:22:45.39: SIM {TimeUS : 62016017, Roll : -0.01, Pitch : -17.31, Yaw : 158.46, Alt : 596.340026855, Lat : -35.3637684, Lng : 149.1654776, Q1 : 0.184694439173, Q2 : 0.147851482034, Q3 : -0.0282707307488, Q4 : 0.971199631691}
2019-04-03 19:22:45.49: SIM {TimeUS : 62115977, Roll : -0.02, Pitch : -17.31, Yaw : 158.46, Alt : 596.41998291, Lat : -35.3637724, Lng : 149.1654796, Q1 : 0.18474636972, Q2 : 0.147847980261, Q3 : -0.0283047500998, Q4 : 0.971189260483}
2019-04-03 19:22:45.59: SIM {TimeUS : 62215937, Roll : -0.01, Pitch : -17.31, Yaw : 158.45, Alt : 596.489990234, Lat : -35.3637766, Lng : 149.1654816, Q1 : 0.184789761901, Q2 : 0.14787055552, Q3 : -0.028292125091, Q4 : 0.971177995205}
2019-04-03 19:22:45.69: SIM {TimeUS : 62315897, Roll : 0.0, Pitch : -17.31, Yaw : 158.45, Alt : 596.570007324, Lat : -35.3637807, Lng : 149.1654835, Q1 : 0.184832140803, Q2 : 0.147845879197, Q3 : -0.0282183233649, Q4 : 0.971175789833}
2019-04-03 19:22:45.79: SIM {TimeUS : 62415857, Roll : 0.01, Pitch : -17.31, Yaw : 158.44, Alt : 596.640014648, Lat : -35.3637848, Lng : 149.1654855, Q1 : 0.184867411852, Q2 : 0.147884562612, Q3 : -0.0280334763229, Q4 : 0.971168518066}
2019-04-03 19:22:45.89: SIM {TimeUS : 62515817, Roll : 0.03, Pitch : -17.32, Yaw : 158.43, Alt : 596.719970703, Lat : -35.3637888, Lng : 149.1654876, Q1 : 0.18489934504, Q2 : 0.147975549102, Q3 : -0.0278474465013, Q4 : 0.971153974533}
2019-04-03 19:22:45.99: SIM {TimeUS : 62615777, Roll : 0.04, Pitch : -17.32, Yaw : 158.42, Alt : 596.799987793, Lat : -35.363793, Lng : 149.1654896, Q1 : 0.184950560331, Q2 : 0.148052841425, Q3 : -0.027829580009, Q4 : 0.971132934093}
2019-04-03 19:22:46.09: SIM {TimeUS : 62715737, Roll : 0.02, Pitch : -17.34, Yaw : 158.42, Alt : 596.869995117, Lat : -35.3637971, Lng : 149.1654916, Q1 : 0.185018062592, Q2 : 0.148156523705, Q3 : -0.0279886666685, Q4 : 0.971099734306}
2019-04-03 19:22:46.19: SIM {TimeUS : 62815697, Roll : 0.0, Pitch : -17.36, Yaw : 158.41, Alt : 596.950012207, Lat : -35.3638012, Lng : 149.1654935, Q1 : 0.185078591108, Q2 : 0.148269593716, Q3 : -0.0282350052148, Q4 : 0.971063792706}
2019-04-03 19:22:46.30: SIM {TimeUS : 62916490, Roll : 0.0, Pitch : -17.37, Yaw : 158.41, Alt : 597.030029297, Lat : -35.3638053, Lng : 149.1654955, Q1 : 0.185092613101, Q2 : 0.148344025016, Q3 : -0.0282105263323, Q4 : 0.971050441265}
2019-04-03 19:22:46.40: SIM {TimeUS : 63016450, Roll : 0.02, Pitch : -17.34, Yaw : 158.41, Alt : 597.099975586, Lat : -35.3638094, Lng : 149.1654974, Q1 : 0.185098767281, Q2 : 0.148182928562, Q3 : -0.0280332602561, Q4 : 0.97107899189}
2019-04-03 19:22:46.50: SIM {TimeUS : 63116410, Roll : 0.04, Pitch : -17.3, Yaw : 158.41, Alt : 597.179992676, Lat : -35.3638136, Lng : 149.1654994, Q1 : 0.185102880001, Q2 : 0.147835761309, Q3 : -0.0278122518212, Q4 : 0.971137464046}
2019-04-03 19:22:46.60: SIM {TimeUS : 63216370, Roll : 0.03, Pitch : -17.27, Yaw : 158.4, Alt : 597.260009766, Lat : -35.3638177, Lng : 149.1655015, Q1 : 0.185129985213, Q2 : 0.147576212883, Q3 : -0.0278280973434, Q4 : 0.971171319485}
2019-04-03 19:22:46.70: SIM {TimeUS : 63316330, Roll : 0.02, Pitch : -17.26, Yaw : 158.4, Alt : 597.33001709, Lat : -35.3638217, Lng : 149.1655035, Q1 : 0.18516227603, Q2 : 0.14743925631, Q3 : -0.0279358252883, Q4 : 0.971182882786}
2019-04-03 19:22:46.79: SIM {TimeUS : 63416290, Roll : 0.01, Pitch : -17.25, Yaw : 158.4, Alt : 597.409973145, Lat : -35.3638259, Lng : 149.1655055, Q1 : 0.185195654631, Q2 : 0.147357478738, Q3 : -0.0279932208359, Q4 : 0.971187233925}
2019-04-03 19:22:46.89: SIM {TimeUS : 63516250, Roll : 0.0, Pitch : -17.26, Yaw : 158.4, Alt : 597.489990234, Lat : -35.36383, Lng : 149.1655075, Q1 : 0.185247600079, Q2 : 0.14740088582, Q3 : -0.0280984397978, Q4 : 0.971167743206}
2019-04-03 19:22:46.99: SIM {TimeUS : 63616210, Roll : 0.0, Pitch : -17.27, Yaw : 158.39, Alt : 597.559997559, Lat : -35.3638341, Lng : 149.1655094, Q1 : 0.185290068388, Q2 : 0.147515937686, Q3 : -0.0281318165362, Q4 : 0.971141219139}
2019-04-03 19:22:47.09: SIM {TimeUS : 63716170, Roll : 0.0, Pitch : -17.29, Yaw : 158.38, Alt : 597.640014648, Lat : -35.3638383, Lng : 149.1655114, Q1 : 0.185333102942, Q2 : 0.147720992565, Q3 : -0.0281788408756, Q4 : 0.971100449562}
2019-04-03 19:22:47.19: SIM {TimeUS : 63816130, Roll : 0.0, Pitch : -17.33, Yaw : 158.38, Alt : 597.719970703, Lat : -35.3638423, Lng : 149.1655135, Q1 : 0.185377731919, Q2 : 0.148008421063, Q3 : -0.028231408447, Q4 : 0.971046686172}
2019-04-03 19:22:47.29: SIM {TimeUS : 63916090, Roll : 0.01, Pitch : -17.35, Yaw : 158.37, Alt : 597.789978027, Lat : -35.3638465, Lng : 149.1655155, Q1 : 0.185419619083, Q2 : 0.148176699877, Q3 : -0.0281818024814, Q4 : 0.97101444006}
2019-04-03 19:22:47.39: SIM {TimeUS : 64016050, Roll : 0.0, Pitch : -17.36, Yaw : 158.36, Alt : 597.869995117, Lat : -35.3638506, Lng : 149.1655175, Q1 : 0.185477763414, Q2 : 0.148306429386, Q3 : -0.0282443817705, Q4 : 0.97098171711}
2019-04-03 19:22:47.49: SIM {TimeUS : 64116010, Roll : 0.0, Pitch : -17.37, Yaw : 158.36, Alt : 597.950012207, Lat : -35.3638547, Lng : 149.1655194, Q1 : 0.185544848442, Q2 : 0.148377507925, Q3 : -0.0283280909061, Q4 : 0.970955610275}
2019-04-03 19:22:47.59: SIM {TimeUS : 64215970, Roll : 0.0, Pitch : -17.35, Yaw : 158.35, Alt : 598.020019531, Lat : -35.3638587, Lng : 149.1655214, Q1 : 0.185599952936, Q2 : 0.148206397891, Q3 : -0.0282501559705, Q4 : 0.970973432064}
2019-04-03 19:22:47.69: SIM {TimeUS : 64315930, Roll : 0.04, Pitch : -17.33, Yaw : 158.34, Alt : 598.099975586, Lat : -35.3638629, Lng : 149.1655235, Q1 : 0.185609698296, Q2 : 0.14811372757, Q3 : -0.0279245376587, Q4 : 0.970995187759}
2019-04-03 19:22:47.79: SIM {TimeUS : 64415890, Roll : 0.06, Pitch : -17.33, Yaw : 158.34, Alt : 598.179992676, Lat : -35.363867, Lng : 149.1655254, Q1 : 0.185633659363, Q2 : 0.148159071803, Q3 : -0.0277678128332, Q4 : 0.970988154411}
2019-04-03 19:22:47.89: SIM {TimeUS : 64515850, Roll : 0.07, Pitch : -17.33, Yaw : 158.33, Alt : 598.25, Lat : -35.3638711, Lng : 149.1655274, Q1 : 0.185663163662, Q2 : 0.148163825274, Q3 : -0.0276638958603, Q4 : 0.970984756947}
2019-04-03 19:22:47.99: SIM {TimeUS : 64615810, Roll : 0.07, Pitch : -17.31, Yaw : 158.33, Alt : 598.33001709, Lat : -35.3638751, Lng : 149.1655294, Q1 : 0.185713648796, Q2 : 0.147993564606, Q3 : -0.0276340227574, Q4 : 0.971001923084}
2019-04-03 19:22:48.09: SIM {TimeUS : 64715770, Roll : 0.07, Pitch : -17.3, Yaw : 158.32, Alt : 598.409973145, Lat : -35.3638794, Lng : 149.1655314, Q1 : 0.185776785016, Q2 : 0.147853136063, Q3 : -0.0276810545474, Q4 : 0.971009850502}
2019-04-03 19:22:48.19: SIM {TimeUS : 64815730, Roll : 0.04, Pitch : -17.3, Yaw : 158.32, Alt : 598.479980469, Lat : -35.3638835, Lng : 149.1655333, Q1 : 0.185868740082, Q2 : 0.147816777229, Q3 : -0.0279213506728, Q4 : 0.97099095583}
2019-04-03 19:22:48.29: SIM {TimeUS : 64915690, Roll : 0.0, Pitch : -17.33, Yaw : 158.31, Alt : 598.559997559, Lat : -35.3638876, Lng : 149.1655353, Q1 : 0.185968965292, Q2 : 0.147981837392, Q3 : -0.0283155273646, Q4 : 0.970935225487}
2019-04-03 19:22:48.40: SIM {TimeUS : 65016483, Roll : -0.01, Pitch : -17.33, Yaw : 158.3, Alt : 598.640014648, Lat : -35.3638916, Lng : 149.1655374, Q1 : 0.18604375422, Q2 : 0.148020848632, Q3 : -0.0284874457866, Q4 : 0.970909893513}
2019-04-03 19:22:48.50: SIM {TimeUS : 65116443, Roll : -0.01, Pitch : -17.32, Yaw : 158.3, Alt : 598.710021973, Lat : -35.3638958, Lng : 149.1655394, Q1 : 0.186099290848, Q2 : 0.147884964943, Q3 : -0.028438013047, Q4 : 0.970921397209}
2019-04-03 19:22:48.60: SIM {TimeUS : 65216403, Roll : 0.02, Pitch : -17.3, Yaw : 158.29, Alt : 598.789978027, Lat : -35.3639, Lng : 149.1655414, Q1 : 0.186127945781, Q2 : 0.147778168321, Q3 : -0.0281527582556, Q4 : 0.9709405303}
2019-04-03 19:22:48.70: SIM {TimeUS : 65316363, Roll : 0.04, Pitch : -17.29, Yaw : 158.28, Alt : 598.869995117, Lat : -35.3639041, Lng : 149.1655434, Q1 : 0.18616271019, Q2 : 0.14773452282, Q3 : -0.0279180072248, Q4 : 0.970947265625}
2019-04-03 19:22:48.79: SIM {TimeUS : 65416323, Roll : 0.04, Pitch : -17.3, Yaw : 158.27, Alt : 598.950012207, Lat : -35.3639082, Lng : 149.1655453, Q1 : 0.186229601502, Q2 : 0.147780552506, Q3 : -0.0279912073165, Q4 : 0.970925331116}
2019-04-03 19:22:48.89: SIM {TimeUS : 65516283, Roll : 0.0, Pitch : -17.31, Yaw : 158.27, Alt : 599.020019531, Lat : -35.3639122, Lng : 149.1655473, Q1 : 0.186334356666, Q2 : 0.14784745872, Q3 : -0.0283327568322, Q4 : 0.97088509798}
2019-04-03 19:22:48.99: SIM {TimeUS : 65616243, Roll : -0.01, Pitch : -17.33, Yaw : 158.26, Alt : 599.099975586, Lat : -35.3639164, Lng : 149.1655494, Q1 : 0.186418548226, Q2 : 0.147937595844, Q3 : -0.0285665262491, Q4 : 0.970848321915}
2019-04-03 19:22:49.09: SIM {TimeUS : 65716203, Roll : 0.0, Pitch : -17.34, Yaw : 158.25, Alt : 599.179992676, Lat : -35.3639205, Lng : 149.1655514, Q1 : 0.186454817653, Q2 : 0.148056089878, Q3 : -0.0284816939384, Q4 : 0.970825850964}
2019-04-03 19:22:49.19: SIM {TimeUS : 65816163, Roll : 0.01, Pitch : -17.34, Yaw : 158.25, Alt : 599.25, Lat : -35.3639246, Lng : 149.1655534, Q1 : 0.18648532033, Q2 : 0.148130908608, Q3 : -0.0283644124866, Q4 : 0.970811963081}
2019-04-03 19:22:49.29: SIM {TimeUS : 65916123, Roll : 0.03, Pitch : -17.34, Yaw : 158.24, Alt : 599.33001709, Lat : -35.3639286, Lng : 149.1655554, Q1 : 0.186497285962, Q2 : 0.148148968816, Q3 : -0.0281545743346, Q4 : 0.970813035965}
2019-04-03 19:22:49.39: SIM {TimeUS : 66016083, Roll : 0.05, Pitch : -17.35, Yaw : 158.24, Alt : 599.409973145, Lat : -35.3639329, Lng : 149.1655573, Q1 : 0.18651175499, Q2 : 0.1482065171, Q3 : -0.0280344560742, Q4 : 0.970804989338}
2019-04-03 19:22:49.49: SIM {TimeUS : 66116043, Roll : 0.05, Pitch : -17.36, Yaw : 158.23, Alt : 599.489990234, Lat : -35.363937, Lng : 149.1655594, Q1 : 0.186529740691, Q2 : 0.148300498724, Q3 : -0.0279968343675, Q4 : 0.970788240433}
2019-04-03 19:22:49.59: SIM {TimeUS : 66216003, Roll : 0.05, Pitch : -17.36, Yaw : 158.23, Alt : 599.559997559, Lat : -35.3639411, Lng : 149.1655614, Q1 : 0.186562240124, Q2 : 0.148337960243, Q3 : -0.0280102211982, Q4 : 0.970775842667}
2019-04-03 19:22:49.69: SIM {TimeUS : 66315963, Roll : 0.08, Pitch : -17.36, Yaw : 158.22, Alt : 599.640014648, Lat : -35.3639451, Lng : 149.1655634, Q1 : 0.186573028564, Q2 : 0.148351788521, Q3 : -0.0277983769774, Q4 : 0.97077780962}
