2019-04-03 21:16:51.90: SIM {TimeUS : 41315967, Roll : 0.0, Pitch : 0.0, Yaw : 353.0, Alt : 584.090026855, Lat : -35.363261, Lng : 149.1652299, Q1 : 0.998134791851, Q2 : 0.0, Q3 : 0.0, Q4 : -0.0610485821962}
2019-04-03 21:16:52.01: SIM {TimeUS : 41435086, Roll : 0.0, Pitch : 0.0, Yaw : 353.0, Alt : 584.090026855, Lat : -35.363261, Lng : 149.1652299, Q1 : 0.998134791851, Q2 : 0.0, Q3 : 0.0, Q4 : -0.0610485821962}
2019-04-03 21:16:52.11: SIM {TimeUS : 41535046, Roll : 0.0, Pitch : 0.0, Yaw : 353.0, Alt : 584.090026855, Lat : -35.363261, Lng : 149.1652299, Q1 : 0.998134791851, Q2 : 0.0, Q3 : 0.0, Q4 : -0.0610485821962}
2019-04-03 21:16:52.21: SIM {TimeUS : 41635006, Roll : 0.0, Pitch : 0.0, Yaw : 353.0, Alt : 584.090026855, Lat : -35.363261, Lng : 149.1652299, Q1 : 0.998134791851, Q2 : 0.0, Q3 : 0.0, Q4 : -0.0610485821962}
2019-04-03 21:16:52.31: SIM {TimeUS : 41734966, Roll : 0.0, Pitch : 0.0, Yaw : 353.0, Alt : 584.090026855, Lat : -35.363261, Lng : 149.1652299, Q1 : 0.998134791851, Q2 : 0.0, Q3 : 0.0, Q4 : -0.0610485821962}
2019-04-03 21:16:52.41: SIM {TimeUS : 41834926, Roll : 0.0, Pitch : 0.0, Yaw : 353.0, Alt : 584.090026855, Lat : -35.363261, Lng : 149.1652299, Q1 : 0.998134791851, Q2 : 0.0, Q3 : 0.0, Q4 : -0.0610485821962}
2019-04-03 21:16:52.51: SIM {TimeUS : 41934886, Roll : 0.0, Pitch : 0.0, Yaw : 353.0, Alt : 584.090026855, Lat : -35.363261, Lng : 149.1652299, Q1 : 0.998134791851, Q2 : 0.0, Q3 : 0.0, Q4 : -0.0610485821962}
2019-04-03 21:16:52.61: SIM {TimeUS : 42034846, Roll : 0.0, Pitch : 0.0, Yaw : 353.0, Alt : 584.090026855, Lat : -35.363261, Lng : 149.1652299, Q1 : 0.998134791851, Q2 : 0.0, Q3 : 0.0, Q4 : -0.0610485821962}
2019-04-03 21:16:52.71: SIM {TimeUS : 42134806, Roll : 0.0, Pitch : 0.0, Yaw : 353.0, Alt : 584.090026855, Lat : -35.363261, Lng : 149.1652299, Q1 : 0.998134791851, Q2 : 0.0, Q3 : 0.0, Q4 : -0.0610485821962}
2019-04-03 21:16:52.81: SIM {TimeUS : 42234766, Roll : 0.0, Pitch : 0.0, Yaw : 353.0, Alt : 584.090026855, Lat : -35.363261, Lng : 149.1652299, Q1 : 0.998134791851, Q2 : 0.0, Q3 : 0.0, Q4 : -0.0610485821962}
2019-04-03 21:16:52.91: SIM {TimeUS : 42334726, Roll : 0.0, Pitch : 0.0, Yaw : 353.0, Alt : 584.090026855, Lat : -35.363261, Lng : 149.1652299, Q1 : 0.998134791851, Q2 : 0.0, Q3 : 0.0, Q4 : -0.0610485821962}
2019-04-03 21:16:53.01: SIM {TimeUS : 42434686, Roll : 0.0, Pitch : 0.0, Yaw : 353.0, Alt : 584.090026855, Lat : -35.363261, Lng : 149.1652299, Q1 : 0.998134791851, Q2 : 0.0, Q3 : 0.0, Q4 : -0.0610485821962}
2019-04-03 21:16:53.11: SIM {TimeUS : 42534646, Roll : 0.0, Pitch : 0.0, Yaw : 353.0, Alt : 584.090026855, Lat : -35.363261, Lng : 149.1652299, Q1 : 0.998134791851, Q2 : 0.0, Q3 : 0.0, Q4 : -0.0610485821962}
2019-04-03 21:16:53.21: SIM {TimeUS : 42634606, Roll : 0.0, Pitch : 0.0, Yaw : 353.0, Alt : 584.090026855, Lat : -35.363261, Lng : 149.1652299, Q1 : 0.998134791851, Q2 : 0.0, Q3 : 0.0, Q4 : -0.0610485821962}
2019-04-03 21:16:53.31: SIM {TimeUS : 42734566, Roll : 0.0, Pitch : 0.0, Yaw : 353.0, Alt : 584.090026855, Lat : -35.363261, Lng : 149.1652299, Q1 : 0.998134791851, Q2 : 0.0, Q3 : 0.0, Q4 : -0.0610485821962}
2019-04-03 21:16:53.41: SIM {TimeUS : 42834526, Roll : 0.0, Pitch : 0.0, Yaw : 353.0, Alt : 584.090026855, Lat : -35.363261, Lng : 149.1652299, Q1 : 0.998134791851, Q2 : 0.0, Q3 : 0.0, Q4 : -0.0610485821962}
2019-04-03 21:16:53.51: SIM {TimeUS : 42934486, Roll : 0.0, Pitch : 0.0, Yaw : 353.0, Alt : 584.090026855, Lat : -35.363261, Lng : 149.1652299, Q1 : 0.998134791851, Q2 : 0.0, Q3 : 0.0, Q4 : -0.0610485821962}
2019-04-03 21:16:53.61: SIM {TimeUS : 43034446, Roll : 0.0, Pitch : 0.0, Yaw : 353.0, Alt : 584.090026855, Lat : -35.363261, Lng : 149.1652299, Q1 : 0.998134791851, Q2 : 0.0, Q3 : 0.0, Q4 : -0.0610485821962}
2019-04-03 21:16:53.71: SIM {TimeUS : 43134406, Roll : 0.0, Pitch : 0.0, Yaw : 353.0, Alt : 584.090026855, Lat : -35.363261, Lng : 149.1652299, Q1 : 0.998134791851, Q2 : 0.0, Q3 : 0.0, Q4 : -0.0610485821962}
2019-04-03 21:16:53.81: SIM {TimeUS : 43234366, Roll : 0.0, Pitch : 0.0, Yaw : 353.0, Alt : 584.090026855, Lat : -35.363261, Lng : 149.1652299, Q1 : 0.998134791851, Q2 : 0.0, Q3 : 0.0, Q4 : -0.0610485821962}
2019-04-03 21:16:53.91: SIM {TimeUS : 43334326, Roll : 0.0, Pitch : 0.0, Yaw : 353.0, Alt : 584.090026855, Lat : -35.363261, Lng : 149.1652299, Q1 : 0.998134791851, Q2 : 0.0, Q3 : 0.0, Q4 : -0.0610485821962}
2019-04-03 21:16:54.02: SIM {TimeUS : 43435119, Roll : 0.0, Pitch : 0.0, Yaw : 353.0, Alt : 584.090026855, Lat : -35.363261, Lng : 149.1652299, Q1 : 0.998134791851, Q2 : 0.0, Q3 : 0.0, Q4 : -0.0610485821962}
2019-04-03 21:16:54.11: SIM {TimeUS : 43535079, Roll : 0.0, Pitch : 0.0, Yaw : 353.0, Alt : 584.090026855, Lat : -35.363261, Lng : 149.1652299, Q1 : 0.998134791851, Q2 : 0.0, Q3 : 0.0, Q4 : -0.0610485821962}
2019-04-03 21:16:54.21: SIM {TimeUS : 43635039, Roll : 0.0, Pitch : 0.0, Yaw : 353.0, Alt : 584.090026855, Lat : -35.363261, Lng : 149.1652299, Q1 : 0.998134791851, Q2 : 0.0, Q3 : 0.0, Q4 : -0.0610485821962}
2019-04-03 21:16:54.31: SIM {TimeUS : 43734999, Roll : 0.0, Pitch : 0.0, Yaw : 353.0, Alt : 584.090026855, Lat : -35.363261, Lng : 149.1652299, Q1 : 0.998134791851, Q2 : 0.0, Q3 : 0.0, Q4 : -0.0610485821962}
2019-04-03 21:16:54.41: SIM {TimeUS : 43834959, Roll : 0.0, Pitch : 0.0, Yaw : 353.0, Alt : 584.090026855, Lat : -35.363261, Lng : 149.1652299, Q1 : 0.998134791851, Q2 : 0.0, Q3 : 0.0, Q4 : -0.0610485821962}
2019-04-03 21:16:54.51: SIM {TimeUS : 43934919, Roll : 0.0, Pitch : 0.0, Yaw : 353.0, Alt : 584.090026855, Lat : -35.363261, Lng : 149.1652299, Q1 : 0.998134791851, Q2 : 0.0, Q3 : 0.0, Q4 : -0.0610485821962}
2019-04-03 21:16:54.61: SIM {TimeUS : 44034879, Roll : 0.0, Pitch : 0.0, Yaw : 353.0, Alt : 584.090026855, Lat : -35.363261, Lng : 149.1652299, Q1 : 0.998134791851, Q2 : 0.0, Q3 : 0.0, Q4 : -0.0610485821962}
2019-04-03 21:16:54.71: SIM {TimeUS : 44134839, Roll : 0.0, Pitch : 0.0, Yaw : 353.0, Alt : 584.090026855, Lat : -35.363261, Lng : 149.1652299, Q1 : 0.998134791851, Q2 : 0.0, Q3 : 0.0, Q4 : -0.0610485821962}
2019-04-03 21:16:54.81: SIM {TimeUS : 44234799, Roll : 0.0, Pitch : 0.0, Yaw : 353.0, Alt : 584.090026855, Lat : -35.363261, Lng : 149.1652299, Q1 : 0.998134791851, Q2 : 0.0, Q3 : 0.0, Q4 : -0.0610485821962}
2019-04-03 21:16:54.91: SIM {TimeUS : 44334759, Roll : 0.0, Pitch : 0.0, Yaw : 353.0, Alt : 584.090026855, Lat : -35.363261, Lng : 149.1652299, Q1 : 0.998134791851, Q2 : 0.0, Q3 : 0.0, Q4 : -0.0610485821962}
2019-04-03 21:16:55.01: SIM {TimeUS : 44434719, Roll : 0.0, Pitch : 0.0, Yaw : 353.0, Alt : 584.090026855, Lat : -35.363261, Lng : 149.1652299, Q1 : 0.998134791851, Q2 : 0.0, Q3 : 0.0, Q4 : -0.0610485821962}
2019-04-03 21:16:55.11: SIM {TimeUS : 44534679, Roll : 0.0, Pitch : 0.0, Yaw : 353.0, Alt : 584.090026855, Lat : -35.363261, Lng : 149.1652299, Q1 : 0.998134791851, Q2 : 0.0, Q3 : 0.0, Q4 : -0.0610485821962}
2019-04-03 21:16:55.21: SIM {TimeUS : 44634639, Roll : 0.0, Pitch : 0.0, Yaw : 353.0, Alt : 584.090026855, Lat : -35.363261, Lng : 149.1652299, Q1 : 0.998134791851, Q2 : 0.0, Q3 : 0.0, Q4 : -0.0610485821962}
2019-04-03 21:16:55.31: SIM {TimeUS : 44734599, Roll : 0.0, Pitch : 0.0, Yaw : 353.0, Alt : 584.090026855, Lat : -35.363261, Lng : 149.1652299, Q1 : 0.998134791851, Q2 : 0.0, Q3 : 0.0, Q4 : -0.0610485821962}
2019-04-03 21:16:55.41: SIM {TimeUS : 44834559, Roll : 0.0, Pitch : 0.0, Yaw : 353.0, Alt : 584.090026855, Lat : -35.363261, Lng : 149.1652299, Q1 : 0.998134791851, Q2 : 0.0, Q3 : 0.0, Q4 : -0.0610485821962}
2019-04-03 21:16:55.51: SIM {TimeUS : 44934519, Roll : 0.0, Pitch : 0.0, Yaw : 353.0, Alt : 584.090026855, Lat : -35.363261, Lng : 149.1652299, Q1 : 0.998134791851, Q2 : 0.0, Q3 : 0.0, Q4 : -0.0610485821962}
2019-04-03 21:16:55.61: SIM {TimeUS : 45034479, Roll : 0.0, Pitch : 0.0, Yaw : 353.0, Alt : 584.090026855, Lat : -35.363261, Lng : 149.1652299, Q1 : 0.998134791851, Q2 : 0.0, Q3 : 0.0, Q4 : -0.0610485821962}
2019-04-03 21:16:55.71: SIM {TimeUS : 45134439, Roll : 0.0, Pitch : 0.0, Yaw : 353.0, Alt : 584.090026855, Lat : -35.363261, Lng : 149.1652299, Q1 : 0.998134791851, Q2 : 0.0, Q3 : 0.0, Q4 : -0.0610485821962}
2019-04-03 21:16:55.81: SIM {TimeUS : 45234399, Roll : 0.0, Pitch : 0.0, Yaw : 353.0, Alt : 584.090026855, Lat : -35.363261, Lng : 149.1652299, Q1 : 0.998134791851, Q2 : 0.0, Q3 : 0.0, Q4 : -0.0610485821962}
2019-04-03 21:16:55.91: SIM {TimeUS : 45334359, Roll : 0.0, Pitch : 0.0, Yaw : 353.0, Alt : 584.090026855, Lat : -35.363261, Lng : 149.1652299, Q1 : 0.998134791851, Q2 : 0.0, Q3 : 0.0, Q4 : -0.0610485821962}
2019-04-03 21:16:56.01: SIM {TimeUS : 45434319, Roll : 0.0, Pitch : 0.0, Yaw : 353.0, Alt : 584.090026855, Lat : -35.363261, Lng : 149.1652299, Q1 : 0.998134791851, Q2 : 0.0, Q3 : 0.0, Q4 : -0.0610485821962}
2019-04-03 21:16:56.12: SIM {TimeUS : 45535112, Roll : 0.0, Pitch : 0.0, Yaw : 353.0, Alt : 584.090026855, Lat : -35.363261, Lng : 149.1652299, Q1 : 0.998134791851, Q2 : 0.0, Q3 : 0.0, Q4 : -0.0610485821962}
2019-04-03 21:16:56.21: SIM {TimeUS : 45635072, Roll : 0.0, Pitch : 0.0, Yaw : 353.0, Alt : 584.090026855, Lat : -35.363261, Lng : 149.1652299, Q1 : 0.998134791851, Q2 : 0.0, Q3 : 0.0, Q4 : -0.0610485821962}
2019-04-03 21:16:56.31: SIM {TimeUS : 45735032, Roll : 0.0, Pitch : 0.0, Yaw : 353.0, Alt : 584.090026855, Lat : -35.363261, Lng : 149.1652299, Q1 : 0.998134791851, Q2 : 0.0, Q3 : 0.0, Q4 : -0.0610485821962}
2019-04-03 21:16:56.41: SIM {TimeUS : 45834992, Roll : 0.0, Pitch : 0.0, Yaw : 353.0, Alt : 584.090026855, Lat : -35.363261, Lng : 149.1652299, Q1 : 0.998134791851, Q2 : 0.0, Q3 : 0.0, Q4 : -0.0610485821962}
2019-04-03 21:16:56.51: SIM {TimeUS : 45934952, Roll : 0.0, Pitch : 0.0, Yaw : 353.0, Alt : 584.090026855, Lat : -35.363261, Lng : 149.1652299, Q1 : 0.998134791851, Q2 : 0.0, Q3 : 0.0, Q4 : -0.0610485821962}
2019-04-03 21:16:56.61: SIM {TimeUS : 46034912, Roll : 0.0, Pitch : 0.0, Yaw : 353.0, Alt : 584.090026855, Lat : -35.363261, Lng : 149.1652299, Q1 : 0.998134791851, Q2 : 0.0, Q3 : 0.0, Q4 : -0.0610485821962}
2019-04-03 21:16:56.71: SIM {TimeUS : 46134872, Roll : 0.0, Pitch : 0.0, Yaw : 353.0, Alt : 584.090026855, Lat : -35.363261, Lng : 149.1652299, Q1 : 0.998134791851, Q2 : 0.0, Q3 : 0.0, Q4 : -0.0610485821962}
2019-04-03 21:16:56.81: SIM {TimeUS : 46234832, Roll : 0.0, Pitch : 0.0, Yaw : 353.0, Alt : 584.090026855, Lat : -35.363261, Lng : 149.1652299, Q1 : 0.998134791851, Q2 : 0.0, Q3 : 0.0, Q4 : -0.0610485821962}
2019-04-03 21:16:56.91: SIM {TimeUS : 46334792, Roll : 0.0, Pitch : 0.0, Yaw : 353.0, Alt : 584.090026855, Lat : -35.363261, Lng : 149.1652299, Q1 : 0.998134791851, Q2 : 0.0, Q3 : 0.0, Q4 : -0.0610485821962}
2019-04-03 21:16:57.01: SIM {TimeUS : 46434752, Roll : 0.0, Pitch : 0.0, Yaw : 353.0, Alt : 584.090026855, Lat : -35.363261, Lng : 149.1652299, Q1 : 0.998134791851, Q2 : 0.0, Q3 : 0.0, Q4 : -0.0610485821962}
2019-04-03 21:16:57.11: SIM {TimeUS : 46534712, Roll : 0.0, Pitch : 0.0, Yaw : 353.0, Alt : 584.090026855, Lat : -35.363261, Lng : 149.1652299, Q1 : 0.998134791851, Q2 : 0.0, Q3 : 0.0, Q4 : -0.0610485821962}
2019-04-03 21:16:57.21: SIM {TimeUS : 46634672, Roll : 0.0, Pitch : 0.0, Yaw : 353.0, Alt : 584.090026855, Lat : -35.363261, Lng : 149.1652299, Q1 : 0.998134791851, Q2 : 0.0, Q3 : 0.0, Q4 : -0.0610485821962}
2019-04-03 21:16:57.31: SIM {TimeUS : 46734632, Roll : 0.0, Pitch : 0.0, Yaw : 353.0, Alt : 584.090026855, Lat : -35.363261, Lng : 149.1652299, Q1 : 0.998134791851, Q2 : 0.0, Q3 : 0.0, Q4 : -0.0610485821962}
2019-04-03 21:16:57.41: SIM {TimeUS : 46834592, Roll : 0.0, Pitch : 0.0, Yaw : 353.0, Alt : 584.090026855, Lat : -35.363261, Lng : 149.1652299, Q1 : 0.998134791851, Q2 : 0.0, Q3 : 0.0, Q4 : -0.0610485821962}
2019-04-03 21:16:57.51: SIM {TimeUS : 46934552, Roll : 0.0, Pitch : 0.0, Yaw : 353.0, Alt : 584.090026855, Lat : -35.363261, Lng : 149.1652299, Q1 : 0.998134791851, Q2 : 0.0, Q3 : 0.0, Q4 : -0.0610485821962}
2019-04-03 21:16:57.61: SIM {TimeUS : 47034512, Roll : 0.0, Pitch : 0.0, Yaw : 353.0, Alt : 584.090026855, Lat : -35.363261, Lng : 149.1652299, Q1 : 0.998134791851, Q2 : 0.0, Q3 : 0.0, Q4 : -0.0610485821962}
2019-04-03 21:16:57.71: SIM {TimeUS : 47134472, Roll : 0.0, Pitch : 0.0, Yaw : 353.0, Alt : 584.090026855, Lat : -35.363261, Lng : 149.1652299, Q1 : 0.998134791851, Q2 : 0.0, Q3 : 0.0, Q4 : -0.0610485821962}
2019-04-03 21:16:57.81: SIM {TimeUS : 47234432, Roll : 0.0, Pitch : 0.0, Yaw : 353.0, Alt : 584.090026855, Lat : -35.363261, Lng : 149.1652299, Q1 : 0.998134791851, Q2 : 0.0, Q3 : 0.0, Q4 : -0.0610485821962}
2019-04-03 21:16:57.91: SIM {TimeUS : 47334392, Roll : 0.0, Pitch : 0.0, Yaw : 353.0, Alt : 584.090026855, Lat : -35.363261, Lng : 149.1652299, Q1 : 0.998134791851, Q2 : 0.0, Q3 : 0.0, Q4 : -0.0610485821962}
2019-04-03 21:16:58.01: SIM {TimeUS : 47434352, Roll : 0.0, Pitch : 0.0, Yaw : 353.0, Alt : 584.090026855, Lat : -35.363261, Lng : 149.1652299, Q1 : 0.998134791851, Q2 : 0.0, Q3 : 0.0, Q4 : -0.0610485821962}
2019-04-03 21:16:58.11: SIM {TimeUS : 47534312, Roll : 0.0, Pitch : 0.0, Yaw : 353.0, Alt : 584.090026855, Lat : -35.363261, Lng : 149.1652299, Q1 : 0.998134791851, Q2 : 0.0, Q3 : 0.0, Q4 : -0.0610485821962}
2019-04-03 21:16:58.22: SIM {TimeUS : 47635105, Roll : 0.0, Pitch : 0.0, Yaw : 353.0, Alt : 584.090026855, Lat : -35.363261, Lng : 149.1652299, Q1 : 0.998134791851, Q2 : 0.0, Q3 : 0.0, Q4 : -0.0610485821962}
2019-04-03 21:16:58.31: SIM {TimeUS : 47735065, Roll : 0.0, Pitch : 0.0, Yaw : 353.0, Alt : 584.090026855, Lat : -35.363261, Lng : 149.1652299, Q1 : 0.998134791851, Q2 : 0.0, Q3 : 0.0, Q4 : -0.0610485821962}
2019-04-03 21:16:58.41: SIM {TimeUS : 47835025, Roll : 0.0, Pitch : 0.0, Yaw : 353.0, Alt : 584.090026855, Lat : -35.363261, Lng : 149.1652299, Q1 : 0.998134791851, Q2 : 0.0, Q3 : 0.0, Q4 : -0.0610485821962}
2019-04-03 21:16:58.51: SIM {TimeUS : 47934985, Roll : 0.0, Pitch : 0.0, Yaw : 353.0, Alt : 584.090026855, Lat : -35.363261, Lng : 149.1652299, Q1 : 0.998134791851, Q2 : 0.0, Q3 : 0.0, Q4 : -0.0610485821962}
2019-04-03 21:16:58.61: SIM {TimeUS : 48034945, Roll : 0.0, Pitch : 0.0, Yaw : 353.0, Alt : 584.090026855, Lat : -35.363261, Lng : 149.1652299, Q1 : 0.998134791851, Q2 : 0.0, Q3 : 0.0, Q4 : -0.0610485821962}
2019-04-03 21:16:58.71: SIM {TimeUS : 48134905, Roll : 0.0, Pitch : 0.0, Yaw : 353.0, Alt : 584.090026855, Lat : -35.363261, Lng : 149.1652299, Q1 : 0.998134791851, Q2 : 0.0, Q3 : 0.0, Q4 : -0.0610485821962}
2019-04-03 21:16:58.81: SIM {TimeUS : 48234865, Roll : 0.0, Pitch : 0.0, Yaw : 353.0, Alt : 584.090026855, Lat : -35.363261, Lng : 149.1652299, Q1 : 0.998134791851, Q2 : 0.0, Q3 : 0.0, Q4 : -0.0610485821962}
2019-04-03 21:16:58.91: SIM {TimeUS : 48334825, Roll : 0.0, Pitch : 0.0, Yaw : 353.0, Alt : 584.090026855, Lat : -35.363261, Lng : 149.1652299, Q1 : 0.998134791851, Q2 : 0.0, Q3 : 0.0, Q4 : -0.0610485821962}
2019-04-03 21:16:59.01: SIM {TimeUS : 48434785, Roll : 0.0, Pitch : 0.0, Yaw : 353.0, Alt : 584.090026855, Lat : -35.363261, Lng : 149.1652299, Q1 : 0.998134791851, Q2 : 0.0, Q3 : 0.0, Q4 : -0.0610485821962}
2019-04-03 21:16:59.11: SIM {TimeUS : 48534745, Roll : 0.0, Pitch : 0.0, Yaw : 353.0, Alt : 584.090026855, Lat : -35.363261, Lng : 149.1652299, Q1 : 0.998134791851, Q2 : 0.0, Q3 : 0.0, Q4 : -0.0610485821962}
2019-04-03 21:16:59.21: SIM {TimeUS : 48634705, Roll : 0.0, Pitch : 0.0, Yaw : 353.0, Alt : 584.090026855, Lat : -35.363261, Lng : 149.1652299, Q1 : 0.998134791851, Q2 : 0.0, Q3 : 0.0, Q4 : -0.0610485821962}
2019-04-03 21:16:59.31: SIM {TimeUS : 48734665, Roll : 0.0, Pitch : 0.0, Yaw : 353.0, Alt : 584.090026855, Lat : -35.363261, Lng : 149.1652299, Q1 : 0.998134791851, Q2 : 0.0, Q3 : 0.0, Q4 : -0.0610485821962}
2019-04-03 21:16:59.41: SIM {TimeUS : 48834625, Roll : 0.0, Pitch : 0.0, Yaw : 353.0, Alt : 584.090026855, Lat : -35.363261, Lng : 149.1652299, Q1 : 0.998134791851, Q2 : 0.0, Q3 : 0.0, Q4 : -0.0610485821962}
2019-04-03 21:16:59.51: SIM {TimeUS : 48934585, Roll : 0.0, Pitch : 0.0, Yaw : 353.0, Alt : 584.090026855, Lat : -35.363261, Lng : 149.1652299, Q1 : 0.998134791851, Q2 : 0.0, Q3 : 0.0, Q4 : -0.0610485821962}
2019-04-03 21:16:59.61: SIM {TimeUS : 49034545, Roll : 0.0, Pitch : 0.0, Yaw : 353.0, Alt : 584.090026855, Lat : -35.363261, Lng : 149.1652299, Q1 : 0.998134791851, Q2 : 0.0, Q3 : 0.0, Q4 : -0.0610485821962}
2019-04-03 21:16:59.71: SIM {TimeUS : 49134505, Roll : 0.0, Pitch : 0.0, Yaw : 353.0, Alt : 584.090026855, Lat : -35.363261, Lng : 149.1652299, Q1 : 0.998134791851, Q2 : 0.0, Q3 : 0.0, Q4 : -0.0610485821962}
2019-04-03 21:16:59.81: SIM {TimeUS : 49234465, Roll : 0.0, Pitch : 0.0, Yaw : 353.0, Alt : 584.090026855, Lat : -35.363261, Lng : 149.1652299, Q1 : 0.998134791851, Q2 : 0.0, Q3 : 0.0, Q4 : -0.0610485821962}
2019-04-03 21:16:59.91: SIM {TimeUS : 49334425, Roll : 0.0, Pitch : 0.0, Yaw : 353.0, Alt : 584.090026855, Lat : -35.363261, Lng : 149.1652299, Q1 : 0.998134791851, Q2 : 0.0, Q3 : 0.0, Q4 : -0.0610485821962}
2019-04-03 21:17:00.01: SIM {TimeUS : 49434385, Roll : 0.0, Pitch : 0.0, Yaw : 353.0, Alt : 584.090026855, Lat : -35.363261, Lng : 149.1652299, Q1 : 0.998134791851, Q2 : 0.0, Q3 : 0.0, Q4 : -0.0610485821962}
2019-04-03 21:17:00.11: SIM {TimeUS : 49534345, Roll : 0.0, Pitch : 0.0, Yaw : 353.0, Alt : 584.090026855, Lat : -35.363261, Lng : 149.1652299, Q1 : 0.998134791851, Q2 : 0.0, Q3 : 0.0, Q4 : -0.0610485821962}
2019-04-03 21:17:00.21: SIM {TimeUS : 49634305, Roll : 0.0, Pitch : 0.0, Yaw : 353.0, Alt : 584.090026855, Lat : -35.363261, Lng : 149.1652299, Q1 : 0.998134791851, Q2 : 0.0, Q3 : 0.0, Q4 : -0.0610485821962}
2019-04-03 21:17:00.32: SIM {TimeUS : 49735098, Roll : 0.0, Pitch : 0.0, Yaw : 353.0, Alt : 584.090026855, Lat : -35.363261, Lng : 149.1652299, Q1 : 0.998134791851, Q2 : 0.0, Q3 : 0.0, Q4 : -0.0610485821962}
2019-04-03 21:17:00.41: SIM {TimeUS : 49835058, Roll : 0.0, Pitch : 0.0, Yaw : 353.0, Alt : 584.090026855, Lat : -35.363261, Lng : 149.1652299, Q1 : 0.998134791851, Q2 : 0.0, Q3 : 0.0, Q4 : -0.0610485821962}
2019-04-03 21:17:00.51: SIM {TimeUS : 49935018, Roll : 0.0, Pitch : 0.0, Yaw : 353.0, Alt : 584.090026855, Lat : -35.363261, Lng : 149.1652299, Q1 : 0.998134791851, Q2 : 0.0, Q3 : 0.0, Q4 : -0.0610485821962}
2019-04-03 21:17:00.61: SIM {TimeUS : 50034978, Roll : 0.0, Pitch : 0.0, Yaw : 353.0, Alt : 584.090026855, Lat : -35.363261, Lng : 149.1652299, Q1 : 0.998134791851, Q2 : 0.0, Q3 : 0.0, Q4 : -0.0610485821962}
2019-04-03 21:17:00.71: SIM {TimeUS : 50134938, Roll : 0.0, Pitch : 0.0, Yaw : 353.0, Alt : 584.090026855, Lat : -35.363261, Lng : 149.1652299, Q1 : 0.998134791851, Q2 : 0.0, Q3 : 0.0, Q4 : -0.0610485821962}
2019-04-03 21:17:00.81: SIM {TimeUS : 50234898, Roll : 0.0, Pitch : 0.0, Yaw : 353.0, Alt : 584.090026855, Lat : -35.363261, Lng : 149.1652299, Q1 : 0.998134791851, Q2 : 0.0, Q3 : 0.0, Q4 : -0.0610485821962}
2019-04-03 21:17:00.91: SIM {TimeUS : 50334858, Roll : 0.0, Pitch : 0.0, Yaw : 353.0, Alt : 584.090026855, Lat : -35.363261, Lng : 149.1652299, Q1 : 0.998134791851, Q2 : 0.0, Q3 : 0.0, Q4 : -0.0610485821962}
2019-04-03 21:17:01.01: SIM {TimeUS : 50434818, Roll : 0.0, Pitch : 0.0, Yaw : 353.0, Alt : 584.090026855, Lat : -35.363261, Lng : 149.1652299, Q1 : 0.998134791851, Q2 : 0.0, Q3 : 0.0, Q4 : -0.0610485821962}
2019-04-03 21:17:01.11: SIM {TimeUS : 50534778, Roll : 0.0, Pitch : 0.0, Yaw : 353.0, Alt : 584.090026855, Lat : -35.363261, Lng : 149.1652299, Q1 : 0.998134791851, Q2 : 0.0, Q3 : 0.0, Q4 : -0.0610485821962}
2019-04-03 21:17:01.21: SIM {TimeUS : 50634738, Roll : 0.0, Pitch : 0.0, Yaw : 353.0, Alt : 584.090026855, Lat : -35.363261, Lng : 149.1652299, Q1 : 0.998134791851, Q2 : 0.0, Q3 : 0.0, Q4 : -0.0610485821962}
2019-04-03 21:17:01.31: SIM {TimeUS : 50734698, Roll : 0.0, Pitch : 0.0, Yaw : 353.0, Alt : 584.090026855, Lat : -35.363261, Lng : 149.1652299, Q1 : 0.998134791851, Q2 : 0.0, Q3 : 0.0, Q4 : -0.0610485821962}
2019-04-03 21:17:01.41: SIM {TimeUS : 50834658, Roll : 0.0, Pitch : 0.0, Yaw : 353.0, Alt : 584.090026855, Lat : -35.363261, Lng : 149.1652299, Q1 : 0.998134791851, Q2 : 0.0, Q3 : 0.0, Q4 : -0.0610485821962}
2019-04-03 21:17:01.51: SIM {TimeUS : 50934618, Roll : 0.0, Pitch : 0.0, Yaw : 353.0, Alt : 584.090026855, Lat : -35.363261, Lng : 149.1652299, Q1 : 0.998134791851, Q2 : 0.0, Q3 : 0.0, Q4 : -0.0610485821962}
2019-04-03 21:17:01.61: SIM {TimeUS : 51034578, Roll : 0.0, Pitch : 0.0, Yaw : 353.0, Alt : 584.090026855, Lat : -35.363261, Lng : 149.1652299, Q1 : 0.998134791851, Q2 : 0.0, Q3 : 0.0, Q4 : -0.0610485821962}
2019-04-03 21:17:01.71: SIM {TimeUS : 51134538, Roll : 0.0, Pitch : 0.0, Yaw : 353.0, Alt : 584.090026855, Lat : -35.363261, Lng : 149.1652299, Q1 : 0.998134791851, Q2 : 0.0, Q3 : 0.0, Q4 : -0.0610485821962}
2019-04-03 21:17:03.11: SIM {TimeUS : 52534811, Roll : 0.0, Pitch : 0.0, Yaw : 353.0, Alt : 584.090026855, Lat : -35.363261, Lng : 149.1652299, Q1 : 0.998134791851, Q2 : 0.0, Q3 : 0.0, Q4 : -0.0610485821962}
2019-04-03 21:17:03.21: SIM {TimeUS : 52634771, Roll : 0.0, Pitch : 0.0, Yaw : 353.0, Alt : 584.090026855, Lat : -35.363261, Lng : 149.1652299, Q1 : 0.998134791851, Q2 : 0.0, Q3 : 0.0, Q4 : -0.0610485821962}
2019-04-03 21:17:03.31: SIM {TimeUS : 52734731, Roll : 0.0, Pitch : 0.0, Yaw : 353.0, Alt : 584.090026855, Lat : -35.363261, Lng : 149.1652299, Q1 : 0.998134791851, Q2 : 0.0, Q3 : 0.0, Q4 : -0.0610485821962}
2019-04-03 21:17:03.41: SIM {TimeUS : 52834691, Roll : 0.0, Pitch : 0.0, Yaw : 353.0, Alt : 584.090026855, Lat : -35.363261, Lng : 149.1652299, Q1 : 0.998134791851, Q2 : 0.0, Q3 : 0.0, Q4 : -0.0610485821962}
2019-04-03 21:17:03.51: SIM {TimeUS : 52934651, Roll : 0.0, Pitch : 0.0, Yaw : 353.0, Alt : 584.090026855, Lat : -35.363261, Lng : 149.1652299, Q1 : 0.998134791851, Q2 : 0.0, Q3 : 0.0, Q4 : -0.0610485821962}
2019-04-03 21:17:03.61: SIM {TimeUS : 53034611, Roll : 0.0, Pitch : 0.0, Yaw : 353.0, Alt : 584.090026855, Lat : -35.363261, Lng : 149.1652299, Q1 : 0.998134791851, Q2 : 0.0, Q3 : 0.0, Q4 : -0.0610485821962}
2019-04-03 21:17:03.71: SIM {TimeUS : 53134571, Roll : 0.0, Pitch : 0.0, Yaw : 353.0, Alt : 584.090026855, Lat : -35.363261, Lng : 149.1652299, Q1 : 0.998134791851, Q2 : 0.0, Q3 : 0.0, Q4 : -0.0610485821962}
2019-04-03 21:17:03.81: SIM {TimeUS : 53234531, Roll : 0.0, Pitch : 0.0, Yaw : 353.0, Alt : 584.090026855, Lat : -35.363261, Lng : 149.1652299, Q1 : 0.998134791851, Q2 : 0.0, Q3 : 0.0, Q4 : -0.0610485821962}
2019-04-03 21:17:03.91: SIM {TimeUS : 53334491, Roll : 0.0, Pitch : 0.0, Yaw : 353.0, Alt : 584.090026855, Lat : -35.363261, Lng : 149.1652299, Q1 : 0.998134791851, Q2 : 0.0, Q3 : 0.0, Q4 : -0.0610485821962}
2019-04-03 21:17:04.01: SIM {TimeUS : 53434451, Roll : 0.0, Pitch : 0.0, Yaw : 353.0, Alt : 584.090026855, Lat : -35.363261, Lng : 149.1652299, Q1 : 0.998134791851, Q2 : 0.0, Q3 : 0.0, Q4 : -0.0610485821962}
2019-04-03 21:17:04.11: SIM {TimeUS : 53534411, Roll : 0.0, Pitch : 0.0, Yaw : 353.0, Alt : 584.090026855, Lat : -35.363261, Lng : 149.1652299, Q1 : 0.998134791851, Q2 : 0.0, Q3 : 0.0, Q4 : -0.0610485821962}
2019-04-03 21:17:04.21: SIM {TimeUS : 53634371, Roll : 0.0, Pitch : 0.0, Yaw : 353.0, Alt : 584.090026855, Lat : -35.363261, Lng : 149.1652299, Q1 : 0.998134791851, Q2 : 0.0, Q3 : 0.0, Q4 : -0.0610485821962}
2019-04-03 21:17:04.31: SIM {TimeUS : 53734331, Roll : 0.0, Pitch : 0.0, Yaw : 353.0, Alt : 584.090026855, Lat : -35.363261, Lng : 149.1652299, Q1 : 0.998134791851, Q2 : 0.0, Q3 : 0.0, Q4 : -0.0610485821962}
2019-04-03 21:17:04.42: SIM {TimeUS : 53835124, Roll : 0.0, Pitch : 0.0, Yaw : 353.0, Alt : 584.090026855, Lat : -35.363261, Lng : 149.1652299, Q1 : 0.998134791851, Q2 : 0.0, Q3 : 0.0, Q4 : -0.0610485821962}
2019-04-03 21:17:04.51: SIM {TimeUS : 53935084, Roll : 0.0, Pitch : 0.0, Yaw : 353.0, Alt : 584.090026855, Lat : -35.363261, Lng : 149.1652299, Q1 : 0.998134791851, Q2 : 0.0, Q3 : 0.0, Q4 : -0.0610485821962}
2019-04-03 21:17:04.61: SIM {TimeUS : 54035044, Roll : 0.0, Pitch : 0.0, Yaw : 353.0, Alt : 584.090026855, Lat : -35.363261, Lng : 149.1652299, Q1 : 0.998134791851, Q2 : 0.0, Q3 : 0.0, Q4 : -0.0610485821962}
2019-04-03 21:17:04.71: SIM {TimeUS : 54135004, Roll : 0.0, Pitch : 0.0, Yaw : 353.0, Alt : 584.090026855, Lat : -35.363261, Lng : 149.1652299, Q1 : 0.998134791851, Q2 : 0.0, Q3 : 0.0, Q4 : -0.0610485821962}
2019-04-03 21:17:04.81: SIM {TimeUS : 54234964, Roll : 0.0, Pitch : 0.0, Yaw : 353.0, Alt : 584.090026855, Lat : -35.363261, Lng : 149.1652299, Q1 : 0.998134791851, Q2 : 0.0, Q3 : 0.0, Q4 : -0.0610485821962}
2019-04-03 21:17:04.91: SIM {TimeUS : 54334924, Roll : 0.0, Pitch : 0.0, Yaw : 353.0, Alt : 584.090026855, Lat : -35.363261, Lng : 149.1652299, Q1 : 0.998134791851, Q2 : 0.0, Q3 : 0.0, Q4 : -0.0610485821962}
2019-04-03 21:17:05.01: SIM {TimeUS : 54434884, Roll : 0.0, Pitch : 0.0, Yaw : 353.0, Alt : 584.090026855, Lat : -35.363261, Lng : 149.1652299, Q1 : 0.998134791851, Q2 : 0.0, Q3 : 0.0, Q4 : -0.0610485821962}
2019-04-03 21:17:05.11: SIM {TimeUS : 54534844, Roll : 0.0, Pitch : 0.0, Yaw : 353.0, Alt : 584.090026855, Lat : -35.363261, Lng : 149.1652299, Q1 : 0.998134791851, Q2 : 0.0, Q3 : 0.0, Q4 : -0.0610485821962}
2019-04-03 21:17:05.21: SIM {TimeUS : 54634804, Roll : 0.0, Pitch : 0.0, Yaw : 353.0, Alt : 584.090026855, Lat : -35.363261, Lng : 149.1652299, Q1 : 0.998134791851, Q2 : 0.0, Q3 : 0.0, Q4 : -0.0610485821962}
2019-04-03 21:17:05.31: SIM {TimeUS : 54734764, Roll : 0.0, Pitch : 0.0, Yaw : 353.0, Alt : 584.090026855, Lat : -35.363261, Lng : 149.1652299, Q1 : 0.998134791851, Q2 : 0.0, Q3 : 0.0, Q4 : -0.0610485821962}
2019-04-03 21:17:05.41: SIM {TimeUS : 54834724, Roll : 0.0, Pitch : 0.0, Yaw : 353.0, Alt : 584.090026855, Lat : -35.363261, Lng : 149.1652299, Q1 : 0.998134791851, Q2 : 0.0, Q3 : 0.0, Q4 : -0.0610485821962}
2019-04-03 21:17:05.51: SIM {TimeUS : 54934684, Roll : 0.0, Pitch : 0.0, Yaw : 353.0, Alt : 584.090026855, Lat : -35.363261, Lng : 149.1652299, Q1 : 0.998134791851, Q2 : 0.0, Q3 : 0.0, Q4 : -0.0610485821962}
2019-04-03 21:17:05.61: SIM {TimeUS : 55034644, Roll : 0.0, Pitch : 0.0, Yaw : 353.0, Alt : 584.090026855, Lat : -35.363261, Lng : 149.1652299, Q1 : 0.998134791851, Q2 : 0.0, Q3 : 0.0, Q4 : -0.0610485821962}
2019-04-03 21:17:05.71: SIM {TimeUS : 55134604, Roll : 0.0, Pitch : 0.0, Yaw : 353.0, Alt : 584.090026855, Lat : -35.363261, Lng : 149.1652299, Q1 : 0.998134791851, Q2 : 0.0, Q3 : 0.0, Q4 : -0.0610485821962}
2019-04-03 21:17:05.81: SIM {TimeUS : 55234564, Roll : 0.0, Pitch : 0.0, Yaw : 353.0, Alt : 584.090026855, Lat : -35.363261, Lng : 149.1652299, Q1 : 0.998134791851, Q2 : 0.0, Q3 : 0.0, Q4 : -0.0610485821962}
2019-04-03 21:17:05.91: SIM {TimeUS : 55334524, Roll : 0.0, Pitch : 0.0, Yaw : 353.0, Alt : 584.090026855, Lat : -35.363261, Lng : 149.1652299, Q1 : 0.998134791851, Q2 : 0.0, Q3 : 0.0, Q4 : -0.0610485821962}
2019-04-03 21:17:06.01: SIM {TimeUS : 55434484, Roll : 0.0, Pitch : 0.0, Yaw : 353.0, Alt : 584.090026855, Lat : -35.363261, Lng : 149.1652299, Q1 : 0.998134791851, Q2 : 0.0, Q3 : 0.0, Q4 : -0.0610485821962}
2019-04-03 21:17:06.11: SIM {TimeUS : 55534444, Roll : 0.0, Pitch : 0.0, Yaw : 353.0, Alt : 584.090026855, Lat : -35.363261, Lng : 149.1652299, Q1 : 0.998134791851, Q2 : 0.0, Q3 : 0.0, Q4 : -0.0610485821962}
2019-04-03 21:17:06.21: SIM {TimeUS : 55634404, Roll : 0.0, Pitch : 0.0, Yaw : 353.0, Alt : 584.090026855, Lat : -35.363261, Lng : 149.1652299, Q1 : 0.998134791851, Q2 : 0.0, Q3 : 0.0, Q4 : -0.0610485821962}
2019-04-03 21:17:06.31: SIM {TimeUS : 55734364, Roll : 0.0, Pitch : 0.0, Yaw : 353.0, Alt : 584.090026855, Lat : -35.363261, Lng : 149.1652299, Q1 : 0.998134791851, Q2 : 0.0, Q3 : 0.0, Q4 : -0.0610485821962}
2019-04-03 21:17:06.41: SIM {TimeUS : 55834324, Roll : 0.0, Pitch : 0.0, Yaw : 353.0, Alt : 584.090026855, Lat : -35.363261, Lng : 149.1652299, Q1 : 0.998134791851, Q2 : 0.0, Q3 : 0.0, Q4 : -0.0610485821962}
2019-04-03 21:17:06.52: SIM {TimeUS : 55935117, Roll : 0.0, Pitch : 0.0, Yaw : 353.0, Alt : 584.090026855, Lat : -35.363261, Lng : 149.1652299, Q1 : 0.998134791851, Q2 : 0.0, Q3 : 0.0, Q4 : -0.0610485821962}
2019-04-03 21:17:06.61: SIM {TimeUS : 56035077, Roll : 0.0, Pitch : 0.0, Yaw : 353.0, Alt : 584.090026855, Lat : -35.363261, Lng : 149.1652299, Q1 : 0.998134791851, Q2 : 0.0, Q3 : 0.0, Q4 : -0.0610485821962}
2019-04-03 21:17:06.71: SIM {TimeUS : 56135037, Roll : 0.0, Pitch : 0.0, Yaw : 353.0, Alt : 584.090026855, Lat : -35.363261, Lng : 149.1652299, Q1 : 0.998134791851, Q2 : 0.0, Q3 : 0.0, Q4 : -0.0610485821962}
2019-04-03 21:17:06.81: SIM {TimeUS : 56234997, Roll : 0.0, Pitch : 0.0, Yaw : 353.0, Alt : 584.090026855, Lat : -35.363261, Lng : 149.1652299, Q1 : 0.998134791851, Q2 : 0.0, Q3 : 0.0, Q4 : -0.0610485821962}
2019-04-03 21:17:06.91: SIM {TimeUS : 56334957, Roll : 0.0, Pitch : 0.0, Yaw : 353.0, Alt : 584.090026855, Lat : -35.363261, Lng : 149.1652299, Q1 : 0.998134791851, Q2 : 0.0, Q3 : 0.0, Q4 : -0.0610486380756}
2019-04-03 21:17:07.01: SIM {TimeUS : 56434917, Roll : 0.0, Pitch : 0.0, Yaw : 353.0, Alt : 584.090026855, Lat : -35.363261, Lng : 149.1652299, Q1 : 0.998134791851, Q2 : 0.0, Q3 : 0.0, Q4 : -0.0610486753285}
2019-04-03 21:17:07.11: SIM {TimeUS : 56534877, Roll : 0.0, Pitch : 0.0, Yaw : 353.0, Alt : 584.090026855, Lat : -35.363261, Lng : 149.1652299, Q1 : 0.998134791851, Q2 : 0.0, Q3 : 0.0, Q4 : -0.0610486753285}
2019-04-03 21:17:07.21: SIM {TimeUS : 56634837, Roll : 0.0, Pitch : 0.0, Yaw : 353.0, Alt : 584.090026855, Lat : -35.363261, Lng : 149.1652299, Q1 : 0.998134791851, Q2 : 0.0, Q3 : 0.0, Q4 : -0.0610486753285}
2019-04-03 21:17:07.31: SIM {TimeUS : 56734797, Roll : 0.0, Pitch : 0.0, Yaw : 353.0, Alt : 584.090026855, Lat : -35.363261, Lng : 149.1652299, Q1 : 0.998134791851, Q2 : 0.0, Q3 : 0.0, Q4 : -0.0610486641526}
2019-04-03 21:17:07.41: SIM {TimeUS : 56834757, Roll : 0.0, Pitch : 0.0, Yaw : 353.0, Alt : 584.090026855, Lat : -35.363261, Lng : 149.1652299, Q1 : 0.998134791851, Q2 : 0.0, Q3 : 0.0, Q4 : -0.0610486753285}
2019-04-03 21:17:07.51: SIM {TimeUS : 56934717, Roll : 0.0, Pitch : 0.0, Yaw : 353.0, Alt : 584.090026855, Lat : -35.363261, Lng : 149.1652299, Q1 : 0.998134791851, Q2 : 0.0, Q3 : 0.0, Q4 : -0.0610486753285}
2019-04-03 21:17:07.61: SIM {TimeUS : 57034677, Roll : 0.0, Pitch : 0.0, Yaw : 353.0, Alt : 584.090026855, Lat : -35.363261, Lng : 149.1652299, Q1 : 0.998134791851, Q2 : 0.0, Q3 : 0.0, Q4 : -0.0610486753285}
2019-04-03 21:17:07.71: SIM {TimeUS : 57134637, Roll : 0.0, Pitch : 0.0, Yaw : 353.0, Alt : 584.099975586, Lat : -35.363261, Lng : 149.1652299, Q1 : 0.998134791851, Q2 : 0.0, Q3 : 0.0, Q4 : -0.0610486753285}
2019-04-03 21:17:07.81: SIM {TimeUS : 57234597, Roll : 0.0, Pitch : 0.0, Yaw : 353.0, Alt : 584.099975586, Lat : -35.363261, Lng : 149.1652299, Q1 : 0.998134791851, Q2 : 0.0, Q3 : 0.0, Q4 : -0.0610486753285}
2019-04-03 21:17:07.91: SIM {TimeUS : 57334557, Roll : 0.0, Pitch : 0.0, Yaw : 353.0, Alt : 584.109985352, Lat : -35.363261, Lng : 149.1652299, Q1 : 0.998134791851, Q2 : 0.0, Q3 : 0.0, Q4 : -0.0610486753285}
2019-04-03 21:17:08.01: SIM {TimeUS : 57434517, Roll : 0.0, Pitch : 0.0, Yaw : 353.0, Alt : 584.130004883, Lat : -35.363261, Lng : 149.1652299, Q1 : 0.998134791851, Q2 : 0.0, Q3 : 0.0, Q4 : -0.0610486641526}
2019-04-03 21:17:08.11: SIM {TimeUS : 57534477, Roll : 0.0, Pitch : 0.0, Yaw : 353.0, Alt : 584.159973145, Lat : -35.363261, Lng : 149.1652299, Q1 : 0.998134791851, Q2 : 0.0, Q3 : 0.0, Q4 : -0.0610486753285}
2019-04-03 21:17:08.21: SIM {TimeUS : 57634437, Roll : 0.0, Pitch : 0.0, Yaw : 353.0, Alt : 584.190002441, Lat : -35.363261, Lng : 149.1652299, Q1 : 0.998134791851, Q2 : 0.0, Q3 : 0.0, Q4 : -0.0610486753285}
2019-04-03 21:17:08.31: SIM {TimeUS : 57734397, Roll : 0.0, Pitch : 0.0, Yaw : 352.99, Alt : 584.229980469, Lat : -35.363261, Lng : 149.1652299, Q1 : 0.998134732246, Q2 : -7.29147577658e-05, Q3 : -7.19739473425e-05, Q4 : -0.0610497966409}
2019-04-03 21:17:08.41: SIM {TimeUS : 57834357, Roll : -0.04, Pitch : -0.05, Yaw : 352.99, Alt : 584.320007324, Lat : -35.363261, Lng : 149.1652299, Q1 : 0.9981341362, Q2 : -0.000424701021984, Q3 : -0.000497884466313, Q4 : -0.0610563866794}
2019-04-03 21:17:08.51: SIM {TimeUS : 57934317, Roll : -0.1, Pitch : -0.14, Yaw : 352.99, Alt : 584.460021973, Lat : -35.363261, Lng : 149.1652299, Q1 : 0.998132169247, Q2 : -0.000966330582742, Q3 : -0.00125091825612, Q4 : -0.0610709227622}
2019-04-03 21:17:08.62: SIM {TimeUS : 58035110, Roll : -0.15, Pitch : -0.21, Yaw : 352.99, Alt : 584.609985352, Lat : -35.363261, Lng : 149.1652299, Q1 : 0.998129785061, Q2 : -0.00143862771802, Q3 : -0.00183533167001, Q4 : -0.0610865056515}
2019-04-03 21:17:08.71: SIM {TimeUS : 58135070, Roll : -0.17, Pitch : -0.24, Yaw : 352.99, Alt : 584.770019531, Lat : -35.363261, Lng : 149.1652299, Q1 : 0.998128175735, Q2 : -0.00169447984081, Q3 : -0.00204249098897, Q4 : -0.0610994920135}
2019-04-03 21:17:08.81: SIM {TimeUS : 58235030, Roll : -0.17, Pitch : -0.2, Yaw : 352.99, Alt : 584.91998291, Lat : -35.363261, Lng : 149.1652299, Q1 : 0.998128354549, Q2 : -0.00160308356863, Q3 : -0.00172769872006, Q4 : -0.061108790338}
2019-04-03 21:17:08.91: SIM {TimeUS : 58334990, Roll : -0.11, Pitch : -0.12, Yaw : 352.99, Alt : 585.070007324, Lat : -35.363261, Lng : 149.1652299, Q1 : 0.998129367828, Q2 : -0.00109335919842, Q3 : -0.00102322723251, Q4 : -0.061119582504}
2019-04-03 21:17:09.01: SIM {TimeUS : 58434950, Roll : -0.07, Pitch : -0.03, Yaw : 352.99, Alt : 585.229980469, Lat : -35.363261, Lng : 149.1652299, Q1 : 0.998129248619, Q2 : -0.000671745452564, Q3 : -0.000273522688076, Q4 : -0.0611354745924}
2019-04-03 21:17:09.11: SIM {TimeUS : 58534910, Roll : -0.02, Pitch : 0.02, Yaw : 352.98, Alt : 585.390014648, Lat : -35.363261, Lng : 149.1652299, Q1 : 0.998128414154, Q2 : -0.00021346117137, Q3 : 0.000232399441302, Q4 : -0.0611526034772}
2019-04-03 21:17:09.21: SIM {TimeUS : 58634870, Roll : 0.03, Pitch : 0.07, Yaw : 352.98, Alt : 585.559997559, Lat : -35.363261, Lng : 149.1652299, Q1 : 0.998127162457, Q2 : 0.000316666555591, Q3 : 0.000628515903372, Q4 : -0.0611693710089}
2019-04-03 21:17:09.31: SIM {TimeUS : 58734830, Roll : 0.06, Pitch : 0.1, Yaw : 352.98, Alt : 585.729980469, Lat : -35.363261, Lng : 149.1652298, Q1 : 0.998126208782, Q2 : 0.000605693436228, Q3 : 0.000848606403451, Q4 : -0.0611806884408}
2019-04-03 21:17:09.41: SIM {TimeUS : 58834790, Roll : 0.05, Pitch : 0.09, Yaw : 352.98, Alt : 585.909973145, Lat : -35.3632609, Lng : 149.1652298, Q1 : 0.998125731945, Q2 : 0.00049702526303, Q3 : 0.000795400876086, Q4 : -0.0611896067858}
2019-04-03 21:17:09.51: SIM {TimeUS : 58934750, Roll : 0.01, Pitch : 0.05, Yaw : 352.98, Alt : 586.099975586, Lat : -35.3632609, Lng : 149.1652298, Q1 : 0.998125851154, Q2 : 0.000152036591317, Q3 : 0.000492012826726, Q4 : -0.0611929185688}
2019-04-03 21:17:09.61: SIM {TimeUS : 59034710, Roll : -0.02, Pitch : 0.0, Yaw : 352.98, Alt : 586.289978027, Lat : -35.3632609, Lng : 149.1652298, Q1 : 0.998125970364, Q2 : -0.000224781790166, Q3 : 4.70836312161e-05, Q4 : -0.0611926652491}
2019-04-03 21:17:09.71: SIM {TimeUS : 59134670, Roll : -0.06, Pitch : -0.02, Yaw : 352.98, Alt : 586.479980469, Lat : -35.3632609, Lng : 149.1652298, Q1 : 0.998126506805, Q2 : -0.000538690132089, Q3 : -0.000178065776709, Q4 : -0.0611823834479}
2019-04-03 21:17:09.81: SIM {TimeUS : 59234630, Roll : -0.07, Pitch : -0.03, Yaw : 352.98, Alt : 586.66998291, Lat : -35.3632609, Lng : 149.1652298, Q1 : 0.998126626015, Q2 : -0.000662853301037, Q3 : -0.000275885075098, Q4 : -0.0611783526838}
2019-04-03 21:17:09.91: SIM {TimeUS : 59334590, Roll : -0.07, Pitch : -0.02, Yaw : 352.98, Alt : 586.869995117, Lat : -35.3632609, Lng : 149.1652298, Q1 : 0.998126506805, Q2 : -0.000694481597748, Q3 : -0.000214705592953, Q4 : -0.061180524528}
2019-04-03 21:17:10.01: SIM {TimeUS : 59434550, Roll : -0.06, Pitch : 0.0, Yaw : 352.98, Alt : 587.059997559, Lat : -35.3632609, Lng : 149.1652298, Q1 : 0.998126268387, Q2 : -0.000556486542337, Q3 : 1.98314664885e-05, Q4 : -0.061185952276}
2019-04-03 21:17:10.11: SIM {TimeUS : 59534510, Roll : -0.03, Pitch : 0.03, Yaw : 352.98, Alt : 587.239990234, Lat : -35.3632609, Lng : 149.1652298, Q1 : 0.998125910759, Q2 : -0.000248569849646, Q3 : 0.000328729394823, Q4 : -0.0611926093698}
2019-04-03 21:17:10.21: SIM {TimeUS : 59634470, Roll : 0.02, Pitch : 0.08, Yaw : 352.98, Alt : 587.409973145, Lat : -35.3632609, Lng : 149.1652298, Q1 : 0.998125195503, Q2 : 0.000219120120164, Q3 : 0.000705684593413, Q4 : -0.0612015835941}
2019-04-03 21:17:10.31: SIM {TimeUS : 59734430, Roll : 0.23, Pitch : 0.37, Yaw : 352.98, Alt : 587.570007324, Lat : -35.3632609, Lng : 149.1652298, Q1 : 0.998117387295, Q2 : 0.00226366287097, Q3 : 0.00310394447297, Q4 : -0.0612125620246}
2019-04-03 21:17:10.41: SIM {TimeUS : 59834390, Roll : 0.71, Pitch : 1.03, Yaw : 352.98, Alt : 587.719970703, Lat : -35.3632609, Lng : 149.1652298, Q1 : 0.998063445091, Q2 : 0.00679813185707, Q3 : 0.00862475764006, Q4 : -0.0612279362977}
2019-04-03 21:17:10.51: SIM {TimeUS : 59934350, Roll : 1.38, Pitch : 1.95, Yaw : 352.99, Alt : 587.859985352, Lat : -35.3632609, Lng : 149.1652298, Q1 : 0.997902333736, Q2 : 0.0130732543766, Q3 : 0.0163163263351, Q4 : -0.0612685009837}
2019-04-03 21:17:10.61: SIM {TimeUS : 60034310, Roll : 2.11, Pitch : 2.99, Yaw : 353.01, Alt : 587.989990234, Lat : -35.3632609, Lng : 149.1652298, Q1 : 0.997602641582, Q2 : 0.0200278814882, Q3 : 0.0249682255089, Q4 : -0.0613556280732}
2019-04-03 21:17:10.72: SIM {TimeUS : 60135103, Roll : 2.82, Pitch : 4.03, Yaw : 353.03, Alt : 588.099975586, Lat : -35.363261, Lng : 149.1652299, Q1 : 0.997179031372, Q2 : 0.0267709773034, Q3 : 0.0336592197418, Q4 : -0.0615164376795}
2019-04-03 21:17:10.81: SIM {TimeUS : 60235063, Roll : 3.43, Pitch : 4.94, Yaw : 353.05, Alt : 588.210021973, Lat : -35.363261, Lng : 149.1652299, Q1 : 0.996706783772, Q2 : 0.0325314216316, Q3 : 0.0412514694035, Q4 : -0.0617710836232}
2019-04-03 21:17:10.91: SIM {TimeUS : 60335023, Roll : 3.89, Pitch : 5.64, Yaw : 353.05, Alt : 588.309997559, Lat : -35.3632611, Lng : 149.1652302, Q1 : 0.996275246143, Q2 : 0.0368956774473, Q3 : 0.0470576621592, Q4 : -0.0621287189424}
2019-04-03 21:17:11.01: SIM {TimeUS : 60434983, Roll : 4.24, Pitch : 6.13, Yaw : 353.03, Alt : 588.390014648, Lat : -35.3632615, Lng : 149.1652305, Q1 : 0.995924174786, Q2 : 0.0401197485626, Q3 : 0.0510915182531, Q4 : -0.0625712648034}
2019-04-03 21:17:11.11: SIM {TimeUS : 60534943, Roll : 4.5, Pitch : 6.47, Yaw : 353.0, Alt : 588.469970703, Lat : -35.3632617, Lng : 149.1652308, Q1 : 0.995639979839, Q2 : 0.04258319363, Q3 : 0.0539666116238, Q4 : -0.0630507990718}
2019-04-03 21:17:11.21: SIM {TimeUS : 60634903, Roll : 4.71, Pitch : 6.72, Yaw : 352.97, Alt : 588.549987793, Lat : -35.3632622, Lng : 149.1652312, Q1 : 0.995411455631, Q2 : 0.0445467941463, Q3 : 0.0559944473207, Q4 : -0.0635313466191}
2019-04-03 21:17:11.31: SIM {TimeUS : 60734863, Roll : 4.85, Pitch : 6.87, Yaw : 352.93, Alt : 588.609985352, Lat : -35.3632626, Lng : 149.1652317, Q1 : 0.995250999928, Q2 : 0.0459290370345, Q3 : 0.0572114698589, Q4 : -0.063975058496}
2019-04-03 21:17:11.41: SIM {TimeUS : 60834823, Roll : 4.93, Pitch : 6.96, Yaw : 352.9, Alt : 588.679992676, Lat : -35.3632631, Lng : 149.1652322, Q1 : 0.995154261589, Q2 : 0.0466382950544, Q3 : 0.0579197630286, Q4 : -0.0643287971616}
2019-04-03 21:17:11.51: SIM {TimeUS : 60934783, Roll : 4.96, Pitch : 7.03, Yaw : 352.88, Alt : 588.739990234, Lat : -35.3632637, Lng : 149.165233, Q1 : 0.995090126991, Q2 : 0.0469210036099, Q3 : 0.0585307665169, Q4 : -0.0645617395639}
2019-04-03 21:17:11.61: SIM {TimeUS : 61034743, Roll : 4.96, Pitch : 7.11, Yaw : 352.87, Alt : 588.789978027, Lat : -35.3632643, Lng : 149.1652336, Q1 : 0.995036423206, Q2 : 0.0470435321331, Q3 : 0.0592154301703, Q4 : -0.0646761804819}
2019-04-03 21:17:11.71: SIM {TimeUS : 61134703, Roll : 5.0, Pitch : 7.27, Yaw : 352.88, Alt : 588.849975586, Lat : -35.363265, Lng : 149.1652344, Q1 : 0.994943320751, Q2 : 0.0474206209183, Q3 : 0.0605228953063, Q4 : -0.0646225139499}
2019-04-03 21:17:11.81: SIM {TimeUS : 61234663, Roll : 4.92, Pitch : 7.64, Yaw : 353.14, Alt : 588.900024414, Lat : -35.3632658, Lng : 149.1652353, Q1 : 0.99490404129, Q2 : 0.0467710644007, Q3 : 0.0638978406787, Q4 : -0.0624137371778}
2019-04-03 21:17:11.91: SIM {TimeUS : 61334623, Roll : 4.75, Pitch : 8.23, Yaw : 354.28, Alt : 588.960021973, Lat : -35.3632665, Lng : 149.165236, Q1 : 0.995173335075, Q2 : 0.0449106544256, Q3 : 0.0695704296231, Q4 : -0.0526604317129}
2019-04-03 21:17:12.01: SIM {TimeUS : 61434583, Roll : 4.78, Pitch : 8.77, Yaw : 356.91, Alt : 589.010009766, Lat : -35.3632675, Lng : 149.165237, Q1 : 0.995750844479, Q2 : 0.0436755679548, Q3 : 0.075320109725, Q4 : -0.0299938861281}
2019-04-03 21:17:12.11: SIM {TimeUS : 61534543, Roll : 5.25, Pitch : 9.02, Yaw : 1.2, Alt : 589.059997559, Lat : -35.3632683, Lng : 149.165238, Q1 : 0.995834767818, Q2 : 0.044885057956, Q3 : 0.0790665149689, Q4 : 0.00684980349615}
2019-04-03 21:17:12.21: SIM {TimeUS : 61634503, Roll : 6.21, Pitch : 8.77, Yaw : 6.95, Alt : 589.119995117, Lat : -35.3632694, Lng : 149.165239, Q1 : 0.994017839432, Q2 : 0.0493444055319, Q3 : 0.0795698389411, Q4 : 0.0562347918749}
2019-04-03 21:17:12.31: SIM {TimeUS : 61734463, Roll : 7.55, Pitch : 7.92, Yaw : 13.84, Alt : 589.16998291, Lat : -35.3632706, Lng : 149.1652401, Q1 : 0.988728165627, Q2 : 0.0569394007325, Q3 : 0.0763922929764, Q4 : 0.115493610501}
2019-04-03 21:17:12.41: SIM {TimeUS : 61834423, Roll : 9.05, Pitch : 6.48, Yaw : 21.55, Alt : 589.229980469, Lat : -35.3632718, Lng : 149.1652412, Q1 : 0.978556334972, Q2 : 0.0669219568372, Q3 : 0.0701103508472, Q4 : 0.181751266122}
2019-04-03 21:17:12.51: SIM {TimeUS : 61934383, Roll : 10.51, Pitch : 4.56, Yaw : 29.77, Alt : 589.299987793, Lat : -35.3632731, Lng : 149.1652423, Q1 : 0.962533950806, Q2 : 0.0782933756709, Q3 : 0.0618155151606, Q4 : 0.252145528793}
2019-04-03 21:17:12.61: SIM {TimeUS : 62034343, Roll : 11.67, Pitch : 2.31, Yaw : 38.25, Alt : 589.359985352, Lat : -35.3632744, Lng : 149.1652436, Q1 : 0.940374135971, Q2 : 0.0895212963223, Q3 : 0.0522833690047, Q4 : 0.323958188295}
2019-04-03 21:17:12.71: SIM {TimeUS : 62134303, Roll : 12.39, Pitch : -0.07, Yaw : 46.76, Alt : 589.429992676, Lat : -35.3632757, Lng : 149.1652447, Q1 : 0.912487328053, Q2 : 0.0993762612343, Q3 : 0.0422472171485, Q4 : 0.394596517086}
2019-04-03 21:17:12.82: SIM {TimeUS : 62235096, Roll : 12.61, Pitch : -2.45, Yaw : 55.16, Alt : 589.510009766, Lat : -35.3632773, Lng : 149.1652461, Q1 : 0.879698455334, Q2 : 0.107231862843, Q3 : 0.0319751426578, Q4 : 0.46217918396}
2019-04-03 21:17:12.91: SIM {TimeUS : 62335056, Roll : 12.37, Pitch : -4.61, Yaw : 63.13, Alt : 589.58001709, Lat : -35.3632787, Lng : 149.1652476, Q1 : 0.844091355801, Q2 : 0.112695805728, Q3 : 0.0222464650869, Q4 : 0.523750424385}
2019-04-03 21:17:13.01: SIM {TimeUS : 62435016, Roll : 11.8, Pitch : -6.48, Yaw : 70.63, Alt : 589.659973145, Lat : -35.3632804, Lng : 149.1652493, Q1 : 0.806980252266, Q2 : 0.11635351181, Q3 : 0.0134351151064, Q4 : 0.57884734869}
2019-04-03 21:17:13.11: SIM {TimeUS : 62534976, Roll : 11.07, Pitch : -8.05, Yaw : 77.57, Alt : 589.739990234, Lat : -35.363282, Lng : 149.1652509, Q1 : 0.769681870937, Q2 : 0.118781737983, Q3 : 0.00582400429994, Q4 : 0.627253353596}
2019-04-03 21:17:13.21: SIM {TimeUS : 62634936, Roll : 10.23, Pitch : -9.31, Yaw : 83.96, Alt : 589.83001709, Lat : -35.3632836, Lng : 149.1652527, Q1 : 0.733102321625, Q2 : 0.120231620967, Q3 : -0.000643155537546, Q4 : 0.669406414032}
2019-04-03 21:17:13.31: SIM {TimeUS : 62734896, Roll : 9.37, Pitch : -10.32, Yaw : 89.84, Alt : 589.91998291, Lat : -35.3632853, Lng : 149.1652546, Q1 : 0.697637796402, Q2 : 0.120958216488, Q3 : -0.00600915076211, Q4 : 0.706140577793}
2019-04-03 21:17:13.41: SIM {TimeUS : 62834856, Roll : 8.54, Pitch : -11.11, Yaw : 95.31, Alt : 590.010009766, Lat : -35.3632871, Lng : 149.1652566, Q1 : 0.663195312023, Q2 : 0.121310137212, Q3 : -0.0102343242615, Q4 : 0.738478899002}
2019-04-03 21:17:13.51: SIM {TimeUS : 62934816, Roll : 7.77, Pitch : -11.75, Yaw : 100.49, Alt : 590.109985352, Lat : -35.3632889, Lng : 149.1652585, Q1 : 0.629318714142, Q2 : 0.121681705117, Q3 : -0.013443890959, Q4 : 0.767444312572}
2019-04-03 21:17:13.61: SIM {TimeUS : 63034776, Roll : 7.04, Pitch : -12.29, Yaw : 105.5, Alt : 590.210021973, Lat : -35.3632908, Lng : 149.1652607, Q1 : 0.595378875732, Q2 : 0.122033014894, Q3 : -0.0160726755857, Q4 : 0.793960750103}
2019-04-03 21:17:13.71: SIM {TimeUS : 63134736, Roll : 6.27, Pitch : -12.78, Yaw : 110.49, Alt : 590.309997559, Lat : -35.3632926, Lng : 149.1652628, Q1 : 0.560651302338, Q2 : 0.122371099889, Q3 : -0.0186557043344, Q4 : 0.818747460842}
2019-04-03 21:17:13.81: SIM {TimeUS : 63234696, Roll : 5.4, Pitch : -13.27, Yaw : 115.55, Alt : 590.409973145, Lat : -35.3632947, Lng : 149.1652652, Q1 : 0.524461686611, Q2 : 0.122662588954, Q3 : -0.0219348613173, Q4 : 0.842266380787}
2019-04-03 21:17:13.91: SIM {TimeUS : 63334656, Roll : 4.38, Pitch : -13.75, Yaw : 120.77, Alt : 590.510009766, Lat : -35.3632967, Lng : 149.1652675, Q1 : 0.486230105162, Q2 : 0.122811540961, Q3 : -0.0261393208057, Q4 : 0.864762663841}
2019-04-03 21:17:14.01: SIM {TimeUS : 63434616, Roll : 3.17, Pitch : -14.19, Yaw : 126.22, Alt : 590.619995117, Lat : -35.3632987, Lng : 149.1652698, Q1 : 0.445575386286, Q2 : 0.12259208411, Q3 : -0.0313644744456, Q4 : 0.886256217957}
2019-04-03 21:17:14.11: SIM {TimeUS : 63534576, Roll : 1.49, Pitch : -14.57, Yaw : 131.81, Alt : 590.719970703, Lat : -35.3633009, Lng : 149.1652722, Q1 : 0.403391838074, Q2 : 0.121066831052, Q3 : -0.0399692095816, Q4 : 0.906101703644}
2019-04-03 21:17:14.21: SIM {TimeUS : 63634536, Roll : -0.67, Pitch : -14.77, Yaw : 137.08, Alt : 590.83001709, Lat : -35.363303, Lng : 149.1652747, Q1 : 0.363457769156, Q2 : 0.117522642016, Q3 : -0.0524417161942, Q4 : 0.922679126263}
2019-04-03 21:17:14.31: SIM {TimeUS : 63734496, Roll : -2.92, Pitch : -14.75, Yaw : 141.47, Alt : 590.929992676, Lat : -35.3633052, Lng : 149.1652772, Q1 : 0.330161035061, Q2 : 0.112790457904, Q3 : -0.06625418365, Q4 : 0.934816777706}
2019-04-03 21:17:14.41: SIM {TimeUS : 63834456, Roll : -4.73, Pitch : -14.58, Yaw : 144.58, Alt : 591.039978027, Lat : -35.3633073, Lng : 149.1652796, Q1 : 0.306430846453, Q2 : 0.108328595757, Q3 : -0.0775927677751, Q4 : 0.942520260811}
2019-04-03 21:17:14.51: SIM {TimeUS : 63934416, Roll : -5.73, Pitch : -14.37, Yaw : 146.29, Alt : 591.150024414, Lat : -35.3633096, Lng : 149.1652824, Q1 : 0.293271064758, Q2 : 0.105179227889, Q3 : -0.0837218910456, Q4 : 0.946530580521}
2019-04-03 21:17:14.61: SIM {TimeUS : 64034376, Roll : -5.85, Pitch : -14.25, Yaw : 146.7, Alt : 591.260009766, Lat : -35.3633118, Lng : 149.1652851, Q1 : 0.289970070124, Q2 : 0.10422668606, Q3 : -0.0840787142515, Q4 : 0.947620689869}
2019-04-03 21:17:14.71: SIM {TimeUS : 64134336, Roll : -5.21, Pitch : -14.3, Yaw : 146.04, Alt : 591.359985352, Lat : -35.363314, Lng : 149.165288, Q1 : 0.294842630625, Q2 : 0.105759605765, Q3 : -0.0794424414635, Q4 : 0.946346461773}
2019-04-03 21:17:14.81: SIM {TimeUS : 64234296, Roll : -4.0, Pitch : -14.48, Yaw : 144.57, Alt : 591.469970703, Lat : -35.3633163, Lng : 149.1652909, Q1 : 0.305810600519, Q2 : 0.109428845346, Q3 : -0.0713530704379, Q4 : 0.943087458611}
2019-04-03 21:17:14.91: SIM {TimeUS : 64335089, Roll : -2.49, Pitch : -14.77, Yaw : 142.56, Alt : 591.58001709, Lat : -35.3633186, Lng : 149.1652938, Q1 : 0.320839911699, Q2 : 0.114824377, Q3 : -0.0617313198745, Q4 : 0.938118517399}
2019-04-03 21:17:15.01: SIM {TimeUS : 64435049, Roll : -0.97, Pitch : -15.1, Yaw : 140.31, Alt : 591.690002441, Lat : -35.3633207, Lng : 149.1652968, Q1 : 0.337524920702, Q2 : 0.120763085783, Q3 : -0.0525123029947, Q4 : 0.932059884071}
2019-04-03 21:17:15.11: SIM {TimeUS : 64535009, Roll : 0.39, Pitch : -15.36, Yaw : 138.1, Alt : 591.799987793, Lat : -35.363323, Lng : 149.1652997, Q1 : 0.353866755962, Q2 : 0.12607857585, Q3 : -0.0446341298521, Q4 : 0.925683736801}
2019-04-03 21:17:15.21: SIM {TimeUS : 64634969, Roll : 1.47, Pitch : -15.51, Yaw : 136.18, Alt : 591.909973145, Lat : -35.3633254, Lng : 149.1653029, Q1 : 0.368069350719, Q2 : 0.129997372627, Q3 : -0.0385795421898, Q4 : 0.91985720396}
2019-04-03 21:17:15.31: SIM {TimeUS : 64734929, Roll : 2.18, Pitch : -15.57, Yaw : 134.72, Alt : 592.020019531, Lat : -35.3633279, Lng : 149.1653059, Q1 : 0.378902047873, Q2 : 0.132329046726, Q3 : -0.034716989845, Q4 : 0.915268838406}
2019-04-03 21:17:15.41: SIM {TimeUS : 64834889, Roll : 2.51, Pitch : -15.58, Yaw : 133.81, Alt : 592.130004883, Lat : -35.3633303, Lng : 149.1653088, Q1 : 0.385745257139, Q2 : 0.133228823543, Q3 : -0.0331896618009, Q4 : 0.912331700325}
2019-04-03 21:17:15.51: SIM {TimeUS : 64934849, Roll : 2.49, Pitch : -15.58, Yaw : 133.47, Alt : 592.239990234, Lat : -35.3633327, Lng : 149.1653119, Q1 : 0.388504296541, Q2 : 0.133073180914, Q3 : -0.033746432513, Q4 : 0.911162495613}
2019-04-03 21:17:15.61: SIM {TimeUS : 65034809, Roll : 2.21, Pitch : -15.57, Yaw : 133.63, Alt : 592.349975586, Lat : -35.3633353, Lng : 149.1653149, Q1 : 0.38753092289, Q2 : 0.132085174322, Q3 : -0.0357235819101, Q4 : 0.911645293236}
2019-04-03 21:17:15.71: SIM {TimeUS : 65134769, Roll : 1.77, Pitch : -15.57, Yaw : 134.2, Alt : 592.460021973, Lat : -35.363338, Lng : 149.1653179, Q1 : 0.383520752192, Q2 : 0.130770280957, Q3 : -0.0386163853109, Q4 : 0.913411080837}
2019-04-03 21:17:15.81: SIM {TimeUS : 65234729, Roll : 1.23, Pitch : -15.61, Yaw : 135.04, Alt : 592.570007324, Lat : -35.3633406, Lng : 149.165321, Q1 : 0.377407759428, Q2 : 0.129582643509, Q3 : -0.042089574039, Q4 : 0.91596955061}
2019-04-03 21:17:15.91: SIM {TimeUS : 65334689, Roll : 0.64, Pitch : -15.68, Yaw : 136.01, Alt : 592.690002441, Lat : -35.3633432, Lng : 149.1653241, Q1 : 0.370226055384, Q2 : 0.128621101379, Q3 : -0.0459027662873, Q4 : 0.918848335743}
2019-04-03 21:17:16.01: SIM {TimeUS : 65434649, Roll : 0.06, Pitch : -15.76, Yaw : 137.0, Alt : 592.799987793, Lat : -35.363346, Lng : 149.165327, Q1 : 0.362952619791, Q2 : 0.127853274345, Q3 : -0.0497173927724, Q4 : 0.921654582024}
2019-04-03 21:17:16.11: SIM {TimeUS : 65534609, Roll : -0.44, Pitch : -15.84, Yaw : 137.88, Alt : 592.909973145, Lat : -35.3633486, Lng : 149.1653302, Q1 : 0.356408149004, Q2 : 0.127248764038, Q3 : -0.0531630218029, Q4 : 0.924096703529}
2019-04-03 21:17:16.21: SIM {TimeUS : 65634569, Roll : -0.82, Pitch : -15.9, Yaw : 138.58, Alt : 593.020019531, Lat : -35.3633514, Lng : 149.1653332, Q1 : 0.351148664951, Q2 : 0.126893892884, Q3 : -0.0556128919125, Q4 : 0.92601287365}
2019-04-03 21:17:16.31: SIM {TimeUS : 65734529, Roll : -1.02, Pitch : -15.94, Yaw : 139.05, Alt : 593.130004883, Lat : -35.3633541, Lng : 149.1653365, Q1 : 0.347514301538, Q2 : 0.126827135682, Q3 : -0.0568416006863, Q4 : 0.927317500114}
2019-04-03 21:17:16.41: SIM {TimeUS : 65834489, Roll : -1.07, Pitch : -15.96, Yaw : 139.29, Alt : 593.239990234, Lat : -35.3633569, Lng : 149.1653395, Q1 : 0.345618456602, Q2 : 0.126961648464, Q3 : -0.0570299699903, Q4 : 0.927995800972}
2019-04-03 21:17:16.51: SIM {TimeUS : 65934449, Roll : -0.99, Pitch : -15.98, Yaw : 139.31, Alt : 593.349975586, Lat : -35.3633596, Lng : 149.1653428, Q1 : 0.345354318619, Q2 : 0.12739482522, Q3 : -0.0564219020307, Q4 : 0.928071916103}
2019-04-03 21:17:16.61: SIM {TimeUS : 66034409, Roll : -0.83, Pitch : -16.02, Yaw : 139.15, Alt : 593.460021973, Lat : -35.3633625, Lng : 149.165346, Q1 : 0.346453130245, Q2 : 0.128065168858, Q3 : -0.0553966648877, Q4 : 0.927631855011}
2019-04-03 21:17:16.71: SIM {TimeUS : 66134369, Roll : -0.62, Pitch : -16.06, Yaw : 138.86, Alt : 593.58001709, Lat : -35.3633651, Lng : 149.1653493, Q1 : 0.348530173302, Q2 : 0.128933608532, Q3 : -0.0541168376803, Q4 : 0.926808595657}
2019-04-03 21:17:16.81: SIM {TimeUS : 66234329, Roll : -0.37, Pitch : -16.1, Yaw : 138.5, Alt : 593.690002441, Lat : -35.363368, Lng : 149.1653524, Q1 : 0.351166903973, Q2 : 0.129819571972, Q3 : -0.0526836402714, Q4 : 0.925771653652}
2019-04-03 21:17:16.92: SIM {TimeUS : 66335122, Roll : -0.12, Pitch : -16.13, Yaw : 138.12, Alt : 593.799987793, Lat : -35.3633709, Lng : 149.1653557, Q1 : 0.353969395161, Q2 : 0.130674004555, Q3 : -0.0511169545352, Q4 : 0.92467135191}
2019-04-03 21:17:17.01: SIM {TimeUS : 66435082, Roll : 0.11, Pitch : -16.15, Yaw : 137.76, Alt : 593.909973145, Lat : -35.3633736, Lng : 149.1653591, Q1 : 0.356549412012, Q2 : 0.131448492408, Q3 : -0.049733877182, Q4 : 0.923645138741}
2019-04-03 21:17:17.11: SIM {TimeUS : 66535042, Roll : 0.25, Pitch : -16.16, Yaw : 137.47, Alt : 594.020019531, Lat : -35.3633765, Lng : 149.1653624, Q1 : 0.358714312315, Q2 : 0.131869167089, Q3 : -0.0489197187126, Q4 : 0.922790050507}
2019-04-03 21:17:17.21: SIM {TimeUS : 66635002, Roll : 0.31, Pitch : -16.19, Yaw : 137.27, Alt : 594.130004883, Lat : -35.3633795, Lng : 149.1653657, Q1 : 0.360281527042, Q2 : 0.132193207741, Q3 : -0.0487407408655, Q4 : 0.922142386436}
2019-04-03 21:17:17.31: SIM {TimeUS : 66734962, Roll : 0.32, Pitch : -16.24, Yaw : 137.16, Alt : 594.239990234, Lat : -35.3633824, Lng : 149.165369, Q1 : 0.361161977053, Q2 : 0.132525578141, Q3 : -0.0489952377975, Q4 : 0.921736657619}
2019-04-03 21:17:17.41: SIM {TimeUS : 66834922, Roll : 0.26, Pitch : -16.27, Yaw : 137.13, Alt : 594.359985352, Lat : -35.3633853, Lng : 149.1653723, Q1 : 0.361416101456, Q2 : 0.132577881217, Q3 : -0.0496135018766, Q4 : 0.921596467495}
2019-04-03 21:17:17.51: SIM {TimeUS : 66934882, Roll : 0.17, Pitch : -16.29, Yaw : 137.18, Alt : 594.469970703, Lat : -35.3633881, Lng : 149.1653756, Q1 : 0.361112385988, Q2 : 0.132476016879, Q3 : -0.0503516197205, Q4 : 0.921690106392}
2019-04-03 21:17:17.61: SIM {TimeUS : 67034842, Roll : 0.08, Pitch : -16.29, Yaw : 137.29, Alt : 594.58001709, Lat : -35.3633911, Lng : 149.1653789, Q1 : 0.360368341208, Q2 : 0.132248342037, Q3 : -0.0509528070688, Q4 : 0.921980917454}
2019-04-03 21:17:17.71: SIM {TimeUS : 67134802, Roll : 0.0, Pitch : -16.29, Yaw : 137.42, Alt : 594.690002441, Lat : -35.3633941, Lng : 149.1653823, Q1 : 0.359354704618, Q2 : 0.13202688098, Q3 : -0.0514590777457, Q4 : 0.92238008976}
2019-04-03 21:17:17.81: SIM {TimeUS : 67234762, Roll : -0.09, Pitch : -16.3, Yaw : 137.57, Alt : 594.799987793, Lat : -35.3633971, Lng : 149.1653855, Q1 : 0.358258545399, Q2 : 0.131901562214, Q3 : -0.0520480014384, Q4 : 0.922791302204}
2019-04-03 21:17:17.91: SIM {TimeUS : 67334722, Roll : -0.19, Pitch : -16.34, Yaw : 137.71, Alt : 594.909973145, Lat : -35.3634, Lng : 149.165389, Q1 : 0.357231706381, Q2 : 0.131972551346, Q3 : -0.05282048136, Q4 : 0.923135280609}
2019-04-03 21:17:18.01: SIM {TimeUS : 67434682, Roll : -0.27, Pitch : -16.39, Yaw : 137.83, Alt : 595.020019531, Lat : -35.363403, Lng : 149.1653922, Q1 : 0.356358140707, Q2 : 0.132192492485, Q3 : -0.0535062886775, Q4 : 0.92340195179}
2019-04-03 21:17:18.11: SIM {TimeUS : 67534642, Roll : -0.31, Pitch : -16.43, Yaw : 137.91, Alt : 595.140014648, Lat : -35.363406, Lng : 149.1653957, Q1 : 0.35571372509, Q2 : 0.132403358817, Q3 : -0.0538344234228, Q4 : 0.923601090908}
2019-04-03 21:17:18.21: SIM {TimeUS : 67634602, Roll : -0.32, Pitch : -16.44, Yaw : 137.96, Alt : 595.25, Lat : -35.363409, Lng : 149.1653991, Q1 : 0.355354934931, Q2 : 0.132499039173, Q3 : -0.0539026893675, Q4 : 0.92372149229}
2019-04-03 21:17:18.31: SIM {TimeUS : 67734562, Roll : -0.3, Pitch : -16.46, Yaw : 137.97, Alt : 595.359985352, Lat : -35.3634119, Lng : 149.1654025, Q1 : 0.355256408453, Q2 : 0.132680311799, Q3 : -0.0538092032075, Q4 : 0.923738837242}
2019-04-03 21:17:18.41: SIM {TimeUS : 67834522, Roll : -0.27, Pitch : -16.48, Yaw : 137.95, Alt : 595.469970703, Lat : -35.3634149, Lng : 149.1654059, Q1 : 0.355380892754, Q2 : 0.132976010442, Q3 : -0.0536603331566, Q4 : 0.923657059669}
2019-04-03 21:17:18.51: SIM {TimeUS : 67934482, Roll : -0.23, Pitch : -16.51, Yaw : 137.9, Alt : 595.58001709, Lat : -35.3634179, Lng : 149.1654093, Q1 : 0.355684161186, Q2 : 0.133278906345, Q3 : -0.0534581206739, Q4 : 0.923508405685}
2019-04-03 21:17:18.61: SIM {TimeUS : 68034442, Roll : -0.19, Pitch : -16.53, Yaw : 137.84, Alt : 595.700012207, Lat : -35.3634209, Lng : 149.1654127, Q1 : 0.35611975193, Q2 : 0.13355819881, Q3 : -0.0532944649458, Q4 : 0.923309624195}
2019-04-03 21:17:18.71: SIM {TimeUS : 68134402, Roll : -0.16, Pitch : -16.56, Yaw : 137.77, Alt : 595.809997559, Lat : -35.363424, Lng : 149.1654161, Q1 : 0.356630921364, Q2 : 0.13385117054, Q3 : -0.0532054752111, Q4 : 0.923074960709}
2019-04-03 21:17:18.81: SIM {TimeUS : 68234362, Roll : -0.14, Pitch : -16.58, Yaw : 137.7, Alt : 595.91998291, Lat : -35.363427, Lng : 149.1654197, Q1 : 0.357150763273, Q2 : 0.134057223797, Q3 : -0.0531923249364, Q4 : 0.922844827175}
2019-04-03 21:17:18.91: SIM {TimeUS : 68334322, Roll : -0.13, Pitch : -16.59, Yaw : 137.64, Alt : 596.030029297, Lat : -35.3634301, Lng : 149.1654232, Q1 : 0.357620209455, Q2 : 0.134152010083, Q3 : -0.0532036684453, Q4 : 0.922648608685}
2019-04-03 21:17:19.02: SIM {TimeUS : 68435115, Roll : -0.12, Pitch : -16.59, Yaw : 137.59, Alt : 596.140014648, Lat : -35.3634331, Lng : 149.1654266, Q1 : 0.358014702797, Q2 : 0.134151652455, Q3 : -0.0531946979463, Q4 : 0.922496140003}
2019-04-03 21:17:19.11: SIM {TimeUS : 68535075, Roll : -0.11, Pitch : -16.58, Yaw : 137.56, Alt : 596.260009766, Lat : -35.3634362, Lng : 149.16543, Q1 : 0.358300954103, Q2 : 0.134071558714, Q3 : -0.0531659908593, Q4 : 0.922398328781}
2019-04-03 21:17:19.21: SIM {TimeUS : 68635035, Roll : -0.1, Pitch : -16.58, Yaw : 137.53, Alt : 596.369995117, Lat : -35.3634394, Lng : 149.1654336, Q1 : 0.358458578587, Q2 : 0.134085774422, Q3 : -0.0531024299562, Q4 : 0.922338664532}
2019-04-03 21:17:19.31: SIM {TimeUS : 68734995, Roll : -0.09, Pitch : -16.6, Yaw : 137.53, Alt : 596.479980469, Lat : -35.3634423, Lng : 149.1654371, Q1 : 0.358501881361, Q2 : 0.134274736047, Q3 : -0.0530722364783, Q4 : 0.922296047211}
2019-04-03 21:17:19.41: SIM {TimeUS : 68834955, Roll : -0.07, Pitch : -16.63, Yaw : 137.53, Alt : 596.590026855, Lat : -35.3634455, Lng : 149.1654405, Q1 : 0.358439415693, Q2 : 0.134644970298, Q3 : -0.0529706589878, Q4 : 0.922272205353}
2019-04-03 21:17:19.51: SIM {TimeUS : 68934915, Roll : -0.05, Pitch : -16.67, Yaw : 137.54, Alt : 596.700012207, Lat : -35.3634486, Lng : 149.1654441, Q1 : 0.358327150345, Q2 : 0.134955823421, Q3 : -0.0529435910285, Q4 : 0.922271966934}
2019-04-03 21:17:19.61: SIM {TimeUS : 69034875, Roll : -0.06, Pitch : -16.69, Yaw : 137.55, Alt : 596.809997559, Lat : -35.3634517, Lng : 149.1654476, Q1 : 0.358212679625, Q2 : 0.135163277388, Q3 : -0.0531033761799, Q4 : 0.922276854515}
2019-04-03 21:17:19.71: SIM {TimeUS : 69134835, Roll : -0.09, Pitch : -16.7, Yaw : 137.57, Alt : 596.91998291, Lat : -35.3634548, Lng : 149.1654512, Q1 : 0.358117640018, Q2 : 0.135159403086, Q3 : -0.0533466972411, Q4 : 0.92230027914}
2019-04-03 21:17:19.81: SIM {TimeUS : 69234795, Roll : -0.12, Pitch : -16.72, Yaw : 137.58, Alt : 597.030029297, Lat : -35.3634579, Lng : 149.1654547, Q1 : 0.358028769493, Q2 : 0.135202512145, Q3 : -0.0535995364189, Q4 : 0.922313868999}
2019-04-03 21:17:19.91: SIM {TimeUS : 69334755, Roll : -0.14, Pitch : -16.73, Yaw : 137.59, Alt : 597.150024414, Lat : -35.363461, Lng : 149.1654582, Q1 : 0.357954651117, Q2 : 0.135256275535, Q3 : -0.053802151233, Q4 : 0.922322928905}
2019-04-03 21:17:20.01: SIM {TimeUS : 69434715, Roll : -0.16, Pitch : -16.77, Yaw : 137.6, Alt : 597.260009766, Lat : -35.3634641, Lng : 149.1654616, Q1 : 0.357896775007, Q2 : 0.135523557663, Q3 : -0.0540661253035, Q4 : 0.922290682793}
2019-04-03 21:17:20.11: SIM {TimeUS : 69534675, Roll : -0.17, Pitch : -16.81, Yaw : 137.6, Alt : 597.369995117, Lat : -35.3634671, Lng : 149.1654653, Q1 : 0.357861429453, Q2 : 0.135777026415, Q3 : -0.0542279444635, Q4 : 0.922257661819}
2019-04-03 21:17:20.21: SIM {TimeUS : 69634635, Roll : -0.16, Pitch : -16.84, Yaw : 137.6, Alt : 597.479980469, Lat : -35.3634702, Lng : 149.1654687, Q1 : 0.357854038477, Q2 : 0.136047020555, Q3 : -0.0542928241193, Q4 : 0.922216892242}
2019-04-03 21:17:20.31: SIM {TimeUS : 69734595, Roll : -0.14, Pitch : -16.85, Yaw : 137.6, Alt : 597.590026855, Lat : -35.3634733, Lng : 149.1654724, Q1 : 0.357882767916, Q2 : 0.136194482446, Q3 : -0.0541488304734, Q4 : 0.922192454338}
