2019-04-03 20:24:27.60: SIM {TimeUS : 47216106, Roll : 0.0, Pitch : 0.0, Yaw : 353.0, Alt : 584.090026855, Lat : -35.363261, Lng : 149.1652299, Q1 : 0.998134791851, Q2 : 0.0, Q3 : 0.0, Q4 : -0.0610485821962}
2019-04-03 20:24:27.71: SIM {TimeUS : 47335225, Roll : 0.0, Pitch : 0.0, Yaw : 353.0, Alt : 584.090026855, Lat : -35.363261, Lng : 149.1652299, Q1 : 0.998134791851, Q2 : 0.0, Q3 : 0.0, Q4 : -0.0610485821962}
2019-04-03 20:24:27.81: SIM {TimeUS : 47435185, Roll : 0.0, Pitch : 0.0, Yaw : 353.0, Alt : 584.090026855, Lat : -35.363261, Lng : 149.1652299, Q1 : 0.998134791851, Q2 : 0.0, Q3 : 0.0, Q4 : -0.0610485821962}
2019-04-03 20:24:27.91: SIM {TimeUS : 47535145, Roll : 0.0, Pitch : 0.0, Yaw : 353.0, Alt : 584.090026855, Lat : -35.363261, Lng : 149.1652299, Q1 : 0.998134791851, Q2 : 0.0, Q3 : 0.0, Q4 : -0.0610485821962}
2019-04-03 20:24:28.01: SIM {TimeUS : 47635105, Roll : 0.0, Pitch : 0.0, Yaw : 353.0, Alt : 584.090026855, Lat : -35.363261, Lng : 149.1652299, Q1 : 0.998134791851, Q2 : 0.0, Q3 : 0.0, Q4 : -0.0610485821962}
2019-04-03 20:24:28.11: SIM {TimeUS : 47735065, Roll : 0.0, Pitch : 0.0, Yaw : 353.0, Alt : 584.090026855, Lat : -35.363261, Lng : 149.1652299, Q1 : 0.998134791851, Q2 : 0.0, Q3 : 0.0, Q4 : -0.0610485821962}
2019-04-03 20:24:28.21: SIM {TimeUS : 47835025, Roll : 0.0, Pitch : 0.0, Yaw : 353.0, Alt : 584.090026855, Lat : -35.363261, Lng : 149.1652299, Q1 : 0.998134791851, Q2 : 0.0, Q3 : 0.0, Q4 : -0.0610485821962}
2019-04-03 20:24:28.31: SIM {TimeUS : 47934985, Roll : 0.0, Pitch : 0.0, Yaw : 353.0, Alt : 584.090026855, Lat : -35.363261, Lng : 149.1652299, Q1 : 0.998134791851, Q2 : 0.0, Q3 : 0.0, Q4 : -0.0610485821962}
2019-04-03 20:24:28.41: SIM {TimeUS : 48034945, Roll : 0.0, Pitch : 0.0, Yaw : 353.0, Alt : 584.090026855, Lat : -35.363261, Lng : 149.1652299, Q1 : 0.998134791851, Q2 : 0.0, Q3 : 0.0, Q4 : -0.0610485821962}
2019-04-03 20:24:28.51: SIM {TimeUS : 48134905, Roll : 0.0, Pitch : 0.0, Yaw : 353.0, Alt : 584.090026855, Lat : -35.363261, Lng : 149.1652299, Q1 : 0.998134791851, Q2 : 0.0, Q3 : 0.0, Q4 : -0.0610485821962}
2019-04-03 20:24:28.61: SIM {TimeUS : 48234865, Roll : 0.0, Pitch : 0.0, Yaw : 353.0, Alt : 584.090026855, Lat : -35.363261, Lng : 149.1652299, Q1 : 0.998134791851, Q2 : 0.0, Q3 : 0.0, Q4 : -0.0610485821962}
2019-04-03 20:24:28.71: SIM {TimeUS : 48334825, Roll : 0.0, Pitch : 0.0, Yaw : 353.0, Alt : 584.090026855, Lat : -35.363261, Lng : 149.1652299, Q1 : 0.998134791851, Q2 : 0.0, Q3 : 0.0, Q4 : -0.0610485821962}
2019-04-03 20:24:28.81: SIM {TimeUS : 48434785, Roll : 0.0, Pitch : 0.0, Yaw : 353.0, Alt : 584.090026855, Lat : -35.363261, Lng : 149.1652299, Q1 : 0.998134791851, Q2 : 0.0, Q3 : 0.0, Q4 : -0.0610485821962}
2019-04-03 20:24:28.91: SIM {TimeUS : 48534745, Roll : 0.0, Pitch : 0.0, Yaw : 353.0, Alt : 584.090026855, Lat : -35.363261, Lng : 149.1652299, Q1 : 0.998134791851, Q2 : 0.0, Q3 : 0.0, Q4 : -0.0610485821962}
2019-04-03 20:24:29.01: SIM {TimeUS : 48634705, Roll : 0.0, Pitch : 0.0, Yaw : 353.0, Alt : 584.090026855, Lat : -35.363261, Lng : 149.1652299, Q1 : 0.998134791851, Q2 : 0.0, Q3 : 0.0, Q4 : -0.0610485821962}
2019-04-03 20:24:29.11: SIM {TimeUS : 48734665, Roll : 0.0, Pitch : 0.0, Yaw : 353.0, Alt : 584.090026855, Lat : -35.363261, Lng : 149.1652299, Q1 : 0.998134791851, Q2 : 0.0, Q3 : 0.0, Q4 : -0.0610485821962}
2019-04-03 20:24:29.21: SIM {TimeUS : 48834625, Roll : 0.0, Pitch : 0.0, Yaw : 353.0, Alt : 584.090026855, Lat : -35.363261, Lng : 149.1652299, Q1 : 0.998134791851, Q2 : 0.0, Q3 : 0.0, Q4 : -0.0610485821962}
2019-04-03 20:24:29.31: SIM {TimeUS : 48934585, Roll : 0.0, Pitch : 0.0, Yaw : 353.0, Alt : 584.090026855, Lat : -35.363261, Lng : 149.1652299, Q1 : 0.998134791851, Q2 : 0.0, Q3 : 0.0, Q4 : -0.0610485821962}
2019-04-03 20:24:29.41: SIM {TimeUS : 49034545, Roll : 0.0, Pitch : 0.0, Yaw : 353.0, Alt : 584.090026855, Lat : -35.363261, Lng : 149.1652299, Q1 : 0.998134791851, Q2 : 0.0, Q3 : 0.0, Q4 : -0.0610485821962}
2019-04-03 20:24:29.51: SIM {TimeUS : 49134505, Roll : 0.0, Pitch : 0.0, Yaw : 353.0, Alt : 584.090026855, Lat : -35.363261, Lng : 149.1652299, Q1 : 0.998134791851, Q2 : 0.0, Q3 : 0.0, Q4 : -0.0610485821962}
2019-04-03 20:24:29.61: SIM {TimeUS : 49234465, Roll : 0.0, Pitch : 0.0, Yaw : 353.0, Alt : 584.090026855, Lat : -35.363261, Lng : 149.1652299, Q1 : 0.998134791851, Q2 : 0.0, Q3 : 0.0, Q4 : -0.0610485821962}
2019-04-03 20:24:29.71: SIM {TimeUS : 49335258, Roll : 0.0, Pitch : 0.0, Yaw : 353.0, Alt : 584.090026855, Lat : -35.363261, Lng : 149.1652299, Q1 : 0.998134791851, Q2 : 0.0, Q3 : 0.0, Q4 : -0.0610485821962}
2019-04-03 20:24:29.81: SIM {TimeUS : 49435218, Roll : 0.0, Pitch : 0.0, Yaw : 353.0, Alt : 584.090026855, Lat : -35.363261, Lng : 149.1652299, Q1 : 0.998134791851, Q2 : 0.0, Q3 : 0.0, Q4 : -0.0610485821962}
2019-04-03 20:24:29.91: SIM {TimeUS : 49535178, Roll : 0.0, Pitch : 0.0, Yaw : 353.0, Alt : 584.090026855, Lat : -35.363261, Lng : 149.1652299, Q1 : 0.998134791851, Q2 : 0.0, Q3 : 0.0, Q4 : -0.0610485821962}
2019-04-03 20:24:30.01: SIM {TimeUS : 49635138, Roll : 0.0, Pitch : 0.0, Yaw : 353.0, Alt : 584.090026855, Lat : -35.363261, Lng : 149.1652299, Q1 : 0.998134791851, Q2 : 0.0, Q3 : 0.0, Q4 : -0.0610485821962}
2019-04-03 20:24:30.11: SIM {TimeUS : 49735098, Roll : 0.0, Pitch : 0.0, Yaw : 353.0, Alt : 584.090026855, Lat : -35.363261, Lng : 149.1652299, Q1 : 0.998134791851, Q2 : 0.0, Q3 : 0.0, Q4 : -0.0610485821962}
2019-04-03 20:24:30.21: SIM {TimeUS : 49835058, Roll : 0.0, Pitch : 0.0, Yaw : 353.0, Alt : 584.090026855, Lat : -35.363261, Lng : 149.1652299, Q1 : 0.998134791851, Q2 : 0.0, Q3 : 0.0, Q4 : -0.0610485821962}
2019-04-03 20:24:30.31: SIM {TimeUS : 49935018, Roll : 0.0, Pitch : 0.0, Yaw : 353.0, Alt : 584.090026855, Lat : -35.363261, Lng : 149.1652299, Q1 : 0.998134791851, Q2 : 0.0, Q3 : 0.0, Q4 : -0.0610485821962}
2019-04-03 20:24:30.41: SIM {TimeUS : 50034978, Roll : 0.0, Pitch : 0.0, Yaw : 353.0, Alt : 584.090026855, Lat : -35.363261, Lng : 149.1652299, Q1 : 0.998134791851, Q2 : 0.0, Q3 : 0.0, Q4 : -0.0610485821962}
2019-04-03 20:24:30.51: SIM {TimeUS : 50134938, Roll : 0.0, Pitch : 0.0, Yaw : 353.0, Alt : 584.090026855, Lat : -35.363261, Lng : 149.1652299, Q1 : 0.998134791851, Q2 : 0.0, Q3 : 0.0, Q4 : -0.0610485821962}
2019-04-03 20:24:30.61: SIM {TimeUS : 50234898, Roll : 0.0, Pitch : 0.0, Yaw : 353.0, Alt : 584.090026855, Lat : -35.363261, Lng : 149.1652299, Q1 : 0.998134791851, Q2 : 0.0, Q3 : 0.0, Q4 : -0.0610485821962}
2019-04-03 20:24:30.71: SIM {TimeUS : 50334858, Roll : 0.0, Pitch : 0.0, Yaw : 353.0, Alt : 584.090026855, Lat : -35.363261, Lng : 149.1652299, Q1 : 0.998134791851, Q2 : 0.0, Q3 : 0.0, Q4 : -0.0610485821962}
2019-04-03 20:24:30.81: SIM {TimeUS : 50434818, Roll : 0.0, Pitch : 0.0, Yaw : 353.0, Alt : 584.090026855, Lat : -35.363261, Lng : 149.1652299, Q1 : 0.998134791851, Q2 : 0.0, Q3 : 0.0, Q4 : -0.0610485821962}
2019-04-03 20:24:30.91: SIM {TimeUS : 50534778, Roll : 0.0, Pitch : 0.0, Yaw : 353.0, Alt : 584.090026855, Lat : -35.363261, Lng : 149.1652299, Q1 : 0.998134791851, Q2 : 0.0, Q3 : 0.0, Q4 : -0.0610485821962}
2019-04-03 20:24:31.01: SIM {TimeUS : 50634738, Roll : 0.0, Pitch : 0.0, Yaw : 353.0, Alt : 584.090026855, Lat : -35.363261, Lng : 149.1652299, Q1 : 0.998134791851, Q2 : 0.0, Q3 : 0.0, Q4 : -0.0610485821962}
2019-04-03 20:24:31.11: SIM {TimeUS : 50734698, Roll : 0.0, Pitch : 0.0, Yaw : 353.0, Alt : 584.090026855, Lat : -35.363261, Lng : 149.1652299, Q1 : 0.998134791851, Q2 : 0.0, Q3 : 0.0, Q4 : -0.0610485821962}
2019-04-03 20:24:31.21: SIM {TimeUS : 50834658, Roll : 0.0, Pitch : 0.0, Yaw : 353.0, Alt : 584.090026855, Lat : -35.363261, Lng : 149.1652299, Q1 : 0.998134791851, Q2 : 0.0, Q3 : 0.0, Q4 : -0.0610485821962}
2019-04-03 20:24:31.31: SIM {TimeUS : 50934618, Roll : 0.0, Pitch : 0.0, Yaw : 353.0, Alt : 584.090026855, Lat : -35.363261, Lng : 149.1652299, Q1 : 0.998134791851, Q2 : 0.0, Q3 : 0.0, Q4 : -0.0610485821962}
2019-04-03 20:24:31.41: SIM {TimeUS : 51034578, Roll : 0.0, Pitch : 0.0, Yaw : 353.0, Alt : 584.090026855, Lat : -35.363261, Lng : 149.1652299, Q1 : 0.998134791851, Q2 : 0.0, Q3 : 0.0, Q4 : -0.0610485821962}
2019-04-03 20:24:31.51: SIM {TimeUS : 51134538, Roll : 0.0, Pitch : 0.0, Yaw : 353.0, Alt : 584.090026855, Lat : -35.363261, Lng : 149.1652299, Q1 : 0.998134791851, Q2 : 0.0, Q3 : 0.0, Q4 : -0.0610485821962}
2019-04-03 20:24:31.61: SIM {TimeUS : 51234498, Roll : 0.0, Pitch : 0.0, Yaw : 353.0, Alt : 584.090026855, Lat : -35.363261, Lng : 149.1652299, Q1 : 0.998134791851, Q2 : 0.0, Q3 : 0.0, Q4 : -0.0610485821962}
2019-04-03 20:24:31.71: SIM {TimeUS : 51334458, Roll : 0.0, Pitch : 0.0, Yaw : 353.0, Alt : 584.090026855, Lat : -35.363261, Lng : 149.1652299, Q1 : 0.998134791851, Q2 : 0.0, Q3 : 0.0, Q4 : -0.0610485821962}
2019-04-03 20:24:31.81: SIM {TimeUS : 51435251, Roll : 0.0, Pitch : 0.0, Yaw : 353.0, Alt : 584.090026855, Lat : -35.363261, Lng : 149.1652299, Q1 : 0.998134791851, Q2 : 0.0, Q3 : 0.0, Q4 : -0.0610485821962}
2019-04-03 20:24:31.91: SIM {TimeUS : 51535211, Roll : 0.0, Pitch : 0.0, Yaw : 353.0, Alt : 584.090026855, Lat : -35.363261, Lng : 149.1652299, Q1 : 0.998134791851, Q2 : 0.0, Q3 : 0.0, Q4 : -0.0610485821962}
2019-04-03 20:24:32.01: SIM {TimeUS : 51635171, Roll : 0.0, Pitch : 0.0, Yaw : 353.0, Alt : 584.090026855, Lat : -35.363261, Lng : 149.1652299, Q1 : 0.998134791851, Q2 : 0.0, Q3 : 0.0, Q4 : -0.0610485821962}
2019-04-03 20:24:32.11: SIM {TimeUS : 51735131, Roll : 0.0, Pitch : 0.0, Yaw : 353.0, Alt : 584.090026855, Lat : -35.363261, Lng : 149.1652299, Q1 : 0.998134791851, Q2 : 0.0, Q3 : 0.0, Q4 : -0.0610485821962}
2019-04-03 20:24:32.21: SIM {TimeUS : 51835091, Roll : 0.0, Pitch : 0.0, Yaw : 353.0, Alt : 584.090026855, Lat : -35.363261, Lng : 149.1652299, Q1 : 0.998134791851, Q2 : 0.0, Q3 : 0.0, Q4 : -0.0610485821962}
2019-04-03 20:24:32.31: SIM {TimeUS : 51935051, Roll : 0.0, Pitch : 0.0, Yaw : 353.0, Alt : 584.090026855, Lat : -35.363261, Lng : 149.1652299, Q1 : 0.998134791851, Q2 : 0.0, Q3 : 0.0, Q4 : -0.0610485821962}
2019-04-03 20:24:32.41: SIM {TimeUS : 52035011, Roll : 0.0, Pitch : 0.0, Yaw : 353.0, Alt : 584.090026855, Lat : -35.363261, Lng : 149.1652299, Q1 : 0.998134791851, Q2 : 0.0, Q3 : 0.0, Q4 : -0.0610485821962}
2019-04-03 20:24:32.51: SIM {TimeUS : 52134971, Roll : 0.0, Pitch : 0.0, Yaw : 353.0, Alt : 584.090026855, Lat : -35.363261, Lng : 149.1652299, Q1 : 0.998134791851, Q2 : 0.0, Q3 : 0.0, Q4 : -0.0610485821962}
2019-04-03 20:24:32.61: SIM {TimeUS : 52234931, Roll : 0.0, Pitch : 0.0, Yaw : 353.0, Alt : 584.090026855, Lat : -35.363261, Lng : 149.1652299, Q1 : 0.998134791851, Q2 : 0.0, Q3 : 0.0, Q4 : -0.0610485821962}
2019-04-03 20:24:32.71: SIM {TimeUS : 52334891, Roll : 0.0, Pitch : 0.0, Yaw : 353.0, Alt : 584.090026855, Lat : -35.363261, Lng : 149.1652299, Q1 : 0.998134791851, Q2 : 0.0, Q3 : 0.0, Q4 : -0.0610485821962}
2019-04-03 20:24:32.81: SIM {TimeUS : 52434851, Roll : 0.0, Pitch : 0.0, Yaw : 353.0, Alt : 584.090026855, Lat : -35.363261, Lng : 149.1652299, Q1 : 0.998134791851, Q2 : 0.0, Q3 : 0.0, Q4 : -0.0610485821962}
2019-04-03 20:24:32.91: SIM {TimeUS : 52534811, Roll : 0.0, Pitch : 0.0, Yaw : 353.0, Alt : 584.090026855, Lat : -35.363261, Lng : 149.1652299, Q1 : 0.998134791851, Q2 : 0.0, Q3 : 0.0, Q4 : -0.0610485821962}
2019-04-03 20:24:33.01: SIM {TimeUS : 52634771, Roll : 0.0, Pitch : 0.0, Yaw : 353.0, Alt : 584.090026855, Lat : -35.363261, Lng : 149.1652299, Q1 : 0.998134791851, Q2 : 0.0, Q3 : 0.0, Q4 : -0.0610485821962}
2019-04-03 20:24:33.11: SIM {TimeUS : 52734731, Roll : 0.0, Pitch : 0.0, Yaw : 353.0, Alt : 584.090026855, Lat : -35.363261, Lng : 149.1652299, Q1 : 0.998134791851, Q2 : 0.0, Q3 : 0.0, Q4 : -0.0610485821962}
2019-04-03 20:24:33.21: SIM {TimeUS : 52834691, Roll : 0.0, Pitch : 0.0, Yaw : 353.0, Alt : 584.090026855, Lat : -35.363261, Lng : 149.1652299, Q1 : 0.998134791851, Q2 : 0.0, Q3 : 0.0, Q4 : -0.0610485821962}
2019-04-03 20:24:33.31: SIM {TimeUS : 52934651, Roll : 0.0, Pitch : 0.0, Yaw : 353.0, Alt : 584.090026855, Lat : -35.363261, Lng : 149.1652299, Q1 : 0.998134791851, Q2 : 0.0, Q3 : 0.0, Q4 : -0.0610485821962}
2019-04-03 20:24:33.41: SIM {TimeUS : 53034611, Roll : 0.0, Pitch : 0.0, Yaw : 353.0, Alt : 584.090026855, Lat : -35.363261, Lng : 149.1652299, Q1 : 0.998134791851, Q2 : 0.0, Q3 : 0.0, Q4 : -0.0610485821962}
2019-04-03 20:24:33.51: SIM {TimeUS : 53134571, Roll : 0.0, Pitch : 0.0, Yaw : 353.0, Alt : 584.090026855, Lat : -35.363261, Lng : 149.1652299, Q1 : 0.998134791851, Q2 : 0.0, Q3 : 0.0, Q4 : -0.0610485821962}
2019-04-03 20:24:33.61: SIM {TimeUS : 53234531, Roll : 0.0, Pitch : 0.0, Yaw : 353.0, Alt : 584.090026855, Lat : -35.363261, Lng : 149.1652299, Q1 : 0.998134791851, Q2 : 0.0, Q3 : 0.0, Q4 : -0.0610485821962}
2019-04-03 20:24:33.71: SIM {TimeUS : 53334491, Roll : 0.0, Pitch : 0.0, Yaw : 353.0, Alt : 584.090026855, Lat : -35.363261, Lng : 149.1652299, Q1 : 0.998134791851, Q2 : 0.0, Q3 : 0.0, Q4 : -0.0610485821962}
2019-04-03 20:24:33.81: SIM {TimeUS : 53434451, Roll : 0.0, Pitch : 0.0, Yaw : 353.0, Alt : 584.090026855, Lat : -35.363261, Lng : 149.1652299, Q1 : 0.998134791851, Q2 : 0.0, Q3 : 0.0, Q4 : -0.0610485821962}
2019-04-03 20:24:33.91: SIM {TimeUS : 53535244, Roll : 0.0, Pitch : 0.0, Yaw : 353.0, Alt : 584.090026855, Lat : -35.363261, Lng : 149.1652299, Q1 : 0.998134791851, Q2 : 0.0, Q3 : 0.0, Q4 : -0.0610485821962}
2019-04-03 20:24:34.01: SIM {TimeUS : 53635204, Roll : 0.0, Pitch : 0.0, Yaw : 353.0, Alt : 584.090026855, Lat : -35.363261, Lng : 149.1652299, Q1 : 0.998134791851, Q2 : 0.0, Q3 : 0.0, Q4 : -0.0610485821962}
2019-04-03 20:24:34.11: SIM {TimeUS : 53735164, Roll : 0.0, Pitch : 0.0, Yaw : 353.0, Alt : 584.090026855, Lat : -35.363261, Lng : 149.1652299, Q1 : 0.998134791851, Q2 : 0.0, Q3 : 0.0, Q4 : -0.0610485821962}
2019-04-03 20:24:34.21: SIM {TimeUS : 53835124, Roll : 0.0, Pitch : 0.0, Yaw : 353.0, Alt : 584.090026855, Lat : -35.363261, Lng : 149.1652299, Q1 : 0.998134791851, Q2 : 0.0, Q3 : 0.0, Q4 : -0.0610485821962}
2019-04-03 20:24:34.31: SIM {TimeUS : 53935084, Roll : 0.0, Pitch : 0.0, Yaw : 353.0, Alt : 584.090026855, Lat : -35.363261, Lng : 149.1652299, Q1 : 0.998134791851, Q2 : 0.0, Q3 : 0.0, Q4 : -0.0610485821962}
2019-04-03 20:24:34.41: SIM {TimeUS : 54035044, Roll : 0.0, Pitch : 0.0, Yaw : 353.0, Alt : 584.090026855, Lat : -35.363261, Lng : 149.1652299, Q1 : 0.998134791851, Q2 : 0.0, Q3 : 0.0, Q4 : -0.0610485821962}
2019-04-03 20:24:34.51: SIM {TimeUS : 54135004, Roll : 0.0, Pitch : 0.0, Yaw : 353.0, Alt : 584.090026855, Lat : -35.363261, Lng : 149.1652299, Q1 : 0.998134791851, Q2 : 0.0, Q3 : 0.0, Q4 : -0.0610485821962}
2019-04-03 20:24:34.61: SIM {TimeUS : 54234964, Roll : 0.0, Pitch : 0.0, Yaw : 353.0, Alt : 584.090026855, Lat : -35.363261, Lng : 149.1652299, Q1 : 0.998134791851, Q2 : 0.0, Q3 : 0.0, Q4 : -0.0610485821962}
2019-04-03 20:24:34.71: SIM {TimeUS : 54334924, Roll : 0.0, Pitch : 0.0, Yaw : 353.0, Alt : 584.090026855, Lat : -35.363261, Lng : 149.1652299, Q1 : 0.998134791851, Q2 : 0.0, Q3 : 0.0, Q4 : -0.0610485821962}
2019-04-03 20:24:34.81: SIM {TimeUS : 54434884, Roll : 0.0, Pitch : 0.0, Yaw : 353.0, Alt : 584.090026855, Lat : -35.363261, Lng : 149.1652299, Q1 : 0.998134791851, Q2 : 0.0, Q3 : 0.0, Q4 : -0.0610485821962}
2019-04-03 20:24:34.91: SIM {TimeUS : 54534844, Roll : 0.0, Pitch : 0.0, Yaw : 353.0, Alt : 584.090026855, Lat : -35.363261, Lng : 149.1652299, Q1 : 0.998134791851, Q2 : 0.0, Q3 : 0.0, Q4 : -0.0610485821962}
2019-04-03 20:24:35.01: SIM {TimeUS : 54634804, Roll : 0.0, Pitch : 0.0, Yaw : 353.0, Alt : 584.090026855, Lat : -35.363261, Lng : 149.1652299, Q1 : 0.998134791851, Q2 : 0.0, Q3 : 0.0, Q4 : -0.0610485821962}
2019-04-03 20:24:35.11: SIM {TimeUS : 54734764, Roll : 0.0, Pitch : 0.0, Yaw : 353.0, Alt : 584.090026855, Lat : -35.363261, Lng : 149.1652299, Q1 : 0.998134791851, Q2 : 0.0, Q3 : 0.0, Q4 : -0.0610485821962}
2019-04-03 20:24:35.21: SIM {TimeUS : 54834724, Roll : 0.0, Pitch : 0.0, Yaw : 353.0, Alt : 584.090026855, Lat : -35.363261, Lng : 149.1652299, Q1 : 0.998134791851, Q2 : 0.0, Q3 : 0.0, Q4 : -0.0610485821962}
2019-04-03 20:24:35.31: SIM {TimeUS : 54934684, Roll : 0.0, Pitch : 0.0, Yaw : 353.0, Alt : 584.090026855, Lat : -35.363261, Lng : 149.1652299, Q1 : 0.998134791851, Q2 : 0.0, Q3 : 0.0, Q4 : -0.0610485821962}
2019-04-03 20:24:35.41: SIM {TimeUS : 55034644, Roll : 0.0, Pitch : 0.0, Yaw : 353.0, Alt : 584.090026855, Lat : -35.363261, Lng : 149.1652299, Q1 : 0.998134791851, Q2 : 0.0, Q3 : 0.0, Q4 : -0.0610485821962}
2019-04-03 20:24:35.51: SIM {TimeUS : 55134604, Roll : 0.0, Pitch : 0.0, Yaw : 353.0, Alt : 584.090026855, Lat : -35.363261, Lng : 149.1652299, Q1 : 0.998134791851, Q2 : 0.0, Q3 : 0.0, Q4 : -0.0610485821962}
2019-04-03 20:24:35.61: SIM {TimeUS : 55234564, Roll : 0.0, Pitch : 0.0, Yaw : 353.0, Alt : 584.090026855, Lat : -35.363261, Lng : 149.1652299, Q1 : 0.998134791851, Q2 : 0.0, Q3 : 0.0, Q4 : -0.0610485821962}
2019-04-03 20:24:35.71: SIM {TimeUS : 55334524, Roll : 0.0, Pitch : 0.0, Yaw : 353.0, Alt : 584.090026855, Lat : -35.363261, Lng : 149.1652299, Q1 : 0.998134791851, Q2 : 0.0, Q3 : 0.0, Q4 : -0.0610485821962}
2019-04-03 20:24:35.81: SIM {TimeUS : 55434484, Roll : 0.0, Pitch : 0.0, Yaw : 353.0, Alt : 584.090026855, Lat : -35.363261, Lng : 149.1652299, Q1 : 0.998134791851, Q2 : 0.0, Q3 : 0.0, Q4 : -0.0610485821962}
2019-04-03 20:24:35.91: SIM {TimeUS : 55534444, Roll : 0.0, Pitch : 0.0, Yaw : 353.0, Alt : 584.090026855, Lat : -35.363261, Lng : 149.1652299, Q1 : 0.998134791851, Q2 : 0.0, Q3 : 0.0, Q4 : -0.0610485821962}
2019-04-03 20:24:36.01: SIM {TimeUS : 55635237, Roll : 0.0, Pitch : 0.0, Yaw : 353.0, Alt : 584.090026855, Lat : -35.363261, Lng : 149.1652299, Q1 : 0.998134791851, Q2 : 0.0, Q3 : 0.0, Q4 : -0.0610485821962}
2019-04-03 20:24:36.11: SIM {TimeUS : 55735197, Roll : 0.0, Pitch : 0.0, Yaw : 353.0, Alt : 584.090026855, Lat : -35.363261, Lng : 149.1652299, Q1 : 0.998134791851, Q2 : 0.0, Q3 : 0.0, Q4 : -0.0610485821962}
2019-04-03 20:24:36.21: SIM {TimeUS : 55835157, Roll : 0.0, Pitch : 0.0, Yaw : 353.0, Alt : 584.090026855, Lat : -35.363261, Lng : 149.1652299, Q1 : 0.998134791851, Q2 : 0.0, Q3 : 0.0, Q4 : -0.0610485821962}
2019-04-03 20:24:36.31: SIM {TimeUS : 55935117, Roll : 0.0, Pitch : 0.0, Yaw : 353.0, Alt : 584.090026855, Lat : -35.363261, Lng : 149.1652299, Q1 : 0.998134791851, Q2 : 0.0, Q3 : 0.0, Q4 : -0.0610485821962}
2019-04-03 20:24:36.41: SIM {TimeUS : 56035077, Roll : 0.0, Pitch : 0.0, Yaw : 353.0, Alt : 584.090026855, Lat : -35.363261, Lng : 149.1652299, Q1 : 0.998134791851, Q2 : 0.0, Q3 : 0.0, Q4 : -0.0610485821962}
2019-04-03 20:24:36.51: SIM {TimeUS : 56135037, Roll : 0.0, Pitch : 0.0, Yaw : 353.0, Alt : 584.090026855, Lat : -35.363261, Lng : 149.1652299, Q1 : 0.998134791851, Q2 : 0.0, Q3 : 0.0, Q4 : -0.0610485821962}
2019-04-03 20:24:36.61: SIM {TimeUS : 56234997, Roll : 0.0, Pitch : 0.0, Yaw : 353.0, Alt : 584.090026855, Lat : -35.363261, Lng : 149.1652299, Q1 : 0.998134791851, Q2 : 0.0, Q3 : 0.0, Q4 : -0.0610485821962}
2019-04-03 20:24:36.71: SIM {TimeUS : 56334957, Roll : 0.0, Pitch : 0.0, Yaw : 353.0, Alt : 584.090026855, Lat : -35.363261, Lng : 149.1652299, Q1 : 0.998134791851, Q2 : 0.0, Q3 : 0.0, Q4 : -0.0610485821962}
2019-04-03 20:24:36.81: SIM {TimeUS : 56434917, Roll : 0.0, Pitch : 0.0, Yaw : 353.0, Alt : 584.090026855, Lat : -35.363261, Lng : 149.1652299, Q1 : 0.998134791851, Q2 : 0.0, Q3 : 0.0, Q4 : -0.0610485821962}
2019-04-03 20:24:36.91: SIM {TimeUS : 56534877, Roll : 0.0, Pitch : 0.0, Yaw : 353.0, Alt : 584.090026855, Lat : -35.363261, Lng : 149.1652299, Q1 : 0.998134791851, Q2 : 0.0, Q3 : 0.0, Q4 : -0.0610485821962}
2019-04-03 20:24:37.01: SIM {TimeUS : 56634837, Roll : 0.0, Pitch : 0.0, Yaw : 353.0, Alt : 584.090026855, Lat : -35.363261, Lng : 149.1652299, Q1 : 0.998134791851, Q2 : 0.0, Q3 : 0.0, Q4 : -0.0610485821962}
2019-04-03 20:24:37.11: SIM {TimeUS : 56734797, Roll : 0.0, Pitch : 0.0, Yaw : 353.0, Alt : 584.090026855, Lat : -35.363261, Lng : 149.1652299, Q1 : 0.998134791851, Q2 : 0.0, Q3 : 0.0, Q4 : -0.0610485821962}
2019-04-03 20:24:37.21: SIM {TimeUS : 56834757, Roll : 0.0, Pitch : 0.0, Yaw : 353.0, Alt : 584.090026855, Lat : -35.363261, Lng : 149.1652299, Q1 : 0.998134791851, Q2 : 0.0, Q3 : 0.0, Q4 : -0.0610485821962}
2019-04-03 20:24:37.31: SIM {TimeUS : 56934717, Roll : 0.0, Pitch : 0.0, Yaw : 353.0, Alt : 584.090026855, Lat : -35.363261, Lng : 149.1652299, Q1 : 0.998134791851, Q2 : 0.0, Q3 : 0.0, Q4 : -0.0610485821962}
2019-04-03 20:24:37.41: SIM {TimeUS : 57034677, Roll : 0.0, Pitch : 0.0, Yaw : 353.0, Alt : 584.090026855, Lat : -35.363261, Lng : 149.1652299, Q1 : 0.998134791851, Q2 : 0.0, Q3 : 0.0, Q4 : -0.0610485821962}
2019-04-03 20:24:42.11: SIM {TimeUS : 61734463, Roll : 0.0, Pitch : 0.0, Yaw : 353.0, Alt : 584.090026855, Lat : -35.363261, Lng : 149.1652299, Q1 : 0.998134791851, Q2 : 0.0, Q3 : 0.0, Q4 : -0.0610485821962}
2019-04-03 20:24:42.21: SIM {TimeUS : 61835256, Roll : 0.0, Pitch : 0.0, Yaw : 353.0, Alt : 584.090026855, Lat : -35.363261, Lng : 149.1652299, Q1 : 0.998134791851, Q2 : 0.0, Q3 : 0.0, Q4 : -0.0610485821962}
2019-04-03 20:24:42.31: SIM {TimeUS : 61935216, Roll : 0.0, Pitch : 0.0, Yaw : 353.0, Alt : 584.090026855, Lat : -35.363261, Lng : 149.1652299, Q1 : 0.998134791851, Q2 : 0.0, Q3 : 0.0, Q4 : -0.0610485821962}
2019-04-03 20:24:42.41: SIM {TimeUS : 62035176, Roll : 0.0, Pitch : 0.0, Yaw : 353.0, Alt : 584.090026855, Lat : -35.363261, Lng : 149.1652299, Q1 : 0.998134791851, Q2 : 0.0, Q3 : 0.0, Q4 : -0.0610485821962}
2019-04-03 20:24:42.51: SIM {TimeUS : 62135136, Roll : 0.0, Pitch : 0.0, Yaw : 353.0, Alt : 584.090026855, Lat : -35.363261, Lng : 149.1652299, Q1 : 0.998134791851, Q2 : 0.0, Q3 : 0.0, Q4 : -0.0610485821962}
2019-04-03 20:24:42.61: SIM {TimeUS : 62235096, Roll : 0.0, Pitch : 0.0, Yaw : 353.0, Alt : 584.090026855, Lat : -35.363261, Lng : 149.1652299, Q1 : 0.998134791851, Q2 : 0.0, Q3 : 0.0, Q4 : -0.0610485821962}
2019-04-03 20:24:42.71: SIM {TimeUS : 62335056, Roll : 0.0, Pitch : 0.0, Yaw : 353.0, Alt : 584.090026855, Lat : -35.363261, Lng : 149.1652299, Q1 : 0.998134791851, Q2 : 0.0, Q3 : 0.0, Q4 : -0.0610485821962}
2019-04-03 20:24:42.81: SIM {TimeUS : 62435016, Roll : 0.0, Pitch : 0.0, Yaw : 353.0, Alt : 584.090026855, Lat : -35.363261, Lng : 149.1652299, Q1 : 0.998134791851, Q2 : 0.0, Q3 : 0.0, Q4 : -0.0610485821962}
2019-04-03 20:24:42.91: SIM {TimeUS : 62534976, Roll : 0.0, Pitch : 0.0, Yaw : 353.0, Alt : 584.090026855, Lat : -35.363261, Lng : 149.1652299, Q1 : 0.998134791851, Q2 : 0.0, Q3 : 0.0, Q4 : -0.0610485821962}
2019-04-03 20:24:43.01: SIM {TimeUS : 62634936, Roll : 0.0, Pitch : 0.0, Yaw : 353.0, Alt : 584.090026855, Lat : -35.363261, Lng : 149.1652299, Q1 : 0.998134791851, Q2 : 0.0, Q3 : 0.0, Q4 : -0.0610485821962}
2019-04-03 20:24:43.11: SIM {TimeUS : 62734896, Roll : 0.0, Pitch : 0.0, Yaw : 353.0, Alt : 584.090026855, Lat : -35.363261, Lng : 149.1652299, Q1 : 0.998134791851, Q2 : 0.0, Q3 : 0.0, Q4 : -0.0610485821962}
2019-04-03 20:24:43.21: SIM {TimeUS : 62834856, Roll : 0.0, Pitch : 0.0, Yaw : 353.0, Alt : 584.090026855, Lat : -35.363261, Lng : 149.1652299, Q1 : 0.998134791851, Q2 : 0.0, Q3 : 0.0, Q4 : -0.0610485821962}
2019-04-03 20:24:43.31: SIM {TimeUS : 62934816, Roll : 0.0, Pitch : 0.0, Yaw : 353.0, Alt : 584.090026855, Lat : -35.363261, Lng : 149.1652299, Q1 : 0.998134791851, Q2 : 0.0, Q3 : 0.0, Q4 : -0.0610485821962}
2019-04-03 20:24:43.41: SIM {TimeUS : 63034776, Roll : 0.0, Pitch : 0.0, Yaw : 353.0, Alt : 584.090026855, Lat : -35.363261, Lng : 149.1652299, Q1 : 0.998134791851, Q2 : 0.0, Q3 : 0.0, Q4 : -0.0610485821962}
2019-04-03 20:24:43.51: SIM {TimeUS : 63134736, Roll : 0.0, Pitch : 0.0, Yaw : 353.0, Alt : 584.090026855, Lat : -35.363261, Lng : 149.1652299, Q1 : 0.998134791851, Q2 : 0.0, Q3 : 0.0, Q4 : -0.0610485821962}
2019-04-03 20:24:43.61: SIM {TimeUS : 63234696, Roll : 0.0, Pitch : 0.0, Yaw : 353.0, Alt : 584.090026855, Lat : -35.363261, Lng : 149.1652299, Q1 : 0.998134791851, Q2 : 0.0, Q3 : 0.0, Q4 : -0.0610485821962}
2019-04-03 20:24:43.71: SIM {TimeUS : 63334656, Roll : 0.0, Pitch : 0.0, Yaw : 353.0, Alt : 584.090026855, Lat : -35.363261, Lng : 149.1652299, Q1 : 0.998134791851, Q2 : 0.0, Q3 : 0.0, Q4 : -0.0610485821962}
2019-04-03 20:24:43.81: SIM {TimeUS : 63434616, Roll : 0.0, Pitch : 0.0, Yaw : 353.0, Alt : 584.090026855, Lat : -35.363261, Lng : 149.1652299, Q1 : 0.998134791851, Q2 : 0.0, Q3 : 0.0, Q4 : -0.0610485821962}
2019-04-03 20:24:43.91: SIM {TimeUS : 63534576, Roll : 0.0, Pitch : 0.0, Yaw : 353.0, Alt : 584.090026855, Lat : -35.363261, Lng : 149.1652299, Q1 : 0.998134791851, Q2 : 0.0, Q3 : 0.0, Q4 : -0.0610485821962}
2019-04-03 20:24:44.01: SIM {TimeUS : 63634536, Roll : 0.0, Pitch : 0.0, Yaw : 353.0, Alt : 584.090026855, Lat : -35.363261, Lng : 149.1652299, Q1 : 0.998134791851, Q2 : 0.0, Q3 : 0.0, Q4 : -0.0610485821962}
2019-04-03 20:24:44.11: SIM {TimeUS : 63734496, Roll : 0.0, Pitch : 0.0, Yaw : 353.0, Alt : 584.090026855, Lat : -35.363261, Lng : 149.1652299, Q1 : 0.998134791851, Q2 : 0.0, Q3 : 0.0, Q4 : -0.0610485821962}
2019-04-03 20:24:44.21: SIM {TimeUS : 63834456, Roll : 0.0, Pitch : 0.0, Yaw : 353.0, Alt : 584.090026855, Lat : -35.363261, Lng : 149.1652299, Q1 : 0.998134791851, Q2 : 0.0, Q3 : 0.0, Q4 : -0.0610485821962}
2019-04-03 20:24:44.31: SIM {TimeUS : 63935249, Roll : 0.0, Pitch : 0.0, Yaw : 353.0, Alt : 584.090026855, Lat : -35.363261, Lng : 149.1652299, Q1 : 0.998134791851, Q2 : 0.0, Q3 : 0.0, Q4 : -0.0610485821962}
2019-04-03 20:24:44.41: SIM {TimeUS : 64035209, Roll : 0.0, Pitch : 0.0, Yaw : 353.0, Alt : 584.090026855, Lat : -35.363261, Lng : 149.1652299, Q1 : 0.998134791851, Q2 : 0.0, Q3 : 0.0, Q4 : -0.0610485821962}
2019-04-03 20:24:44.51: SIM {TimeUS : 64135169, Roll : 0.0, Pitch : 0.0, Yaw : 353.0, Alt : 584.090026855, Lat : -35.363261, Lng : 149.1652299, Q1 : 0.998134791851, Q2 : 0.0, Q3 : 0.0, Q4 : -0.0610485821962}
2019-04-03 20:24:44.61: SIM {TimeUS : 64235129, Roll : 0.0, Pitch : 0.0, Yaw : 353.0, Alt : 584.090026855, Lat : -35.363261, Lng : 149.1652299, Q1 : 0.998134791851, Q2 : 0.0, Q3 : 0.0, Q4 : -0.0610485821962}
2019-04-03 20:24:44.71: SIM {TimeUS : 64335089, Roll : 0.0, Pitch : 0.0, Yaw : 353.0, Alt : 584.090026855, Lat : -35.363261, Lng : 149.1652299, Q1 : 0.998134791851, Q2 : 0.0, Q3 : 0.0, Q4 : -0.0610485821962}
2019-04-03 20:24:44.81: SIM {TimeUS : 64435049, Roll : 0.0, Pitch : 0.0, Yaw : 353.0, Alt : 584.090026855, Lat : -35.363261, Lng : 149.1652299, Q1 : 0.998134791851, Q2 : 0.0, Q3 : 0.0, Q4 : -0.0610485821962}
2019-04-03 20:24:44.91: SIM {TimeUS : 64535009, Roll : 0.0, Pitch : 0.0, Yaw : 353.0, Alt : 584.090026855, Lat : -35.363261, Lng : 149.1652299, Q1 : 0.998134791851, Q2 : 0.0, Q3 : 0.0, Q4 : -0.0610485821962}
2019-04-03 20:24:45.01: SIM {TimeUS : 64634969, Roll : 0.0, Pitch : 0.0, Yaw : 353.0, Alt : 584.090026855, Lat : -35.363261, Lng : 149.1652299, Q1 : 0.998134791851, Q2 : 0.0, Q3 : 0.0, Q4 : -0.0610485821962}
2019-04-03 20:24:45.11: SIM {TimeUS : 64734929, Roll : 0.0, Pitch : 0.0, Yaw : 353.0, Alt : 584.090026855, Lat : -35.363261, Lng : 149.1652299, Q1 : 0.998134791851, Q2 : 0.0, Q3 : 0.0, Q4 : -0.0610485821962}
2019-04-03 20:24:45.21: SIM {TimeUS : 64834889, Roll : 0.0, Pitch : 0.0, Yaw : 353.0, Alt : 584.090026855, Lat : -35.363261, Lng : 149.1652299, Q1 : 0.998134791851, Q2 : 0.0, Q3 : 0.0, Q4 : -0.0610485821962}
2019-04-03 20:24:45.31: SIM {TimeUS : 64934849, Roll : 0.0, Pitch : 0.0, Yaw : 353.0, Alt : 584.090026855, Lat : -35.363261, Lng : 149.1652299, Q1 : 0.998134791851, Q2 : 0.0, Q3 : 0.0, Q4 : -0.0610485821962}
2019-04-03 20:24:45.41: SIM {TimeUS : 65034809, Roll : 0.0, Pitch : 0.0, Yaw : 353.0, Alt : 584.090026855, Lat : -35.363261, Lng : 149.1652299, Q1 : 0.998134791851, Q2 : 0.0, Q3 : 0.0, Q4 : -0.0610485821962}
2019-04-03 20:24:45.51: SIM {TimeUS : 65134769, Roll : 0.0, Pitch : 0.0, Yaw : 353.0, Alt : 584.090026855, Lat : -35.363261, Lng : 149.1652299, Q1 : 0.998134791851, Q2 : 0.0, Q3 : 0.0, Q4 : -0.0610485821962}
2019-04-03 20:24:45.61: SIM {TimeUS : 65234729, Roll : 0.0, Pitch : 0.0, Yaw : 353.0, Alt : 584.090026855, Lat : -35.363261, Lng : 149.1652299, Q1 : 0.998134791851, Q2 : 0.0, Q3 : 0.0, Q4 : -0.0610485821962}
2019-04-03 20:24:45.71: SIM {TimeUS : 65334689, Roll : 0.0, Pitch : 0.0, Yaw : 353.0, Alt : 584.090026855, Lat : -35.363261, Lng : 149.1652299, Q1 : 0.998134791851, Q2 : 0.0, Q3 : 0.0, Q4 : -0.0610485821962}
2019-04-03 20:24:45.81: SIM {TimeUS : 65434649, Roll : 0.0, Pitch : 0.0, Yaw : 353.0, Alt : 584.090026855, Lat : -35.363261, Lng : 149.1652299, Q1 : 0.998134791851, Q2 : 0.0, Q3 : 0.0, Q4 : -0.0610485821962}
2019-04-03 20:24:45.91: SIM {TimeUS : 65534609, Roll : 0.0, Pitch : 0.0, Yaw : 353.0, Alt : 584.090026855, Lat : -35.363261, Lng : 149.1652299, Q1 : 0.998134791851, Q2 : 0.0, Q3 : 0.0, Q4 : -0.0610485821962}
2019-04-03 20:24:46.01: SIM {TimeUS : 65634569, Roll : 0.0, Pitch : 0.0, Yaw : 353.0, Alt : 584.090026855, Lat : -35.363261, Lng : 149.1652299, Q1 : 0.998134791851, Q2 : 0.0, Q3 : 0.0, Q4 : -0.0610485821962}
2019-04-03 20:24:46.11: SIM {TimeUS : 65734529, Roll : 0.0, Pitch : 0.0, Yaw : 353.0, Alt : 584.090026855, Lat : -35.363261, Lng : 149.1652299, Q1 : 0.998134791851, Q2 : 0.0, Q3 : 0.0, Q4 : -0.0610485821962}
2019-04-03 20:24:46.21: SIM {TimeUS : 65834489, Roll : 0.0, Pitch : 0.0, Yaw : 353.0, Alt : 584.090026855, Lat : -35.363261, Lng : 149.1652299, Q1 : 0.998134791851, Q2 : 0.0, Q3 : 0.0, Q4 : -0.0610485821962}
2019-04-03 20:24:46.31: SIM {TimeUS : 65934449, Roll : 0.0, Pitch : 0.0, Yaw : 353.0, Alt : 584.090026855, Lat : -35.363261, Lng : 149.1652299, Q1 : 0.998134791851, Q2 : 0.0, Q3 : 0.0, Q4 : -0.0610485821962}
2019-04-03 20:24:46.41: SIM {TimeUS : 66035242, Roll : 0.0, Pitch : 0.0, Yaw : 353.0, Alt : 584.090026855, Lat : -35.363261, Lng : 149.1652299, Q1 : 0.998134791851, Q2 : 0.0, Q3 : 0.0, Q4 : -0.0610485821962}
2019-04-03 20:24:46.51: SIM {TimeUS : 66135202, Roll : 0.0, Pitch : 0.0, Yaw : 353.0, Alt : 584.090026855, Lat : -35.363261, Lng : 149.1652299, Q1 : 0.998134791851, Q2 : 0.0, Q3 : 0.0, Q4 : -0.0610485821962}
2019-04-03 20:24:46.61: SIM {TimeUS : 66235162, Roll : 0.0, Pitch : 0.0, Yaw : 353.0, Alt : 584.090026855, Lat : -35.363261, Lng : 149.1652299, Q1 : 0.998134791851, Q2 : 0.0, Q3 : 0.0, Q4 : -0.0610485821962}
2019-04-03 20:24:46.71: SIM {TimeUS : 66335122, Roll : 0.0, Pitch : 0.0, Yaw : 353.0, Alt : 584.090026855, Lat : -35.363261, Lng : 149.1652299, Q1 : 0.998134791851, Q2 : 0.0, Q3 : 0.0, Q4 : -0.0610485821962}
2019-04-03 20:24:46.81: SIM {TimeUS : 66435082, Roll : 0.0, Pitch : 0.0, Yaw : 353.0, Alt : 584.090026855, Lat : -35.363261, Lng : 149.1652299, Q1 : 0.998134791851, Q2 : 0.0, Q3 : 0.0, Q4 : -0.0610485821962}
2019-04-03 20:24:46.91: SIM {TimeUS : 66535042, Roll : 0.0, Pitch : 0.0, Yaw : 353.0, Alt : 584.090026855, Lat : -35.363261, Lng : 149.1652299, Q1 : 0.998134791851, Q2 : 0.0, Q3 : 0.0, Q4 : -0.0610485821962}
2019-04-03 20:24:47.01: SIM {TimeUS : 66635002, Roll : 0.0, Pitch : 0.0, Yaw : 353.0, Alt : 584.090026855, Lat : -35.363261, Lng : 149.1652299, Q1 : 0.998134791851, Q2 : 0.0, Q3 : 0.0, Q4 : -0.0610485821962}
2019-04-03 20:24:47.11: SIM {TimeUS : 66734962, Roll : 0.0, Pitch : 0.0, Yaw : 353.0, Alt : 584.090026855, Lat : -35.363261, Lng : 149.1652299, Q1 : 0.998134791851, Q2 : 0.0, Q3 : 0.0, Q4 : -0.0610485821962}
2019-04-03 20:24:47.21: SIM {TimeUS : 66834922, Roll : 0.0, Pitch : 0.0, Yaw : 353.0, Alt : 584.090026855, Lat : -35.363261, Lng : 149.1652299, Q1 : 0.998134791851, Q2 : 0.0, Q3 : 0.0, Q4 : -0.0610485821962}
2019-04-03 20:24:47.31: SIM {TimeUS : 66934882, Roll : 0.0, Pitch : 0.0, Yaw : 353.0, Alt : 584.090026855, Lat : -35.363261, Lng : 149.1652299, Q1 : 0.998134791851, Q2 : 0.0, Q3 : 0.0, Q4 : -0.0610485821962}
2019-04-03 20:24:47.41: SIM {TimeUS : 67034842, Roll : 0.0, Pitch : 0.0, Yaw : 353.0, Alt : 584.090026855, Lat : -35.363261, Lng : 149.1652299, Q1 : 0.998134791851, Q2 : 0.0, Q3 : 0.0, Q4 : -0.0610485821962}
2019-04-03 20:24:47.51: SIM {TimeUS : 67134802, Roll : 0.0, Pitch : 0.0, Yaw : 353.0, Alt : 584.090026855, Lat : -35.363261, Lng : 149.1652299, Q1 : 0.998134791851, Q2 : 0.0, Q3 : 0.0, Q4 : -0.0610485821962}
2019-04-03 20:24:47.61: SIM {TimeUS : 67234762, Roll : 0.0, Pitch : 0.0, Yaw : 353.0, Alt : 584.090026855, Lat : -35.363261, Lng : 149.1652299, Q1 : 0.998134791851, Q2 : 0.0, Q3 : 0.0, Q4 : -0.0610485821962}
2019-04-03 20:24:47.71: SIM {TimeUS : 67334722, Roll : 0.0, Pitch : 0.0, Yaw : 353.0, Alt : 584.090026855, Lat : -35.363261, Lng : 149.1652299, Q1 : 0.998134791851, Q2 : 0.0, Q3 : 0.0, Q4 : -0.061048604548}
2019-04-03 20:24:47.81: SIM {TimeUS : 67434682, Roll : 0.0, Pitch : 0.0, Yaw : 353.0, Alt : 584.090026855, Lat : -35.363261, Lng : 149.1652299, Q1 : 0.998134791851, Q2 : 0.0, Q3 : 0.0, Q4 : -0.0610486716032}
2019-04-03 20:24:47.91: SIM {TimeUS : 67534642, Roll : 0.0, Pitch : 0.0, Yaw : 353.0, Alt : 584.090026855, Lat : -35.363261, Lng : 149.1652299, Q1 : 0.998134791851, Q2 : 0.0, Q3 : 0.0, Q4 : -0.0610486753285}
2019-04-03 20:24:48.01: SIM {TimeUS : 67634602, Roll : 0.0, Pitch : 0.0, Yaw : 353.0, Alt : 584.090026855, Lat : -35.363261, Lng : 149.1652299, Q1 : 0.998134791851, Q2 : 0.0, Q3 : 0.0, Q4 : -0.0610486753285}
2019-04-03 20:24:48.11: SIM {TimeUS : 67734562, Roll : 0.0, Pitch : 0.0, Yaw : 353.0, Alt : 584.090026855, Lat : -35.363261, Lng : 149.1652299, Q1 : 0.998134791851, Q2 : 0.0, Q3 : 0.0, Q4 : -0.0610486753285}
2019-04-03 20:24:48.21: SIM {TimeUS : 67834522, Roll : 0.0, Pitch : 0.0, Yaw : 353.0, Alt : 584.090026855, Lat : -35.363261, Lng : 149.1652299, Q1 : 0.998134791851, Q2 : 0.0, Q3 : 0.0, Q4 : -0.0610486753285}
2019-04-03 20:24:48.31: SIM {TimeUS : 67934482, Roll : 0.0, Pitch : 0.0, Yaw : 353.0, Alt : 584.090026855, Lat : -35.363261, Lng : 149.1652299, Q1 : 0.998134791851, Q2 : 0.0, Q3 : 0.0, Q4 : -0.0610486641526}
2019-04-03 20:24:48.41: SIM {TimeUS : 68034442, Roll : 0.0, Pitch : 0.0, Yaw : 353.0, Alt : 584.090026855, Lat : -35.363261, Lng : 149.1652299, Q1 : 0.998134791851, Q2 : 0.0, Q3 : 0.0, Q4 : -0.0610486753285}
2019-04-03 20:24:48.51: SIM {TimeUS : 68135235, Roll : 0.0, Pitch : 0.0, Yaw : 353.0, Alt : 584.099975586, Lat : -35.363261, Lng : 149.1652299, Q1 : 0.998134791851, Q2 : 0.0, Q3 : 0.0, Q4 : -0.0610486753285}
2019-04-03 20:24:48.61: SIM {TimeUS : 68235195, Roll : 0.0, Pitch : 0.0, Yaw : 353.0, Alt : 584.099975586, Lat : -35.363261, Lng : 149.1652299, Q1 : 0.998134791851, Q2 : 0.0, Q3 : 0.0, Q4 : -0.0610486753285}
2019-04-03 20:24:48.71: SIM {TimeUS : 68335155, Roll : 0.0, Pitch : 0.0, Yaw : 353.0, Alt : 584.109985352, Lat : -35.363261, Lng : 149.1652299, Q1 : 0.998134791851, Q2 : 0.0, Q3 : 0.0, Q4 : -0.0610486753285}
2019-04-03 20:24:48.81: SIM {TimeUS : 68435115, Roll : 0.0, Pitch : 0.0, Yaw : 353.0, Alt : 584.119995117, Lat : -35.363261, Lng : 149.1652299, Q1 : 0.998134791851, Q2 : 0.0, Q3 : 0.0, Q4 : -0.0610486753285}
2019-04-03 20:24:48.91: SIM {TimeUS : 68535075, Roll : 0.0, Pitch : 0.0, Yaw : 353.0, Alt : 584.150024414, Lat : -35.363261, Lng : 149.1652299, Q1 : 0.998134791851, Q2 : 0.0, Q3 : 0.0, Q4 : -0.0610486753285}
2019-04-03 20:24:49.01: SIM {TimeUS : 68635035, Roll : 0.0, Pitch : 0.0, Yaw : 353.0, Alt : 584.179992676, Lat : -35.363261, Lng : 149.1652299, Q1 : 0.998134791851, Q2 : 0.0, Q3 : 0.0, Q4 : -0.0610486529768}
2019-04-03 20:24:49.11: SIM {TimeUS : 68734995, Roll : 0.0, Pitch : 0.0, Yaw : 352.99, Alt : 584.219970703, Lat : -35.363261, Lng : 149.1652299, Q1 : 0.998134791851, Q2 : -2.63301972154e-05, Q3 : -2.4132674298e-05, Q4 : -0.0610488578677}
2019-04-03 20:24:49.21: SIM {TimeUS : 68834955, Roll : -0.05, Pitch : -0.04, Yaw : 352.99, Alt : 584.289978027, Lat : -35.363261, Lng : 149.1652299, Q1 : 0.998134255409, Q2 : -0.000467171979835, Q3 : -0.000341302948073, Q4 : -0.0610551387072}
2019-04-03 20:24:49.31: SIM {TimeUS : 68934915, Roll : -0.13, Pitch : -0.1, Yaw : 352.99, Alt : 584.409973145, Lat : -35.363261, Lng : 149.1652299, Q1 : 0.998132348061, Q2 : -0.00123834155966, Q3 : -0.000801734160632, Q4 : -0.0610711500049}
2019-04-03 20:24:49.41: SIM {TimeUS : 69034875, Roll : -0.2, Pitch : -0.16, Yaw : 352.99, Alt : 584.570007324, Lat : -35.363261, Lng : 149.1652299, Q1 : 0.998129308224, Q2 : -0.0018876157701, Q3 : -0.00129112659488, Q4 : -0.0610957816243}
2019-04-03 20:24:49.51: SIM {TimeUS : 69134835, Roll : -0.23, Pitch : -0.18, Yaw : 352.99, Alt : 584.719970703, Lat : -35.363261, Lng : 149.1652299, Q1 : 0.998127043247, Q2 : -0.00213444558904, Q3 : -0.00147340004332, Q4 : -0.0611203461885}
2019-04-03 20:24:49.61: SIM {TimeUS : 69234795, Roll : -0.21, Pitch : -0.17, Yaw : 352.98, Alt : 584.880004883, Lat : -35.363261, Lng : 149.1652299, Q1 : 0.998126149178, Q2 : -0.00196344405413, Q3 : -0.00143192301039, Q4 : -0.061142038554}
2019-04-03 20:24:49.71: SIM {TimeUS : 69334755, Roll : -0.15, Pitch : -0.14, Yaw : 352.98, Alt : 585.030029297, Lat : -35.363261, Lng : 149.1652299, Q1 : 0.998126089573, Q2 : -0.00147180876229, Q3 : -0.00120510149281, Q4 : -0.0611619986594}
2019-04-03 20:24:49.81: SIM {TimeUS : 69434715, Roll : -0.1, Pitch : -0.13, Yaw : 352.98, Alt : 585.179992676, Lat : -35.363261, Lng : 149.1652299, Q1 : 0.99812567234, Q2 : -0.000948821252678, Q3 : -0.00115616433322, Q4 : -0.0611802116036}
2019-04-03 20:24:49.91: SIM {TimeUS : 69534675, Roll : -0.05, Pitch : -0.12, Yaw : 352.98, Alt : 585.340026855, Lat : -35.363261, Lng : 149.1652299, Q1 : 0.998125255108, Q2 : -0.000541040673852, Q3 : -0.0010995316552, Q4 : -0.0611923895776}
2019-04-03 20:24:50.01: SIM {TimeUS : 69634635, Roll : -0.02, Pitch : -0.12, Yaw : 352.98, Alt : 585.510009766, Lat : -35.363261, Lng : 149.1652299, Q1 : 0.998125076294, Q2 : -0.00031324516749, Q3 : -0.00106275617145, Q4 : -0.0611979179084}
2019-04-03 20:24:50.11: SIM {TimeUS : 69734595, Roll : 0.0, Pitch : -0.1, Yaw : 352.98, Alt : 585.679992676, Lat : -35.363261, Lng : 149.1652298, Q1 : 0.998125314713, Q2 : -3.0438091926e-05, Q3 : -0.000932671769988, Q4 : -0.0611962601542}
2019-04-03 20:24:50.21: SIM {TimeUS : 69834555, Roll : 0.02, Pitch : -0.08, Yaw : 352.98, Alt : 585.859985352, Lat : -35.363261, Lng : 149.1652298, Q1 : 0.998125612736, Q2 : 0.000178640621016, Q3 : -0.000753111147787, Q4 : -0.0611945316195}
2019-04-03 20:24:50.31: SIM {TimeUS : 69934515, Roll : 0.03, Pitch : -0.05, Yaw : 352.98, Alt : 586.039978027, Lat : -35.363261, Lng : 149.1652298, Q1 : 0.998125553131, Q2 : 0.000271908356808, Q3 : -0.000457429065136, Q4 : -0.0611979775131}
2019-04-03 20:24:50.41: SIM {TimeUS : 70034475, Roll : 0.02, Pitch : -0.02, Yaw : 352.98, Alt : 586.229980469, Lat : -35.363261, Lng : 149.1652298, Q1 : 0.998125076294, Q2 : 0.000184553486179, Q3 : -0.000214767293073, Q4 : -0.0612073503435}
2019-04-03 20:24:50.51: SIM {TimeUS : 70134435, Roll : 0.0, Pitch : 0.0, Yaw : 352.98, Alt : 586.41998291, Lat : -35.363261, Lng : 149.1652298, Q1 : 0.998124420643, Q2 : 2.8968515835e-06, Q3 : -7.47204394429e-05, Q4 : -0.0612175278366}
2019-04-03 20:24:50.61: SIM {TimeUS : 70235228, Roll : -0.02, Pitch : 0.0, Yaw : 352.97, Alt : 586.619995117, Lat : -35.3632609, Lng : 149.1652298, Q1 : 0.998123586178, Q2 : -0.000175513763679, Q3 : 7.65163895267e-06, Q4 : -0.0612313114107}
2019-04-03 20:24:50.71: SIM {TimeUS : 70335188, Roll : -0.02, Pitch : 0.01, Yaw : 352.97, Alt : 586.809997559, Lat : -35.3632609, Lng : 149.1652298, Q1 : 0.998122692108, Q2 : -0.000213100545807, Q3 : 0.00013715615205, Q4 : -0.0612455457449}
2019-04-03 20:24:50.81: SIM {TimeUS : 70435148, Roll : -0.02, Pitch : 0.03, Yaw : 352.97, Alt : 587.010009766, Lat : -35.3632609, Lng : 149.1652298, Q1 : 0.998122394085, Q2 : -0.000217711101868, Q3 : 0.00031916575972, Q4 : -0.0612496174872}
2019-04-03 20:24:50.91: SIM {TimeUS : 70535108, Roll : -0.02, Pitch : 0.02, Yaw : 352.97, Alt : 587.210021973, Lat : -35.3632609, Lng : 149.1652298, Q1 : 0.998121619225, Q2 : -0.000220775109483, Q3 : 0.000270427524811, Q4 : -0.0612622275949}
2019-04-03 20:24:51.01: SIM {TimeUS : 70635068, Roll : -0.01, Pitch : 0.01, Yaw : 352.97, Alt : 587.41998291, Lat : -35.3632609, Lng : 149.1652298, Q1 : 0.998121082783, Q2 : -0.000159616218298, Q3 : 0.000133204492158, Q4 : -0.0612724684179}
2019-04-03 20:24:51.11: SIM {TimeUS : 70735028, Roll : 0.01, Pitch : 0.0, Yaw : 352.97, Alt : 587.619995117, Lat : -35.3632609, Lng : 149.1652298, Q1 : 0.998121023178, Q2 : 0.000101859790448, Q3 : -3.73316652258e-07, Q4 : -0.061273008585}
2019-04-03 20:24:51.21: SIM {TimeUS : 70834988, Roll : 0.04, Pitch : -0.01, Yaw : 352.97, Alt : 587.83001709, Lat : -35.3632609, Lng : 149.1652298, Q1 : 0.998121321201, Q2 : 0.000425398699008, Q3 : -0.000122800265672, Q4 : -0.0612670145929}
2019-04-03 20:24:51.31: SIM {TimeUS : 70934948, Roll : 0.07, Pitch : 0.0, Yaw : 352.97, Alt : 588.039978027, Lat : -35.3632609, Lng : 149.1652298, Q1 : 0.998122096062, Q2 : 0.000624592357781, Q3 : -9.56135772867e-05, Q4 : -0.0612527765334}
2019-04-03 20:24:51.41: SIM {TimeUS : 71034908, Roll : 0.04, Pitch : 0.0, Yaw : 352.97, Alt : 588.25, Lat : -35.3632609, Lng : 149.1652298, Q1 : 0.998122930527, Q2 : 0.000397219962906, Q3 : 6.08818118053e-06, Q4 : -0.0612412542105}
2019-04-03 20:24:51.51: SIM {TimeUS : 71134868, Roll : -0.01, Pitch : 0.0, Yaw : 352.97, Alt : 588.460021973, Lat : -35.3632608, Lng : 149.1652298, Q1 : 0.998122751713, Q2 : -0.000104679776996, Q3 : 8.89021684998e-05, Q4 : -0.0612449645996}
2019-04-03 20:24:51.61: SIM {TimeUS : 71234828, Roll : -0.05, Pitch : 0.01, Yaw : 352.97, Alt : 588.679992676, Lat : -35.3632608, Lng : 149.1652297, Q1 : 0.998122036457, Q2 : -0.000496557506267, Q3 : 0.000197286062757, Q4 : -0.0612541399896}
2019-04-03 20:24:51.71: SIM {TimeUS : 71334788, Roll : -0.08, Pitch : 0.01, Yaw : 352.97, Alt : 588.890014648, Lat : -35.3632608, Lng : 149.1652297, Q1 : 0.998121142387, Q2 : -0.000705660670064, Q3 : 0.000151065338287, Q4 : -0.0612674504519}
2019-04-03 20:24:51.81: SIM {TimeUS : 71434748, Roll : -0.09, Pitch : -0.03, Yaw : 352.97, Alt : 589.109985352, Lat : -35.3632608, Lng : 149.1652297, Q1 : 0.998119473457, Q2 : -0.000845871050842, Q3 : -0.000283868750557, Q4 : -0.0612918324769}
2019-04-03 20:24:51.91: SIM {TimeUS : 71534708, Roll : -0.11, Pitch : -0.09, Yaw : 352.96, Alt : 589.320007324, Lat : -35.3632608, Lng : 149.1652297, Q1 : 0.998117268085, Q2 : -0.00103240378667, Q3 : -0.000766718119849, Q4 : -0.061320707202}
2019-04-03 20:24:52.01: SIM {TimeUS : 71634668, Roll : -0.13, Pitch : -0.11, Yaw : 352.96, Alt : 589.539978027, Lat : -35.3632608, Lng : 149.1652297, Q1 : 0.998115420341, Q2 : -0.00120527530089, Q3 : -0.000956295873038, Q4 : -0.0613449290395}
2019-04-03 20:24:52.11: SIM {TimeUS : 71734628, Roll : -0.13, Pitch : -0.09, Yaw : 352.96, Alt : 589.760009766, Lat : -35.3632608, Lng : 149.1652297, Q1 : 0.998113751411, Q2 : -0.00121342099737, Q3 : -0.000726322410628, Q4 : -0.0613754168153}
2019-04-03 20:24:52.21: SIM {TimeUS : 71834588, Roll : -0.12, Pitch : -0.04, Yaw : 352.95, Alt : 589.979980469, Lat : -35.3632608, Lng : 149.1652297, Q1 : 0.998111784458, Q2 : -0.00107977702282, Q3 : -0.000329114554916, Q4 : -0.0614137463272}
2019-04-03 20:24:52.31: SIM {TimeUS : 71934548, Roll : -0.11, Pitch : 0.0, Yaw : 352.95, Alt : 590.200012207, Lat : -35.3632608, Lng : 149.1652297, Q1 : 0.9981097579, Q2 : -0.00100298121106, Q3 : 0.000109790627903, Q4 : -0.0614487528801}
2019-04-03 20:24:52.41: SIM {TimeUS : 72034508, Roll : -0.11, Pitch : 0.05, Yaw : 352.94, Alt : 590.41998291, Lat : -35.3632608, Lng : 149.1652297, Q1 : 0.99810731411, Q2 : -0.00100024999119, Q3 : 0.000517399166711, Q4 : -0.0614859163761}
2019-04-03 20:24:52.51: SIM {TimeUS : 72134468, Roll : -0.1, Pitch : 0.06, Yaw : 352.94, Alt : 590.640014648, Lat : -35.3632608, Lng : 149.1652296, Q1 : 0.998105406761, Q2 : -0.000872905831784, Q3 : 0.000640592013951, Q4 : -0.0615180693567}
2019-04-03 20:24:52.61: SIM {TimeUS : 72235261, Roll : -0.09, Pitch : 0.04, Yaw : 352.94, Alt : 590.859985352, Lat : -35.3632608, Lng : 149.1652296, Q1 : 0.998104631901, Q2 : -0.000786933000199, Q3 : 0.000443013064796, Q4 : -0.0615332946181}
2019-04-03 20:24:52.71: SIM {TimeUS : 72335221, Roll : -0.07, Pitch : 0.0, Yaw : 352.94, Alt : 591.090026855, Lat : -35.3632608, Lng : 149.1652296, Q1 : 0.99810397625, Q2 : -0.000643015431706, Q3 : 0.000124668003991, Q4 : -0.0615469701588}
2019-04-03 20:24:52.81: SIM {TimeUS : 72435181, Roll : -0.05, Pitch : -0.01, Yaw : 352.94, Alt : 591.309997559, Lat : -35.3632607, Lng : 149.1652296, Q1 : 0.998103439808, Q2 : -0.000497137545608, Q3 : -0.000123165271361, Q4 : -0.0615574158728}
2019-04-03 20:24:52.91: SIM {TimeUS : 72535141, Roll : -0.04, Pitch : -0.04, Yaw : 352.94, Alt : 591.530029297, Lat : -35.3632607, Lng : 149.1652296, Q1 : 0.998102664948, Q2 : -0.000439889088739, Q3 : -0.000363953498891, Q4 : -0.061569634825}
2019-04-03 20:24:53.01: SIM {TimeUS : 72635101, Roll : -0.04, Pitch : -0.08, Yaw : 352.93, Alt : 591.760009766, Lat : -35.3632607, Lng : 149.1652294, Q1 : 0.998101353645, Q2 : -0.000407580722822, Q3 : -0.000731684500352, Q4 : -0.0615876726806}
2019-04-03 20:24:53.11: SIM {TimeUS : 72735061, Roll : -0.03, Pitch : -0.1, Yaw : 352.93, Alt : 591.979980469, Lat : -35.3632607, Lng : 149.1652294, Q1 : 0.998100280762, Q2 : -0.000387738255085, Q3 : -0.000928443740122, Q4 : -0.0616024285555}
2019-04-03 20:24:53.21: SIM {TimeUS : 72835021, Roll : -0.03, Pitch : -0.07, Yaw : 352.93, Alt : 592.210021973, Lat : -35.3632607, Lng : 149.1652294, Q1 : 0.998099088669, Q2 : -0.000368179666111, Q3 : -0.000673921080306, Q4 : -0.0616254583001}
2019-04-03 20:24:53.31: SIM {TimeUS : 72934981, Roll : -0.03, Pitch : -0.02, Yaw : 352.93, Alt : 592.440002441, Lat : -35.3632607, Lng : 149.1652294, Q1 : 0.998098015785, Q2 : -0.000323689659126, Q3 : -0.000232500504353, Q4 : -0.0616464316845}
2019-04-03 20:24:53.41: SIM {TimeUS : 73034941, Roll : -0.01, Pitch : 0.01, Yaw : 352.92, Alt : 592.659973145, Lat : -35.3632607, Lng : 149.1652293, Q1 : 0.998096466064, Q2 : -0.000156995956786, Q3 : 0.000122092489619, Q4 : -0.0616728775203}
2019-04-03 20:24:53.51: SIM {TimeUS : 73134901, Roll : 0.01, Pitch : 0.03, Yaw : 352.92, Alt : 592.890014648, Lat : -35.3632607, Lng : 149.1652293, Q1 : 0.99809473753, Q2 : 0.000154283246957, Q3 : 0.00025847737561, Q4 : -0.0616998001933}
2019-04-03 20:24:53.61: SIM {TimeUS : 73234861, Roll : 0.04, Pitch : 0.02, Yaw : 352.92, Alt : 593.119995117, Lat : -35.3632607, Lng : 149.1652293, Q1 : 0.998093545437, Q2 : 0.0004434910079, Q3 : 0.000187862387975, Q4 : -0.0617182217538}
2019-04-03 20:24:53.71: SIM {TimeUS : 73334821, Roll : 0.05, Pitch : 0.02, Yaw : 352.92, Alt : 593.349975586, Lat : -35.3632607, Lng : 149.1652293, Q1 : 0.998092353344, Q2 : 0.000484780146508, Q3 : 0.000150564359501, Q4 : -0.061736125499}
2019-04-03 20:24:53.81: SIM {TimeUS : 73434781, Roll : 0.03, Pitch : 0.01, Yaw : 352.91, Alt : 593.570007324, Lat : -35.3632607, Lng : 149.1652293, Q1 : 0.998091518879, Q2 : 0.000277827348327, Q3 : 0.000133296925924, Q4 : -0.0617516227067}
2019-04-03 20:24:53.91: SIM {TimeUS : 73534741, Roll : 0.0, Pitch : 0.02, Yaw : 352.91, Alt : 593.799987793, Lat : -35.3632605, Lng : 149.1652293, Q1 : 0.998090744019, Q2 : 4.02381192544e-05, Q3 : 0.000198799942154, Q4 : -0.0617642812431}
2019-04-03 20:24:54.01: SIM {TimeUS : 73634701, Roll : 0.0, Pitch : 0.04, Yaw : 352.91, Alt : 594.030029297, Lat : -35.3632605, Lng : 149.1652293, Q1 : 0.998089671135, Q2 : 3.80727942684e-06, Q3 : 0.000366686872439, Q4 : -0.0617814064026}
2019-04-03 20:24:54.11: SIM {TimeUS : 73734661, Roll : 0.03, Pitch : 0.06, Yaw : 352.91, Alt : 594.260009766, Lat : -35.3632605, Lng : 149.1652293, Q1 : 0.998088717461, Q2 : 0.0002963252482, Q3 : 0.000509338628035, Q4 : -0.0617948025465}
2019-04-03 20:24:54.21: SIM {TimeUS : 73834621, Roll : 0.06, Pitch : 0.05, Yaw : 352.91, Alt : 594.489990234, Lat : -35.3632605, Lng : 149.1652293, Q1 : 0.998087882996, Q2 : 0.00060073658824, Q3 : 0.000479890702991, Q4 : -0.0618064515293}
2019-04-03 20:24:54.31: SIM {TimeUS : 73934581, Roll : 0.08, Pitch : 0.03, Yaw : 352.91, Alt : 594.719970703, Lat : -35.3632605, Lng : 149.1652293, Q1 : 0.998086571693, Q2 : 0.000791477621533, Q3 : 0.000264734175289, Q4 : -0.0618265047669}
2019-04-03 20:24:54.41: SIM {TimeUS : 74034541, Roll : 0.09, Pitch : 0.01, Yaw : 352.9, Alt : 594.950012207, Lat : -35.3632605, Lng : 149.1652293, Q1 : 0.99808460474, Q2 : 0.000861341075506, Q3 : 8.556334069e-05, Q4 : -0.0618580467999}
2019-04-03 20:24:54.51: SIM {TimeUS : 74134501, Roll : 0.1, Pitch : 0.02, Yaw : 352.9, Alt : 595.179992676, Lat : -35.3632605, Lng : 149.1652293, Q1 : 0.998082101345, Q2 : 0.000913085706998, Q3 : 0.000152225868078, Q4 : -0.0618975386024}
2019-04-03 20:24:54.61: SIM {TimeUS : 74234461, Roll : 0.09, Pitch : 0.04, Yaw : 352.89, Alt : 595.41998291, Lat : -35.3632605, Lng : 149.1652293, Q1 : 0.998079776764, Q2 : 0.000884608773049, Q3 : 0.00035532048787, Q4 : -0.0619347430766}
2019-04-03 20:24:54.71: SIM {TimeUS : 74335254, Roll : 0.09, Pitch : 0.07, Yaw : 352.89, Alt : 595.650024414, Lat : -35.3632605, Lng : 149.1652293, Q1 : 0.998077213764, Q2 : 0.000882135878783, Q3 : 0.000599981402047, Q4 : -0.0619742199779}
2019-04-03 20:24:54.81: SIM {TimeUS : 74435214, Roll : 0.09, Pitch : 0.1, Yaw : 352.88, Alt : 595.880004883, Lat : -35.3632605, Lng : 149.1652293, Q1 : 0.998074650764, Q2 : 0.000922137638554, Q3 : 0.000871566357091, Q4 : -0.0620107799768}
2019-04-03 20:24:54.91: SIM {TimeUS : 74535174, Roll : 0.09, Pitch : 0.12, Yaw : 352.88, Alt : 596.109985352, Lat : -35.3632605, Lng : 149.1652293, Q1 : 0.998072683811, Q2 : 0.000869528681505, Q3 : 0.00102232943755, Q4 : -0.0620409734547}
2019-04-03 20:24:55.01: SIM {TimeUS : 74635134, Roll : 0.09, Pitch : 0.1, Yaw : 352.88, Alt : 596.340026855, Lat : -35.3632605, Lng : 149.1652292, Q1 : 0.99807113409, Q2 : 0.000877293699887, Q3 : 0.000865875335876, Q4 : -0.0620685741305}
2019-04-03 20:24:55.11: SIM {TimeUS : 74735094, Roll : 0.1, Pitch : 0.05, Yaw : 352.87, Alt : 596.58001709, Lat : -35.3632605, Lng : 149.1652292, Q1 : 0.998069345951, Q2 : 0.000982568017207, Q3 : 0.000450701510999, Q4 : -0.0620998069644}
2019-04-03 20:24:55.21: SIM {TimeUS : 74835054, Roll : 0.11, Pitch : 0.01, Yaw : 352.87, Alt : 596.809997559, Lat : -35.3632605, Lng : 149.1652292, Q1 : 0.998067855835, Q2 : 0.000975077447947, Q3 : 0.000104993749119, Q4 : -0.0621265210211}
2019-04-03 20:24:55.31: SIM {TimeUS : 74935014, Roll : 0.09, Pitch : 0.0, Yaw : 352.87, Alt : 597.039978027, Lat : -35.3632605, Lng : 149.1652293, Q1 : 0.9980661273, Q2 : 0.000849433767144, Q3 : -8.00123161753e-05, Q4 : -0.0621561594307}
2019-04-03 20:24:55.41: SIM {TimeUS : 75034974, Roll : 0.05, Pitch : -0.03, Yaw : 352.87, Alt : 597.270019531, Lat : -35.3632605, Lng : 149.1652293, Q1 : 0.998064756393, Q2 : 0.000477893016068, Q3 : -0.000325505388901, Q4 : -0.0621808469296}
2019-04-03 20:24:55.51: SIM {TimeUS : 75134934, Roll : -0.04, Pitch : -0.11, Yaw : 352.86, Alt : 597.489990234, Lat : -35.3632607, Lng : 149.1652293, Q1 : 0.998063087463, Q2 : -0.000463797099655, Q3 : -0.00101134937722, Q4 : -0.0621999427676}
2019-04-03 20:24:55.61: SIM {TimeUS : 75234894, Roll : -0.12, Pitch : -0.2, Yaw : 352.86, Alt : 597.700012207, Lat : -35.3632607, Lng : 149.1652293, Q1 : 0.998060524464, Q2 : -0.00121547072195, Q3 : -0.00168934965041, Q4 : -0.0622163414955}
2019-04-03 20:24:55.71: SIM {TimeUS : 75334854, Roll : -0.15, Pitch : -0.23, Yaw : 352.86, Alt : 597.909973145, Lat : -35.3632607, Lng : 149.1652293, Q1 : 0.998058736324, Q2 : -0.00150460342411, Q3 : -0.00194006331731, Q4 : -0.0622311383486}
2019-04-03 20:24:55.81: SIM {TimeUS : 75434814, Roll : -0.13, Pitch : -0.21, Yaw : 352.86, Alt : 598.099975586, Lat : -35.3632607, Lng : 149.1652293, Q1 : 0.998058497906, Q2 : -0.00132882944308, Q3 : -0.00175888696685, Q4 : -0.0622443854809}
2019-04-03 20:24:55.91: SIM {TimeUS : 75534774, Roll : -0.09, Pitch : -0.15, Yaw : 352.86, Alt : 598.280029297, Lat : -35.3632607, Lng : 149.1652293, Q1 : 0.998058617115, Q2 : -0.000914891948923, Q3 : -0.00128441792913, Q4 : -0.0622621588409}
2019-04-03 20:24:56.01: SIM {TimeUS : 75634734, Roll : -0.06, Pitch : -0.11, Yaw : 352.85, Alt : 598.450012207, Lat : -35.3632605, Lng : 149.1652293, Q1 : 0.998057723045, Q2 : -0.000587439513765, Q3 : -0.00099061022047, Q4 : -0.0622856542468}
2019-04-03 20:24:56.11: SIM {TimeUS : 75734694, Roll : -0.05, Pitch : -0.11, Yaw : 352.85, Alt : 598.599975586, Lat : -35.3632605, Lng : 149.1652293, Q1 : 0.998056173325, Q2 : -0.000570600910578, Q3 : -0.00100543745793, Q4 : -0.0623105354607}
2019-04-03 20:24:56.21: SIM {TimeUS : 75834654, Roll : -0.23, Pitch : -0.3, Yaw : 352.85, Alt : 598.75, Lat : -35.3632605, Lng : 149.1652293, Q1 : 0.998049616814, Q2 : -0.00222355313599, Q3 : -0.00255327811465, Q4 : -0.0623340420425}
2019-04-03 20:24:56.31: SIM {TimeUS : 75934614, Roll : -0.68, Pitch : -0.77, Yaw : 352.85, Alt : 598.880004883, Lat : -35.3632605, Lng : 149.1652292, Q1 : 0.998012661934, Q2 : -0.00640285015106, Q3 : -0.0064068143256, Q4 : -0.0623591803014}
2019-04-03 20:24:56.41: SIM {TimeUS : 76034574, Roll : -1.34, Pitch : -1.45, Yaw : 352.86, Alt : 599.0, Lat : -35.3632605, Lng : 149.1652292, Q1 : 0.997901141644, Q2 : -0.0125454925001, Q3 : -0.0119683258235, Q4 : -0.0623914003372}
2019-04-03 20:24:56.51: SIM {TimeUS : 76134534, Roll : -2.1, Pitch : -2.26, Yaw : 352.87, Alt : 599.099975586, Lat : -35.3632605, Lng : 149.1652292, Q1 : 0.997683286667, Q2 : -0.0195885635912, Q3 : -0.018556991592, Q4 : -0.0624498277903}
2019-04-03 20:24:56.61: SIM {TimeUS : 76234494, Roll : -2.82, Pitch : -3.03, Yaw : 352.89, Alt : 599.200012207, Lat : -35.3632604, Lng : 149.1652291, Q1 : 0.997383892536, Q2 : -0.0262763537467, Q3 : -0.0249294564128, Q4 : -0.0625575780869}
2019-04-03 20:24:56.71: SIM {TimeUS : 76334454, Roll : -3.4, Pitch : -3.65, Yaw : 352.9, Alt : 599.280029297, Lat : -35.3632604, Lng : 149.1652289, Q1 : 0.997078895569, Q2 : -0.0315915048122, Q3 : -0.0300033707172, Q4 : -0.0627328976989}
2019-04-03 20:24:56.81: SIM {TimeUS : 76435247, Roll : -3.81, Pitch : -4.1, Yaw : 352.9, Alt : 599.349975586, Lat : -35.3632603, Lng : 149.1652287, Q1 : 0.996819496155, Q2 : -0.0353739373386, Q3 : -0.0336620695889, Q4 : -0.0629797056317}
2019-04-03 20:24:56.91: SIM {TimeUS : 76535207, Roll : -4.1, Pitch : -4.41, Yaw : 352.89, Alt : 599.409973145, Lat : -35.3632601, Lng : 149.1652284, Q1 : 0.996609926224, Q2 : -0.0380962640047, Q3 : -0.0362437292933, Q4 : -0.0632751360536}
2019-04-03 20:24:57.01: SIM {TimeUS : 76635167, Roll : -4.35, Pitch : -4.67, Yaw : 352.87, Alt : 599.469970703, Lat : -35.3632598, Lng : 149.1652281, Q1 : 0.996420383453, Q2 : -0.0404002442956, Q3 : -0.0383519865572, Q4 : -0.0635877922177}
2019-04-03 20:24:57.11: SIM {TimeUS : 76735127, Roll : -4.6, Pitch : -4.92, Yaw : 352.85, Alt : 599.510009766, Lat : -35.3632596, Lng : 149.1652278, Q1 : 0.996224701405, Q2 : -0.0427204221487, Q3 : -0.0403372012079, Q4 : -0.0639077499509}
2019-04-03 20:24:57.21: SIM {TimeUS : 76835087, Roll : -4.85, Pitch : -5.19, Yaw : 352.84, Alt : 599.549987793, Lat : -35.3632592, Lng : 149.1652273, Q1 : 0.996007800102, Q2 : -0.0450969710946, Q3 : -0.0425818823278, Q4 : -0.0641992688179}
2019-04-03 20:24:57.31: SIM {TimeUS : 76935047, Roll : -5.11, Pitch : -5.52, Yaw : 352.84, Alt : 599.58001709, Lat : -35.3632589, Lng : 149.1652268, Q1 : 0.995758116245, Q2 : -0.0475343875587, Q3 : -0.0452984347939, Q4 : -0.0644546300173}
2019-04-03 20:24:57.41: SIM {TimeUS : 77035007, Roll : -5.34, Pitch : -5.84, Yaw : 352.83, Alt : 599.609985352, Lat : -35.3632585, Lng : 149.1652262, Q1 : 0.99551731348, Q2 : -0.0496376007795, Q3 : -0.0479261018336, Q4 : -0.0646876618266}
2019-04-03 20:24:57.51: SIM {TimeUS : 77134967, Roll : -5.51, Pitch : -6.07, Yaw : 352.82, Alt : 599.640014648, Lat : -35.363258, Lng : 149.1652255, Q1 : 0.995326220989, Q2 : -0.0512445643544, Q3 : -0.0498395822942, Q4 : -0.0649291723967}
2019-04-03 20:24:57.61: SIM {TimeUS : 77234927, Roll : -5.64, Pitch : -6.2, Yaw : 352.81, Alt : 599.659973145, Lat : -35.3632576, Lng : 149.1652248, Q1 : 0.995193719864, Q2 : -0.0524421930313, Q3 : -0.0509123243392, Q4 : -0.0651709884405}
2019-04-03 20:24:57.71: SIM {TimeUS : 77334887, Roll : -5.73, Pitch : -6.29, Yaw : 352.79, Alt : 599.679992676, Lat : -35.363257, Lng : 149.165224, Q1 : 0.995100259781, Q2 : -0.0532984808087, Q3 : -0.0515985041857, Q4 : -0.0653634443879}
2019-04-03 20:24:57.81: SIM {TimeUS : 77434847, Roll : -5.83, Pitch : -6.39, Yaw : 352.79, Alt : 599.690002441, Lat : -35.3632564, Lng : 149.1652231, Q1 : 0.995000839233, Q2 : -0.054199308157, Q3 : -0.0523995235562, Q4 : -0.0654982179403}
2019-04-03 20:24:57.91: SIM {TimeUS : 77534807, Roll : -5.93, Pitch : -6.52, Yaw : 352.79, Alt : 599.710021973, Lat : -35.3632558, Lng : 149.1652222, Q1 : 0.994887411594, Q2 : -0.0551301054657, Q3 : -0.0534784421325, Q4 : -0.0655730813742}
2019-04-03 20:24:58.01: SIM {TimeUS : 77634767, Roll : -6.08, Pitch : -6.64, Yaw : 352.79, Alt : 599.719970703, Lat : -35.363255, Lng : 149.1652212, Q1 : 0.994745850563, Q2 : -0.0565070584416, Q3 : -0.0544685535133, Q4 : -0.0657325685024}
2019-04-03 20:24:58.11: SIM {TimeUS : 77734727, Roll : -6.47, Pitch : -6.66, Yaw : 352.53, Alt : 599.729980469, Lat : -35.3632543, Lng : 149.1652201, Q1 : 0.994390368462, Q2 : -0.0600174665451, Q3 : -0.0542279109359, Q4 : -0.0681545883417}
2019-04-03 20:24:58.21: SIM {TimeUS : 77834687, Roll : -7.12, Pitch : -6.6, Yaw : 351.37, Alt : 599.739990234, Lat : -35.3632536, Lng : 149.1652189, Q1 : 0.993323862553, Q2 : -0.0661438852549, Q3 : -0.0526649989188, Q4 : -0.0784802958369}
2019-04-03 20:24:58.31: SIM {TimeUS : 77934647, Roll : -7.69, Pitch : -6.73, Yaw : 348.68, Alt : 599.75, Lat : -35.3632528, Lng : 149.1652178, Q1 : 0.990778803825, Q2 : -0.0724528059363, Q3 : -0.0517560206354, Q4 : -0.102124229074}
2019-04-03 20:24:58.41: SIM {TimeUS : 78034607, Roll : -7.83, Pitch : -7.26, Yaw : 344.32, Alt : 599.75, Lat : -35.3632519, Lng : 149.1652164, Q1 : 0.985760211945, Q2 : -0.0761826559901, Q3 : -0.0533409267664, Q4 : -0.140099406242}
2019-04-03 20:24:58.51: SIM {TimeUS : 78134567, Roll : -7.34, Pitch : -8.18, Yaw : 338.47, Alt : 599.760009766, Lat : -35.3632511, Lng : 149.165215, Q1 : 0.977033376694, Q2 : -0.0760642886162, Q3 : -0.0580134913325, Q4 : -0.190405905247}
2019-04-03 20:24:58.61: SIM {TimeUS : 78234527, Roll : -6.17, Pitch : -9.36, Yaw : 331.41, Alt : 599.760009766, Lat : -35.3632503, Lng : 149.1652135, Q1 : 0.963328957558, Q2 : -0.0721834376454, Q3 : -0.0657757222652, Q4 : -0.249920740724}
2019-04-03 20:24:58.71: SIM {TimeUS : 78334487, Roll : -4.23, Pitch : -10.64, Yaw : 323.52, Alt : 599.770019531, Lat : -35.3632494, Lng : 149.165212, Q1 : 0.943947911263, Q2 : -0.0639711916447, Q3 : -0.0765330046415, Q4 : -0.314662843943}
2019-04-03 20:24:58.81: SIM {TimeUS : 78434447, Roll : -1.49, Pitch : -11.74, Yaw : 315.47, Alt : 599.780029297, Lat : -35.3632485, Lng : 149.1652104, Q1 : 0.920016944408, Q2 : -0.0507478006184, Q3 : -0.0897856354713, Q4 : -0.378063619137}
2019-04-03 20:24:58.91: SIM {TimeUS : 78535240, Roll : 1.59, Pitch : -12.42, Yaw : 308.13, Alt : 599.780029297, Lat : -35.3632475, Lng : 149.1652086, Q1 : 0.894584715366, Q2 : -0.0348921716213, Q3 : -0.103323034942, Q4 : -0.433387875557}
2019-04-03 20:24:59.01: SIM {TimeUS : 78635200, Roll : 4.32, Pitch : -12.62, Yaw : 302.4, Alt : 599.789978027, Lat : -35.3632464, Lng : 149.1652068, Q1 : 0.87240332365, Q2 : -0.0200326442719, Q3 : -0.114388011396, Q4 : -0.474790990353}
2019-04-03 20:24:59.11: SIM {TimeUS : 78735160, Roll : 6.22, Pitch : -12.57, Yaw : 298.67, Alt : 599.789978027, Lat : -35.3632452, Lng : 149.165205, Q1 : 0.856780707836, Q2 : -0.00935171358287, Q3 : -0.121611915529, Q4 : -0.501048803329}
2019-04-03 20:24:59.21: SIM {TimeUS : 78835120, Roll : 7.08, Pitch : -12.54, Yaw : 296.91, Alt : 599.799987793, Lat : -35.363244, Lng : 149.1652031, Q1 : 0.849071800709, Q2 : -0.00470315618441, Q3 : -0.125107556581, Q4 : -0.51322811842}
2019-04-03 20:24:59.31: SIM {TimeUS : 78935080, Roll : 6.95, Pitch : -12.7, Yaw : 296.84, Alt : 599.799987793, Lat : -35.3632427, Lng : 149.1652013, Q1 : 0.848665356636, Q2 : -0.00650379620492, Q3 : -0.125683873892, Q4 : -0.513739705086}
