2019-04-03 20:41:50.60: SIM {TimeUS : 40816167, Roll : 0.0, Pitch : 0.0, Yaw : 353.0, Alt : 584.090026855, Lat : -35.363261, Lng : 149.1652299, Q1 : 0.998134791851, Q2 : 0.0, Q3 : 0.0, Q4 : -0.0610485821962}
2019-04-03 20:41:50.71: SIM {TimeUS : 40935286, Roll : 0.0, Pitch : 0.0, Yaw : 353.0, Alt : 584.090026855, Lat : -35.363261, Lng : 149.1652299, Q1 : 0.998134791851, Q2 : 0.0, Q3 : 0.0, Q4 : -0.0610485821962}
2019-04-03 20:41:50.81: SIM {TimeUS : 41035246, Roll : 0.0, Pitch : 0.0, Yaw : 353.0, Alt : 584.090026855, Lat : -35.363261, Lng : 149.1652299, Q1 : 0.998134791851, Q2 : 0.0, Q3 : 0.0, Q4 : -0.0610485821962}
2019-04-03 20:41:50.91: SIM {TimeUS : 41135206, Roll : 0.0, Pitch : 0.0, Yaw : 353.0, Alt : 584.090026855, Lat : -35.363261, Lng : 149.1652299, Q1 : 0.998134791851, Q2 : 0.0, Q3 : 0.0, Q4 : -0.0610485821962}
2019-04-03 20:41:51.01: SIM {TimeUS : 41235166, Roll : 0.0, Pitch : 0.0, Yaw : 353.0, Alt : 584.090026855, Lat : -35.363261, Lng : 149.1652299, Q1 : 0.998134791851, Q2 : 0.0, Q3 : 0.0, Q4 : -0.0610485821962}
2019-04-03 20:41:51.11: SIM {TimeUS : 41335126, Roll : 0.0, Pitch : 0.0, Yaw : 353.0, Alt : 584.090026855, Lat : -35.363261, Lng : 149.1652299, Q1 : 0.998134791851, Q2 : 0.0, Q3 : 0.0, Q4 : -0.0610485821962}
2019-04-03 20:41:51.21: SIM {TimeUS : 41435086, Roll : 0.0, Pitch : 0.0, Yaw : 353.0, Alt : 584.090026855, Lat : -35.363261, Lng : 149.1652299, Q1 : 0.998134791851, Q2 : 0.0, Q3 : 0.0, Q4 : -0.0610485821962}
2019-04-03 20:41:51.31: SIM {TimeUS : 41535046, Roll : 0.0, Pitch : 0.0, Yaw : 353.0, Alt : 584.090026855, Lat : -35.363261, Lng : 149.1652299, Q1 : 0.998134791851, Q2 : 0.0, Q3 : 0.0, Q4 : -0.0610485821962}
2019-04-03 20:41:51.41: SIM {TimeUS : 41635006, Roll : 0.0, Pitch : 0.0, Yaw : 353.0, Alt : 584.090026855, Lat : -35.363261, Lng : 149.1652299, Q1 : 0.998134791851, Q2 : 0.0, Q3 : 0.0, Q4 : -0.0610485821962}
2019-04-03 20:41:51.51: SIM {TimeUS : 41734966, Roll : 0.0, Pitch : 0.0, Yaw : 353.0, Alt : 584.090026855, Lat : -35.363261, Lng : 149.1652299, Q1 : 0.998134791851, Q2 : 0.0, Q3 : 0.0, Q4 : -0.0610485821962}
2019-04-03 20:41:51.61: SIM {TimeUS : 41834926, Roll : 0.0, Pitch : 0.0, Yaw : 353.0, Alt : 584.090026855, Lat : -35.363261, Lng : 149.1652299, Q1 : 0.998134791851, Q2 : 0.0, Q3 : 0.0, Q4 : -0.0610485821962}
2019-04-03 20:41:51.71: SIM {TimeUS : 41934886, Roll : 0.0, Pitch : 0.0, Yaw : 353.0, Alt : 584.090026855, Lat : -35.363261, Lng : 149.1652299, Q1 : 0.998134791851, Q2 : 0.0, Q3 : 0.0, Q4 : -0.0610485821962}
2019-04-03 20:41:51.81: SIM {TimeUS : 42034846, Roll : 0.0, Pitch : 0.0, Yaw : 353.0, Alt : 584.090026855, Lat : -35.363261, Lng : 149.1652299, Q1 : 0.998134791851, Q2 : 0.0, Q3 : 0.0, Q4 : -0.0610485821962}
2019-04-03 20:41:51.91: SIM {TimeUS : 42134806, Roll : 0.0, Pitch : 0.0, Yaw : 353.0, Alt : 584.090026855, Lat : -35.363261, Lng : 149.1652299, Q1 : 0.998134791851, Q2 : 0.0, Q3 : 0.0, Q4 : -0.0610485821962}
2019-04-03 20:41:52.01: SIM {TimeUS : 42234766, Roll : 0.0, Pitch : 0.0, Yaw : 353.0, Alt : 584.090026855, Lat : -35.363261, Lng : 149.1652299, Q1 : 0.998134791851, Q2 : 0.0, Q3 : 0.0, Q4 : -0.0610485821962}
2019-04-03 20:41:52.11: SIM {TimeUS : 42334726, Roll : 0.0, Pitch : 0.0, Yaw : 353.0, Alt : 584.090026855, Lat : -35.363261, Lng : 149.1652299, Q1 : 0.998134791851, Q2 : 0.0, Q3 : 0.0, Q4 : -0.0610485821962}
2019-04-03 20:41:52.21: SIM {TimeUS : 42434686, Roll : 0.0, Pitch : 0.0, Yaw : 353.0, Alt : 584.090026855, Lat : -35.363261, Lng : 149.1652299, Q1 : 0.998134791851, Q2 : 0.0, Q3 : 0.0, Q4 : -0.0610485821962}
2019-04-03 20:41:52.31: SIM {TimeUS : 42534646, Roll : 0.0, Pitch : 0.0, Yaw : 353.0, Alt : 584.090026855, Lat : -35.363261, Lng : 149.1652299, Q1 : 0.998134791851, Q2 : 0.0, Q3 : 0.0, Q4 : -0.0610485821962}
2019-04-03 20:41:52.41: SIM {TimeUS : 42634606, Roll : 0.0, Pitch : 0.0, Yaw : 353.0, Alt : 584.090026855, Lat : -35.363261, Lng : 149.1652299, Q1 : 0.998134791851, Q2 : 0.0, Q3 : 0.0, Q4 : -0.0610485821962}
2019-04-03 20:41:52.51: SIM {TimeUS : 42734566, Roll : 0.0, Pitch : 0.0, Yaw : 353.0, Alt : 584.090026855, Lat : -35.363261, Lng : 149.1652299, Q1 : 0.998134791851, Q2 : 0.0, Q3 : 0.0, Q4 : -0.0610485821962}
2019-04-03 20:41:52.61: SIM {TimeUS : 42834526, Roll : 0.0, Pitch : 0.0, Yaw : 353.0, Alt : 584.090026855, Lat : -35.363261, Lng : 149.1652299, Q1 : 0.998134791851, Q2 : 0.0, Q3 : 0.0, Q4 : -0.0610485821962}
2019-04-03 20:41:52.71: SIM {TimeUS : 42935319, Roll : 0.0, Pitch : 0.0, Yaw : 353.0, Alt : 584.090026855, Lat : -35.363261, Lng : 149.1652299, Q1 : 0.998134791851, Q2 : 0.0, Q3 : 0.0, Q4 : -0.0610485821962}
2019-04-03 20:41:52.81: SIM {TimeUS : 43035279, Roll : 0.0, Pitch : 0.0, Yaw : 353.0, Alt : 584.090026855, Lat : -35.363261, Lng : 149.1652299, Q1 : 0.998134791851, Q2 : 0.0, Q3 : 0.0, Q4 : -0.0610485821962}
2019-04-03 20:41:52.91: SIM {TimeUS : 43135239, Roll : 0.0, Pitch : 0.0, Yaw : 353.0, Alt : 584.090026855, Lat : -35.363261, Lng : 149.1652299, Q1 : 0.998134791851, Q2 : 0.0, Q3 : 0.0, Q4 : -0.0610485821962}
2019-04-03 20:41:53.01: SIM {TimeUS : 43235199, Roll : 0.0, Pitch : 0.0, Yaw : 353.0, Alt : 584.090026855, Lat : -35.363261, Lng : 149.1652299, Q1 : 0.998134791851, Q2 : 0.0, Q3 : 0.0, Q4 : -0.0610485821962}
2019-04-03 20:41:53.11: SIM {TimeUS : 43335159, Roll : 0.0, Pitch : 0.0, Yaw : 353.0, Alt : 584.090026855, Lat : -35.363261, Lng : 149.1652299, Q1 : 0.998134791851, Q2 : 0.0, Q3 : 0.0, Q4 : -0.0610485821962}
2019-04-03 20:41:53.21: SIM {TimeUS : 43435119, Roll : 0.0, Pitch : 0.0, Yaw : 353.0, Alt : 584.090026855, Lat : -35.363261, Lng : 149.1652299, Q1 : 0.998134791851, Q2 : 0.0, Q3 : 0.0, Q4 : -0.0610485821962}
2019-04-03 20:41:53.31: SIM {TimeUS : 43535079, Roll : 0.0, Pitch : 0.0, Yaw : 353.0, Alt : 584.090026855, Lat : -35.363261, Lng : 149.1652299, Q1 : 0.998134791851, Q2 : 0.0, Q3 : 0.0, Q4 : -0.0610485821962}
2019-04-03 20:41:53.41: SIM {TimeUS : 43635039, Roll : 0.0, Pitch : 0.0, Yaw : 353.0, Alt : 584.090026855, Lat : -35.363261, Lng : 149.1652299, Q1 : 0.998134791851, Q2 : 0.0, Q3 : 0.0, Q4 : -0.0610485821962}
2019-04-03 20:41:53.51: SIM {TimeUS : 43734999, Roll : 0.0, Pitch : 0.0, Yaw : 353.0, Alt : 584.090026855, Lat : -35.363261, Lng : 149.1652299, Q1 : 0.998134791851, Q2 : 0.0, Q3 : 0.0, Q4 : -0.0610485821962}
2019-04-03 20:41:53.61: SIM {TimeUS : 43834959, Roll : 0.0, Pitch : 0.0, Yaw : 353.0, Alt : 584.090026855, Lat : -35.363261, Lng : 149.1652299, Q1 : 0.998134791851, Q2 : 0.0, Q3 : 0.0, Q4 : -0.0610485821962}
2019-04-03 20:41:53.71: SIM {TimeUS : 43934919, Roll : 0.0, Pitch : 0.0, Yaw : 353.0, Alt : 584.090026855, Lat : -35.363261, Lng : 149.1652299, Q1 : 0.998134791851, Q2 : 0.0, Q3 : 0.0, Q4 : -0.0610485821962}
2019-04-03 20:41:53.81: SIM {TimeUS : 44034879, Roll : 0.0, Pitch : 0.0, Yaw : 353.0, Alt : 584.090026855, Lat : -35.363261, Lng : 149.1652299, Q1 : 0.998134791851, Q2 : 0.0, Q3 : 0.0, Q4 : -0.0610485821962}
2019-04-03 20:41:53.91: SIM {TimeUS : 44134839, Roll : 0.0, Pitch : 0.0, Yaw : 353.0, Alt : 584.090026855, Lat : -35.363261, Lng : 149.1652299, Q1 : 0.998134791851, Q2 : 0.0, Q3 : 0.0, Q4 : -0.0610485821962}
2019-04-03 20:41:54.01: SIM {TimeUS : 44234799, Roll : 0.0, Pitch : 0.0, Yaw : 353.0, Alt : 584.090026855, Lat : -35.363261, Lng : 149.1652299, Q1 : 0.998134791851, Q2 : 0.0, Q3 : 0.0, Q4 : -0.0610485821962}
2019-04-03 20:41:54.11: SIM {TimeUS : 44334759, Roll : 0.0, Pitch : 0.0, Yaw : 353.0, Alt : 584.090026855, Lat : -35.363261, Lng : 149.1652299, Q1 : 0.998134791851, Q2 : 0.0, Q3 : 0.0, Q4 : -0.0610485821962}
2019-04-03 20:41:54.21: SIM {TimeUS : 44434719, Roll : 0.0, Pitch : 0.0, Yaw : 353.0, Alt : 584.090026855, Lat : -35.363261, Lng : 149.1652299, Q1 : 0.998134791851, Q2 : 0.0, Q3 : 0.0, Q4 : -0.0610485821962}
2019-04-03 20:41:54.31: SIM {TimeUS : 44534679, Roll : 0.0, Pitch : 0.0, Yaw : 353.0, Alt : 584.090026855, Lat : -35.363261, Lng : 149.1652299, Q1 : 0.998134791851, Q2 : 0.0, Q3 : 0.0, Q4 : -0.0610485821962}
2019-04-03 20:41:54.41: SIM {TimeUS : 44634639, Roll : 0.0, Pitch : 0.0, Yaw : 353.0, Alt : 584.090026855, Lat : -35.363261, Lng : 149.1652299, Q1 : 0.998134791851, Q2 : 0.0, Q3 : 0.0, Q4 : -0.0610485821962}
2019-04-03 20:41:54.51: SIM {TimeUS : 44734599, Roll : 0.0, Pitch : 0.0, Yaw : 353.0, Alt : 584.090026855, Lat : -35.363261, Lng : 149.1652299, Q1 : 0.998134791851, Q2 : 0.0, Q3 : 0.0, Q4 : -0.0610485821962}
2019-04-03 20:41:54.61: SIM {TimeUS : 44834559, Roll : 0.0, Pitch : 0.0, Yaw : 353.0, Alt : 584.090026855, Lat : -35.363261, Lng : 149.1652299, Q1 : 0.998134791851, Q2 : 0.0, Q3 : 0.0, Q4 : -0.0610485821962}
2019-04-03 20:41:54.71: SIM {TimeUS : 44934519, Roll : 0.0, Pitch : 0.0, Yaw : 353.0, Alt : 584.090026855, Lat : -35.363261, Lng : 149.1652299, Q1 : 0.998134791851, Q2 : 0.0, Q3 : 0.0, Q4 : -0.0610485821962}
2019-04-03 20:41:54.81: SIM {TimeUS : 45035312, Roll : 0.0, Pitch : 0.0, Yaw : 353.0, Alt : 584.090026855, Lat : -35.363261, Lng : 149.1652299, Q1 : 0.998134791851, Q2 : 0.0, Q3 : 0.0, Q4 : -0.0610485821962}
2019-04-03 20:41:54.91: SIM {TimeUS : 45135272, Roll : 0.0, Pitch : 0.0, Yaw : 353.0, Alt : 584.090026855, Lat : -35.363261, Lng : 149.1652299, Q1 : 0.998134791851, Q2 : 0.0, Q3 : 0.0, Q4 : -0.0610485821962}
2019-04-03 20:41:55.01: SIM {TimeUS : 45235232, Roll : 0.0, Pitch : 0.0, Yaw : 353.0, Alt : 584.090026855, Lat : -35.363261, Lng : 149.1652299, Q1 : 0.998134791851, Q2 : 0.0, Q3 : 0.0, Q4 : -0.0610485821962}
2019-04-03 20:41:55.11: SIM {TimeUS : 45335192, Roll : 0.0, Pitch : 0.0, Yaw : 353.0, Alt : 584.090026855, Lat : -35.363261, Lng : 149.1652299, Q1 : 0.998134791851, Q2 : 0.0, Q3 : 0.0, Q4 : -0.0610485821962}
2019-04-03 20:41:55.21: SIM {TimeUS : 45435152, Roll : 0.0, Pitch : 0.0, Yaw : 353.0, Alt : 584.090026855, Lat : -35.363261, Lng : 149.1652299, Q1 : 0.998134791851, Q2 : 0.0, Q3 : 0.0, Q4 : -0.0610485821962}
2019-04-03 20:41:55.31: SIM {TimeUS : 45535112, Roll : 0.0, Pitch : 0.0, Yaw : 353.0, Alt : 584.090026855, Lat : -35.363261, Lng : 149.1652299, Q1 : 0.998134791851, Q2 : 0.0, Q3 : 0.0, Q4 : -0.0610485821962}
2019-04-03 20:41:55.41: SIM {TimeUS : 45635072, Roll : 0.0, Pitch : 0.0, Yaw : 353.0, Alt : 584.090026855, Lat : -35.363261, Lng : 149.1652299, Q1 : 0.998134791851, Q2 : 0.0, Q3 : 0.0, Q4 : -0.0610485821962}
2019-04-03 20:41:55.51: SIM {TimeUS : 45735032, Roll : 0.0, Pitch : 0.0, Yaw : 353.0, Alt : 584.090026855, Lat : -35.363261, Lng : 149.1652299, Q1 : 0.998134791851, Q2 : 0.0, Q3 : 0.0, Q4 : -0.0610485821962}
2019-04-03 20:41:55.61: SIM {TimeUS : 45834992, Roll : 0.0, Pitch : 0.0, Yaw : 353.0, Alt : 584.090026855, Lat : -35.363261, Lng : 149.1652299, Q1 : 0.998134791851, Q2 : 0.0, Q3 : 0.0, Q4 : -0.0610485821962}
2019-04-03 20:41:55.71: SIM {TimeUS : 45934952, Roll : 0.0, Pitch : 0.0, Yaw : 353.0, Alt : 584.090026855, Lat : -35.363261, Lng : 149.1652299, Q1 : 0.998134791851, Q2 : 0.0, Q3 : 0.0, Q4 : -0.0610485821962}
2019-04-03 20:41:55.81: SIM {TimeUS : 46034912, Roll : 0.0, Pitch : 0.0, Yaw : 353.0, Alt : 584.090026855, Lat : -35.363261, Lng : 149.1652299, Q1 : 0.998134791851, Q2 : 0.0, Q3 : 0.0, Q4 : -0.0610485821962}
2019-04-03 20:41:55.91: SIM {TimeUS : 46134872, Roll : 0.0, Pitch : 0.0, Yaw : 353.0, Alt : 584.090026855, Lat : -35.363261, Lng : 149.1652299, Q1 : 0.998134791851, Q2 : 0.0, Q3 : 0.0, Q4 : -0.0610485821962}
2019-04-03 20:41:56.01: SIM {TimeUS : 46234832, Roll : 0.0, Pitch : 0.0, Yaw : 353.0, Alt : 584.090026855, Lat : -35.363261, Lng : 149.1652299, Q1 : 0.998134791851, Q2 : 0.0, Q3 : 0.0, Q4 : -0.0610485821962}
2019-04-03 20:41:56.11: SIM {TimeUS : 46334792, Roll : 0.0, Pitch : 0.0, Yaw : 353.0, Alt : 584.090026855, Lat : -35.363261, Lng : 149.1652299, Q1 : 0.998134791851, Q2 : 0.0, Q3 : 0.0, Q4 : -0.0610485821962}
2019-04-03 20:41:56.21: SIM {TimeUS : 46434752, Roll : 0.0, Pitch : 0.0, Yaw : 353.0, Alt : 584.090026855, Lat : -35.363261, Lng : 149.1652299, Q1 : 0.998134791851, Q2 : 0.0, Q3 : 0.0, Q4 : -0.0610485821962}
2019-04-03 20:41:56.31: SIM {TimeUS : 46534712, Roll : 0.0, Pitch : 0.0, Yaw : 353.0, Alt : 584.090026855, Lat : -35.363261, Lng : 149.1652299, Q1 : 0.998134791851, Q2 : 0.0, Q3 : 0.0, Q4 : -0.0610485821962}
2019-04-03 20:41:56.41: SIM {TimeUS : 46634672, Roll : 0.0, Pitch : 0.0, Yaw : 353.0, Alt : 584.090026855, Lat : -35.363261, Lng : 149.1652299, Q1 : 0.998134791851, Q2 : 0.0, Q3 : 0.0, Q4 : -0.0610485821962}
2019-04-03 20:41:56.51: SIM {TimeUS : 46734632, Roll : 0.0, Pitch : 0.0, Yaw : 353.0, Alt : 584.090026855, Lat : -35.363261, Lng : 149.1652299, Q1 : 0.998134791851, Q2 : 0.0, Q3 : 0.0, Q4 : -0.0610485821962}
2019-04-03 20:41:56.61: SIM {TimeUS : 46834592, Roll : 0.0, Pitch : 0.0, Yaw : 353.0, Alt : 584.090026855, Lat : -35.363261, Lng : 149.1652299, Q1 : 0.998134791851, Q2 : 0.0, Q3 : 0.0, Q4 : -0.0610485821962}
2019-04-03 20:41:56.71: SIM {TimeUS : 46934552, Roll : 0.0, Pitch : 0.0, Yaw : 353.0, Alt : 584.090026855, Lat : -35.363261, Lng : 149.1652299, Q1 : 0.998134791851, Q2 : 0.0, Q3 : 0.0, Q4 : -0.0610485821962}
2019-04-03 20:41:56.81: SIM {TimeUS : 47034512, Roll : 0.0, Pitch : 0.0, Yaw : 353.0, Alt : 584.090026855, Lat : -35.363261, Lng : 149.1652299, Q1 : 0.998134791851, Q2 : 0.0, Q3 : 0.0, Q4 : -0.0610485821962}
2019-04-03 20:41:56.91: SIM {TimeUS : 47135305, Roll : 0.0, Pitch : 0.0, Yaw : 353.0, Alt : 584.090026855, Lat : -35.363261, Lng : 149.1652299, Q1 : 0.998134791851, Q2 : 0.0, Q3 : 0.0, Q4 : -0.0610485821962}
2019-04-03 20:41:57.01: SIM {TimeUS : 47235265, Roll : 0.0, Pitch : 0.0, Yaw : 353.0, Alt : 584.090026855, Lat : -35.363261, Lng : 149.1652299, Q1 : 0.998134791851, Q2 : 0.0, Q3 : 0.0, Q4 : -0.0610485821962}
2019-04-03 20:41:57.11: SIM {TimeUS : 47335225, Roll : 0.0, Pitch : 0.0, Yaw : 353.0, Alt : 584.090026855, Lat : -35.363261, Lng : 149.1652299, Q1 : 0.998134791851, Q2 : 0.0, Q3 : 0.0, Q4 : -0.0610485821962}
2019-04-03 20:41:57.21: SIM {TimeUS : 47435185, Roll : 0.0, Pitch : 0.0, Yaw : 353.0, Alt : 584.090026855, Lat : -35.363261, Lng : 149.1652299, Q1 : 0.998134791851, Q2 : 0.0, Q3 : 0.0, Q4 : -0.0610485821962}
2019-04-03 20:41:57.31: SIM {TimeUS : 47535145, Roll : 0.0, Pitch : 0.0, Yaw : 353.0, Alt : 584.090026855, Lat : -35.363261, Lng : 149.1652299, Q1 : 0.998134791851, Q2 : 0.0, Q3 : 0.0, Q4 : -0.0610485821962}
2019-04-03 20:41:57.41: SIM {TimeUS : 47635105, Roll : 0.0, Pitch : 0.0, Yaw : 353.0, Alt : 584.090026855, Lat : -35.363261, Lng : 149.1652299, Q1 : 0.998134791851, Q2 : 0.0, Q3 : 0.0, Q4 : -0.0610485821962}
2019-04-03 20:41:57.51: SIM {TimeUS : 47735065, Roll : 0.0, Pitch : 0.0, Yaw : 353.0, Alt : 584.090026855, Lat : -35.363261, Lng : 149.1652299, Q1 : 0.998134791851, Q2 : 0.0, Q3 : 0.0, Q4 : -0.0610485821962}
2019-04-03 20:41:57.61: SIM {TimeUS : 47835025, Roll : 0.0, Pitch : 0.0, Yaw : 353.0, Alt : 584.090026855, Lat : -35.363261, Lng : 149.1652299, Q1 : 0.998134791851, Q2 : 0.0, Q3 : 0.0, Q4 : -0.0610485821962}
2019-04-03 20:41:57.71: SIM {TimeUS : 47934985, Roll : 0.0, Pitch : 0.0, Yaw : 353.0, Alt : 584.090026855, Lat : -35.363261, Lng : 149.1652299, Q1 : 0.998134791851, Q2 : 0.0, Q3 : 0.0, Q4 : -0.0610485821962}
2019-04-03 20:41:57.81: SIM {TimeUS : 48034945, Roll : 0.0, Pitch : 0.0, Yaw : 353.0, Alt : 584.090026855, Lat : -35.363261, Lng : 149.1652299, Q1 : 0.998134791851, Q2 : 0.0, Q3 : 0.0, Q4 : -0.0610485821962}
2019-04-03 20:41:57.91: SIM {TimeUS : 48134905, Roll : 0.0, Pitch : 0.0, Yaw : 353.0, Alt : 584.090026855, Lat : -35.363261, Lng : 149.1652299, Q1 : 0.998134791851, Q2 : 0.0, Q3 : 0.0, Q4 : -0.0610485821962}
2019-04-03 20:41:58.01: SIM {TimeUS : 48234865, Roll : 0.0, Pitch : 0.0, Yaw : 353.0, Alt : 584.090026855, Lat : -35.363261, Lng : 149.1652299, Q1 : 0.998134791851, Q2 : 0.0, Q3 : 0.0, Q4 : -0.0610485821962}
2019-04-03 20:41:58.11: SIM {TimeUS : 48334825, Roll : 0.0, Pitch : 0.0, Yaw : 353.0, Alt : 584.090026855, Lat : -35.363261, Lng : 149.1652299, Q1 : 0.998134791851, Q2 : 0.0, Q3 : 0.0, Q4 : -0.0610485821962}
2019-04-03 20:41:58.21: SIM {TimeUS : 48434785, Roll : 0.0, Pitch : 0.0, Yaw : 353.0, Alt : 584.090026855, Lat : -35.363261, Lng : 149.1652299, Q1 : 0.998134791851, Q2 : 0.0, Q3 : 0.0, Q4 : -0.0610485821962}
2019-04-03 20:41:58.31: SIM {TimeUS : 48534745, Roll : 0.0, Pitch : 0.0, Yaw : 353.0, Alt : 584.090026855, Lat : -35.363261, Lng : 149.1652299, Q1 : 0.998134791851, Q2 : 0.0, Q3 : 0.0, Q4 : -0.0610485821962}
2019-04-03 20:41:58.41: SIM {TimeUS : 48634705, Roll : 0.0, Pitch : 0.0, Yaw : 353.0, Alt : 584.090026855, Lat : -35.363261, Lng : 149.1652299, Q1 : 0.998134791851, Q2 : 0.0, Q3 : 0.0, Q4 : -0.0610485821962}
2019-04-03 20:41:58.51: SIM {TimeUS : 48734665, Roll : 0.0, Pitch : 0.0, Yaw : 353.0, Alt : 584.090026855, Lat : -35.363261, Lng : 149.1652299, Q1 : 0.998134791851, Q2 : 0.0, Q3 : 0.0, Q4 : -0.0610485821962}
2019-04-03 20:41:58.61: SIM {TimeUS : 48834625, Roll : 0.0, Pitch : 0.0, Yaw : 353.0, Alt : 584.090026855, Lat : -35.363261, Lng : 149.1652299, Q1 : 0.998134791851, Q2 : 0.0, Q3 : 0.0, Q4 : -0.0610485821962}
2019-04-03 20:41:58.71: SIM {TimeUS : 48934585, Roll : 0.0, Pitch : 0.0, Yaw : 353.0, Alt : 584.090026855, Lat : -35.363261, Lng : 149.1652299, Q1 : 0.998134791851, Q2 : 0.0, Q3 : 0.0, Q4 : -0.0610485821962}
2019-04-03 20:41:58.81: SIM {TimeUS : 49034545, Roll : 0.0, Pitch : 0.0, Yaw : 353.0, Alt : 584.090026855, Lat : -35.363261, Lng : 149.1652299, Q1 : 0.998134791851, Q2 : 0.0, Q3 : 0.0, Q4 : -0.0610485821962}
2019-04-03 20:41:58.91: SIM {TimeUS : 49134505, Roll : 0.0, Pitch : 0.0, Yaw : 353.0, Alt : 584.090026855, Lat : -35.363261, Lng : 149.1652299, Q1 : 0.998134791851, Q2 : 0.0, Q3 : 0.0, Q4 : -0.0610485821962}
2019-04-03 20:41:59.01: SIM {TimeUS : 49235298, Roll : 0.0, Pitch : 0.0, Yaw : 353.0, Alt : 584.090026855, Lat : -35.363261, Lng : 149.1652299, Q1 : 0.998134791851, Q2 : 0.0, Q3 : 0.0, Q4 : -0.0610485821962}
2019-04-03 20:41:59.11: SIM {TimeUS : 49335258, Roll : 0.0, Pitch : 0.0, Yaw : 353.0, Alt : 584.090026855, Lat : -35.363261, Lng : 149.1652299, Q1 : 0.998134791851, Q2 : 0.0, Q3 : 0.0, Q4 : -0.0610485821962}
2019-04-03 20:41:59.21: SIM {TimeUS : 49435218, Roll : 0.0, Pitch : 0.0, Yaw : 353.0, Alt : 584.090026855, Lat : -35.363261, Lng : 149.1652299, Q1 : 0.998134791851, Q2 : 0.0, Q3 : 0.0, Q4 : -0.0610485821962}
2019-04-03 20:41:59.31: SIM {TimeUS : 49535178, Roll : 0.0, Pitch : 0.0, Yaw : 353.0, Alt : 584.090026855, Lat : -35.363261, Lng : 149.1652299, Q1 : 0.998134791851, Q2 : 0.0, Q3 : 0.0, Q4 : -0.0610485821962}
2019-04-03 20:41:59.41: SIM {TimeUS : 49635138, Roll : 0.0, Pitch : 0.0, Yaw : 353.0, Alt : 584.090026855, Lat : -35.363261, Lng : 149.1652299, Q1 : 0.998134791851, Q2 : 0.0, Q3 : 0.0, Q4 : -0.0610485821962}
2019-04-03 20:41:59.51: SIM {TimeUS : 49735098, Roll : 0.0, Pitch : 0.0, Yaw : 353.0, Alt : 584.090026855, Lat : -35.363261, Lng : 149.1652299, Q1 : 0.998134791851, Q2 : 0.0, Q3 : 0.0, Q4 : -0.0610485821962}
2019-04-03 20:41:59.61: SIM {TimeUS : 49835058, Roll : 0.0, Pitch : 0.0, Yaw : 353.0, Alt : 584.090026855, Lat : -35.363261, Lng : 149.1652299, Q1 : 0.998134791851, Q2 : 0.0, Q3 : 0.0, Q4 : -0.0610485821962}
2019-04-03 20:41:59.71: SIM {TimeUS : 49935018, Roll : 0.0, Pitch : 0.0, Yaw : 353.0, Alt : 584.090026855, Lat : -35.363261, Lng : 149.1652299, Q1 : 0.998134791851, Q2 : 0.0, Q3 : 0.0, Q4 : -0.0610485821962}
2019-04-03 20:41:59.81: SIM {TimeUS : 50034978, Roll : 0.0, Pitch : 0.0, Yaw : 353.0, Alt : 584.090026855, Lat : -35.363261, Lng : 149.1652299, Q1 : 0.998134791851, Q2 : 0.0, Q3 : 0.0, Q4 : -0.0610485821962}
2019-04-03 20:41:59.91: SIM {TimeUS : 50134938, Roll : 0.0, Pitch : 0.0, Yaw : 353.0, Alt : 584.090026855, Lat : -35.363261, Lng : 149.1652299, Q1 : 0.998134791851, Q2 : 0.0, Q3 : 0.0, Q4 : -0.0610485821962}
2019-04-03 20:42:00.01: SIM {TimeUS : 50234898, Roll : 0.0, Pitch : 0.0, Yaw : 353.0, Alt : 584.090026855, Lat : -35.363261, Lng : 149.1652299, Q1 : 0.998134791851, Q2 : 0.0, Q3 : 0.0, Q4 : -0.0610485821962}
2019-04-03 20:42:00.11: SIM {TimeUS : 50334858, Roll : 0.0, Pitch : 0.0, Yaw : 353.0, Alt : 584.090026855, Lat : -35.363261, Lng : 149.1652299, Q1 : 0.998134791851, Q2 : 0.0, Q3 : 0.0, Q4 : -0.0610485821962}
2019-04-03 20:42:00.21: SIM {TimeUS : 50434818, Roll : 0.0, Pitch : 0.0, Yaw : 353.0, Alt : 584.090026855, Lat : -35.363261, Lng : 149.1652299, Q1 : 0.998134791851, Q2 : 0.0, Q3 : 0.0, Q4 : -0.0610485821962}
2019-04-03 20:42:00.31: SIM {TimeUS : 50534778, Roll : 0.0, Pitch : 0.0, Yaw : 353.0, Alt : 584.090026855, Lat : -35.363261, Lng : 149.1652299, Q1 : 0.998134791851, Q2 : 0.0, Q3 : 0.0, Q4 : -0.0610485821962}
2019-04-03 20:42:00.41: SIM {TimeUS : 50634738, Roll : 0.0, Pitch : 0.0, Yaw : 353.0, Alt : 584.090026855, Lat : -35.363261, Lng : 149.1652299, Q1 : 0.998134791851, Q2 : 0.0, Q3 : 0.0, Q4 : -0.0610485821962}
2019-04-03 20:42:02.51: SIM {TimeUS : 52734731, Roll : 0.0, Pitch : 0.0, Yaw : 353.0, Alt : 584.090026855, Lat : -35.363261, Lng : 149.1652299, Q1 : 0.998134791851, Q2 : 0.0, Q3 : 0.0, Q4 : -0.0610485821962}
2019-04-03 20:42:02.61: SIM {TimeUS : 52834691, Roll : 0.0, Pitch : 0.0, Yaw : 353.0, Alt : 584.090026855, Lat : -35.363261, Lng : 149.1652299, Q1 : 0.998134791851, Q2 : 0.0, Q3 : 0.0, Q4 : -0.0610485821962}
2019-04-03 20:42:02.71: SIM {TimeUS : 52934651, Roll : 0.0, Pitch : 0.0, Yaw : 353.0, Alt : 584.090026855, Lat : -35.363261, Lng : 149.1652299, Q1 : 0.998134791851, Q2 : 0.0, Q3 : 0.0, Q4 : -0.0610485821962}
2019-04-03 20:42:02.81: SIM {TimeUS : 53034611, Roll : 0.0, Pitch : 0.0, Yaw : 353.0, Alt : 584.090026855, Lat : -35.363261, Lng : 149.1652299, Q1 : 0.998134791851, Q2 : 0.0, Q3 : 0.0, Q4 : -0.0610485821962}
2019-04-03 20:42:02.91: SIM {TimeUS : 53134571, Roll : 0.0, Pitch : 0.0, Yaw : 353.0, Alt : 584.090026855, Lat : -35.363261, Lng : 149.1652299, Q1 : 0.998134791851, Q2 : 0.0, Q3 : 0.0, Q4 : -0.0610485821962}
2019-04-03 20:42:03.01: SIM {TimeUS : 53234531, Roll : 0.0, Pitch : 0.0, Yaw : 353.0, Alt : 584.090026855, Lat : -35.363261, Lng : 149.1652299, Q1 : 0.998134791851, Q2 : 0.0, Q3 : 0.0, Q4 : -0.0610485821962}
2019-04-03 20:42:03.11: SIM {TimeUS : 53335324, Roll : 0.0, Pitch : 0.0, Yaw : 353.0, Alt : 584.090026855, Lat : -35.363261, Lng : 149.1652299, Q1 : 0.998134791851, Q2 : 0.0, Q3 : 0.0, Q4 : -0.0610485821962}
2019-04-03 20:42:03.21: SIM {TimeUS : 53435284, Roll : 0.0, Pitch : 0.0, Yaw : 353.0, Alt : 584.090026855, Lat : -35.363261, Lng : 149.1652299, Q1 : 0.998134791851, Q2 : 0.0, Q3 : 0.0, Q4 : -0.0610485821962}
2019-04-03 20:42:03.31: SIM {TimeUS : 53535244, Roll : 0.0, Pitch : 0.0, Yaw : 353.0, Alt : 584.090026855, Lat : -35.363261, Lng : 149.1652299, Q1 : 0.998134791851, Q2 : 0.0, Q3 : 0.0, Q4 : -0.0610485821962}
2019-04-03 20:42:03.41: SIM {TimeUS : 53635204, Roll : 0.0, Pitch : 0.0, Yaw : 353.0, Alt : 584.090026855, Lat : -35.363261, Lng : 149.1652299, Q1 : 0.998134791851, Q2 : 0.0, Q3 : 0.0, Q4 : -0.0610485821962}
2019-04-03 20:42:03.51: SIM {TimeUS : 53735164, Roll : 0.0, Pitch : 0.0, Yaw : 353.0, Alt : 584.090026855, Lat : -35.363261, Lng : 149.1652299, Q1 : 0.998134791851, Q2 : 0.0, Q3 : 0.0, Q4 : -0.0610485821962}
2019-04-03 20:42:03.61: SIM {TimeUS : 53835124, Roll : 0.0, Pitch : 0.0, Yaw : 353.0, Alt : 584.090026855, Lat : -35.363261, Lng : 149.1652299, Q1 : 0.998134791851, Q2 : 0.0, Q3 : 0.0, Q4 : -0.0610485821962}
2019-04-03 20:42:03.71: SIM {TimeUS : 53935084, Roll : 0.0, Pitch : 0.0, Yaw : 353.0, Alt : 584.090026855, Lat : -35.363261, Lng : 149.1652299, Q1 : 0.998134791851, Q2 : 0.0, Q3 : 0.0, Q4 : -0.0610485821962}
2019-04-03 20:42:03.81: SIM {TimeUS : 54035044, Roll : 0.0, Pitch : 0.0, Yaw : 353.0, Alt : 584.090026855, Lat : -35.363261, Lng : 149.1652299, Q1 : 0.998134791851, Q2 : 0.0, Q3 : 0.0, Q4 : -0.0610485821962}
2019-04-03 20:42:03.91: SIM {TimeUS : 54135004, Roll : 0.0, Pitch : 0.0, Yaw : 353.0, Alt : 584.090026855, Lat : -35.363261, Lng : 149.1652299, Q1 : 0.998134791851, Q2 : 0.0, Q3 : 0.0, Q4 : -0.0610485821962}
2019-04-03 20:42:04.01: SIM {TimeUS : 54234964, Roll : 0.0, Pitch : 0.0, Yaw : 353.0, Alt : 584.090026855, Lat : -35.363261, Lng : 149.1652299, Q1 : 0.998134791851, Q2 : 0.0, Q3 : 0.0, Q4 : -0.0610485821962}
2019-04-03 20:42:04.11: SIM {TimeUS : 54334924, Roll : 0.0, Pitch : 0.0, Yaw : 353.0, Alt : 584.090026855, Lat : -35.363261, Lng : 149.1652299, Q1 : 0.998134791851, Q2 : 0.0, Q3 : 0.0, Q4 : -0.0610485821962}
2019-04-03 20:42:04.21: SIM {TimeUS : 54434884, Roll : 0.0, Pitch : 0.0, Yaw : 353.0, Alt : 584.090026855, Lat : -35.363261, Lng : 149.1652299, Q1 : 0.998134791851, Q2 : 0.0, Q3 : 0.0, Q4 : -0.0610485821962}
2019-04-03 20:42:04.31: SIM {TimeUS : 54534844, Roll : 0.0, Pitch : 0.0, Yaw : 353.0, Alt : 584.090026855, Lat : -35.363261, Lng : 149.1652299, Q1 : 0.998134791851, Q2 : 0.0, Q3 : 0.0, Q4 : -0.0610485821962}
2019-04-03 20:42:04.41: SIM {TimeUS : 54634804, Roll : 0.0, Pitch : 0.0, Yaw : 353.0, Alt : 584.090026855, Lat : -35.363261, Lng : 149.1652299, Q1 : 0.998134791851, Q2 : 0.0, Q3 : 0.0, Q4 : -0.0610485821962}
2019-04-03 20:42:04.51: SIM {TimeUS : 54734764, Roll : 0.0, Pitch : 0.0, Yaw : 353.0, Alt : 584.090026855, Lat : -35.363261, Lng : 149.1652299, Q1 : 0.998134791851, Q2 : 0.0, Q3 : 0.0, Q4 : -0.0610485821962}
2019-04-03 20:42:04.61: SIM {TimeUS : 54834724, Roll : 0.0, Pitch : 0.0, Yaw : 353.0, Alt : 584.090026855, Lat : -35.363261, Lng : 149.1652299, Q1 : 0.998134791851, Q2 : 0.0, Q3 : 0.0, Q4 : -0.0610485821962}
2019-04-03 20:42:04.71: SIM {TimeUS : 54934684, Roll : 0.0, Pitch : 0.0, Yaw : 353.0, Alt : 584.090026855, Lat : -35.363261, Lng : 149.1652299, Q1 : 0.998134791851, Q2 : 0.0, Q3 : 0.0, Q4 : -0.0610485821962}
2019-04-03 20:42:04.81: SIM {TimeUS : 55034644, Roll : 0.0, Pitch : 0.0, Yaw : 353.0, Alt : 584.090026855, Lat : -35.363261, Lng : 149.1652299, Q1 : 0.998134791851, Q2 : 0.0, Q3 : 0.0, Q4 : -0.0610485821962}
2019-04-03 20:42:04.91: SIM {TimeUS : 55134604, Roll : 0.0, Pitch : 0.0, Yaw : 353.0, Alt : 584.090026855, Lat : -35.363261, Lng : 149.1652299, Q1 : 0.998134791851, Q2 : 0.0, Q3 : 0.0, Q4 : -0.0610485821962}
2019-04-03 20:42:05.01: SIM {TimeUS : 55234564, Roll : 0.0, Pitch : 0.0, Yaw : 353.0, Alt : 584.090026855, Lat : -35.363261, Lng : 149.1652299, Q1 : 0.998134791851, Q2 : 0.0, Q3 : 0.0, Q4 : -0.0610485821962}
2019-04-03 20:42:05.11: SIM {TimeUS : 55334524, Roll : 0.0, Pitch : 0.0, Yaw : 353.0, Alt : 584.090026855, Lat : -35.363261, Lng : 149.1652299, Q1 : 0.998134791851, Q2 : 0.0, Q3 : 0.0, Q4 : -0.0610485821962}
2019-04-03 20:42:05.21: SIM {TimeUS : 55435317, Roll : 0.0, Pitch : 0.0, Yaw : 353.0, Alt : 584.090026855, Lat : -35.363261, Lng : 149.1652299, Q1 : 0.998134791851, Q2 : 0.0, Q3 : 0.0, Q4 : -0.0610485821962}
2019-04-03 20:42:05.31: SIM {TimeUS : 55535277, Roll : 0.0, Pitch : 0.0, Yaw : 353.0, Alt : 584.090026855, Lat : -35.363261, Lng : 149.1652299, Q1 : 0.998134791851, Q2 : 0.0, Q3 : 0.0, Q4 : -0.0610485821962}
2019-04-03 20:42:05.41: SIM {TimeUS : 55635237, Roll : 0.0, Pitch : 0.0, Yaw : 353.0, Alt : 584.090026855, Lat : -35.363261, Lng : 149.1652299, Q1 : 0.998134791851, Q2 : 0.0, Q3 : 0.0, Q4 : -0.0610485821962}
2019-04-03 20:42:05.51: SIM {TimeUS : 55735197, Roll : 0.0, Pitch : 0.0, Yaw : 353.0, Alt : 584.090026855, Lat : -35.363261, Lng : 149.1652299, Q1 : 0.998134791851, Q2 : 0.0, Q3 : 0.0, Q4 : -0.0610485821962}
2019-04-03 20:42:05.61: SIM {TimeUS : 55835157, Roll : 0.0, Pitch : 0.0, Yaw : 353.0, Alt : 584.090026855, Lat : -35.363261, Lng : 149.1652299, Q1 : 0.998134791851, Q2 : 0.0, Q3 : 0.0, Q4 : -0.0610485821962}
2019-04-03 20:42:05.71: SIM {TimeUS : 55935117, Roll : 0.0, Pitch : 0.0, Yaw : 353.0, Alt : 584.090026855, Lat : -35.363261, Lng : 149.1652299, Q1 : 0.998134791851, Q2 : 0.0, Q3 : 0.0, Q4 : -0.0610485821962}
2019-04-03 20:42:05.81: SIM {TimeUS : 56035077, Roll : 0.0, Pitch : 0.0, Yaw : 353.0, Alt : 584.090026855, Lat : -35.363261, Lng : 149.1652299, Q1 : 0.998134791851, Q2 : 0.0, Q3 : 0.0, Q4 : -0.0610485821962}
2019-04-03 20:42:05.91: SIM {TimeUS : 56135037, Roll : 0.0, Pitch : 0.0, Yaw : 353.0, Alt : 584.090026855, Lat : -35.363261, Lng : 149.1652299, Q1 : 0.998134791851, Q2 : 0.0, Q3 : 0.0, Q4 : -0.0610485821962}
2019-04-03 20:42:06.01: SIM {TimeUS : 56234997, Roll : 0.0, Pitch : 0.0, Yaw : 353.0, Alt : 584.090026855, Lat : -35.363261, Lng : 149.1652299, Q1 : 0.998134791851, Q2 : 0.0, Q3 : 0.0, Q4 : -0.0610485821962}
2019-04-03 20:42:06.11: SIM {TimeUS : 56334957, Roll : 0.0, Pitch : 0.0, Yaw : 353.0, Alt : 584.090026855, Lat : -35.363261, Lng : 149.1652299, Q1 : 0.998134791851, Q2 : 0.0, Q3 : 0.0, Q4 : -0.0610485821962}
2019-04-03 20:42:06.21: SIM {TimeUS : 56434917, Roll : 0.0, Pitch : 0.0, Yaw : 353.0, Alt : 584.090026855, Lat : -35.363261, Lng : 149.1652299, Q1 : 0.998134791851, Q2 : 0.0, Q3 : 0.0, Q4 : -0.0610485933721}
2019-04-03 20:42:06.31: SIM {TimeUS : 56534877, Roll : 0.0, Pitch : 0.0, Yaw : 353.0, Alt : 584.090026855, Lat : -35.363261, Lng : 149.1652299, Q1 : 0.998134791851, Q2 : 0.0, Q3 : 0.0, Q4 : -0.0610486641526}
2019-04-03 20:42:06.41: SIM {TimeUS : 56634837, Roll : 0.0, Pitch : 0.0, Yaw : 353.0, Alt : 584.090026855, Lat : -35.363261, Lng : 149.1652299, Q1 : 0.998134791851, Q2 : 0.0, Q3 : 0.0, Q4 : -0.0610486753285}
2019-04-03 20:42:06.51: SIM {TimeUS : 56734797, Roll : 0.0, Pitch : 0.0, Yaw : 353.0, Alt : 584.090026855, Lat : -35.363261, Lng : 149.1652299, Q1 : 0.998134791851, Q2 : 0.0, Q3 : 0.0, Q4 : -0.0610486753285}
2019-04-03 20:42:06.61: SIM {TimeUS : 56834757, Roll : 0.0, Pitch : 0.0, Yaw : 353.0, Alt : 584.090026855, Lat : -35.363261, Lng : 149.1652299, Q1 : 0.998134791851, Q2 : 0.0, Q3 : 0.0, Q4 : -0.0610486753285}
2019-04-03 20:42:06.71: SIM {TimeUS : 56934717, Roll : 0.0, Pitch : 0.0, Yaw : 353.0, Alt : 584.090026855, Lat : -35.363261, Lng : 149.1652299, Q1 : 0.998134791851, Q2 : 0.0, Q3 : 0.0, Q4 : -0.0610486753285}
2019-04-03 20:42:06.81: SIM {TimeUS : 57034677, Roll : 0.0, Pitch : 0.0, Yaw : 353.0, Alt : 584.090026855, Lat : -35.363261, Lng : 149.1652299, Q1 : 0.998134791851, Q2 : 0.0, Q3 : 0.0, Q4 : -0.0610486753285}
2019-04-03 20:42:06.91: SIM {TimeUS : 57134637, Roll : 0.0, Pitch : 0.0, Yaw : 353.0, Alt : 584.090026855, Lat : -35.363261, Lng : 149.1652299, Q1 : 0.998134791851, Q2 : 0.0, Q3 : 0.0, Q4 : -0.0610486753285}
2019-04-03 20:42:07.01: SIM {TimeUS : 57234597, Roll : 0.0, Pitch : 0.0, Yaw : 353.0, Alt : 584.099975586, Lat : -35.363261, Lng : 149.1652299, Q1 : 0.998134791851, Q2 : 0.0, Q3 : 0.0, Q4 : -0.0610486753285}
2019-04-03 20:42:07.11: SIM {TimeUS : 57334557, Roll : 0.0, Pitch : 0.0, Yaw : 353.0, Alt : 584.099975586, Lat : -35.363261, Lng : 149.1652299, Q1 : 0.998134791851, Q2 : 0.0, Q3 : 0.0, Q4 : -0.0610486753285}
2019-04-03 20:42:07.21: SIM {TimeUS : 57434517, Roll : 0.0, Pitch : 0.0, Yaw : 353.0, Alt : 584.109985352, Lat : -35.363261, Lng : 149.1652299, Q1 : 0.998134791851, Q2 : 0.0, Q3 : 0.0, Q4 : -0.0610486753285}
2019-04-03 20:42:07.31: SIM {TimeUS : 57535310, Roll : 0.0, Pitch : 0.0, Yaw : 353.0, Alt : 584.119995117, Lat : -35.363261, Lng : 149.1652299, Q1 : 0.998134791851, Q2 : 0.0, Q3 : 0.0, Q4 : -0.0610486753285}
2019-04-03 20:42:07.41: SIM {TimeUS : 57635270, Roll : 0.0, Pitch : 0.0, Yaw : 353.0, Alt : 584.150024414, Lat : -35.363261, Lng : 149.1652299, Q1 : 0.998134791851, Q2 : 0.0, Q3 : 0.0, Q4 : -0.0610486753285}
2019-04-03 20:42:07.51: SIM {TimeUS : 57735230, Roll : 0.0, Pitch : 0.0, Yaw : 353.0, Alt : 584.179992676, Lat : -35.363261, Lng : 149.1652299, Q1 : 0.998134791851, Q2 : 0.0, Q3 : 0.0, Q4 : -0.0610486753285}
2019-04-03 20:42:07.61: SIM {TimeUS : 57835190, Roll : 0.0, Pitch : 0.0, Yaw : 352.99, Alt : 584.219970703, Lat : -35.363261, Lng : 149.1652299, Q1 : 0.998134791851, Q2 : -2.08960336749e-05, Q3 : -2.23338229262e-05, Q4 : -0.0610487647355}
2019-04-03 20:42:07.71: SIM {TimeUS : 57935150, Roll : -0.03, Pitch : -0.05, Yaw : 352.99, Alt : 584.289978027, Lat : -35.363261, Lng : 149.1652299, Q1 : 0.998134374619, Q2 : -0.000345358654158, Q3 : -0.000436918606283, Q4 : -0.061053622514}
2019-04-03 20:42:07.81: SIM {TimeUS : 58035110, Roll : -0.09, Pitch : -0.11, Yaw : 352.99, Alt : 584.409973145, Lat : -35.363261, Lng : 149.1652299, Q1 : 0.998133003712, Q2 : -0.000889025628567, Q3 : -0.000990990549326, Q4 : -0.0610635019839}
2019-04-03 20:42:07.91: SIM {TimeUS : 58135070, Roll : -0.15, Pitch : -0.17, Yaw : 352.99, Alt : 584.559997559, Lat : -35.363261, Lng : 149.1652299, Q1 : 0.99813079834, Q2 : -0.00146120681893, Q3 : -0.00147974316496, Q4 : -0.0610791631043}
2019-04-03 20:42:08.01: SIM {TimeUS : 58235030, Roll : -0.18, Pitch : -0.19, Yaw : 352.99, Alt : 584.719970703, Lat : -35.363261, Lng : 149.1652299, Q1 : 0.998128831387, Q2 : -0.00172342150472, Q3 : -0.00158058863599, Q4 : -0.0611014999449}
2019-04-03 20:42:08.11: SIM {TimeUS : 58334990, Roll : -0.17, Pitch : -0.16, Yaw : 352.99, Alt : 584.869995117, Lat : -35.363261, Lng : 149.1652299, Q1 : 0.998127639294, Q2 : -0.00158258003648, Q3 : -0.00133315043058, Q4 : -0.0611312799156}
2019-04-03 20:42:08.21: SIM {TimeUS : 58434950, Roll : -0.14, Pitch : -0.1, Yaw : 352.98, Alt : 585.020019531, Lat : -35.363261, Lng : 149.1652299, Q1 : 0.998126745224, Q2 : -0.00129395164549, Q3 : -0.000854158832226, Q4 : -0.0611614659429}
2019-04-03 20:42:08.31: SIM {TimeUS : 58534910, Roll : -0.08, Pitch : -0.04, Yaw : 352.98, Alt : 585.16998291, Lat : -35.363261, Lng : 149.1652299, Q1 : 0.998126149178, Q2 : -0.000753009400796, Q3 : -0.000362932885764, Q4 : -0.0611841380596}
2019-04-03 20:42:08.41: SIM {TimeUS : 58634870, Roll : 0.0, Pitch : 0.02, Yaw : 352.98, Alt : 585.33001709, Lat : -35.363261, Lng : 149.1652299, Q1 : 0.998125553131, Q2 : -2.86738741124e-05, Q3 : 0.000195966727915, Q4 : -0.0612000860274}
2019-04-03 20:42:08.51: SIM {TimeUS : 58734830, Roll : 0.05, Pitch : 0.08, Yaw : 352.98, Alt : 585.5, Lat : -35.363261, Lng : 149.1652299, Q1 : 0.998124539852, Q2 : 0.000489796919283, Q3 : 0.000700046075508, Q4 : -0.0612104088068}
2019-04-03 20:42:08.61: SIM {TimeUS : 58834790, Roll : 0.05, Pitch : 0.1, Yaw : 352.98, Alt : 585.66998291, Lat : -35.363261, Lng : 149.1652298, Q1 : 0.99812412262, Q2 : 0.000560515443794, Q3 : 0.000858214858454, Q4 : -0.0612143240869}
2019-04-03 20:42:08.71: SIM {TimeUS : 58934750, Roll : 0.03, Pitch : 0.07, Yaw : 352.98, Alt : 585.849975586, Lat : -35.3632609, Lng : 149.1652298, Q1 : 0.998124480247, Q2 : 0.000340224156389, Q3 : 0.000653701426927, Q4 : -0.061212554574}
2019-04-03 20:42:08.81: SIM {TimeUS : 59034710, Roll : 0.0, Pitch : 0.02, Yaw : 352.98, Alt : 586.039978027, Lat : -35.3632609, Lng : 149.1652298, Q1 : 0.998124837875, Q2 : -2.29847401556e-07, Q3 : 0.000185812619748, Q4 : -0.0612111799419}
2019-04-03 20:42:08.91: SIM {TimeUS : 59134670, Roll : -0.03, Pitch : -0.02, Yaw : 352.98, Alt : 586.219970703, Lat : -35.3632609, Lng : 149.1652298, Q1 : 0.998125016689, Q2 : -0.000336326775141, Q3 : -0.000175541412318, Q4 : -0.0612080171704}
2019-04-03 20:42:09.01: SIM {TimeUS : 59234630, Roll : -0.06, Pitch : -0.03, Yaw : 352.98, Alt : 586.409973145, Lat : -35.3632609, Lng : 149.1652298, Q1 : 0.998125314713, Q2 : -0.000545246817637, Q3 : -0.000314047385473, Q4 : -0.0612002462149}
2019-04-03 20:42:09.11: SIM {TimeUS : 59334590, Roll : -0.06, Pitch : -0.03, Yaw : 352.98, Alt : 586.609985352, Lat : -35.3632609, Lng : 149.1652298, Q1 : 0.998125910759, Q2 : -0.000600159110036, Q3 : -0.000305261375615, Q4 : -0.0611905641854}
2019-04-03 20:42:09.21: SIM {TimeUS : 59434550, Roll : -0.06, Pitch : -0.02, Yaw : 352.98, Alt : 586.799987793, Lat : -35.3632609, Lng : 149.1652298, Q1 : 0.99812656641, Q2 : -0.000582896347623, Q3 : -0.000214743777178, Q4 : -0.0611805915833}
2019-04-03 20:42:09.31: SIM {TimeUS : 59534510, Roll : -0.04, Pitch : 0.0, Yaw : 352.98, Alt : 587.0, Lat : -35.3632609, Lng : 149.1652298, Q1 : 0.998127102852, Q2 : -0.000435414869571, Q3 : 2.87323268822e-06, Q4 : -0.0611735060811}
2019-04-03 20:42:09.41: SIM {TimeUS : 59635303, Roll : -0.02, Pitch : 0.02, Yaw : 352.98, Alt : 587.200012207, Lat : -35.3632609, Lng : 149.1652298, Q1 : 0.998127281666, Q2 : -0.000202176728635, Q3 : 0.000267891329713, Q4 : -0.061171207577}
2019-04-03 20:42:09.51: SIM {TimeUS : 59735263, Roll : 0.0, Pitch : 0.06, Yaw : 352.98, Alt : 587.390014648, Lat : -35.3632609, Lng : 149.1652298, Q1 : 0.998127162457, Q2 : 5.16337859153e-05, Q3 : 0.000540520297363, Q4 : -0.0611713342369}
2019-04-03 20:42:09.61: SIM {TimeUS : 59835223, Roll : 0.02, Pitch : 0.08, Yaw : 352.98, Alt : 587.570007324, Lat : -35.3632609, Lng : 149.1652298, Q1 : 0.998126924038, Q2 : 0.000263429305051, Q3 : 0.000718981144018, Q4 : -0.0611730590463}
2019-04-03 20:42:09.71: SIM {TimeUS : 59935183, Roll : 0.03, Pitch : 0.08, Yaw : 352.98, Alt : 587.739990234, Lat : -35.3632609, Lng : 149.1652298, Q1 : 0.998126506805, Q2 : 0.000375156931113, Q3 : 0.000726694706827, Q4 : -0.0611792057753}
2019-04-03 20:42:09.81: SIM {TimeUS : 60035143, Roll : 0.01, Pitch : 0.03, Yaw : 352.98, Alt : 587.900024414, Lat : -35.3632609, Lng : 149.1652298, Q1 : 0.998126149178, Q2 : 0.000143317200127, Q3 : 0.000285309739411, Q4 : -0.0611892305315}
2019-04-03 20:42:09.91: SIM {TimeUS : 60135103, Roll : -0.11, Pitch : -0.19, Yaw : 352.98, Alt : 588.049987793, Lat : -35.3632609, Lng : 149.1652298, Q1 : 0.998123347759, Q2 : -0.00113815208897, Q3 : -0.0016415019054, Q4 : -0.0612029358745}
2019-04-03 20:42:10.01: SIM {TimeUS : 60235063, Roll : -0.39, Pitch : -0.66, Yaw : 352.98, Alt : 588.179992676, Lat : -35.3632609, Lng : 149.1652298, Q1 : 0.998101651669, Q2 : -0.00376096973196, Q3 : -0.00561941741034, Q4 : -0.0612164661288}
2019-04-03 20:42:10.11: SIM {TimeUS : 60335023, Roll : -0.78, Pitch : -1.38, Yaw : 352.98, Alt : 588.299987793, Lat : -35.3632609, Lng : 149.1652298, Q1 : 0.998026907444, Q2 : -0.00756236398593, Q3 : -0.0116533832625, Q4 : -0.0612315423787}
2019-04-03 20:42:10.21: SIM {TimeUS : 60434983, Roll : -1.23, Pitch : -2.28, Yaw : 352.99, Alt : 588.409973145, Lat : -35.3632608, Lng : 149.1652298, Q1 : 0.99786400795, Q2 : -0.012002620846, Q3 : -0.0192594528198, Q4 : -0.0612570010126}
2019-04-03 20:42:10.31: SIM {TimeUS : 60534943, Roll : -1.71, Pitch : -3.27, Yaw : 353.01, Alt : 588.510009766, Lat : -35.3632608, Lng : 149.1652297, Q1 : 0.997598409653, Q2 : -0.0166719332337, Q3 : -0.0275703407824, Q4 : -0.0613140873611}
2019-04-03 20:42:10.41: SIM {TimeUS : 60634903, Roll : -2.14, Pitch : -4.18, Yaw : 353.03, Alt : 588.590026855, Lat : -35.3632607, Lng : 149.1652297, Q1 : 0.99726909399, Q2 : -0.0208812262863, Q3 : -0.0353013835847, Q4 : -0.0614177361131}
2019-04-03 20:42:10.51: SIM {TimeUS : 60734863, Roll : -2.47, Pitch : -4.92, Yaw : 353.03, Alt : 588.66998291, Lat : -35.3632604, Lng : 149.1652294, Q1 : 0.996945679188, Q2 : -0.0241122301668, Q3 : -0.0415480621159, Q4 : -0.0615767799318}
2019-04-03 20:42:10.61: SIM {TimeUS : 60834823, Roll : -2.71, Pitch : -5.45, Yaw : 353.03, Alt : 588.729980469, Lat : -35.3632603, Lng : 149.1652293, Q1 : 0.996672213078, Q2 : -0.0265069194138, Q3 : -0.0460731834173, Q4 : -0.0617992766201}
2019-04-03 20:42:10.71: SIM {TimeUS : 60934783, Roll : -2.9, Pitch : -5.83, Yaw : 353.01, Alt : 588.789978027, Lat : -35.3632601, Lng : 149.1652291, Q1 : 0.996453285217, Q2 : -0.0283955316991, Q3 : -0.0492136888206, Q4 : -0.0620686151087}
2019-04-03 20:42:10.81: SIM {TimeUS : 61034743, Roll : -3.08, Pitch : -6.13, Yaw : 353.0, Alt : 588.840026855, Lat : -35.3632597, Lng : 149.1652289, Q1 : 0.996257007122, Q2 : -0.0301214754581, Q3 : -0.0517301931977, Q4 : -0.0623593479395}
2019-04-03 20:42:10.91: SIM {TimeUS : 61134703, Roll : -3.24, Pitch : -6.42, Yaw : 352.98, Alt : 588.880004883, Lat : -35.3632593, Lng : 149.1652286, Q1 : 0.996059715748, Q2 : -0.0316845215857, Q3 : -0.054206263274, Q4 : -0.0626325905323}
2019-04-03 20:42:11.01: SIM {TimeUS : 61234663, Roll : -3.41, Pitch : -6.75, Yaw : 352.97, Alt : 588.91998291, Lat : -35.3632589, Lng : 149.1652282, Q1 : 0.995839476585, Q2 : -0.0332758501172, Q3 : -0.0569455213845, Q4 : -0.0628786981106}
2019-04-03 20:42:11.11: SIM {TimeUS : 61334623, Roll : -3.55, Pitch : -7.09, Yaw : 352.96, Alt : 588.950012207, Lat : -35.3632584, Lng : 149.1652278, Q1 : 0.995607376099, Q2 : -0.0346815399826, Q3 : -0.0598589666188, Q4 : -0.0630874782801}
2019-04-03 20:42:11.21: SIM {TimeUS : 61434583, Roll : -3.65, Pitch : -7.4, Yaw : 352.96, Alt : 588.979980469, Lat : -35.3632578, Lng : 149.1652273, Q1 : 0.995397031307, Q2 : -0.0357321090996, Q3 : -0.0624897629023, Q4 : -0.063269354403}
2019-04-03 20:42:11.31: SIM {TimeUS : 61534543, Roll : -3.73, Pitch : -7.6, Yaw : 352.95, Alt : 589.010009766, Lat : -35.3632572, Lng : 149.1652268, Q1 : 0.99525052309, Q2 : -0.0365063510835, Q3 : -0.06417311728, Q4 : -0.0634471848607}
2019-04-03 20:42:11.41: SIM {TimeUS : 61634503, Roll : -3.78, Pitch : -7.7, Yaw : 352.94, Alt : 589.030029297, Lat : -35.3632565, Lng : 149.1652262, Q1 : 0.995168566704, Q2 : -0.0370220765471, Q3 : -0.0649968013167, Q4 : -0.0635953992605}
2019-04-03 20:42:11.51: SIM {TimeUS : 61735296, Roll : -3.83, Pitch : -7.77, Yaw : 352.93, Alt : 589.049987793, Lat : -35.3632556, Lng : 149.1652255, Q1 : 0.995106816292, Q2 : -0.037502143532, Q3 : -0.0655692890286, Q4 : -0.0636922419071}
2019-04-03 20:42:11.61: SIM {TimeUS : 61835256, Roll : -3.9, Pitch : -7.86, Yaw : 352.93, Alt : 589.08001709, Lat : -35.3632549, Lng : 149.1652249, Q1 : 0.995032548904, Q2 : -0.0381279401481, Q3 : -0.0662864148617, Q4 : -0.0637391656637}
2019-04-03 20:42:11.71: SIM {TimeUS : 61935216, Roll : -4.03, Pitch : -7.98, Yaw : 352.93, Alt : 589.099975586, Lat : -35.363254, Lng : 149.1652241, Q1 : 0.994910359383, Q2 : -0.0393266007304, Q3 : -0.067258939147, Q4 : -0.0638988092542}
2019-04-03 20:42:11.81: SIM {TimeUS : 62035176, Roll : -4.43, Pitch : -8.09, Yaw : 352.65, Alt : 589.109985352, Lat : -35.363253, Lng : 149.1652234, Q1 : 0.994531929493, Q2 : -0.0430512726307, Q3 : -0.0679400414228, Q4 : -0.0666105598211}
2019-04-03 20:42:11.91: SIM {TimeUS : 62135136, Roll : -5.07, Pitch : -8.24, Yaw : 351.43, Alt : 589.130004883, Lat : -35.3632519, Lng : 149.1652225, Q1 : 0.993411421776, Q2 : -0.0494282506406, Q3 : -0.0682988539338, Q4 : -0.0776264071465}
2019-04-03 20:42:12.01: SIM {TimeUS : 62235096, Roll : -5.53, Pitch : -8.58, Yaw : 348.65, Alt : 589.150024414, Lat : -35.363251, Lng : 149.1652216, Q1 : 0.990795493126, Q2 : -0.0552877560258, Q3 : -0.0696378350258, Q4 : -0.102069437504}
2019-04-03 20:42:12.11: SIM {TimeUS : 62335056, Roll : -5.33, Pitch : -9.18, Yaw : 344.22, Alt : 589.16998291, Lat : -35.3632499, Lng : 149.1652207, Q1 : 0.985774874687, Q2 : -0.0569551214576, Q3 : -0.0728850141168, Q4 : -0.140327706933}
2019-04-03 20:42:12.21: SIM {TimeUS : 62435016, Roll : -4.14, Pitch : -9.99, Yaw : 338.65, Alt : 589.179992676, Lat : -35.3632488, Lng : 149.1652196, Q1 : 0.977736532688, Q2 : -0.0515232495964, Q3 : -0.0788681209087, Q4 : -0.187500685453}
2019-04-03 20:42:12.31: SIM {TimeUS : 62534976, Roll : -2.13, Pitch : -10.8, Yaw : 332.72, Alt : 589.200012207, Lat : -35.3632476, Lng : 149.1652184, Q1 : 0.966905534267, Q2 : -0.0402385368943, Q3 : -0.0871312841773, Q4 : -0.236395269632}
2019-04-03 20:42:12.41: SIM {TimeUS : 62634936, Roll : 0.22, Pitch : -11.48, Yaw : 327.18, Alt : 589.219970703, Lat : -35.3632464, Lng : 149.1652173, Q1 : 0.954512834549, Q2 : -0.0263923108578, Q3 : -0.096521101892, Q4 : -0.280877918005}
2019-04-03 20:42:12.51: SIM {TimeUS : 62734896, Roll : 2.41, Pitch : -11.93, Yaw : 322.62, Alt : 589.239990234, Lat : -35.3632451, Lng : 149.165216, Q1 : 0.942648887634, Q2 : -0.0134613672271, Q3 : -0.105190359056, Q4 : -0.316491574049}
2019-04-03 20:42:12.61: SIM {TimeUS : 62834856, Roll : 4.03, Pitch : -12.2, Yaw : 319.45, Alt : 589.260009766, Lat : -35.3632437, Lng : 149.1652149, Q1 : 0.933444559574, Q2 : -0.00398169597611, Q3 : -0.111827127635, Q4 : -0.34082275629}
2019-04-03 20:42:12.71: SIM {TimeUS : 62934816, Roll : 4.89, Pitch : -12.4, Yaw : 317.77, Alt : 589.280029297, Lat : -35.3632421, Lng : 149.1652135, Q1 : 0.928224086761, Q2 : 0.000725822814275, Q3 : -0.115947976708, Q4 : -0.353490620852}
2019-04-03 20:42:12.81: SIM {TimeUS : 63034776, Roll : 4.95, Pitch : -12.6, Yaw : 317.46, Alt : 589.299987793, Lat : -35.3632406, Lng : 149.1652123, Q1 : 0.927130699158, Q2 : 0.00030978032737, Q3 : -0.11778010428, Q4 : -0.355747789145}
2019-04-03 20:42:12.91: SIM {TimeUS : 63134736, Roll : 4.35, Pitch : -12.88, Yaw : 318.27, Alt : 589.33001709, Lat : -35.3632389, Lng : 149.165211, Q1 : 0.929388582706, Q2 : -0.00466153817251, Q3 : -0.118240371346, Q4 : -0.349620342255}
2019-04-03 20:42:13.01: SIM {TimeUS : 63234696, Roll : 3.26, Pitch : -13.29, Yaw : 319.89, Alt : 589.349975586, Lat : -35.3632371, Lng : 149.1652097, Q1 : 0.933804452419, Q2 : -0.0131303966045, Q3 : -0.118410989642, Q4 : -0.337365806103}
2019-04-03 20:42:13.11: SIM {TimeUS : 63334656, Roll : 1.92, Pitch : -13.78, Yaw : 322.0, Alt : 589.369995117, Lat : -35.3632353, Lng : 149.1652083, Q1 : 0.939222276211, Q2 : -0.0232654623687, Q3 : -0.11889064312, Q4 : -0.321224659681}
2019-04-03 20:42:13.21: SIM {TimeUS : 63434616, Roll : 0.57, Pitch : -14.25, Yaw : 324.3, Alt : 589.400024414, Lat : -35.3632333, Lng : 149.1652069, Q1 : 0.944700598717, Q2 : -0.0333179980516, Q3 : -0.119634211063, Q4 : -0.30350998044}
2019-04-03 20:42:13.31: SIM {TimeUS : 63534576, Roll : -0.64, Pitch : -14.63, Yaw : 326.49, Alt : 589.429992676, Lat : -35.3632312, Lng : 149.1652056, Q1 : 0.949548363686, Q2 : -0.0420364402235, Q3 : -0.120383746922, Q4 : -0.286528557539}
2019-04-03 20:42:13.41: SIM {TimeUS : 63634536, Roll : -1.58, Pitch : -14.88, Yaw : 328.33, Alt : 589.450012207, Lat : -35.3632293, Lng : 149.165204, Q1 : 0.95338588953, Q2 : -0.0485000237823, Q3 : -0.120893649757, Q4 : -0.27219080925}
2019-04-03 20:42:13.51: SIM {TimeUS : 63734496, Roll : -2.2, Pitch : -15.03, Yaw : 329.66, Alt : 589.479980469, Lat : -35.3632272, Lng : 149.1652025, Q1 : 0.956038236618, Q2 : -0.0525853559375, Q3 : -0.121232606471, Q4 : -0.261779129505}
2019-04-03 20:42:13.61: SIM {TimeUS : 63835289, Roll : -2.47, Pitch : -15.1, Yaw : 330.41, Alt : 589.510009766, Lat : -35.363225, Lng : 149.1652007, Q1 : 0.957511365414, Q2 : -0.0542582459748, Q3 : -0.121607191861, Q4 : -0.2558118999}
2019-04-03 20:42:13.71: SIM {TimeUS : 63935249, Roll : -2.42, Pitch : -15.13, Yaw : 330.58, Alt : 589.539978027, Lat : -35.3632227, Lng : 149.165199, Q1 : 0.957890868187, Q2 : -0.0537224970758, Q3 : -0.122063733637, Q4 : -0.254282206297}
2019-04-03 20:42:13.81: SIM {TimeUS : 64035209, Roll : -2.13, Pitch : -15.18, Yaw : 330.28, Alt : 589.570007324, Lat : -35.3632205, Lng : 149.1651972, Q1 : 0.957296252251, Q2 : -0.0516911819577, Q3 : -0.122945055366, Q4 : -0.256508111954}
2019-04-03 20:42:13.91: SIM {TimeUS : 64135169, Roll : -1.66, Pitch : -15.25, Yaw : 329.62, Alt : 589.599975586, Lat : -35.3632182, Lng : 149.1651953, Q1 : 0.955921173096, Q2 : -0.0486522167921, Q3 : -0.124301478267, Q4 : -0.26152792573}
2019-04-03 20:42:14.01: SIM {TimeUS : 64235129, Roll : -1.08, Pitch : -15.33, Yaw : 328.73, Alt : 589.630004883, Lat : -35.3632159, Lng : 149.1651933, Q1 : 0.954028129578, Q2 : -0.0449807494879, Q3 : -0.125950470567, Q4 : -0.268223017454}
2019-04-03 20:42:14.11: SIM {TimeUS : 64335089, Roll : -0.48, Pitch : -15.44, Yaw : 327.78, Alt : 589.659973145, Lat : -35.3632135, Lng : 149.1651913, Q1 : 0.951851665974, Q2 : -0.0413321368396, Q3 : -0.127940282226, Q4 : -0.275502085686}
2019-04-03 20:42:14.21: SIM {TimeUS : 64435049, Roll : 0.04, Pitch : -15.57, Yaw : 326.86, Alt : 589.690002441, Lat : -35.3632111, Lng : 149.1651892, Q1 : 0.949674189091, Q2 : -0.0382460728288, Q3 : -0.129958465695, Q4 : -0.282430499792}
2019-04-03 20:42:14.31: SIM {TimeUS : 64535009, Roll : 0.47, Pitch : -15.67, Yaw : 326.1, Alt : 589.719970703, Lat : -35.3632086, Lng : 149.1651872, Q1 : 0.947782993317, Q2 : -0.0358580611646, Q3 : -0.1316010952, Q4 : -0.288275510073}
2019-04-03 20:42:14.41: SIM {TimeUS : 64634969, Roll : 0.75, Pitch : -15.73, Yaw : 325.53, Alt : 589.75, Lat : -35.363206, Lng : 149.1651851, Q1 : 0.946376442909, Q2 : -0.0342736467719, Q3 : -0.132682353258, Q4 : -0.292561739683}
2019-04-03 20:42:14.51: SIM {TimeUS : 64734929, Roll : 0.89, Pitch : -15.78, Yaw : 325.2, Alt : 589.780029297, Lat : -35.3632033, Lng : 149.1651829, Q1 : 0.945521950722, Q2 : -0.0336284078658, Q3 : -0.133330389857, Q4 : -0.295093953609}
2019-04-03 20:42:14.61: SIM {TimeUS : 64834889, Roll : 0.87, Pitch : -15.83, Yaw : 325.1, Alt : 589.809997559, Lat : -35.3632008, Lng : 149.1651808, Q1 : 0.945202767849, Q2 : -0.0340714305639, Q3 : -0.133633077145, Q4 : -0.29592743516}
2019-04-03 20:42:14.71: SIM {TimeUS : 64934849, Roll : 0.73, Pitch : -15.88, Yaw : 325.2, Alt : 589.840026855, Lat : -35.3631981, Lng : 149.1651786, Q1 : 0.945342838764, Q2 : -0.0352832004428, Q3 : -0.133780092001, Q4 : -0.295271039009}
2019-04-03 20:42:14.81: SIM {TimeUS : 65034809, Roll : 0.51, Pitch : -15.92, Yaw : 325.45, Alt : 589.869995117, Lat : -35.3631953, Lng : 149.1651765, Q1 : 0.945861101151, Q2 : -0.0368881002069, Q3 : -0.133606806397, Q4 : -0.293488025665}
2019-04-03 20:42:14.91: SIM {TimeUS : 65134769, Roll : 0.28, Pitch : -15.94, Yaw : 325.78, Alt : 589.900024414, Lat : -35.3631926, Lng : 149.1651743, Q1 : 0.946622312069, Q2 : -0.0384389907122, Q3 : -0.133297517896, Q4 : -0.290964484215}
2019-04-03 20:42:15.01: SIM {TimeUS : 65234729, Roll : 0.07, Pitch : -15.97, Yaw : 326.15, Alt : 589.929992676, Lat : -35.3631898, Lng : 149.1651719, Q1 : 0.947452187538, Q2 : -0.0398322381079, Q3 : -0.133149698377, Q4 : -0.288130223751}
2019-04-03 20:42:15.11: SIM {TimeUS : 65334689, Roll : -0.12, Pitch : -16.02, Yaw : 326.51, Alt : 589.960021973, Lat : -35.3631869, Lng : 149.1651697, Q1 : 0.948221921921, Q2 : -0.0411588102579, Q3 : -0.133152768016, Q4 : -0.285397082567}
2019-04-03 20:42:15.21: SIM {TimeUS : 65434649, Roll : -0.29, Pitch : -16.07, Yaw : 326.81, Alt : 589.989990234, Lat : -35.3631842, Lng : 149.1651674, Q1 : 0.948843896389, Q2 : -0.042399417609, Q3 : -0.133262306452, Q4 : -0.283087849617}
2019-04-03 20:42:15.31: SIM {TimeUS : 65534609, Roll : -0.44, Pitch : -16.12, Yaw : 327.03, Alt : 590.030029297, Lat : -35.3631813, Lng : 149.1651651, Q1 : 0.949272274971, Q2 : -0.0434995219111, Q3 : -0.133432820439, Q4 : -0.281399399042}
2019-04-03 20:42:15.41: SIM {TimeUS : 65634569, Roll : -0.52, Pitch : -16.18, Yaw : 327.17, Alt : 590.059997559, Lat : -35.3631783, Lng : 149.1651627, Q1 : 0.949503600597, Q2 : -0.0441117323935, Q3 : -0.133743062615, Q4 : -0.280374616385}
2019-04-03 20:42:15.51: SIM {TimeUS : 65734529, Roll : -0.51, Pitch : -16.23, Yaw : 327.21, Alt : 590.090026855, Lat : -35.3631753, Lng : 149.1651604, Q1 : 0.949545919895, Q2 : -0.0441172607243, Q3 : -0.134221807122, Q4 : -0.280001223087}
2019-04-03 20:42:15.61: SIM {TimeUS : 65835322, Roll : -0.44, Pitch : -16.27, Yaw : 327.17, Alt : 590.119995117, Lat : -35.3631725, Lng : 149.1651579, Q1 : 0.949423134327, Q2 : -0.0437315516174, Q3 : -0.134724333882, Q4 : -0.280236840248}
2019-04-03 20:42:15.71: SIM {TimeUS : 65935282, Roll : -0.34, Pitch : -16.31, Yaw : 327.07, Alt : 590.150024414, Lat : -35.3631695, Lng : 149.1651555, Q1 : 0.949175238609, Q2 : -0.0430593714118, Q3 : -0.135230332613, Q4 : -0.280935972929}
2019-04-03 20:42:15.81: SIM {TimeUS : 66035242, Roll : -0.23, Pitch : -16.35, Yaw : 326.93, Alt : 590.179992676, Lat : -35.3631665, Lng : 149.165153, Q1 : 0.948827385902, Q2 : -0.0424190312624, Q3 : -0.135762855411, Q4 : -0.281949788332}
2019-04-03 20:42:15.91: SIM {TimeUS : 66135202, Roll : -0.13, Pitch : -16.39, Yaw : 326.77, Alt : 590.219970703, Lat : -35.3631635, Lng : 149.1651506, Q1 : 0.948424935341, Q2 : -0.0419246479869, Q3 : -0.136329814792, Q4 : -0.283101767302}
2019-04-03 20:42:16.01: SIM {TimeUS : 66235162, Roll : -0.04, Pitch : -16.44, Yaw : 326.62, Alt : 590.25, Lat : -35.3631604, Lng : 149.165148, Q1 : 0.948032200336, Q2 : -0.041453037411, Q3 : -0.136870533228, Q4 : -0.284223526716}
2019-04-03 20:42:16.11: SIM {TimeUS : 66335122, Roll : 0.04, Pitch : -16.48, Yaw : 326.49, Alt : 590.280029297, Lat : -35.3631574, Lng : 149.1651455, Q1 : 0.947696089745, Q2 : -0.0409195795655, Q3 : -0.137390479445, Q4 : -0.285169392824}
2019-04-03 20:42:16.21: SIM {TimeUS : 66435082, Roll : 0.13, Pitch : -16.52, Yaw : 326.4, Alt : 590.309997559, Lat : -35.3631543, Lng : 149.165143, Q1 : 0.94743090868, Q2 : -0.0404398441315, Q3 : -0.13790717721, Q4 : -0.285868674517}
2019-04-03 20:42:16.31: SIM {TimeUS : 66535042, Roll : 0.15, Pitch : -16.54, Yaw : 326.33, Alt : 590.340026855, Lat : -35.3631512, Lng : 149.1651405, Q1 : 0.947261869907, Q2 : -0.040377676487, Q3 : -0.138083860278, Q4 : -0.286352008581}
2019-04-03 20:42:16.41: SIM {TimeUS : 66635002, Roll : 0.12, Pitch : -16.56, Yaw : 326.31, Alt : 590.380004883, Lat : -35.3631479, Lng : 149.1651379, Q1 : 0.947151184082, Q2 : -0.0406967625022, Q3 : -0.138231173158, Q4 : -0.286601871252}
2019-04-03 20:42:16.51: SIM {TimeUS : 66734962, Roll : 0.08, Pitch : -16.61, Yaw : 326.31, Alt : 590.409973145, Lat : -35.3631449, Lng : 149.1651354, Q1 : 0.947097659111, Q2 : -0.0411573238671, Q3 : -0.138474926353, Q4 : -0.286595314741}
2019-04-03 20:42:16.61: SIM {TimeUS : 66834922, Roll : 0.02, Pitch : -16.65, Yaw : 326.34, Alt : 590.440002441, Lat : -35.3631417, Lng : 149.1651327, Q1 : 0.947099030018, Q2 : -0.0417411103845, Q3 : -0.138698339462, Q4 : -0.286398112774}
2019-04-03 20:42:16.71: SIM {TimeUS : 66934882, Roll : -0.02, Pitch : -16.69, Yaw : 326.39, Alt : 590.469970703, Lat : -35.3631386, Lng : 149.1651302, Q1 : 0.947155952454, Q2 : -0.0421942695975, Q3 : -0.138873487711, Q4 : -0.286058455706}
2019-04-03 20:42:16.81: SIM {TimeUS : 67034842, Roll : -0.05, Pitch : -16.7, Yaw : 326.44, Alt : 590.5, Lat : -35.3631354, Lng : 149.1651276, Q1 : 0.947267174721, Q2 : -0.0423831641674, Q3 : -0.138908684254, Q4 : -0.285644769669}
2019-04-03 20:42:16.91: SIM {TimeUS : 67134802, Roll : -0.07, Pitch : -16.7, Yaw : 326.49, Alt : 590.530029297, Lat : -35.3631321, Lng : 149.165125, Q1 : 0.947378396988, Q2 : -0.0425215549767, Q3 : -0.138935819268, Q4 : -0.285242021084}
2019-04-03 20:42:17.01: SIM {TimeUS : 67234762, Roll : -0.1, Pitch : -16.72, Yaw : 326.54, Alt : 590.570007324, Lat : -35.3631289, Lng : 149.1651224, Q1 : 0.947455227375, Q2 : -0.0427351519465, Q3 : -0.139045491815, Q4 : -0.284901022911}
2019-04-03 20:42:17.11: SIM {TimeUS : 67334722, Roll : -0.13, Pitch : -16.76, Yaw : 326.57, Alt : 590.599975586, Lat : -35.3631257, Lng : 149.1651197, Q1 : 0.947477519512, Q2 : -0.0430302470922, Q3 : -0.139332041144, Q4 : -0.284642606974}
2019-04-03 20:42:17.21: SIM {TimeUS : 67434682, Roll : -0.14, Pitch : -16.82, Yaw : 326.59, Alt : 590.630004883, Lat : -35.3631224, Lng : 149.1651171, Q1 : 0.947455346584, Q2 : -0.0432586297393, Q3 : -0.139762833714, Q4 : -0.284470587969}
2019-04-03 20:42:17.31: SIM {TimeUS : 67534642, Roll : -0.13, Pitch : -16.85, Yaw : 326.6, Alt : 590.659973145, Lat : -35.3631192, Lng : 149.1651144, Q1 : 0.947439193726, Q2 : -0.0432364754379, Q3 : -0.140031933784, Q4 : -0.284395247698}
2019-04-03 20:42:17.41: SIM {TimeUS : 67634602, Roll : -0.11, Pitch : -16.86, Yaw : 326.59, Alt : 590.690002441, Lat : -35.3631158, Lng : 149.1651118, Q1 : 0.947411477566, Q2 : -0.0431147776544, Q3 : -0.14017008245, Q4 : -0.284438043833}
2019-04-03 20:42:17.51: SIM {TimeUS : 67734562, Roll : -0.08, Pitch : -16.89, Yaw : 326.57, Alt : 590.729980469, Lat : -35.3631126, Lng : 149.1651091, Q1 : 0.947344958782, Q2 : -0.0429606810212, Q3 : -0.140438020229, Q4 : -0.284550696611}
2019-04-03 20:42:17.61: SIM {TimeUS : 67834522, Roll : -0.05, Pitch : -16.93, Yaw : 326.55, Alt : 590.760009766, Lat : -35.3631093, Lng : 149.1651063, Q1 : 0.947240173817, Q2 : -0.0428473316133, Q3 : -0.140862986445, Q4 : -0.284706622362}
2019-04-03 20:42:17.71: SIM {TimeUS : 67935315, Roll : -0.02, Pitch : -16.97, Yaw : 326.52, Alt : 590.789978027, Lat : -35.363106, Lng : 149.1651037, Q1 : 0.947125554085, Q2 : -0.0427313745022, Q3 : -0.141267091036, Q4 : -0.284905076027}
2019-04-03 20:42:17.81: SIM {TimeUS : 68035275, Roll : 0.0, Pitch : -17.0, Yaw : 326.49, Alt : 590.820007324, Lat : -35.3631026, Lng : 149.165101, Q1 : 0.947021603584, Q2 : -0.0426459386945, Q3 : -0.141572088003, Q4 : -0.285111963749}
2019-04-03 20:42:17.91: SIM {TimeUS : 68135235, Roll : 0.01, Pitch : -17.04, Yaw : 326.46, Alt : 590.859985352, Lat : -35.3630993, Lng : 149.1650982, Q1 : 0.946918606758, Q2 : -0.0426031202078, Q3 : -0.141901746392, Q4 : -0.285296320915}
2019-04-03 20:42:18.01: SIM {TimeUS : 68235195, Roll : 0.01, Pitch : -17.06, Yaw : 326.44, Alt : 590.890014648, Lat : -35.363096, Lng : 149.1650955, Q1 : 0.94682854414, Q2 : -0.0427487418056, Q3 : -0.142107829452, Q4 : -0.285470873117}
2019-04-03 20:42:18.11: SIM {TimeUS : 68335155, Roll : 0.0, Pitch : -17.09, Yaw : 326.42, Alt : 590.91998291, Lat : -35.3630926, Lng : 149.1650928, Q1 : 0.946756482124, Q2 : -0.0429774448276, Q3 : -0.142256900668, Q4 : -0.28560140729}
2019-04-03 20:42:18.21: SIM {TimeUS : 68435115, Roll : -0.01, Pitch : -17.1, Yaw : 326.42, Alt : 590.950012207, Lat : -35.3630892, Lng : 149.16509, Q1 : 0.946720063686, Q2 : -0.0430768802762, Q3 : -0.142333164811, Q4 : -0.285669028759}
2019-04-03 20:42:18.31: SIM {TimeUS : 68535075, Roll : -0.01, Pitch : -17.1, Yaw : 326.41, Alt : 590.989990234, Lat : -35.3630859, Lng : 149.1650872, Q1 : 0.946706414223, Q2 : -0.0431259721518, Q3 : -0.142341718078, Q4 : -0.285702586174}
2019-04-03 20:42:18.41: SIM {TimeUS : 68635035, Roll : -0.01, Pitch : -17.11, Yaw : 326.41, Alt : 591.020019531, Lat : -35.3630825, Lng : 149.1650845, Q1 : 0.946698069572, Q2 : -0.0430907197297, Q3 : -0.142421618104, Q4 : -0.285695642233}
2019-04-03 20:42:18.51: SIM {TimeUS : 68734995, Roll : 0.0, Pitch : -17.13, Yaw : 326.41, Alt : 591.049987793, Lat : -35.3630791, Lng : 149.1650818, Q1 : 0.94667994976, Q2 : -0.0430428087711, Q3 : -0.142647176981, Q4 : -0.285650581121}
2019-04-03 20:42:18.61: SIM {TimeUS : 68834955, Roll : 0.02, Pitch : -17.17, Yaw : 326.42, Alt : 591.08001709, Lat : -35.3630756, Lng : 149.165079, Q1 : 0.946656644344, Q2 : -0.0429180786014, Q3 : -0.142998352647, Q4 : -0.285570830107}
2019-04-03 20:42:18.71: SIM {TimeUS : 68934915, Roll : 0.04, Pitch : -17.2, Yaw : 326.42, Alt : 591.109985352, Lat : -35.3630723, Lng : 149.1650761, Q1 : 0.9466381073, Q2 : -0.0428545363247, Q3 : -0.143294662237, Q4 : -0.285493254662}
2019-04-03 20:42:18.81: SIM {TimeUS : 69034875, Roll : 0.03, Pitch : -17.23, Yaw : 326.43, Alt : 591.140014648, Lat : -35.3630689, Lng : 149.1650733, Q1 : 0.946608245373, Q2 : -0.0429409183562, Q3 : -0.143571332097, Q4 : -0.285440444946}
2019-04-03 20:42:18.91: SIM {TimeUS : 69134835, Roll : 0.02, Pitch : -17.25, Yaw : 326.43, Alt : 591.179992676, Lat : -35.3630653, Lng : 149.1650706, Q1 : 0.946589052677, Q2 : -0.043083447963, Q3 : -0.143711879849, Q4 : -0.285411953926}
2019-04-03 20:42:19.01: SIM {TimeUS : 69234795, Roll : 0.01, Pitch : -17.28, Yaw : 326.44, Alt : 591.210021973, Lat : -35.363062, Lng : 149.1650678, Q1 : 0.946557581425, Q2 : -0.0432490631938, Q3 : -0.143896833062, Q4 : -0.285397976637}
2019-04-03 20:42:19.11: SIM {TimeUS : 69334755, Roll : 0.0, Pitch : -17.3, Yaw : 326.44, Alt : 591.239990234, Lat : -35.3630585, Lng : 149.165065, Q1 : 0.946526825428, Q2 : -0.043391328305, Q3 : -0.144062668085, Q4 : -0.285394668579}
2019-04-03 20:42:19.21: SIM {TimeUS : 69434715, Roll : 0.0, Pitch : -17.34, Yaw : 326.43, Alt : 591.270019531, Lat : -35.363055, Lng : 149.1650622, Q1 : 0.946465134621, Q2 : -0.0436105579138, Q3 : -0.144377171993, Q4 : -0.285406917334}
2019-04-03 20:42:19.31: SIM {TimeUS : 69534675, Roll : -0.02, Pitch : -17.38, Yaw : 326.43, Alt : 591.299987793, Lat : -35.3630516, Lng : 149.1650594, Q1 : 0.946412861347, Q2 : -0.0437957085669, Q3 : -0.144616186619, Q4 : -0.285430938005}
2019-04-03 20:42:19.41: SIM {TimeUS : 69634635, Roll : -0.02, Pitch : -17.4, Yaw : 326.43, Alt : 591.33001709, Lat : -35.3630482, Lng : 149.1650565, Q1 : 0.946365177631, Q2 : -0.0439186766744, Q3 : -0.144830852747, Q4 : -0.285461395979}
2019-04-03 20:42:19.51: SIM {TimeUS : 69734595, Roll : 0.0, Pitch : -17.42, Yaw : 326.42, Alt : 591.369995117, Lat : -35.3630446, Lng : 149.1650536, Q1 : 0.946338951588, Q2 : -0.0437934733927, Q3 : -0.145002827048, Q4 : -0.285480260849}
