2019-04-03 20:57:27.30: SIM {TimeUS : 41116047, Roll : 0.0, Pitch : 0.0, Yaw : 353.0, Alt : 584.090026855, Lat : -35.363261, Lng : 149.1652299, Q1 : 0.998134791851, Q2 : 0.0, Q3 : 0.0, Q4 : -0.0610485821962}
2019-04-03 20:57:27.41: SIM {TimeUS : 41235166, Roll : 0.0, Pitch : 0.0, Yaw : 353.0, Alt : 584.090026855, Lat : -35.363261, Lng : 149.1652299, Q1 : 0.998134791851, Q2 : 0.0, Q3 : 0.0, Q4 : -0.0610485821962}
2019-04-03 20:57:27.51: SIM {TimeUS : 41335126, Roll : 0.0, Pitch : 0.0, Yaw : 353.0, Alt : 584.090026855, Lat : -35.363261, Lng : 149.1652299, Q1 : 0.998134791851, Q2 : 0.0, Q3 : 0.0, Q4 : -0.0610485821962}
2019-04-03 20:57:27.61: SIM {TimeUS : 41435086, Roll : 0.0, Pitch : 0.0, Yaw : 353.0, Alt : 584.090026855, Lat : -35.363261, Lng : 149.1652299, Q1 : 0.998134791851, Q2 : 0.0, Q3 : 0.0, Q4 : -0.0610485821962}
2019-04-03 20:57:27.71: SIM {TimeUS : 41535046, Roll : 0.0, Pitch : 0.0, Yaw : 353.0, Alt : 584.090026855, Lat : -35.363261, Lng : 149.1652299, Q1 : 0.998134791851, Q2 : 0.0, Q3 : 0.0, Q4 : -0.0610485821962}
2019-04-03 20:57:27.81: SIM {TimeUS : 41635006, Roll : 0.0, Pitch : 0.0, Yaw : 353.0, Alt : 584.090026855, Lat : -35.363261, Lng : 149.1652299, Q1 : 0.998134791851, Q2 : 0.0, Q3 : 0.0, Q4 : -0.0610485821962}
2019-04-03 20:57:27.91: SIM {TimeUS : 41734966, Roll : 0.0, Pitch : 0.0, Yaw : 353.0, Alt : 584.090026855, Lat : -35.363261, Lng : 149.1652299, Q1 : 0.998134791851, Q2 : 0.0, Q3 : 0.0, Q4 : -0.0610485821962}
2019-04-03 20:57:28.01: SIM {TimeUS : 41834926, Roll : 0.0, Pitch : 0.0, Yaw : 353.0, Alt : 584.090026855, Lat : -35.363261, Lng : 149.1652299, Q1 : 0.998134791851, Q2 : 0.0, Q3 : 0.0, Q4 : -0.0610485821962}
2019-04-03 20:57:28.11: SIM {TimeUS : 41934886, Roll : 0.0, Pitch : 0.0, Yaw : 353.0, Alt : 584.090026855, Lat : -35.363261, Lng : 149.1652299, Q1 : 0.998134791851, Q2 : 0.0, Q3 : 0.0, Q4 : -0.0610485821962}
2019-04-03 20:57:28.21: SIM {TimeUS : 42034846, Roll : 0.0, Pitch : 0.0, Yaw : 353.0, Alt : 584.090026855, Lat : -35.363261, Lng : 149.1652299, Q1 : 0.998134791851, Q2 : 0.0, Q3 : 0.0, Q4 : -0.0610485821962}
2019-04-03 20:57:28.31: SIM {TimeUS : 42134806, Roll : 0.0, Pitch : 0.0, Yaw : 353.0, Alt : 584.090026855, Lat : -35.363261, Lng : 149.1652299, Q1 : 0.998134791851, Q2 : 0.0, Q3 : 0.0, Q4 : -0.0610485821962}
2019-04-03 20:57:28.41: SIM {TimeUS : 42234766, Roll : 0.0, Pitch : 0.0, Yaw : 353.0, Alt : 584.090026855, Lat : -35.363261, Lng : 149.1652299, Q1 : 0.998134791851, Q2 : 0.0, Q3 : 0.0, Q4 : -0.0610485821962}
2019-04-03 20:57:28.51: SIM {TimeUS : 42334726, Roll : 0.0, Pitch : 0.0, Yaw : 353.0, Alt : 584.090026855, Lat : -35.363261, Lng : 149.1652299, Q1 : 0.998134791851, Q2 : 0.0, Q3 : 0.0, Q4 : -0.0610485821962}
2019-04-03 20:57:28.61: SIM {TimeUS : 42434686, Roll : 0.0, Pitch : 0.0, Yaw : 353.0, Alt : 584.090026855, Lat : -35.363261, Lng : 149.1652299, Q1 : 0.998134791851, Q2 : 0.0, Q3 : 0.0, Q4 : -0.0610485821962}
2019-04-03 20:57:28.71: SIM {TimeUS : 42534646, Roll : 0.0, Pitch : 0.0, Yaw : 353.0, Alt : 584.090026855, Lat : -35.363261, Lng : 149.1652299, Q1 : 0.998134791851, Q2 : 0.0, Q3 : 0.0, Q4 : -0.0610485821962}
2019-04-03 20:57:28.81: SIM {TimeUS : 42634606, Roll : 0.0, Pitch : 0.0, Yaw : 353.0, Alt : 584.090026855, Lat : -35.363261, Lng : 149.1652299, Q1 : 0.998134791851, Q2 : 0.0, Q3 : 0.0, Q4 : -0.0610485821962}
2019-04-03 20:57:28.91: SIM {TimeUS : 42734566, Roll : 0.0, Pitch : 0.0, Yaw : 353.0, Alt : 584.090026855, Lat : -35.363261, Lng : 149.1652299, Q1 : 0.998134791851, Q2 : 0.0, Q3 : 0.0, Q4 : -0.0610485821962}
2019-04-03 20:57:29.01: SIM {TimeUS : 42834526, Roll : 0.0, Pitch : 0.0, Yaw : 353.0, Alt : 584.090026855, Lat : -35.363261, Lng : 149.1652299, Q1 : 0.998134791851, Q2 : 0.0, Q3 : 0.0, Q4 : -0.0610485821962}
2019-04-03 20:57:29.11: SIM {TimeUS : 42934486, Roll : 0.0, Pitch : 0.0, Yaw : 353.0, Alt : 584.090026855, Lat : -35.363261, Lng : 149.1652299, Q1 : 0.998134791851, Q2 : 0.0, Q3 : 0.0, Q4 : -0.0610485821962}
2019-04-03 20:57:29.21: SIM {TimeUS : 43034446, Roll : 0.0, Pitch : 0.0, Yaw : 353.0, Alt : 584.090026855, Lat : -35.363261, Lng : 149.1652299, Q1 : 0.998134791851, Q2 : 0.0, Q3 : 0.0, Q4 : -0.0610485821962}
2019-04-03 20:57:29.31: SIM {TimeUS : 43134406, Roll : 0.0, Pitch : 0.0, Yaw : 353.0, Alt : 584.090026855, Lat : -35.363261, Lng : 149.1652299, Q1 : 0.998134791851, Q2 : 0.0, Q3 : 0.0, Q4 : -0.0610485821962}
2019-04-03 20:57:29.42: SIM {TimeUS : 43235199, Roll : 0.0, Pitch : 0.0, Yaw : 353.0, Alt : 584.090026855, Lat : -35.363261, Lng : 149.1652299, Q1 : 0.998134791851, Q2 : 0.0, Q3 : 0.0, Q4 : -0.0610485821962}
2019-04-03 20:57:29.51: SIM {TimeUS : 43335159, Roll : 0.0, Pitch : 0.0, Yaw : 353.0, Alt : 584.090026855, Lat : -35.363261, Lng : 149.1652299, Q1 : 0.998134791851, Q2 : 0.0, Q3 : 0.0, Q4 : -0.0610485821962}
2019-04-03 20:57:29.61: SIM {TimeUS : 43435119, Roll : 0.0, Pitch : 0.0, Yaw : 353.0, Alt : 584.090026855, Lat : -35.363261, Lng : 149.1652299, Q1 : 0.998134791851, Q2 : 0.0, Q3 : 0.0, Q4 : -0.0610485821962}
2019-04-03 20:57:29.71: SIM {TimeUS : 43535079, Roll : 0.0, Pitch : 0.0, Yaw : 353.0, Alt : 584.090026855, Lat : -35.363261, Lng : 149.1652299, Q1 : 0.998134791851, Q2 : 0.0, Q3 : 0.0, Q4 : -0.0610485821962}
2019-04-03 20:57:29.81: SIM {TimeUS : 43635039, Roll : 0.0, Pitch : 0.0, Yaw : 353.0, Alt : 584.090026855, Lat : -35.363261, Lng : 149.1652299, Q1 : 0.998134791851, Q2 : 0.0, Q3 : 0.0, Q4 : -0.0610485821962}
2019-04-03 20:57:29.91: SIM {TimeUS : 43734999, Roll : 0.0, Pitch : 0.0, Yaw : 353.0, Alt : 584.090026855, Lat : -35.363261, Lng : 149.1652299, Q1 : 0.998134791851, Q2 : 0.0, Q3 : 0.0, Q4 : -0.0610485821962}
2019-04-03 20:57:30.01: SIM {TimeUS : 43834959, Roll : 0.0, Pitch : 0.0, Yaw : 353.0, Alt : 584.090026855, Lat : -35.363261, Lng : 149.1652299, Q1 : 0.998134791851, Q2 : 0.0, Q3 : 0.0, Q4 : -0.0610485821962}
2019-04-03 20:57:30.11: SIM {TimeUS : 43934919, Roll : 0.0, Pitch : 0.0, Yaw : 353.0, Alt : 584.090026855, Lat : -35.363261, Lng : 149.1652299, Q1 : 0.998134791851, Q2 : 0.0, Q3 : 0.0, Q4 : -0.0610485821962}
2019-04-03 20:57:30.21: SIM {TimeUS : 44034879, Roll : 0.0, Pitch : 0.0, Yaw : 353.0, Alt : 584.090026855, Lat : -35.363261, Lng : 149.1652299, Q1 : 0.998134791851, Q2 : 0.0, Q3 : 0.0, Q4 : -0.0610485821962}
2019-04-03 20:57:30.31: SIM {TimeUS : 44134839, Roll : 0.0, Pitch : 0.0, Yaw : 353.0, Alt : 584.090026855, Lat : -35.363261, Lng : 149.1652299, Q1 : 0.998134791851, Q2 : 0.0, Q3 : 0.0, Q4 : -0.0610485821962}
2019-04-03 20:57:30.41: SIM {TimeUS : 44234799, Roll : 0.0, Pitch : 0.0, Yaw : 353.0, Alt : 584.090026855, Lat : -35.363261, Lng : 149.1652299, Q1 : 0.998134791851, Q2 : 0.0, Q3 : 0.0, Q4 : -0.0610485821962}
2019-04-03 20:57:30.51: SIM {TimeUS : 44334759, Roll : 0.0, Pitch : 0.0, Yaw : 353.0, Alt : 584.090026855, Lat : -35.363261, Lng : 149.1652299, Q1 : 0.998134791851, Q2 : 0.0, Q3 : 0.0, Q4 : -0.0610485821962}
2019-04-03 20:57:30.61: SIM {TimeUS : 44434719, Roll : 0.0, Pitch : 0.0, Yaw : 353.0, Alt : 584.090026855, Lat : -35.363261, Lng : 149.1652299, Q1 : 0.998134791851, Q2 : 0.0, Q3 : 0.0, Q4 : -0.0610485821962}
2019-04-03 20:57:30.71: SIM {TimeUS : 44534679, Roll : 0.0, Pitch : 0.0, Yaw : 353.0, Alt : 584.090026855, Lat : -35.363261, Lng : 149.1652299, Q1 : 0.998134791851, Q2 : 0.0, Q3 : 0.0, Q4 : -0.0610485821962}
2019-04-03 20:57:30.81: SIM {TimeUS : 44634639, Roll : 0.0, Pitch : 0.0, Yaw : 353.0, Alt : 584.090026855, Lat : -35.363261, Lng : 149.1652299, Q1 : 0.998134791851, Q2 : 0.0, Q3 : 0.0, Q4 : -0.0610485821962}
2019-04-03 20:57:30.91: SIM {TimeUS : 44734599, Roll : 0.0, Pitch : 0.0, Yaw : 353.0, Alt : 584.090026855, Lat : -35.363261, Lng : 149.1652299, Q1 : 0.998134791851, Q2 : 0.0, Q3 : 0.0, Q4 : -0.0610485821962}
2019-04-03 20:57:31.01: SIM {TimeUS : 44834559, Roll : 0.0, Pitch : 0.0, Yaw : 353.0, Alt : 584.090026855, Lat : -35.363261, Lng : 149.1652299, Q1 : 0.998134791851, Q2 : 0.0, Q3 : 0.0, Q4 : -0.0610485821962}
2019-04-03 20:57:31.11: SIM {TimeUS : 44934519, Roll : 0.0, Pitch : 0.0, Yaw : 353.0, Alt : 584.090026855, Lat : -35.363261, Lng : 149.1652299, Q1 : 0.998134791851, Q2 : 0.0, Q3 : 0.0, Q4 : -0.0610485821962}
2019-04-03 20:57:31.21: SIM {TimeUS : 45034479, Roll : 0.0, Pitch : 0.0, Yaw : 353.0, Alt : 584.090026855, Lat : -35.363261, Lng : 149.1652299, Q1 : 0.998134791851, Q2 : 0.0, Q3 : 0.0, Q4 : -0.0610485821962}
2019-04-03 20:57:31.31: SIM {TimeUS : 45134439, Roll : 0.0, Pitch : 0.0, Yaw : 353.0, Alt : 584.090026855, Lat : -35.363261, Lng : 149.1652299, Q1 : 0.998134791851, Q2 : 0.0, Q3 : 0.0, Q4 : -0.0610485821962}
2019-04-03 20:57:31.41: SIM {TimeUS : 45234399, Roll : 0.0, Pitch : 0.0, Yaw : 353.0, Alt : 584.090026855, Lat : -35.363261, Lng : 149.1652299, Q1 : 0.998134791851, Q2 : 0.0, Q3 : 0.0, Q4 : -0.0610485821962}
2019-04-03 20:57:31.52: SIM {TimeUS : 45335192, Roll : 0.0, Pitch : 0.0, Yaw : 353.0, Alt : 584.090026855, Lat : -35.363261, Lng : 149.1652299, Q1 : 0.998134791851, Q2 : 0.0, Q3 : 0.0, Q4 : -0.0610485821962}
2019-04-03 20:57:31.61: SIM {TimeUS : 45435152, Roll : 0.0, Pitch : 0.0, Yaw : 353.0, Alt : 584.090026855, Lat : -35.363261, Lng : 149.1652299, Q1 : 0.998134791851, Q2 : 0.0, Q3 : 0.0, Q4 : -0.0610485821962}
2019-04-03 20:57:31.71: SIM {TimeUS : 45535112, Roll : 0.0, Pitch : 0.0, Yaw : 353.0, Alt : 584.090026855, Lat : -35.363261, Lng : 149.1652299, Q1 : 0.998134791851, Q2 : 0.0, Q3 : 0.0, Q4 : -0.0610485821962}
2019-04-03 20:57:31.81: SIM {TimeUS : 45635072, Roll : 0.0, Pitch : 0.0, Yaw : 353.0, Alt : 584.090026855, Lat : -35.363261, Lng : 149.1652299, Q1 : 0.998134791851, Q2 : 0.0, Q3 : 0.0, Q4 : -0.0610485821962}
2019-04-03 20:57:31.91: SIM {TimeUS : 45735032, Roll : 0.0, Pitch : 0.0, Yaw : 353.0, Alt : 584.090026855, Lat : -35.363261, Lng : 149.1652299, Q1 : 0.998134791851, Q2 : 0.0, Q3 : 0.0, Q4 : -0.0610485821962}
2019-04-03 20:57:32.01: SIM {TimeUS : 45834992, Roll : 0.0, Pitch : 0.0, Yaw : 353.0, Alt : 584.090026855, Lat : -35.363261, Lng : 149.1652299, Q1 : 0.998134791851, Q2 : 0.0, Q3 : 0.0, Q4 : -0.0610485821962}
2019-04-03 20:57:32.11: SIM {TimeUS : 45934952, Roll : 0.0, Pitch : 0.0, Yaw : 353.0, Alt : 584.090026855, Lat : -35.363261, Lng : 149.1652299, Q1 : 0.998134791851, Q2 : 0.0, Q3 : 0.0, Q4 : -0.0610485821962}
2019-04-03 20:57:32.21: SIM {TimeUS : 46034912, Roll : 0.0, Pitch : 0.0, Yaw : 353.0, Alt : 584.090026855, Lat : -35.363261, Lng : 149.1652299, Q1 : 0.998134791851, Q2 : 0.0, Q3 : 0.0, Q4 : -0.0610485821962}
2019-04-03 20:57:32.31: SIM {TimeUS : 46134872, Roll : 0.0, Pitch : 0.0, Yaw : 353.0, Alt : 584.090026855, Lat : -35.363261, Lng : 149.1652299, Q1 : 0.998134791851, Q2 : 0.0, Q3 : 0.0, Q4 : -0.0610485821962}
2019-04-03 20:57:32.41: SIM {TimeUS : 46234832, Roll : 0.0, Pitch : 0.0, Yaw : 353.0, Alt : 584.090026855, Lat : -35.363261, Lng : 149.1652299, Q1 : 0.998134791851, Q2 : 0.0, Q3 : 0.0, Q4 : -0.0610485821962}
2019-04-03 20:57:32.51: SIM {TimeUS : 46334792, Roll : 0.0, Pitch : 0.0, Yaw : 353.0, Alt : 584.090026855, Lat : -35.363261, Lng : 149.1652299, Q1 : 0.998134791851, Q2 : 0.0, Q3 : 0.0, Q4 : -0.0610485821962}
2019-04-03 20:57:32.61: SIM {TimeUS : 46434752, Roll : 0.0, Pitch : 0.0, Yaw : 353.0, Alt : 584.090026855, Lat : -35.363261, Lng : 149.1652299, Q1 : 0.998134791851, Q2 : 0.0, Q3 : 0.0, Q4 : -0.0610485821962}
2019-04-03 20:57:32.71: SIM {TimeUS : 46534712, Roll : 0.0, Pitch : 0.0, Yaw : 353.0, Alt : 584.090026855, Lat : -35.363261, Lng : 149.1652299, Q1 : 0.998134791851, Q2 : 0.0, Q3 : 0.0, Q4 : -0.0610485821962}
2019-04-03 20:57:32.81: SIM {TimeUS : 46634672, Roll : 0.0, Pitch : 0.0, Yaw : 353.0, Alt : 584.090026855, Lat : -35.363261, Lng : 149.1652299, Q1 : 0.998134791851, Q2 : 0.0, Q3 : 0.0, Q4 : -0.0610485821962}
2019-04-03 20:57:32.91: SIM {TimeUS : 46734632, Roll : 0.0, Pitch : 0.0, Yaw : 353.0, Alt : 584.090026855, Lat : -35.363261, Lng : 149.1652299, Q1 : 0.998134791851, Q2 : 0.0, Q3 : 0.0, Q4 : -0.0610485821962}
2019-04-03 20:57:33.01: SIM {TimeUS : 46834592, Roll : 0.0, Pitch : 0.0, Yaw : 353.0, Alt : 584.090026855, Lat : -35.363261, Lng : 149.1652299, Q1 : 0.998134791851, Q2 : 0.0, Q3 : 0.0, Q4 : -0.0610485821962}
2019-04-03 20:57:33.11: SIM {TimeUS : 46934552, Roll : 0.0, Pitch : 0.0, Yaw : 353.0, Alt : 584.090026855, Lat : -35.363261, Lng : 149.1652299, Q1 : 0.998134791851, Q2 : 0.0, Q3 : 0.0, Q4 : -0.0610485821962}
2019-04-03 20:57:33.21: SIM {TimeUS : 47034512, Roll : 0.0, Pitch : 0.0, Yaw : 353.0, Alt : 584.090026855, Lat : -35.363261, Lng : 149.1652299, Q1 : 0.998134791851, Q2 : 0.0, Q3 : 0.0, Q4 : -0.0610485821962}
2019-04-03 20:57:33.31: SIM {TimeUS : 47134472, Roll : 0.0, Pitch : 0.0, Yaw : 353.0, Alt : 584.090026855, Lat : -35.363261, Lng : 149.1652299, Q1 : 0.998134791851, Q2 : 0.0, Q3 : 0.0, Q4 : -0.0610485821962}
2019-04-03 20:57:33.41: SIM {TimeUS : 47234432, Roll : 0.0, Pitch : 0.0, Yaw : 353.0, Alt : 584.090026855, Lat : -35.363261, Lng : 149.1652299, Q1 : 0.998134791851, Q2 : 0.0, Q3 : 0.0, Q4 : -0.0610485821962}
2019-04-03 20:57:33.51: SIM {TimeUS : 47334392, Roll : 0.0, Pitch : 0.0, Yaw : 353.0, Alt : 584.090026855, Lat : -35.363261, Lng : 149.1652299, Q1 : 0.998134791851, Q2 : 0.0, Q3 : 0.0, Q4 : -0.0610485821962}
2019-04-03 20:57:33.62: SIM {TimeUS : 47435185, Roll : 0.0, Pitch : 0.0, Yaw : 353.0, Alt : 584.090026855, Lat : -35.363261, Lng : 149.1652299, Q1 : 0.998134791851, Q2 : 0.0, Q3 : 0.0, Q4 : -0.0610485821962}
2019-04-03 20:57:33.71: SIM {TimeUS : 47535145, Roll : 0.0, Pitch : 0.0, Yaw : 353.0, Alt : 584.090026855, Lat : -35.363261, Lng : 149.1652299, Q1 : 0.998134791851, Q2 : 0.0, Q3 : 0.0, Q4 : -0.0610485821962}
2019-04-03 20:57:33.81: SIM {TimeUS : 47635105, Roll : 0.0, Pitch : 0.0, Yaw : 353.0, Alt : 584.090026855, Lat : -35.363261, Lng : 149.1652299, Q1 : 0.998134791851, Q2 : 0.0, Q3 : 0.0, Q4 : -0.0610485821962}
2019-04-03 20:57:33.91: SIM {TimeUS : 47735065, Roll : 0.0, Pitch : 0.0, Yaw : 353.0, Alt : 584.090026855, Lat : -35.363261, Lng : 149.1652299, Q1 : 0.998134791851, Q2 : 0.0, Q3 : 0.0, Q4 : -0.0610485821962}
2019-04-03 20:57:34.01: SIM {TimeUS : 47835025, Roll : 0.0, Pitch : 0.0, Yaw : 353.0, Alt : 584.090026855, Lat : -35.363261, Lng : 149.1652299, Q1 : 0.998134791851, Q2 : 0.0, Q3 : 0.0, Q4 : -0.0610485821962}
2019-04-03 20:57:34.11: SIM {TimeUS : 47934985, Roll : 0.0, Pitch : 0.0, Yaw : 353.0, Alt : 584.090026855, Lat : -35.363261, Lng : 149.1652299, Q1 : 0.998134791851, Q2 : 0.0, Q3 : 0.0, Q4 : -0.0610485821962}
2019-04-03 20:57:34.21: SIM {TimeUS : 48034945, Roll : 0.0, Pitch : 0.0, Yaw : 353.0, Alt : 584.090026855, Lat : -35.363261, Lng : 149.1652299, Q1 : 0.998134791851, Q2 : 0.0, Q3 : 0.0, Q4 : -0.0610485821962}
2019-04-03 20:57:34.31: SIM {TimeUS : 48134905, Roll : 0.0, Pitch : 0.0, Yaw : 353.0, Alt : 584.090026855, Lat : -35.363261, Lng : 149.1652299, Q1 : 0.998134791851, Q2 : 0.0, Q3 : 0.0, Q4 : -0.0610485821962}
2019-04-03 20:57:34.41: SIM {TimeUS : 48234865, Roll : 0.0, Pitch : 0.0, Yaw : 353.0, Alt : 584.090026855, Lat : -35.363261, Lng : 149.1652299, Q1 : 0.998134791851, Q2 : 0.0, Q3 : 0.0, Q4 : -0.0610485821962}
2019-04-03 20:57:34.51: SIM {TimeUS : 48334825, Roll : 0.0, Pitch : 0.0, Yaw : 353.0, Alt : 584.090026855, Lat : -35.363261, Lng : 149.1652299, Q1 : 0.998134791851, Q2 : 0.0, Q3 : 0.0, Q4 : -0.0610485821962}
2019-04-03 20:57:34.61: SIM {TimeUS : 48434785, Roll : 0.0, Pitch : 0.0, Yaw : 353.0, Alt : 584.090026855, Lat : -35.363261, Lng : 149.1652299, Q1 : 0.998134791851, Q2 : 0.0, Q3 : 0.0, Q4 : -0.0610485821962}
2019-04-03 20:57:34.71: SIM {TimeUS : 48534745, Roll : 0.0, Pitch : 0.0, Yaw : 353.0, Alt : 584.090026855, Lat : -35.363261, Lng : 149.1652299, Q1 : 0.998134791851, Q2 : 0.0, Q3 : 0.0, Q4 : -0.0610485821962}
2019-04-03 20:57:34.81: SIM {TimeUS : 48634705, Roll : 0.0, Pitch : 0.0, Yaw : 353.0, Alt : 584.090026855, Lat : -35.363261, Lng : 149.1652299, Q1 : 0.998134791851, Q2 : 0.0, Q3 : 0.0, Q4 : -0.0610485821962}
2019-04-03 20:57:34.91: SIM {TimeUS : 48734665, Roll : 0.0, Pitch : 0.0, Yaw : 353.0, Alt : 584.090026855, Lat : -35.363261, Lng : 149.1652299, Q1 : 0.998134791851, Q2 : 0.0, Q3 : 0.0, Q4 : -0.0610485821962}
2019-04-03 20:57:35.01: SIM {TimeUS : 48834625, Roll : 0.0, Pitch : 0.0, Yaw : 353.0, Alt : 584.090026855, Lat : -35.363261, Lng : 149.1652299, Q1 : 0.998134791851, Q2 : 0.0, Q3 : 0.0, Q4 : -0.0610485821962}
2019-04-03 20:57:35.11: SIM {TimeUS : 48934585, Roll : 0.0, Pitch : 0.0, Yaw : 353.0, Alt : 584.090026855, Lat : -35.363261, Lng : 149.1652299, Q1 : 0.998134791851, Q2 : 0.0, Q3 : 0.0, Q4 : -0.0610485821962}
2019-04-03 20:57:35.21: SIM {TimeUS : 49034545, Roll : 0.0, Pitch : 0.0, Yaw : 353.0, Alt : 584.090026855, Lat : -35.363261, Lng : 149.1652299, Q1 : 0.998134791851, Q2 : 0.0, Q3 : 0.0, Q4 : -0.0610485821962}
2019-04-03 20:57:35.31: SIM {TimeUS : 49134505, Roll : 0.0, Pitch : 0.0, Yaw : 353.0, Alt : 584.090026855, Lat : -35.363261, Lng : 149.1652299, Q1 : 0.998134791851, Q2 : 0.0, Q3 : 0.0, Q4 : -0.0610485821962}
2019-04-03 20:57:35.41: SIM {TimeUS : 49234465, Roll : 0.0, Pitch : 0.0, Yaw : 353.0, Alt : 584.090026855, Lat : -35.363261, Lng : 149.1652299, Q1 : 0.998134791851, Q2 : 0.0, Q3 : 0.0, Q4 : -0.0610485821962}
2019-04-03 20:57:35.51: SIM {TimeUS : 49334425, Roll : 0.0, Pitch : 0.0, Yaw : 353.0, Alt : 584.090026855, Lat : -35.363261, Lng : 149.1652299, Q1 : 0.998134791851, Q2 : 0.0, Q3 : 0.0, Q4 : -0.0610485821962}
2019-04-03 20:57:35.61: SIM {TimeUS : 49434385, Roll : 0.0, Pitch : 0.0, Yaw : 353.0, Alt : 584.090026855, Lat : -35.363261, Lng : 149.1652299, Q1 : 0.998134791851, Q2 : 0.0, Q3 : 0.0, Q4 : -0.0610485821962}
2019-04-03 20:57:35.72: SIM {TimeUS : 49535178, Roll : 0.0, Pitch : 0.0, Yaw : 353.0, Alt : 584.090026855, Lat : -35.363261, Lng : 149.1652299, Q1 : 0.998134791851, Q2 : 0.0, Q3 : 0.0, Q4 : -0.0610485821962}
2019-04-03 20:57:35.81: SIM {TimeUS : 49635138, Roll : 0.0, Pitch : 0.0, Yaw : 353.0, Alt : 584.090026855, Lat : -35.363261, Lng : 149.1652299, Q1 : 0.998134791851, Q2 : 0.0, Q3 : 0.0, Q4 : -0.0610485821962}
2019-04-03 20:57:35.91: SIM {TimeUS : 49735098, Roll : 0.0, Pitch : 0.0, Yaw : 353.0, Alt : 584.090026855, Lat : -35.363261, Lng : 149.1652299, Q1 : 0.998134791851, Q2 : 0.0, Q3 : 0.0, Q4 : -0.0610485821962}
2019-04-03 20:57:36.01: SIM {TimeUS : 49835058, Roll : 0.0, Pitch : 0.0, Yaw : 353.0, Alt : 584.090026855, Lat : -35.363261, Lng : 149.1652299, Q1 : 0.998134791851, Q2 : 0.0, Q3 : 0.0, Q4 : -0.0610485821962}
2019-04-03 20:57:36.11: SIM {TimeUS : 49935018, Roll : 0.0, Pitch : 0.0, Yaw : 353.0, Alt : 584.090026855, Lat : -35.363261, Lng : 149.1652299, Q1 : 0.998134791851, Q2 : 0.0, Q3 : 0.0, Q4 : -0.0610485821962}
2019-04-03 20:57:36.21: SIM {TimeUS : 50034978, Roll : 0.0, Pitch : 0.0, Yaw : 353.0, Alt : 584.090026855, Lat : -35.363261, Lng : 149.1652299, Q1 : 0.998134791851, Q2 : 0.0, Q3 : 0.0, Q4 : -0.0610485821962}
2019-04-03 20:57:36.31: SIM {TimeUS : 50134938, Roll : 0.0, Pitch : 0.0, Yaw : 353.0, Alt : 584.090026855, Lat : -35.363261, Lng : 149.1652299, Q1 : 0.998134791851, Q2 : 0.0, Q3 : 0.0, Q4 : -0.0610485821962}
2019-04-03 20:57:36.41: SIM {TimeUS : 50234898, Roll : 0.0, Pitch : 0.0, Yaw : 353.0, Alt : 584.090026855, Lat : -35.363261, Lng : 149.1652299, Q1 : 0.998134791851, Q2 : 0.0, Q3 : 0.0, Q4 : -0.0610485821962}
2019-04-03 20:57:36.51: SIM {TimeUS : 50334858, Roll : 0.0, Pitch : 0.0, Yaw : 353.0, Alt : 584.090026855, Lat : -35.363261, Lng : 149.1652299, Q1 : 0.998134791851, Q2 : 0.0, Q3 : 0.0, Q4 : -0.0610485821962}
2019-04-03 20:57:36.61: SIM {TimeUS : 50434818, Roll : 0.0, Pitch : 0.0, Yaw : 353.0, Alt : 584.090026855, Lat : -35.363261, Lng : 149.1652299, Q1 : 0.998134791851, Q2 : 0.0, Q3 : 0.0, Q4 : -0.0610485821962}
2019-04-03 20:57:36.71: SIM {TimeUS : 50534778, Roll : 0.0, Pitch : 0.0, Yaw : 353.0, Alt : 584.090026855, Lat : -35.363261, Lng : 149.1652299, Q1 : 0.998134791851, Q2 : 0.0, Q3 : 0.0, Q4 : -0.0610485821962}
2019-04-03 20:57:36.81: SIM {TimeUS : 50634738, Roll : 0.0, Pitch : 0.0, Yaw : 353.0, Alt : 584.090026855, Lat : -35.363261, Lng : 149.1652299, Q1 : 0.998134791851, Q2 : 0.0, Q3 : 0.0, Q4 : -0.0610485821962}
2019-04-03 20:57:36.91: SIM {TimeUS : 50734698, Roll : 0.0, Pitch : 0.0, Yaw : 353.0, Alt : 584.090026855, Lat : -35.363261, Lng : 149.1652299, Q1 : 0.998134791851, Q2 : 0.0, Q3 : 0.0, Q4 : -0.0610485821962}
2019-04-03 20:57:37.01: SIM {TimeUS : 50834658, Roll : 0.0, Pitch : 0.0, Yaw : 353.0, Alt : 584.090026855, Lat : -35.363261, Lng : 149.1652299, Q1 : 0.998134791851, Q2 : 0.0, Q3 : 0.0, Q4 : -0.0610485821962}
2019-04-03 20:57:37.11: SIM {TimeUS : 50934618, Roll : 0.0, Pitch : 0.0, Yaw : 353.0, Alt : 584.090026855, Lat : -35.363261, Lng : 149.1652299, Q1 : 0.998134791851, Q2 : 0.0, Q3 : 0.0, Q4 : -0.0610485821962}
2019-04-03 20:57:38.61: SIM {TimeUS : 52434851, Roll : 0.0, Pitch : 0.0, Yaw : 353.0, Alt : 584.090026855, Lat : -35.363261, Lng : 149.1652299, Q1 : 0.998134791851, Q2 : 0.0, Q3 : 0.0, Q4 : -0.0610485821962}
2019-04-03 20:57:38.71: SIM {TimeUS : 52534811, Roll : 0.0, Pitch : 0.0, Yaw : 353.0, Alt : 584.090026855, Lat : -35.363261, Lng : 149.1652299, Q1 : 0.998134791851, Q2 : 0.0, Q3 : 0.0, Q4 : -0.0610485821962}
2019-04-03 20:57:38.81: SIM {TimeUS : 52634771, Roll : 0.0, Pitch : 0.0, Yaw : 353.0, Alt : 584.090026855, Lat : -35.363261, Lng : 149.1652299, Q1 : 0.998134791851, Q2 : 0.0, Q3 : 0.0, Q4 : -0.0610485821962}
2019-04-03 20:57:38.91: SIM {TimeUS : 52734731, Roll : 0.0, Pitch : 0.0, Yaw : 353.0, Alt : 584.090026855, Lat : -35.363261, Lng : 149.1652299, Q1 : 0.998134791851, Q2 : 0.0, Q3 : 0.0, Q4 : -0.0610485821962}
2019-04-03 20:57:39.01: SIM {TimeUS : 52834691, Roll : 0.0, Pitch : 0.0, Yaw : 353.0, Alt : 584.090026855, Lat : -35.363261, Lng : 149.1652299, Q1 : 0.998134791851, Q2 : 0.0, Q3 : 0.0, Q4 : -0.0610485821962}
2019-04-03 20:57:39.11: SIM {TimeUS : 52934651, Roll : 0.0, Pitch : 0.0, Yaw : 353.0, Alt : 584.090026855, Lat : -35.363261, Lng : 149.1652299, Q1 : 0.998134791851, Q2 : 0.0, Q3 : 0.0, Q4 : -0.0610485821962}
2019-04-03 20:57:39.21: SIM {TimeUS : 53034611, Roll : 0.0, Pitch : 0.0, Yaw : 353.0, Alt : 584.090026855, Lat : -35.363261, Lng : 149.1652299, Q1 : 0.998134791851, Q2 : 0.0, Q3 : 0.0, Q4 : -0.0610485821962}
2019-04-03 20:57:39.31: SIM {TimeUS : 53134571, Roll : 0.0, Pitch : 0.0, Yaw : 353.0, Alt : 584.090026855, Lat : -35.363261, Lng : 149.1652299, Q1 : 0.998134791851, Q2 : 0.0, Q3 : 0.0, Q4 : -0.0610485821962}
2019-04-03 20:57:39.41: SIM {TimeUS : 53234531, Roll : 0.0, Pitch : 0.0, Yaw : 353.0, Alt : 584.090026855, Lat : -35.363261, Lng : 149.1652299, Q1 : 0.998134791851, Q2 : 0.0, Q3 : 0.0, Q4 : -0.0610485821962}
2019-04-03 20:57:39.51: SIM {TimeUS : 53334491, Roll : 0.0, Pitch : 0.0, Yaw : 353.0, Alt : 584.090026855, Lat : -35.363261, Lng : 149.1652299, Q1 : 0.998134791851, Q2 : 0.0, Q3 : 0.0, Q4 : -0.0610485821962}
2019-04-03 20:57:39.61: SIM {TimeUS : 53434451, Roll : 0.0, Pitch : 0.0, Yaw : 353.0, Alt : 584.090026855, Lat : -35.363261, Lng : 149.1652299, Q1 : 0.998134791851, Q2 : 0.0, Q3 : 0.0, Q4 : -0.0610485821962}
2019-04-03 20:57:39.71: SIM {TimeUS : 53534411, Roll : 0.0, Pitch : 0.0, Yaw : 353.0, Alt : 584.090026855, Lat : -35.363261, Lng : 149.1652299, Q1 : 0.998134791851, Q2 : 0.0, Q3 : 0.0, Q4 : -0.0610485821962}
2019-04-03 20:57:39.82: SIM {TimeUS : 53635204, Roll : 0.0, Pitch : 0.0, Yaw : 353.0, Alt : 584.090026855, Lat : -35.363261, Lng : 149.1652299, Q1 : 0.998134791851, Q2 : 0.0, Q3 : 0.0, Q4 : -0.0610485821962}
2019-04-03 20:57:39.91: SIM {TimeUS : 53735164, Roll : 0.0, Pitch : 0.0, Yaw : 353.0, Alt : 584.090026855, Lat : -35.363261, Lng : 149.1652299, Q1 : 0.998134791851, Q2 : 0.0, Q3 : 0.0, Q4 : -0.0610485821962}
2019-04-03 20:57:40.01: SIM {TimeUS : 53835124, Roll : 0.0, Pitch : 0.0, Yaw : 353.0, Alt : 584.090026855, Lat : -35.363261, Lng : 149.1652299, Q1 : 0.998134791851, Q2 : 0.0, Q3 : 0.0, Q4 : -0.0610485821962}
2019-04-03 20:57:40.11: SIM {TimeUS : 53935084, Roll : 0.0, Pitch : 0.0, Yaw : 353.0, Alt : 584.090026855, Lat : -35.363261, Lng : 149.1652299, Q1 : 0.998134791851, Q2 : 0.0, Q3 : 0.0, Q4 : -0.0610485821962}
2019-04-03 20:57:40.21: SIM {TimeUS : 54035044, Roll : 0.0, Pitch : 0.0, Yaw : 353.0, Alt : 584.090026855, Lat : -35.363261, Lng : 149.1652299, Q1 : 0.998134791851, Q2 : 0.0, Q3 : 0.0, Q4 : -0.0610485821962}
2019-04-03 20:57:40.31: SIM {TimeUS : 54135004, Roll : 0.0, Pitch : 0.0, Yaw : 353.0, Alt : 584.090026855, Lat : -35.363261, Lng : 149.1652299, Q1 : 0.998134791851, Q2 : 0.0, Q3 : 0.0, Q4 : -0.0610485821962}
2019-04-03 20:57:40.41: SIM {TimeUS : 54234964, Roll : 0.0, Pitch : 0.0, Yaw : 353.0, Alt : 584.090026855, Lat : -35.363261, Lng : 149.1652299, Q1 : 0.998134791851, Q2 : 0.0, Q3 : 0.0, Q4 : -0.0610485821962}
2019-04-03 20:57:40.51: SIM {TimeUS : 54334924, Roll : 0.0, Pitch : 0.0, Yaw : 353.0, Alt : 584.090026855, Lat : -35.363261, Lng : 149.1652299, Q1 : 0.998134791851, Q2 : 0.0, Q3 : 0.0, Q4 : -0.0610485821962}
2019-04-03 20:57:40.61: SIM {TimeUS : 54434884, Roll : 0.0, Pitch : 0.0, Yaw : 353.0, Alt : 584.090026855, Lat : -35.363261, Lng : 149.1652299, Q1 : 0.998134791851, Q2 : 0.0, Q3 : 0.0, Q4 : -0.0610485821962}
2019-04-03 20:57:40.71: SIM {TimeUS : 54534844, Roll : 0.0, Pitch : 0.0, Yaw : 353.0, Alt : 584.090026855, Lat : -35.363261, Lng : 149.1652299, Q1 : 0.998134791851, Q2 : 0.0, Q3 : 0.0, Q4 : -0.0610485821962}
2019-04-03 20:57:40.81: SIM {TimeUS : 54634804, Roll : 0.0, Pitch : 0.0, Yaw : 353.0, Alt : 584.090026855, Lat : -35.363261, Lng : 149.1652299, Q1 : 0.998134791851, Q2 : 0.0, Q3 : 0.0, Q4 : -0.0610485821962}
2019-04-03 20:57:40.91: SIM {TimeUS : 54734764, Roll : 0.0, Pitch : 0.0, Yaw : 353.0, Alt : 584.090026855, Lat : -35.363261, Lng : 149.1652299, Q1 : 0.998134791851, Q2 : 0.0, Q3 : 0.0, Q4 : -0.0610485821962}
2019-04-03 20:57:41.01: SIM {TimeUS : 54834724, Roll : 0.0, Pitch : 0.0, Yaw : 353.0, Alt : 584.090026855, Lat : -35.363261, Lng : 149.1652299, Q1 : 0.998134791851, Q2 : 0.0, Q3 : 0.0, Q4 : -0.0610485821962}
2019-04-03 20:57:41.11: SIM {TimeUS : 54934684, Roll : 0.0, Pitch : 0.0, Yaw : 353.0, Alt : 584.090026855, Lat : -35.363261, Lng : 149.1652299, Q1 : 0.998134791851, Q2 : 0.0, Q3 : 0.0, Q4 : -0.0610485821962}
2019-04-03 20:57:41.21: SIM {TimeUS : 55034644, Roll : 0.0, Pitch : 0.0, Yaw : 353.0, Alt : 584.090026855, Lat : -35.363261, Lng : 149.1652299, Q1 : 0.998134791851, Q2 : 0.0, Q3 : 0.0, Q4 : -0.0610485821962}
2019-04-03 20:57:41.31: SIM {TimeUS : 55134604, Roll : 0.0, Pitch : 0.0, Yaw : 353.0, Alt : 584.090026855, Lat : -35.363261, Lng : 149.1652299, Q1 : 0.998134791851, Q2 : 0.0, Q3 : 0.0, Q4 : -0.0610485821962}
2019-04-03 20:57:41.41: SIM {TimeUS : 55234564, Roll : 0.0, Pitch : 0.0, Yaw : 353.0, Alt : 584.090026855, Lat : -35.363261, Lng : 149.1652299, Q1 : 0.998134791851, Q2 : 0.0, Q3 : 0.0, Q4 : -0.0610485821962}
2019-04-03 20:57:41.51: SIM {TimeUS : 55334524, Roll : 0.0, Pitch : 0.0, Yaw : 353.0, Alt : 584.090026855, Lat : -35.363261, Lng : 149.1652299, Q1 : 0.998134791851, Q2 : 0.0, Q3 : 0.0, Q4 : -0.0610485821962}
2019-04-03 20:57:41.61: SIM {TimeUS : 55434484, Roll : 0.0, Pitch : 0.0, Yaw : 353.0, Alt : 584.090026855, Lat : -35.363261, Lng : 149.1652299, Q1 : 0.998134791851, Q2 : 0.0, Q3 : 0.0, Q4 : -0.0610486157238}
2019-04-03 20:57:41.71: SIM {TimeUS : 55534444, Roll : 0.0, Pitch : 0.0, Yaw : 353.0, Alt : 584.090026855, Lat : -35.363261, Lng : 149.1652299, Q1 : 0.998134791851, Q2 : 0.0, Q3 : 0.0, Q4 : -0.0610486641526}
2019-04-03 20:57:41.81: SIM {TimeUS : 55634404, Roll : 0.0, Pitch : 0.0, Yaw : 353.0, Alt : 584.090026855, Lat : -35.363261, Lng : 149.1652299, Q1 : 0.998134791851, Q2 : 0.0, Q3 : 0.0, Q4 : -0.0610486753285}
2019-04-03 20:57:41.92: SIM {TimeUS : 55735197, Roll : 0.0, Pitch : 0.0, Yaw : 353.0, Alt : 584.090026855, Lat : -35.363261, Lng : 149.1652299, Q1 : 0.998134791851, Q2 : 0.0, Q3 : 0.0, Q4 : -0.0610486753285}
2019-04-03 20:57:42.01: SIM {TimeUS : 55835157, Roll : 0.0, Pitch : 0.0, Yaw : 353.0, Alt : 584.090026855, Lat : -35.363261, Lng : 149.1652299, Q1 : 0.998134791851, Q2 : 0.0, Q3 : 0.0, Q4 : -0.0610486753285}
2019-04-03 20:57:42.11: SIM {TimeUS : 55935117, Roll : 0.0, Pitch : 0.0, Yaw : 353.0, Alt : 584.090026855, Lat : -35.363261, Lng : 149.1652299, Q1 : 0.998134791851, Q2 : 0.0, Q3 : 0.0, Q4 : -0.0610486753285}
2019-04-03 20:57:42.21: SIM {TimeUS : 56035077, Roll : 0.0, Pitch : 0.0, Yaw : 353.0, Alt : 584.090026855, Lat : -35.363261, Lng : 149.1652299, Q1 : 0.998134791851, Q2 : 0.0, Q3 : 0.0, Q4 : -0.0610486753285}
2019-04-03 20:57:42.31: SIM {TimeUS : 56135037, Roll : 0.0, Pitch : 0.0, Yaw : 353.0, Alt : 584.090026855, Lat : -35.363261, Lng : 149.1652299, Q1 : 0.998134791851, Q2 : 0.0, Q3 : 0.0, Q4 : -0.0610486753285}
2019-04-03 20:57:42.41: SIM {TimeUS : 56234997, Roll : 0.0, Pitch : 0.0, Yaw : 353.0, Alt : 584.090026855, Lat : -35.363261, Lng : 149.1652299, Q1 : 0.998134791851, Q2 : 0.0, Q3 : 0.0, Q4 : -0.0610486753285}
2019-04-03 20:57:42.51: SIM {TimeUS : 56334957, Roll : 0.0, Pitch : 0.0, Yaw : 353.0, Alt : 584.099975586, Lat : -35.363261, Lng : 149.1652299, Q1 : 0.998134791851, Q2 : 0.0, Q3 : 0.0, Q4 : -0.0610486753285}
2019-04-03 20:57:42.61: SIM {TimeUS : 56434917, Roll : 0.0, Pitch : 0.0, Yaw : 353.0, Alt : 584.109985352, Lat : -35.363261, Lng : 149.1652299, Q1 : 0.998134791851, Q2 : 0.0, Q3 : 0.0, Q4 : -0.0610486753285}
2019-04-03 20:57:42.71: SIM {TimeUS : 56534877, Roll : 0.0, Pitch : 0.0, Yaw : 353.0, Alt : 584.119995117, Lat : -35.363261, Lng : 149.1652299, Q1 : 0.998134791851, Q2 : 0.0, Q3 : 0.0, Q4 : -0.0610485970974}
2019-04-03 20:57:42.81: SIM {TimeUS : 56634837, Roll : 0.0, Pitch : 0.0, Yaw : 353.0, Alt : 584.150024414, Lat : -35.363261, Lng : 149.1652299, Q1 : 0.998134791851, Q2 : 0.0, Q3 : 0.0, Q4 : -0.061048630625}
2019-04-03 20:57:42.91: SIM {TimeUS : 56734797, Roll : 0.0, Pitch : 0.0, Yaw : 353.0, Alt : 584.179992676, Lat : -35.363261, Lng : 149.1652299, Q1 : 0.998134791851, Q2 : 0.0, Q3 : 0.0, Q4 : -0.0610486641526}
2019-04-03 20:57:43.01: SIM {TimeUS : 56834757, Roll : 0.0, Pitch : 0.0, Yaw : 352.99, Alt : 584.219970703, Lat : -35.363261, Lng : 149.1652299, Q1 : 0.998134791851, Q2 : -1.61652660609e-05, Q3 : -9.08943638933e-06, Q4 : -0.0610490180552}
2019-04-03 20:57:43.11: SIM {TimeUS : 56934717, Roll : -0.04, Pitch : -0.02, Yaw : 352.99, Alt : 584.289978027, Lat : -35.363261, Lng : 149.1652299, Q1 : 0.998134374619, Q2 : -0.000437763344962, Q3 : -0.00023336178856, Q4 : -0.0610539466143}
2019-04-03 20:57:43.21: SIM {TimeUS : 57034677, Roll : -0.11, Pitch : -0.08, Yaw : 352.99, Alt : 584.409973145, Lat : -35.363261, Lng : 149.1652299, Q1 : 0.998132944107, Q2 : -0.00100342335645, Q3 : -0.000679346441757, Q4 : -0.0610676109791}
2019-04-03 20:57:43.31: SIM {TimeUS : 57134637, Roll : -0.15, Pitch : -0.14, Yaw : 352.99, Alt : 584.559997559, Lat : -35.363261, Lng : 149.1652299, Q1 : 0.998130857944, Q2 : -0.00141626689583, Q3 : -0.0011837965576, Q4 : -0.0610856190324}
2019-04-03 20:57:43.41: SIM {TimeUS : 57234597, Roll : -0.17, Pitch : -0.17, Yaw : 352.99, Alt : 584.719970703, Lat : -35.363261, Lng : 149.1652299, Q1 : 0.998128890991, Q2 : -0.00163869699463, Q3 : -0.00144840078428, Q4 : -0.0611064061522}
2019-04-03 20:57:43.51: SIM {TimeUS : 57334557, Roll : -0.18, Pitch : -0.17, Yaw : 352.99, Alt : 584.869995117, Lat : -35.363261, Lng : 149.1652299, Q1 : 0.998127877712, Q2 : -0.00168755126651, Q3 : -0.00138750008773, Q4 : -0.0611223727465}
2019-04-03 20:57:43.61: SIM {TimeUS : 57434517, Roll : -0.17, Pitch : -0.13, Yaw : 352.99, Alt : 585.020019531, Lat : -35.363261, Lng : 149.1652299, Q1 : 0.998127579689, Q2 : -0.00163562747184, Q3 : -0.00106694735587, Q4 : -0.0611356720328}
2019-04-03 20:57:43.71: SIM {TimeUS : 57534477, Roll : -0.16, Pitch : -0.07, Yaw : 352.98, Alt : 585.16998291, Lat : -35.363261, Lng : 149.1652299, Q1 : 0.998127520084, Q2 : -0.00145476532634, Q3 : -0.000594325072598, Q4 : -0.0611473210156}
2019-04-03 20:57:43.81: SIM {TimeUS : 57634437, Roll : -0.14, Pitch : -0.02, Yaw : 352.98, Alt : 585.33001709, Lat : -35.363261, Lng : 149.1652299, Q1 : 0.99812734127, Q2 : -0.00126967346296, Q3 : -0.000127883147798, Q4 : -0.0611580051482}
2019-04-03 20:57:43.91: SIM {TimeUS : 57734397, Roll : -0.12, Pitch : 0.01, Yaw : 352.98, Alt : 585.5, Lat : -35.363261, Lng : 149.1652299, Q1 : 0.998126804829, Q2 : -0.00108723575249, Q3 : 0.000204192110687, Q4 : -0.0611694082618}
2019-04-03 20:57:44.02: SIM {TimeUS : 57835190, Roll : -0.08, Pitch : 0.03, Yaw : 352.98, Alt : 585.66998291, Lat : -35.363261, Lng : 149.1652299, Q1 : 0.99812656641, Q2 : -0.000733375549316, Q3 : 0.00031835003756, Q4 : -0.0611781738698}
2019-04-03 20:57:44.11: SIM {TimeUS : 57935150, Roll : -0.04, Pitch : 0.01, Yaw : 352.98, Alt : 585.849975586, Lat : -35.3632609, Lng : 149.1652299, Q1 : 0.998126387596, Q2 : -0.000423691904871, Q3 : 0.000157709393534, Q4 : -0.0611846074462}
2019-04-03 20:57:44.21: SIM {TimeUS : 58035110, Roll : -0.02, Pitch : 0.0, Yaw : 352.98, Alt : 586.030029297, Lat : -35.3632609, Lng : 149.1652299, Q1 : 0.998126506805, Q2 : -0.000218462053454, Q3 : -6.98557560099e-05, Q4 : -0.0611838623881}
2019-04-03 20:57:44.31: SIM {TimeUS : 58135070, Roll : -0.02, Pitch : -0.03, Yaw : 352.98, Alt : 586.219970703, Lat : -35.3632609, Lng : 149.1652298, Q1 : 0.998126804829, Q2 : -0.000199496076675, Q3 : -0.000314220262226, Q4 : -0.0611779540777}
2019-04-03 20:57:44.41: SIM {TimeUS : 58235030, Roll : -0.03, Pitch : -0.03, Yaw : 352.98, Alt : 586.409973145, Lat : -35.3632609, Lng : 149.1652298, Q1 : 0.99812734127, Q2 : -0.00030243085348, Q3 : -0.000321712373989, Q4 : -0.0611695535481}
2019-04-03 20:57:44.51: SIM {TimeUS : 58334990, Roll : -0.02, Pitch : -0.01, Yaw : 352.98, Alt : 586.599975586, Lat : -35.3632609, Lng : 149.1652298, Q1 : 0.998127877712, Q2 : -0.00021243050287, Q3 : -7.73732026573e-05, Q4 : -0.0611619465053}
2019-04-03 20:57:44.61: SIM {TimeUS : 58434950, Roll : -0.02, Pitch : 0.03, Yaw : 352.98, Alt : 586.789978027, Lat : -35.3632609, Lng : 149.1652298, Q1 : 0.998127996922, Q2 : -0.000217169435928, Q3 : 0.000296458747471, Q4 : -0.0611592046916}
2019-04-03 20:57:44.71: SIM {TimeUS : 58534910, Roll : -0.01, Pitch : 0.06, Yaw : 352.98, Alt : 586.989990234, Lat : -35.3632609, Lng : 149.1652298, Q1 : 0.998127877712, Q2 : -0.000104188264231, Q3 : 0.000554449623451, Q4 : -0.0611593276262}
2019-04-03 20:57:44.81: SIM {TimeUS : 58634870, Roll : 0.02, Pitch : 0.09, Yaw : 352.98, Alt : 587.190002441, Lat : -35.3632609, Lng : 149.1652298, Q1 : 0.99812746048, Q2 : 0.000265237234998, Q3 : 0.000795134634245, Q4 : -0.0611630380154}
2019-04-03 20:57:44.91: SIM {TimeUS : 58734830, Roll : 0.05, Pitch : 0.12, Yaw : 352.98, Alt : 587.400024414, Lat : -35.3632609, Lng : 149.1652298, Q1 : 0.998126268387, Q2 : 0.000587199232541, Q3 : 0.00102209707256, Q4 : -0.061177212745}
2019-04-03 20:57:45.01: SIM {TimeUS : 58834790, Roll : 0.06, Pitch : 0.12, Yaw : 352.98, Alt : 587.599975586, Lat : -35.3632608, Lng : 149.1652298, Q1 : 0.998125135899, Q2 : 0.000608372851275, Q3 : 0.00106905715074, Q4 : -0.0611940063536}
2019-04-03 20:57:45.11: SIM {TimeUS : 58934750, Roll : 0.04, Pitch : 0.1, Yaw : 352.98, Alt : 587.809997559, Lat : -35.3632608, Lng : 149.1652298, Q1 : 0.998124301434, Q2 : 0.000469853286631, Q3 : 0.000866544200107, Q4 : -0.061212155968}
2019-04-03 20:57:45.21: SIM {TimeUS : 59034710, Roll : 0.01, Pitch : 0.04, Yaw : 352.97, Alt : 588.010009766, Lat : -35.3632608, Lng : 149.1652298, Q1 : 0.998123466969, Q2 : 0.000127074672491, Q3 : 0.000413905218011, Q4 : -0.0612318515778}
2019-04-03 20:57:45.31: SIM {TimeUS : 59134670, Roll : -0.03, Pitch : 0.0, Yaw : 352.97, Alt : 588.219970703, Lat : -35.3632608, Lng : 149.1652298, Q1 : 0.998122692108, Q2 : -0.000329040805809, Q3 : 4.85965319967e-05, Q4 : -0.0612449944019}
2019-04-03 20:57:45.41: SIM {TimeUS : 59234630, Roll : -0.07, Pitch : -0.02, Yaw : 352.97, Alt : 588.440002441, Lat : -35.3632608, Lng : 149.1652298, Q1 : 0.998121917248, Q2 : -0.000644158339128, Q3 : -0.000192580540897, Q4 : -0.0612549968064}
2019-04-03 20:57:45.51: SIM {TimeUS : 59334590, Roll : -0.08, Pitch : -0.03, Yaw : 352.97, Alt : 588.650024414, Lat : -35.3632608, Lng : 149.1652298, Q1 : 0.998121380806, Q2 : -0.000753254804295, Q3 : -0.00029401780921, Q4 : -0.0612614713609}
2019-04-03 20:57:45.61: SIM {TimeUS : 59434550, Roll : -0.08, Pitch : -0.03, Yaw : 352.97, Alt : 588.859985352, Lat : -35.3632608, Lng : 149.1652298, Q1 : 0.998121261597, Q2 : -0.000767480465584, Q3 : -0.000296705140499, Q4 : -0.0612640492618}
2019-04-03 20:57:45.71: SIM {TimeUS : 59534510, Roll : -0.08, Pitch : -0.02, Yaw : 352.97, Alt : 589.08001709, Lat : -35.3632608, Lng : 149.1652298, Q1 : 0.998121321201, Q2 : -0.000715902308002, Q3 : -0.000188161531696, Q4 : -0.0612641200423}
2019-04-03 20:57:45.81: SIM {TimeUS : 59634470, Roll : -0.06, Pitch : -0.01, Yaw : 352.97, Alt : 589.289978027, Lat : -35.3632608, Lng : 149.1652298, Q1 : 0.998121440411, Q2 : -0.00059114524629, Q3 : -8.05032177595e-05, Q4 : -0.0612636879086}
2019-04-03 20:57:45.91: SIM {TimeUS : 59734430, Roll : -0.05, Pitch : 0.0, Yaw : 352.97, Alt : 589.510009766, Lat : -35.3632608, Lng : 149.1652298, Q1 : 0.99812155962, Q2 : -0.000470474478789, Q3 : 4.58901668026e-05, Q4 : -0.0612628124654}
2019-04-03 20:57:46.01: SIM {TimeUS : 59834390, Roll : -0.05, Pitch : 0.0, Yaw : 352.97, Alt : 589.719970703, Lat : -35.3632608, Lng : 149.1652298, Q1 : 0.998121142387, Q2 : -0.000456938782008, Q3 : 7.02825054759e-05, Q4 : -0.0612698681653}
2019-04-03 20:57:46.12: SIM {TimeUS : 59935183, Roll : -0.05, Pitch : 0.0, Yaw : 352.97, Alt : 589.929992676, Lat : -35.3632608, Lng : 149.1652297, Q1 : 0.998120188713, Q2 : -0.000487686047563, Q3 : -4.6512791414e-06, Q4 : -0.0612854883075}
2019-04-03 20:57:46.21: SIM {TimeUS : 60035143, Roll : -0.06, Pitch : -0.01, Yaw : 352.97, Alt : 590.130004883, Lat : -35.3632608, Lng : 149.1652297, Q1 : 0.998118638992, Q2 : -0.000576028542127, Q3 : -0.00012887972116, Q4 : -0.061309132725}
2019-04-03 20:57:46.31: SIM {TimeUS : 60135103, Roll : -0.08, Pitch : -0.02, Yaw : 352.96, Alt : 590.320007324, Lat : -35.3632608, Lng : 149.1652297, Q1 : 0.99811643362, Q2 : -0.000791366095655, Q3 : -0.000171599996975, Q4 : -0.0613423660398}
2019-04-03 20:57:46.41: SIM {TimeUS : 60235063, Roll : -0.12, Pitch : -0.01, Yaw : 352.96, Alt : 590.5, Lat : -35.3632608, Lng : 149.1652297, Q1 : 0.99811398983, Q2 : -0.0010565018747, Q3 : -4.4577929657e-05, Q4 : -0.0613790936768}
2019-04-03 20:57:46.51: SIM {TimeUS : 60335023, Roll : -0.15, Pitch : 0.0, Yaw : 352.95, Alt : 590.659973145, Lat : -35.3632608, Lng : 149.1652297, Q1 : 0.998111486435, Q2 : -0.00133931811433, Q3 : 5.20488647453e-05, Q4 : -0.0614138431847}
2019-04-03 20:57:46.61: SIM {TimeUS : 60434983, Roll : -0.24, Pitch : 0.0, Yaw : 352.95, Alt : 590.809997559, Lat : -35.3632608, Lng : 149.1652297, Q1 : 0.998108148575, Q2 : -0.00215259357356, Q3 : 5.7805031247e-05, Q4 : -0.061445388943}
2019-04-03 20:57:46.71: SIM {TimeUS : 60534943, Roll : -0.56, Pitch : -0.02, Yaw : 352.95, Alt : 590.950012207, Lat : -35.3632608, Lng : 149.1652297, Q1 : 0.998096823692, Q2 : -0.00492567196488, Q3 : 0.000102215009974, Q4 : -0.0614700838923}
2019-04-03 20:57:46.81: SIM {TimeUS : 60634903, Roll : -1.15, Pitch : -0.04, Yaw : 352.94, Alt : 591.08001709, Lat : -35.3632608, Lng : 149.1652297, Q1 : 0.998056650162, Q2 : -0.0101059675217, Q3 : 0.000195314336452, Q4 : -0.0614878945053}
2019-04-03 20:57:46.91: SIM {TimeUS : 60734863, Roll : -1.98, Pitch : -0.08, Yaw : 352.94, Alt : 591.200012207, Lat : -35.3632608, Lng : 149.1652296, Q1 : 0.997956335545, Q2 : -0.0173446498811, Q3 : 0.00034643325489, Q4 : -0.0614993944764}
2019-04-03 20:57:47.01: SIM {TimeUS : 60834823, Roll : -2.99, Pitch : -0.11, Yaw : 352.94, Alt : 591.299987793, Lat : -35.3632608, Lng : 149.1652294, Q1 : 0.997764825821, Q2 : -0.0261037908494, Q3 : 0.000633096671663, Q4 : -0.0615108646452}
2019-04-03 20:57:47.11: SIM {TimeUS : 60934783, Roll : -4.05, Pitch : -0.12, Yaw : 352.94, Alt : 591.390014648, Lat : -35.3632608, Lng : 149.1652293, Q1 : 0.99747723341, Q2 : -0.0354151464999, Q3 : 0.001111732563, Q4 : -0.0615117624402}
2019-04-03 20:57:47.21: SIM {TimeUS : 61034743, Roll : -5.01, Pitch : -0.12, Yaw : 352.94, Alt : 591.469970703, Lat : -35.3632608, Lng : 149.1652292, Q1 : 0.997146487236, Q2 : -0.0437469221652, Q3 : 0.00163893436547, Q4 : -0.0615019984543}
2019-04-03 20:57:47.31: SIM {TimeUS : 61134703, Roll : -5.74, Pitch : -0.11, Yaw : 352.94, Alt : 591.539978027, Lat : -35.3632609, Lng : 149.1652289, Q1 : 0.996849060059, Q2 : -0.0500584803522, Q3 : 0.0020906352438, Q4 : -0.0614954419434}
2019-04-03 20:57:47.41: SIM {TimeUS : 61234663, Roll : -6.26, Pitch : -0.11, Yaw : 352.94, Alt : 591.599975586, Lat : -35.3632609, Lng : 149.1652286, Q1 : 0.996609449387, Q2 : -0.0546135641634, Q3 : 0.00238986941986, Q4 : -0.0614919215441}
2019-04-03 20:57:47.51: SIM {TimeUS : 61334623, Roll : -6.64, Pitch : -0.12, Yaw : 352.94, Alt : 591.650024414, Lat : -35.3632609, Lng : 149.1652282, Q1 : 0.996422350407, Q2 : -0.0579317547381, Q3 : 0.00246281782165, Q4 : -0.0614852458239}
2019-04-03 20:57:47.61: SIM {TimeUS : 61434583, Roll : -6.97, Pitch : -0.16, Yaw : 352.94, Alt : 591.700012207, Lat : -35.363261, Lng : 149.1652277, Q1 : 0.996250092983, Q2 : -0.0608303584158, Q3 : 0.00233355979435, Q4 : -0.06148211658}
2019-04-03 20:57:47.71: SIM {TimeUS : 61534543, Roll : -7.32, Pitch : -0.17, Yaw : 352.94, Alt : 591.739990234, Lat : -35.363261, Lng : 149.165227, Q1 : 0.99605846405, Q2 : -0.0638689696789, Q3 : 0.00242128665559, Q4 : -0.0615018457174}
2019-04-03 20:57:47.81: SIM {TimeUS : 61634503, Roll : -7.69, Pitch : -0.15, Yaw : 352.93, Alt : 591.780029297, Lat : -35.363261, Lng : 149.1652264, Q1 : 0.995844423771, Q2 : -0.0670773610473, Q3 : 0.002757164184, Q4 : -0.0615381896496}
2019-04-03 20:57:47.91: SIM {TimeUS : 61734463, Roll : -8.04, Pitch : -0.14, Yaw : 352.93, Alt : 591.809997559, Lat : -35.363261, Lng : 149.1652255, Q1 : 0.995636284351, Q2 : -0.0700620412827, Q3 : 0.00302118156105, Q4 : -0.061567209661}
2019-04-03 20:57:48.01: SIM {TimeUS : 61834423, Roll : -8.31, Pitch : -0.15, Yaw : 352.93, Alt : 591.840026855, Lat : -35.363261, Lng : 149.1652246, Q1 : 0.995462059975, Q2 : -0.0724781677127, Q3 : 0.00310194096528, Q4 : -0.0615842938423}
2019-04-03 20:57:48.11: SIM {TimeUS : 61934383, Roll : -8.49, Pitch : -0.16, Yaw : 352.92, Alt : 591.859985352, Lat : -35.3632611, Lng : 149.1652236, Q1 : 0.995344638824, Q2 : -0.0740527287126, Q3 : 0.00316374516115, Q4 : -0.0616061761975}
2019-04-03 20:57:48.22: SIM {TimeUS : 62035176, Roll : -8.61, Pitch : -0.17, Yaw : 352.92, Alt : 591.890014648, Lat : -35.3632613, Lng : 149.1652226, Q1 : 0.995266318321, Q2 : -0.0750873908401, Q3 : 0.00313011230901, Q4 : -0.0616209544241}
2019-04-03 20:57:48.31: SIM {TimeUS : 62135136, Roll : -8.69, Pitch : -0.17, Yaw : 352.92, Alt : 591.909973145, Lat : -35.3632614, Lng : 149.1652214, Q1 : 0.995215177536, Q2 : -0.0757405683398, Q3 : 0.00317484675907, Q4 : -0.0616449415684}
2019-04-03 20:57:48.41: SIM {TimeUS : 62235096, Roll : -8.8, Pitch : -0.17, Yaw : 352.92, Alt : 591.929992676, Lat : -35.3632615, Lng : 149.1652202, Q1 : 0.995141267776, Q2 : -0.0766857489944, Q3 : 0.00324321398512, Q4 : -0.0616653114557}
2019-04-03 20:57:48.51: SIM {TimeUS : 62335056, Roll : -9.0, Pitch : 0.0, Yaw : 352.8, Alt : 591.950012207, Lat : -35.3632616, Lng : 149.1652188, Q1 : 0.994945704937, Q2 : -0.0783895179629, Q3 : 0.00492277229205, Q4 : -0.062561750412}
2019-04-03 20:57:48.61: SIM {TimeUS : 62435016, Roll : -9.34, Pitch : 0.42, Yaw : 352.06, Alt : 591.969970703, Lat : -35.3632616, Lng : 149.1652174, Q1 : 0.994305431843, Q2 : -0.0809765681624, Q3 : 0.00934343598783, Q4 : -0.068645901978}
2019-04-03 20:57:48.71: SIM {TimeUS : 62534976, Roll : -9.8, Pitch : 0.85, Yaw : 350.01, Alt : 591.979980469, Lat : -35.3632617, Lng : 149.1652159, Q1 : 0.992586493492, Q2 : -0.0844833180308, Q3 : 0.0148729942739, Q4 : -0.0861013010144}
2019-04-03 20:57:48.81: SIM {TimeUS : 62634936, Roll : -10.34, Pitch : 0.84, Yaw : 346.32, Alt : 592.0, Lat : -35.363262, Lng : 149.1652143, Q1 : 0.988895356655, Q2 : -0.0885953754187, Q3 : 0.018023211509, Q4 : -0.117949277163}
2019-04-03 20:57:48.91: SIM {TimeUS : 62734896, Roll : -10.8, Pitch : 0.15, Yaw : 341.1, Alt : 592.020019531, Lat : -35.3632622, Lng : 149.1652126, Q1 : 0.982074320316, Q2 : -0.0926778763533, Q3 : 0.0168250948191, Q4 : -0.163271859288}
2019-04-03 20:57:49.01: SIM {TimeUS : 62834856, Roll : -11.04, Pitch : -1.22, Yaw : 334.64, Alt : 592.030029297, Lat : -35.3632625, Lng : 149.1652109, Q1 : 0.970807850361, Q2 : -0.0962334647775, Q3 : 0.0107397418469, Q4 : -0.219444349408}
2019-04-03 20:57:49.11: SIM {TimeUS : 62934816, Roll : -10.9, Pitch : -3.17, Yaw : 327.22, Alt : 592.049987793, Lat : -35.3632628, Lng : 149.1652091, Q1 : 0.953917860985, Q2 : -0.0989056229591, Q3 : 0.000346342218108, Q4 : -0.283298939466}
2019-04-03 20:57:49.21: SIM {TimeUS : 63034776, Roll : -10.31, Pitch : -5.45, Yaw : 319.1, Alt : 592.070007324, Lat : -35.3632631, Lng : 149.1652071, Q1 : 0.930637717247, Q2 : -0.10069449991, Q3 : -0.0130441784859, Q4 : -0.35157340765}
2019-04-03 20:57:49.31: SIM {TimeUS : 63134736, Roll : -9.25, Pitch : -7.79, Yaw : 310.52, Alt : 592.090026855, Lat : -35.3632634, Lng : 149.165205, Q1 : 0.900884211063, Q2 : -0.101464480162, Q3 : -0.0278361551464, Q4 : -0.421114951372}
2019-04-03 20:57:49.41: SIM {TimeUS : 63234696, Roll : -7.77, Pitch : -9.95, Yaw : 301.74, Alt : 592.109985352, Lat : -35.3632638, Lng : 149.165203, Q1 : 0.865361094475, Q2 : -0.101146325469, Q3 : -0.0427172109485, Q4 : -0.488973259926}
2019-04-03 20:57:49.51: SIM {TimeUS : 63334656, Roll : -5.95, Pitch : -11.72, Yaw : 293.02, Alt : 592.130004883, Lat : -35.363264, Lng : 149.1652007, Q1 : 0.825616121292, Q2 : -0.0993821099401, Q3 : -0.0565651059151, Q4 : -0.552522957325}
2019-04-03 20:57:49.61: SIM {TimeUS : 63434616, Roll : -3.94, Pitch : -13.0, Yaw : 284.67, Alt : 592.150024414, Lat : -35.3632645, Lng : 149.1651983, Q1 : 0.78366959095, Q2 : -0.0962041988969, Q3 : -0.0686620622873, Q4 : -0.609829723835}
2019-04-03 20:57:49.71: SIM {TimeUS : 63534576, Roll : -1.94, Pitch : -13.8, Yaw : 276.89, Alt : 592.16998291, Lat : -35.3632647, Lng : 149.1651959, Q1 : 0.741458117962, Q2 : -0.092297911644, Q3 : -0.0787666216493, Q4 : -0.659936964512}
2019-04-03 20:57:49.81: SIM {TimeUS : 63634536, Roll : -0.09, Pitch : -14.22, Yaw : 269.81, Alt : 592.200012207, Lat : -35.3632651, Lng : 149.1651934, Q1 : 0.700480759144, Q2 : -0.0882843211293, Q3 : -0.0868155956268, Q4 : -0.702848255634}
2019-04-03 20:57:49.91: SIM {TimeUS : 63734496, Roll : 1.67, Pitch : -14.4, Yaw : 263.52, Alt : 592.219970703, Lat : -35.3632653, Lng : 149.1651908, Q1 : 0.66207164526, Q2 : -0.0838504433632, Q3 : -0.0942676216364, Q4 : -0.738744854927}
2019-04-03 20:57:50.01: SIM {TimeUS : 63834456, Roll : 3.49, Pitch : -14.38, Yaw : 258.33, Alt : 592.25, Lat : -35.3632657, Lng : 149.165188, Q1 : 0.629284739494, Q2 : -0.0779266282916, Q3 : -0.102503426373, Q4 : -0.766434133053}
2019-04-03 20:57:50.11: SIM {TimeUS : 63934416, Roll : 5.1, Pitch : -14.2, Yaw : 254.65, Alt : 592.270019531, Lat : -35.3632659, Lng : 149.1651851, Q1 : 0.605493605137, Q2 : -0.0713758915663, Q3 : -0.110042326152, Q4 : -0.784967303276}
2019-04-03 20:57:50.21: SIM {TimeUS : 64034376, Roll : 6.17, Pitch : -13.98, Yaw : 252.61, Alt : 592.289978027, Lat : -35.3632661, Lng : 149.165182, Q1 : 0.592131197453, Q2 : -0.0663236230612, Q3 : -0.1150944978, Q4 : -0.794817686081}
2019-04-03 20:57:50.31: SIM {TimeUS : 64135169, Roll : 6.5, Pitch : -13.87, Yaw : 252.09, Alt : 592.320007324, Lat : -35.3632663, Lng : 149.165179, Q1 : 0.588725745678, Q2 : -0.0643433183432, Q3 : -0.116500467062, Q4 : -0.797301411629}
2019-04-03 20:57:50.41: SIM {TimeUS : 64235129, Roll : 6.07, Pitch : -13.91, Yaw : 252.83, Alt : 592.349975586, Lat : -35.3632664, Lng : 149.1651757, Q1 : 0.593632698059, Q2 : -0.0661408081651, Q3 : -0.114145316184, Q4 : -0.793849170208}
2019-04-03 20:57:50.51: SIM {TimeUS : 64335089, Roll : 4.98, Pitch : -14.17, Yaw : 254.51, Alt : 592.369995117, Lat : -35.3632665, Lng : 149.1651726, Q1 : 0.604506313801, Q2 : -0.0719817876816, Q3 : -0.108989194036, Q4 : -0.785819411278}
2019-04-03 20:57:50.61: SIM {TimeUS : 64435049, Roll : 3.43, Pitch : -14.58, Yaw : 256.83, Alt : 592.400024414, Lat : -35.3632665, Lng : 149.1651691, Q1 : 0.619057297707, Q2 : -0.0809221565723, Q3 : -0.102139942348, Q4 : -0.774459302425}
2019-04-03 20:57:50.71: SIM {TimeUS : 64535009, Roll : 1.69, Pitch : -15.01, Yaw : 259.47, Alt : 592.429992676, Lat : -35.3632666, Lng : 149.1651657, Q1 : 0.635187208652, Q2 : -0.0911026522517, Q3 : -0.0948226898909, Q4 : -0.761082172394}
2019-04-03 20:57:50.81: SIM {TimeUS : 64634969, Roll : 0.02, Pitch : -15.37, Yaw : 262.11, Alt : 592.460021973, Lat : -35.3632666, Lng : 149.1651623, Q1 : 0.650945007801, Q2 : -0.100694566965, Q3 : -0.0880090892315, Q4 : -0.747252047062}
2019-04-03 20:57:50.91: SIM {TimeUS : 64734929, Roll : -1.37, Pitch : -15.6, Yaw : 264.46, Alt : 592.489990234, Lat : -35.3632668, Lng : 149.1651588, Q1 : 0.664644896984, Q2 : -0.108494155109, Q3 : -0.0824218317866, Q4 : -0.734631121159}
2019-04-03 20:57:51.01: SIM {TimeUS : 64834889, Roll : -2.38, Pitch : -15.72, Yaw : 266.27, Alt : 592.520019531, Lat : -35.363267, Lng : 149.1651551, Q1 : 0.675127923489, Q2 : -0.113907136023, Q3 : -0.0784414559603, Q4 : -0.724620163441}
2019-04-03 20:57:51.11: SIM {TimeUS : 64934849, Roll : -2.96, Pitch : -15.76, Yaw : 267.44, Alt : 592.549987793, Lat : -35.3632671, Lng : 149.1651513, Q1 : 0.68183028698, Q2 : -0.116795472801, Q3 : -0.0762782767415, Q4 : -0.71808630228}
2019-04-03 20:57:51.21: SIM {TimeUS : 65034809, Roll : -3.09, Pitch : -15.75, Yaw : 267.92, Alt : 592.570007324, Lat : -35.3632674, Lng : 149.1651477, Q1 : 0.684732675552, Q2 : -0.117150247097, Q3 : -0.075866535306, Q4 : -0.715304970741}
2019-04-03 20:57:51.31: SIM {TimeUS : 65134769, Roll : -2.83, Pitch : -15.71, Yaw : 267.78, Alt : 592.599975586, Lat : -35.3632677, Lng : 149.1651437, Q1 : 0.684176087379, Q2 : -0.115503571928, Q3 : -0.0770971253514, Q4 : -0.715973496437}
2019-04-03 20:57:51.41: SIM {TimeUS : 65234729, Roll : -2.29, Pitch : -15.72, Yaw : 267.16, Alt : 592.630004883, Lat : -35.363268, Lng : 149.1651398, Q1 : 0.680769920349, Q2 : -0.112742878497, Q3 : -0.0798694416881, Q4 : -0.719348549843}
2019-04-03 20:57:51.51: SIM {TimeUS : 65334689, Roll : -1.61, Pitch : -15.78, Yaw : 266.19, Alt : 592.659973145, Lat : -35.3632683, Lng : 149.165136, Q1 : 0.675307810307, Q2 : -0.109765179455, Q3 : -0.0836348086596, Q4 : -0.724511027336}
2019-04-03 20:57:51.61: SIM {TimeUS : 65434649, Roll : -0.89, Pitch : -15.88, Yaw : 265.06, Alt : 592.690002441, Lat : -35.3632687, Lng : 149.165132, Q1 : 0.66870957613, Q2 : -0.107092253864, Q3 : -0.0877072736621, Q4 : -0.730524659157}
2019-04-03 20:57:51.71: SIM {TimeUS : 65534609, Roll : -0.25, Pitch : -16.0, Yaw : 263.92, Alt : 592.719970703, Lat : -35.363269, Lng : 149.1651279, Q1 : 0.661895871162, Q2 : -0.104982309043, Q3 : -0.0914616510272, Q4 : -0.736550986767}
2019-04-03 20:57:51.81: SIM {TimeUS : 65634569, Roll : 0.3, Pitch : -16.1, Yaw : 262.9, Alt : 592.75, Lat : -35.3632695, Lng : 149.1651239, Q1 : 0.655725836754, Q2 : -0.103226855397, Q3 : -0.0947132706642, Q4 : -0.741887629032}
2019-04-03 20:57:51.91: SIM {TimeUS : 65734529, Roll : 0.74, Pitch : -16.17, Yaw : 262.09, Alt : 592.780029297, Lat : -35.3632698, Lng : 149.1651197, Q1 : 0.650802016258, Q2 : -0.101871185005, Q3 : -0.0972298979759, Q4 : -0.746073305607}
2019-04-03 20:57:52.01: SIM {TimeUS : 65834489, Roll : 1.02, Pitch : -16.21, Yaw : 261.54, Alt : 592.809997559, Lat : -35.3632701, Lng : 149.1651156, Q1 : 0.647467374802, Q2 : -0.101070865989, Q3 : -0.0988055095077, Q4 : -0.748871266842}
2019-04-03 20:57:52.11: SIM {TimeUS : 65934449, Roll : 1.13, Pitch : -16.24, Yaw : 261.28, Alt : 592.840026855, Lat : -35.3632706, Lng : 149.1651114, Q1 : 0.645817220211, Q2 : -0.100862272084, Q3 : -0.0994766503572, Q4 : -0.750234246254}
2019-04-03 20:57:52.21: SIM {TimeUS : 66034409, Roll : 1.08, Pitch : -16.27, Yaw : 261.27, Alt : 592.869995117, Lat : -35.363271, Lng : 149.1651071, Q1 : 0.645717680454, Q2 : -0.101297348738, Q3 : -0.0993476137519, Q4 : -0.750278353691}
2019-04-03 20:57:52.32: SIM {TimeUS : 66135202, Roll : 0.92, Pitch : -16.31, Yaw : 261.48, Alt : 592.900024414, Lat : -35.3632713, Lng : 149.1651028, Q1 : 0.646900236607, Q2 : -0.102321244776, Q3 : -0.0986337512732, Q4 : -0.749214172363}
2019-04-03 20:57:52.41: SIM {TimeUS : 66235162, Roll : 0.67, Pitch : -16.34, Yaw : 261.84, Alt : 592.929992676, Lat : -35.3632717, Lng : 149.1650984, Q1 : 0.648986279964, Q2 : -0.103591524065, Q3 : -0.0975327119231, Q4 : -0.74737739563}
2019-04-03 20:57:52.51: SIM {TimeUS : 66335122, Roll : 0.41, Pitch : -16.37, Yaw : 262.27, Alt : 592.960021973, Lat : -35.363272, Lng : 149.1650939, Q1 : 0.651584684849, Q2 : -0.104851044714, Q3 : -0.0963861048222, Q4 : -0.745086193085}
2019-04-03 20:57:52.61: SIM {TimeUS : 66435082, Roll : 0.17, Pitch : -16.4, Yaw : 262.73, Alt : 592.989990234, Lat : -35.3632725, Lng : 149.1650895, Q1 : 0.654279947281, Q2 : -0.106099270284, Q3 : -0.0954344049096, Q4 : -0.742666125298}
2019-04-03 20:57:52.71: SIM {TimeUS : 66535042, Roll : -0.07, Pitch : -16.44, Yaw : 263.14, Alt : 593.020019531, Lat : -35.3632729, Lng : 149.1650852, Q1 : 0.656711161137, Q2 : -0.107391528785, Q3 : -0.0944129750133, Q4 : -0.740461826324}
2019-04-03 20:57:52.81: SIM {TimeUS : 66635002, Roll : -0.28, Pitch : -16.48, Yaw : 263.48, Alt : 593.049987793, Lat : -35.3632732, Lng : 149.1650807, Q1 : 0.658642888069, Q2 : -0.108646720648, Q3 : -0.093596175313, Q4 : -0.738664507866}
2019-04-03 20:57:52.91: SIM {TimeUS : 66734962, Roll : -0.44, Pitch : -16.53, Yaw : 263.72, Alt : 593.08001709, Lat : -35.3632737, Lng : 149.1650761, Q1 : 0.659963607788, Q2 : -0.109683856368, Q3 : -0.0931166112423, Q4 : -0.7373919487}
2019-04-03 20:57:53.01: SIM {TimeUS : 66834922, Roll : -0.53, Pitch : -16.56, Yaw : 263.84, Alt : 593.119995117, Lat : -35.3632741, Lng : 149.1650716, Q1 : 0.660667181015, Q2 : -0.110246226192, Q3 : -0.0928419679403, Q4 : -0.736712396145}
2019-04-03 20:57:53.11: SIM {TimeUS : 66934882, Roll : -0.52, Pitch : -16.58, Yaw : 263.86, Alt : 593.150024414, Lat : -35.3632744, Lng : 149.165067, Q1 : 0.660782039165, Q2 : -0.11035285145, Q3 : -0.0930366665125, Q4 : -0.736568808556}
2019-04-03 20:57:53.21: SIM {TimeUS : 67034842, Roll : -0.44, Pitch : -16.6, Yaw : 263.8, Alt : 593.179992676, Lat : -35.3632749, Lng : 149.1650625, Q1 : 0.660424292088, Q2 : -0.110049024224, Q3 : -0.0936045274138, Q4 : -0.736863017082}
2019-04-03 20:57:53.31: SIM {TimeUS : 67134802, Roll : -0.31, Pitch : -16.62, Yaw : 263.67, Alt : 593.210021973, Lat : -35.3632753, Lng : 149.1650579, Q1 : 0.659727990627, Q2 : -0.109503909945, Q3 : -0.0944127142429, Q4 : -0.737464666367}
2019-04-03 20:57:53.41: SIM {TimeUS : 67234762, Roll : -0.18, Pitch : -16.64, Yaw : 263.51, Alt : 593.239990234, Lat : -35.3632757, Lng : 149.1650532, Q1 : 0.658804953098, Q2 : -0.109025284648, Q3 : -0.0952477902174, Q4 : -0.738252878189}
2019-04-03 20:57:53.51: SIM {TimeUS : 67334722, Roll : -0.07, Pitch : -16.69, Yaw : 263.34, Alt : 593.270019531, Lat : -35.3632762, Lng : 149.1650486, Q1 : 0.657783925533, Q2 : -0.108818985522, Q3 : -0.0960474535823, Q4 : -0.739089727402}
2019-04-03 20:57:53.61: SIM {TimeUS : 67434682, Roll : 0.02, Pitch : -16.74, Yaw : 263.19, Alt : 593.299987793, Lat : -35.3632767, Lng : 149.1650439, Q1 : 0.656829178333, Q2 : -0.108733102679, Q3 : -0.0968347191811, Q4 : -0.73984837532}
2019-04-03 20:57:53.71: SIM {TimeUS : 67534642, Roll : 0.11, Pitch : -16.77, Yaw : 263.06, Alt : 593.33001709, Lat : -35.3632771, Lng : 149.1650392, Q1 : 0.656074881554, Q2 : -0.108552120626, Q3 : -0.0974324420094, Q4 : -0.740465462208}
2019-04-03 20:57:53.81: SIM {TimeUS : 67634602, Roll : 0.16, Pitch : -16.78, Yaw : 262.98, Alt : 593.359985352, Lat : -35.3632775, Lng : 149.1650344, Q1 : 0.655567884445, Q2 : -0.108398236334, Q3 : -0.0978056639433, Q4 : -0.740887761116}
2019-04-03 20:57:53.91: SIM {TimeUS : 67734562, Roll : 0.2, Pitch : -16.81, Yaw : 262.94, Alt : 593.390014648, Lat : -35.363278, Lng : 149.1650297, Q1 : 0.655320227146, Q2 : -0.10839035362, Q3 : -0.0981582924724, Q4 : -0.741061389446}
2019-04-03 20:57:54.01: SIM {TimeUS : 67834522, Roll : 0.21, Pitch : -16.85, Yaw : 262.94, Alt : 593.41998291, Lat : -35.3632785, Lng : 149.1650249, Q1 : 0.655309855938, Q2 : -0.108584351838, Q3 : -0.0984736680984, Q4 : -0.741000294685}
2019-04-03 20:57:54.11: SIM {TimeUS : 67934482, Roll : 0.21, Pitch : -16.89, Yaw : 262.98, Alt : 593.450012207, Lat : -35.3632789, Lng : 149.1650201, Q1 : 0.65551930666, Q2 : -0.108838424087, Q3 : -0.0987152829766, Q4 : -0.740745604038}
2019-04-03 20:57:54.21: SIM {TimeUS : 68034442, Roll : 0.17, Pitch : -16.92, Yaw : 263.04, Alt : 593.479980469, Lat : -35.3632793, Lng : 149.1650153, Q1 : 0.6558842659, Q2 : -0.109176971018, Q3 : -0.0987297296524, Q4 : -0.740370631218}
2019-04-03 20:57:54.31: SIM {TimeUS : 68134402, Roll : 0.12, Pitch : -16.96, Yaw : 263.12, Alt : 593.510009766, Lat : -35.3632798, Lng : 149.1650105, Q1 : 0.656324982643, Q2 : -0.109629310668, Q3 : -0.0987049937248, Q4 : -0.73991638422}
2019-04-03 20:57:54.42: SIM {TimeUS : 68235195, Roll : 0.06, Pitch : -16.99, Yaw : 263.21, Alt : 593.539978027, Lat : -35.3632803, Lng : 149.1650056, Q1 : 0.65678948164, Q2 : -0.110138550401, Q3 : -0.0985706523061, Q4 : -0.739446401596}
2019-04-03 20:57:54.51: SIM {TimeUS : 68335155, Roll : 0.0, Pitch : -17.02, Yaw : 263.29, Alt : 593.58001709, Lat : -35.3632807, Lng : 149.1650008, Q1 : 0.657226622105, Q2 : -0.110580094159, Q3 : -0.0983487963676, Q4 : -0.739021480083}
2019-04-03 20:57:54.61: SIM {TimeUS : 68435115, Roll : -0.05, Pitch : -17.02, Yaw : 263.36, Alt : 593.609985352, Lat : -35.3632811, Lng : 149.1649958, Q1 : 0.657622516155, Q2 : -0.110841862857, Q3 : -0.0980875715613, Q4 : -0.73866468668}
2019-04-03 20:57:54.71: SIM {TimeUS : 68535075, Roll : -0.08, Pitch : -17.02, Yaw : 263.42, Alt : 593.640014648, Lat : -35.3632817, Lng : 149.1649909, Q1 : 0.657945394516, Q2 : -0.11101873219, Q3 : -0.0979091152549, Q4 : -0.73837429285}
2019-04-03 20:57:54.81: SIM {TimeUS : 68635035, Roll : -0.09, Pitch : -17.04, Yaw : 263.45, Alt : 593.66998291, Lat : -35.3632821, Lng : 149.1649861, Q1 : 0.658176958561, Q2 : -0.111109770834, Q3 : -0.0980109870434, Q4 : -0.738140642643}
2019-04-03 20:57:54.91: SIM {TimeUS : 68734995, Roll : -0.07, Pitch : -17.07, Yaw : 263.48, Alt : 593.700012207, Lat : -35.3632826, Lng : 149.1649812, Q1 : 0.658304810524, Q2 : -0.111194312572, Q3 : -0.0983298122883, Q4 : -0.737971484661}
2019-04-03 20:57:55.01: SIM {TimeUS : 68834955, Roll : -0.03, Pitch : -17.1, Yaw : 263.48, Alt : 593.729980469, Lat : -35.363283, Lng : 149.1649763, Q1 : 0.65835249424, Q2 : -0.11120211333, Q3 : -0.0988048017025, Q4 : -0.73786431551}
2019-04-03 20:57:55.11: SIM {TimeUS : 68934915, Roll : 0.0, Pitch : -17.14, Yaw : 263.48, Alt : 593.760009766, Lat : -35.3632835, Lng : 149.1649713, Q1 : 0.658315896988, Q2 : -0.111206121743, Q3 : -0.0992079973221, Q4 : -0.737842202187}
2019-04-03 20:57:55.21: SIM {TimeUS : 69034875, Roll : 0.01, Pitch : -17.17, Yaw : 263.46, Alt : 593.789978027, Lat : -35.363284, Lng : 149.1649664, Q1 : 0.658217310905, Q2 : -0.111316919327, Q3 : -0.0995178967714, Q4 : -0.73787176609}
2019-04-03 20:57:55.31: SIM {TimeUS : 69134835, Roll : 0.02, Pitch : -17.18, Yaw : 263.45, Alt : 593.820007324, Lat : -35.3632845, Lng : 149.1649613, Q1 : 0.658111095428, Q2 : -0.111379720271, Q3 : -0.0996100604534, Q4 : -0.737944602966}
2019-04-03 20:57:55.41: SIM {TimeUS : 69234795, Roll : 0.03, Pitch : -17.2, Yaw : 263.43, Alt : 593.849975586, Lat : -35.3632848, Lng : 149.1649564, Q1 : 0.658018827438, Q2 : -0.111457690597, Q3 : -0.0997569859028, Q4 : -0.737995266914}
2019-04-03 20:57:55.51: SIM {TimeUS : 69334755, Roll : 0.04, Pitch : -17.22, Yaw : 263.42, Alt : 593.880004883, Lat : -35.3632853, Lng : 149.1649514, Q1 : 0.657949090004, Q2 : -0.111557275057, Q3 : -0.0999198555946, Q4 : -0.738020300865}
