2019-04-03 22:57:03.90: SIM {TimeUS : 293515880, Roll : 0.0, Pitch : 0.0, Yaw : 353.0, Alt : 584.090026855, Lat : -35.363261, Lng : 149.1652299, Q1 : 0.998134791851, Q2 : 0.0, Q3 : 0.0, Q4 : -0.0610485821962}
2019-04-03 22:57:04.01: SIM {TimeUS : 293634999, Roll : 0.0, Pitch : 0.0, Yaw : 353.0, Alt : 584.090026855, Lat : -35.363261, Lng : 149.1652299, Q1 : 0.998134791851, Q2 : 0.0, Q3 : 0.0, Q4 : -0.0610485821962}
2019-04-03 22:57:04.11: SIM {TimeUS : 293734959, Roll : 0.0, Pitch : 0.0, Yaw : 353.0, Alt : 584.090026855, Lat : -35.363261, Lng : 149.1652299, Q1 : 0.998134791851, Q2 : 0.0, Q3 : 0.0, Q4 : -0.0610485821962}
2019-04-03 22:57:04.21: SIM {TimeUS : 293834919, Roll : 0.0, Pitch : 0.0, Yaw : 353.0, Alt : 584.090026855, Lat : -35.363261, Lng : 149.1652299, Q1 : 0.998134791851, Q2 : 0.0, Q3 : 0.0, Q4 : -0.0610485821962}
2019-04-03 22:57:04.31: SIM {TimeUS : 293934879, Roll : 0.0, Pitch : 0.0, Yaw : 353.0, Alt : 584.090026855, Lat : -35.363261, Lng : 149.1652299, Q1 : 0.998134791851, Q2 : 0.0, Q3 : 0.0, Q4 : -0.0610485821962}
2019-04-03 22:57:04.41: SIM {TimeUS : 294034839, Roll : 0.0, Pitch : 0.0, Yaw : 353.0, Alt : 584.090026855, Lat : -35.363261, Lng : 149.1652299, Q1 : 0.998134791851, Q2 : 0.0, Q3 : 0.0, Q4 : -0.0610485821962}
2019-04-03 22:57:04.51: SIM {TimeUS : 294134799, Roll : 0.0, Pitch : 0.0, Yaw : 353.0, Alt : 584.090026855, Lat : -35.363261, Lng : 149.1652299, Q1 : 0.998134791851, Q2 : 0.0, Q3 : 0.0, Q4 : -0.0610485821962}
2019-04-03 22:57:04.61: SIM {TimeUS : 294234759, Roll : 0.0, Pitch : 0.0, Yaw : 353.0, Alt : 584.090026855, Lat : -35.363261, Lng : 149.1652299, Q1 : 0.998134791851, Q2 : 0.0, Q3 : 0.0, Q4 : -0.0610485821962}
2019-04-03 22:57:04.71: SIM {TimeUS : 294334719, Roll : 0.0, Pitch : 0.0, Yaw : 353.0, Alt : 584.090026855, Lat : -35.363261, Lng : 149.1652299, Q1 : 0.998134791851, Q2 : 0.0, Q3 : 0.0, Q4 : -0.0610485821962}
2019-04-03 22:57:04.81: SIM {TimeUS : 294434679, Roll : 0.0, Pitch : 0.0, Yaw : 353.0, Alt : 584.090026855, Lat : -35.363261, Lng : 149.1652299, Q1 : 0.998134791851, Q2 : 0.0, Q3 : 0.0, Q4 : -0.0610485821962}
2019-04-03 22:57:04.91: SIM {TimeUS : 294534639, Roll : 0.0, Pitch : 0.0, Yaw : 353.0, Alt : 584.090026855, Lat : -35.363261, Lng : 149.1652299, Q1 : 0.998134791851, Q2 : 0.0, Q3 : 0.0, Q4 : -0.0610485821962}
2019-04-03 22:57:05.01: SIM {TimeUS : 294634599, Roll : 0.0, Pitch : 0.0, Yaw : 353.0, Alt : 584.090026855, Lat : -35.363261, Lng : 149.1652299, Q1 : 0.998134791851, Q2 : 0.0, Q3 : 0.0, Q4 : -0.0610485821962}
2019-04-03 22:57:05.11: SIM {TimeUS : 294734559, Roll : 0.0, Pitch : 0.0, Yaw : 353.0, Alt : 584.090026855, Lat : -35.363261, Lng : 149.1652299, Q1 : 0.998134791851, Q2 : 0.0, Q3 : 0.0, Q4 : -0.0610485821962}
2019-04-03 22:57:05.21: SIM {TimeUS : 294834519, Roll : 0.0, Pitch : 0.0, Yaw : 353.0, Alt : 584.090026855, Lat : -35.363261, Lng : 149.1652299, Q1 : 0.998134791851, Q2 : 0.0, Q3 : 0.0, Q4 : -0.0610485821962}
2019-04-03 22:57:05.31: SIM {TimeUS : 294934479, Roll : 0.0, Pitch : 0.0, Yaw : 353.0, Alt : 584.090026855, Lat : -35.363261, Lng : 149.1652299, Q1 : 0.998134791851, Q2 : 0.0, Q3 : 0.0, Q4 : -0.0610485821962}
2019-04-03 22:57:05.41: SIM {TimeUS : 295034439, Roll : 0.0, Pitch : 0.0, Yaw : 353.0, Alt : 584.090026855, Lat : -35.363261, Lng : 149.1652299, Q1 : 0.998134791851, Q2 : 0.0, Q3 : 0.0, Q4 : -0.0610485821962}
2019-04-03 22:57:05.51: SIM {TimeUS : 295134399, Roll : 0.0, Pitch : 0.0, Yaw : 353.0, Alt : 584.090026855, Lat : -35.363261, Lng : 149.1652299, Q1 : 0.998134791851, Q2 : 0.0, Q3 : 0.0, Q4 : -0.0610485821962}
2019-04-03 22:57:05.61: SIM {TimeUS : 295234359, Roll : 0.0, Pitch : 0.0, Yaw : 353.0, Alt : 584.090026855, Lat : -35.363261, Lng : 149.1652299, Q1 : 0.998134791851, Q2 : 0.0, Q3 : 0.0, Q4 : -0.0610485821962}
2019-04-03 22:57:05.71: SIM {TimeUS : 295334319, Roll : 0.0, Pitch : 0.0, Yaw : 353.0, Alt : 584.090026855, Lat : -35.363261, Lng : 149.1652299, Q1 : 0.998134791851, Q2 : 0.0, Q3 : 0.0, Q4 : -0.0610485821962}
2019-04-03 22:57:05.81: SIM {TimeUS : 295434279, Roll : 0.0, Pitch : 0.0, Yaw : 353.0, Alt : 584.090026855, Lat : -35.363261, Lng : 149.1652299, Q1 : 0.998134791851, Q2 : 0.0, Q3 : 0.0, Q4 : -0.0610485821962}
2019-04-03 22:57:05.91: SIM {TimeUS : 295534239, Roll : 0.0, Pitch : 0.0, Yaw : 353.0, Alt : 584.090026855, Lat : -35.363261, Lng : 149.1652299, Q1 : 0.998134791851, Q2 : 0.0, Q3 : 0.0, Q4 : -0.0610485821962}
2019-04-03 22:57:06.02: SIM {TimeUS : 295635032, Roll : 0.0, Pitch : 0.0, Yaw : 353.0, Alt : 584.090026855, Lat : -35.363261, Lng : 149.1652299, Q1 : 0.998134791851, Q2 : 0.0, Q3 : 0.0, Q4 : -0.0610485821962}
2019-04-03 22:57:06.11: SIM {TimeUS : 295734992, Roll : 0.0, Pitch : 0.0, Yaw : 353.0, Alt : 584.090026855, Lat : -35.363261, Lng : 149.1652299, Q1 : 0.998134791851, Q2 : 0.0, Q3 : 0.0, Q4 : -0.0610485821962}
2019-04-03 22:57:06.21: SIM {TimeUS : 295834952, Roll : 0.0, Pitch : 0.0, Yaw : 353.0, Alt : 584.090026855, Lat : -35.363261, Lng : 149.1652299, Q1 : 0.998134791851, Q2 : 0.0, Q3 : 0.0, Q4 : -0.0610485821962}
2019-04-03 22:57:06.31: SIM {TimeUS : 295934912, Roll : 0.0, Pitch : 0.0, Yaw : 353.0, Alt : 584.090026855, Lat : -35.363261, Lng : 149.1652299, Q1 : 0.998134791851, Q2 : 0.0, Q3 : 0.0, Q4 : -0.0610485821962}
2019-04-03 22:57:06.41: SIM {TimeUS : 296034872, Roll : 0.0, Pitch : 0.0, Yaw : 353.0, Alt : 584.090026855, Lat : -35.363261, Lng : 149.1652299, Q1 : 0.998134791851, Q2 : 0.0, Q3 : 0.0, Q4 : -0.0610485821962}
2019-04-03 22:57:06.51: SIM {TimeUS : 296134832, Roll : 0.0, Pitch : 0.0, Yaw : 353.0, Alt : 584.090026855, Lat : -35.363261, Lng : 149.1652299, Q1 : 0.998134791851, Q2 : 0.0, Q3 : 0.0, Q4 : -0.0610485821962}
2019-04-03 22:57:06.61: SIM {TimeUS : 296234792, Roll : 0.0, Pitch : 0.0, Yaw : 353.0, Alt : 584.090026855, Lat : -35.363261, Lng : 149.1652299, Q1 : 0.998134791851, Q2 : 0.0, Q3 : 0.0, Q4 : -0.0610485821962}
2019-04-03 22:57:06.71: SIM {TimeUS : 296334752, Roll : 0.0, Pitch : 0.0, Yaw : 353.0, Alt : 584.090026855, Lat : -35.363261, Lng : 149.1652299, Q1 : 0.998134791851, Q2 : 0.0, Q3 : 0.0, Q4 : -0.0610485821962}
2019-04-03 22:57:06.81: SIM {TimeUS : 296434712, Roll : 0.0, Pitch : 0.0, Yaw : 353.0, Alt : 584.090026855, Lat : -35.363261, Lng : 149.1652299, Q1 : 0.998134791851, Q2 : 0.0, Q3 : 0.0, Q4 : -0.0610485821962}
2019-04-03 22:57:06.91: SIM {TimeUS : 296534672, Roll : 0.0, Pitch : 0.0, Yaw : 353.0, Alt : 584.090026855, Lat : -35.363261, Lng : 149.1652299, Q1 : 0.998134791851, Q2 : 0.0, Q3 : 0.0, Q4 : -0.0610485821962}
2019-04-03 22:57:07.01: SIM {TimeUS : 296634632, Roll : 0.0, Pitch : 0.0, Yaw : 353.0, Alt : 584.090026855, Lat : -35.363261, Lng : 149.1652299, Q1 : 0.998134791851, Q2 : 0.0, Q3 : 0.0, Q4 : -0.0610485821962}
2019-04-03 22:57:07.11: SIM {TimeUS : 296734592, Roll : 0.0, Pitch : 0.0, Yaw : 353.0, Alt : 584.090026855, Lat : -35.363261, Lng : 149.1652299, Q1 : 0.998134791851, Q2 : 0.0, Q3 : 0.0, Q4 : -0.0610485821962}
2019-04-03 22:57:07.21: SIM {TimeUS : 296834552, Roll : 0.0, Pitch : 0.0, Yaw : 353.0, Alt : 584.090026855, Lat : -35.363261, Lng : 149.1652299, Q1 : 0.998134791851, Q2 : 0.0, Q3 : 0.0, Q4 : -0.0610485821962}
2019-04-03 22:57:07.31: SIM {TimeUS : 296934512, Roll : 0.0, Pitch : 0.0, Yaw : 353.0, Alt : 584.090026855, Lat : -35.363261, Lng : 149.1652299, Q1 : 0.998134791851, Q2 : 0.0, Q3 : 0.0, Q4 : -0.0610485821962}
2019-04-03 22:57:07.41: SIM {TimeUS : 297034472, Roll : 0.0, Pitch : 0.0, Yaw : 353.0, Alt : 584.090026855, Lat : -35.363261, Lng : 149.1652299, Q1 : 0.998134791851, Q2 : 0.0, Q3 : 0.0, Q4 : -0.0610485821962}
2019-04-03 22:57:07.51: SIM {TimeUS : 297134432, Roll : 0.0, Pitch : 0.0, Yaw : 353.0, Alt : 584.090026855, Lat : -35.363261, Lng : 149.1652299, Q1 : 0.998134791851, Q2 : 0.0, Q3 : 0.0, Q4 : -0.0610485821962}
2019-04-03 22:57:07.61: SIM {TimeUS : 297234392, Roll : 0.0, Pitch : 0.0, Yaw : 353.0, Alt : 584.090026855, Lat : -35.363261, Lng : 149.1652299, Q1 : 0.998134791851, Q2 : 0.0, Q3 : 0.0, Q4 : -0.0610485821962}
2019-04-03 22:57:07.71: SIM {TimeUS : 297334352, Roll : 0.0, Pitch : 0.0, Yaw : 353.0, Alt : 584.090026855, Lat : -35.363261, Lng : 149.1652299, Q1 : 0.998134791851, Q2 : 0.0, Q3 : 0.0, Q4 : -0.0610485821962}
2019-04-03 22:57:07.81: SIM {TimeUS : 297434312, Roll : 0.0, Pitch : 0.0, Yaw : 353.0, Alt : 584.090026855, Lat : -35.363261, Lng : 149.1652299, Q1 : 0.998134791851, Q2 : 0.0, Q3 : 0.0, Q4 : -0.0610485821962}
2019-04-03 22:57:07.91: SIM {TimeUS : 297534272, Roll : 0.0, Pitch : 0.0, Yaw : 353.0, Alt : 584.090026855, Lat : -35.363261, Lng : 149.1652299, Q1 : 0.998134791851, Q2 : 0.0, Q3 : 0.0, Q4 : -0.0610485821962}
2019-04-03 22:57:08.01: SIM {TimeUS : 297634232, Roll : 0.0, Pitch : 0.0, Yaw : 353.0, Alt : 584.090026855, Lat : -35.363261, Lng : 149.1652299, Q1 : 0.998134791851, Q2 : 0.0, Q3 : 0.0, Q4 : -0.0610485821962}
2019-04-03 22:57:08.12: SIM {TimeUS : 297735025, Roll : 0.0, Pitch : 0.0, Yaw : 353.0, Alt : 584.090026855, Lat : -35.363261, Lng : 149.1652299, Q1 : 0.998134791851, Q2 : 0.0, Q3 : 0.0, Q4 : -0.0610485821962}
2019-04-03 22:57:08.21: SIM {TimeUS : 297834985, Roll : 0.0, Pitch : 0.0, Yaw : 353.0, Alt : 584.090026855, Lat : -35.363261, Lng : 149.1652299, Q1 : 0.998134791851, Q2 : 0.0, Q3 : 0.0, Q4 : -0.0610485821962}
2019-04-03 22:57:08.31: SIM {TimeUS : 297934945, Roll : 0.0, Pitch : 0.0, Yaw : 353.0, Alt : 584.090026855, Lat : -35.363261, Lng : 149.1652299, Q1 : 0.998134791851, Q2 : 0.0, Q3 : 0.0, Q4 : -0.0610485821962}
2019-04-03 22:57:08.41: SIM {TimeUS : 298034905, Roll : 0.0, Pitch : 0.0, Yaw : 353.0, Alt : 584.090026855, Lat : -35.363261, Lng : 149.1652299, Q1 : 0.998134791851, Q2 : 0.0, Q3 : 0.0, Q4 : -0.0610485821962}
2019-04-03 22:57:08.51: SIM {TimeUS : 298134865, Roll : 0.0, Pitch : 0.0, Yaw : 353.0, Alt : 584.090026855, Lat : -35.363261, Lng : 149.1652299, Q1 : 0.998134791851, Q2 : 0.0, Q3 : 0.0, Q4 : -0.0610485821962}
2019-04-03 22:57:08.61: SIM {TimeUS : 298234825, Roll : 0.0, Pitch : 0.0, Yaw : 353.0, Alt : 584.090026855, Lat : -35.363261, Lng : 149.1652299, Q1 : 0.998134791851, Q2 : 0.0, Q3 : 0.0, Q4 : -0.0610485821962}
2019-04-03 22:57:08.71: SIM {TimeUS : 298334785, Roll : 0.0, Pitch : 0.0, Yaw : 353.0, Alt : 584.090026855, Lat : -35.363261, Lng : 149.1652299, Q1 : 0.998134791851, Q2 : 0.0, Q3 : 0.0, Q4 : -0.0610485821962}
2019-04-03 22:57:08.81: SIM {TimeUS : 298434745, Roll : 0.0, Pitch : 0.0, Yaw : 353.0, Alt : 584.090026855, Lat : -35.363261, Lng : 149.1652299, Q1 : 0.998134791851, Q2 : 0.0, Q3 : 0.0, Q4 : -0.0610485821962}
2019-04-03 22:57:08.91: SIM {TimeUS : 298534705, Roll : 0.0, Pitch : 0.0, Yaw : 353.0, Alt : 584.090026855, Lat : -35.363261, Lng : 149.1652299, Q1 : 0.998134791851, Q2 : 0.0, Q3 : 0.0, Q4 : -0.0610485821962}
2019-04-03 22:57:09.01: SIM {TimeUS : 298634665, Roll : 0.0, Pitch : 0.0, Yaw : 353.0, Alt : 584.090026855, Lat : -35.363261, Lng : 149.1652299, Q1 : 0.998134791851, Q2 : 0.0, Q3 : 0.0, Q4 : -0.0610485821962}
2019-04-03 22:57:09.11: SIM {TimeUS : 298734625, Roll : 0.0, Pitch : 0.0, Yaw : 353.0, Alt : 584.090026855, Lat : -35.363261, Lng : 149.1652299, Q1 : 0.998134791851, Q2 : 0.0, Q3 : 0.0, Q4 : -0.0610485821962}
2019-04-03 22:57:09.21: SIM {TimeUS : 298834585, Roll : 0.0, Pitch : 0.0, Yaw : 353.0, Alt : 584.090026855, Lat : -35.363261, Lng : 149.1652299, Q1 : 0.998134791851, Q2 : 0.0, Q3 : 0.0, Q4 : -0.0610485821962}
2019-04-03 22:57:09.31: SIM {TimeUS : 298934545, Roll : 0.0, Pitch : 0.0, Yaw : 353.0, Alt : 584.090026855, Lat : -35.363261, Lng : 149.1652299, Q1 : 0.998134791851, Q2 : 0.0, Q3 : 0.0, Q4 : -0.0610485821962}
2019-04-03 22:57:09.41: SIM {TimeUS : 299034505, Roll : 0.0, Pitch : 0.0, Yaw : 353.0, Alt : 584.090026855, Lat : -35.363261, Lng : 149.1652299, Q1 : 0.998134791851, Q2 : 0.0, Q3 : 0.0, Q4 : -0.0610485821962}
2019-04-03 22:57:09.51: SIM {TimeUS : 299134465, Roll : 0.0, Pitch : 0.0, Yaw : 353.0, Alt : 584.090026855, Lat : -35.363261, Lng : 149.1652299, Q1 : 0.998134791851, Q2 : 0.0, Q3 : 0.0, Q4 : -0.0610485821962}
2019-04-03 22:57:09.61: SIM {TimeUS : 299234425, Roll : 0.0, Pitch : 0.0, Yaw : 353.0, Alt : 584.090026855, Lat : -35.363261, Lng : 149.1652299, Q1 : 0.998134791851, Q2 : 0.0, Q3 : 0.0, Q4 : -0.0610485821962}
2019-04-03 22:57:09.71: SIM {TimeUS : 299334385, Roll : 0.0, Pitch : 0.0, Yaw : 353.0, Alt : 584.090026855, Lat : -35.363261, Lng : 149.1652299, Q1 : 0.998134791851, Q2 : 0.0, Q3 : 0.0, Q4 : -0.0610485821962}
2019-04-03 22:57:09.81: SIM {TimeUS : 299434345, Roll : 0.0, Pitch : 0.0, Yaw : 353.0, Alt : 584.090026855, Lat : -35.363261, Lng : 149.1652299, Q1 : 0.998134791851, Q2 : 0.0, Q3 : 0.0, Q4 : -0.0610485821962}
2019-04-03 22:57:09.91: SIM {TimeUS : 299534305, Roll : 0.0, Pitch : 0.0, Yaw : 353.0, Alt : 584.090026855, Lat : -35.363261, Lng : 149.1652299, Q1 : 0.998134791851, Q2 : 0.0, Q3 : 0.0, Q4 : -0.0610485821962}
2019-04-03 22:57:10.01: SIM {TimeUS : 299634265, Roll : 0.0, Pitch : 0.0, Yaw : 353.0, Alt : 584.090026855, Lat : -35.363261, Lng : 149.1652299, Q1 : 0.998134791851, Q2 : 0.0, Q3 : 0.0, Q4 : -0.0610485821962}
2019-04-03 22:57:10.11: SIM {TimeUS : 299734225, Roll : 0.0, Pitch : 0.0, Yaw : 353.0, Alt : 584.090026855, Lat : -35.363261, Lng : 149.1652299, Q1 : 0.998134791851, Q2 : 0.0, Q3 : 0.0, Q4 : -0.0610485821962}
2019-04-03 22:57:10.22: SIM {TimeUS : 299835018, Roll : 0.0, Pitch : 0.0, Yaw : 353.0, Alt : 584.090026855, Lat : -35.363261, Lng : 149.1652299, Q1 : 0.998134791851, Q2 : 0.0, Q3 : 0.0, Q4 : -0.0610485821962}
2019-04-03 22:57:10.31: SIM {TimeUS : 299934978, Roll : 0.0, Pitch : 0.0, Yaw : 353.0, Alt : 584.090026855, Lat : -35.363261, Lng : 149.1652299, Q1 : 0.998134791851, Q2 : 0.0, Q3 : 0.0, Q4 : -0.0610485821962}
2019-04-03 22:57:10.41: SIM {TimeUS : 300034938, Roll : 0.0, Pitch : 0.0, Yaw : 353.0, Alt : 584.090026855, Lat : -35.363261, Lng : 149.1652299, Q1 : 0.998134791851, Q2 : 0.0, Q3 : 0.0, Q4 : -0.0610485821962}
2019-04-03 22:57:10.51: SIM {TimeUS : 300134898, Roll : 0.0, Pitch : 0.0, Yaw : 353.0, Alt : 584.090026855, Lat : -35.363261, Lng : 149.1652299, Q1 : 0.998134791851, Q2 : 0.0, Q3 : 0.0, Q4 : -0.0610485821962}
2019-04-03 22:57:10.61: SIM {TimeUS : 300234858, Roll : 0.0, Pitch : 0.0, Yaw : 353.0, Alt : 584.090026855, Lat : -35.363261, Lng : 149.1652299, Q1 : 0.998134791851, Q2 : 0.0, Q3 : 0.0, Q4 : -0.0610485821962}
2019-04-03 22:57:10.71: SIM {TimeUS : 300334818, Roll : 0.0, Pitch : 0.0, Yaw : 353.0, Alt : 584.090026855, Lat : -35.363261, Lng : 149.1652299, Q1 : 0.998134791851, Q2 : 0.0, Q3 : 0.0, Q4 : -0.0610485821962}
2019-04-03 22:57:10.81: SIM {TimeUS : 300434778, Roll : 0.0, Pitch : 0.0, Yaw : 353.0, Alt : 584.090026855, Lat : -35.363261, Lng : 149.1652299, Q1 : 0.998134791851, Q2 : 0.0, Q3 : 0.0, Q4 : -0.0610485821962}
2019-04-03 22:57:10.91: SIM {TimeUS : 300534738, Roll : 0.0, Pitch : 0.0, Yaw : 353.0, Alt : 584.090026855, Lat : -35.363261, Lng : 149.1652299, Q1 : 0.998134791851, Q2 : 0.0, Q3 : 0.0, Q4 : -0.0610485821962}
2019-04-03 22:57:11.01: SIM {TimeUS : 300634698, Roll : 0.0, Pitch : 0.0, Yaw : 353.0, Alt : 584.090026855, Lat : -35.363261, Lng : 149.1652299, Q1 : 0.998134791851, Q2 : 0.0, Q3 : 0.0, Q4 : -0.0610485821962}
2019-04-03 22:57:11.11: SIM {TimeUS : 300734658, Roll : 0.0, Pitch : 0.0, Yaw : 353.0, Alt : 584.090026855, Lat : -35.363261, Lng : 149.1652299, Q1 : 0.998134791851, Q2 : 0.0, Q3 : 0.0, Q4 : -0.0610485821962}
2019-04-03 22:57:11.21: SIM {TimeUS : 300834618, Roll : 0.0, Pitch : 0.0, Yaw : 353.0, Alt : 584.090026855, Lat : -35.363261, Lng : 149.1652299, Q1 : 0.998134791851, Q2 : 0.0, Q3 : 0.0, Q4 : -0.0610485821962}
2019-04-03 22:57:11.31: SIM {TimeUS : 300934578, Roll : 0.0, Pitch : 0.0, Yaw : 353.0, Alt : 584.090026855, Lat : -35.363261, Lng : 149.1652299, Q1 : 0.998134791851, Q2 : 0.0, Q3 : 0.0, Q4 : -0.0610485821962}
2019-04-03 22:57:11.41: SIM {TimeUS : 301034538, Roll : 0.0, Pitch : 0.0, Yaw : 353.0, Alt : 584.090026855, Lat : -35.363261, Lng : 149.1652299, Q1 : 0.998134791851, Q2 : 0.0, Q3 : 0.0, Q4 : -0.0610485821962}
2019-04-03 22:57:11.51: SIM {TimeUS : 301134498, Roll : 0.0, Pitch : 0.0, Yaw : 353.0, Alt : 584.090026855, Lat : -35.363261, Lng : 149.1652299, Q1 : 0.998134791851, Q2 : 0.0, Q3 : 0.0, Q4 : -0.0610485821962}
2019-04-03 22:57:11.61: SIM {TimeUS : 301234458, Roll : 0.0, Pitch : 0.0, Yaw : 353.0, Alt : 584.090026855, Lat : -35.363261, Lng : 149.1652299, Q1 : 0.998134791851, Q2 : 0.0, Q3 : 0.0, Q4 : -0.0610485821962}
2019-04-03 22:57:11.71: SIM {TimeUS : 301334418, Roll : 0.0, Pitch : 0.0, Yaw : 353.0, Alt : 584.090026855, Lat : -35.363261, Lng : 149.1652299, Q1 : 0.998134791851, Q2 : 0.0, Q3 : 0.0, Q4 : -0.0610485821962}
2019-04-03 22:57:11.81: SIM {TimeUS : 301434378, Roll : 0.0, Pitch : 0.0, Yaw : 353.0, Alt : 584.090026855, Lat : -35.363261, Lng : 149.1652299, Q1 : 0.998134791851, Q2 : 0.0, Q3 : 0.0, Q4 : -0.0610485821962}
2019-04-03 22:57:11.91: SIM {TimeUS : 301534338, Roll : 0.0, Pitch : 0.0, Yaw : 353.0, Alt : 584.090026855, Lat : -35.363261, Lng : 149.1652299, Q1 : 0.998134791851, Q2 : 0.0, Q3 : 0.0, Q4 : -0.0610485821962}
2019-04-03 22:57:12.01: SIM {TimeUS : 301634298, Roll : 0.0, Pitch : 0.0, Yaw : 353.0, Alt : 584.090026855, Lat : -35.363261, Lng : 149.1652299, Q1 : 0.998134791851, Q2 : 0.0, Q3 : 0.0, Q4 : -0.0610485821962}
2019-04-03 22:57:12.11: SIM {TimeUS : 301734258, Roll : 0.0, Pitch : 0.0, Yaw : 353.0, Alt : 584.090026855, Lat : -35.363261, Lng : 149.1652299, Q1 : 0.998134791851, Q2 : 0.0, Q3 : 0.0, Q4 : -0.0610485821962}
2019-04-03 22:57:12.21: SIM {TimeUS : 301834218, Roll : 0.0, Pitch : 0.0, Yaw : 353.0, Alt : 584.090026855, Lat : -35.363261, Lng : 149.1652299, Q1 : 0.998134791851, Q2 : 0.0, Q3 : 0.0, Q4 : -0.0610485821962}
2019-04-03 22:57:12.32: SIM {TimeUS : 301935011, Roll : 0.0, Pitch : 0.0, Yaw : 353.0, Alt : 584.090026855, Lat : -35.363261, Lng : 149.1652299, Q1 : 0.998134791851, Q2 : 0.0, Q3 : 0.0, Q4 : -0.0610485821962}
2019-04-03 22:57:12.41: SIM {TimeUS : 302034971, Roll : 0.0, Pitch : 0.0, Yaw : 353.0, Alt : 584.090026855, Lat : -35.363261, Lng : 149.1652299, Q1 : 0.998134791851, Q2 : 0.0, Q3 : 0.0, Q4 : -0.0610485821962}
2019-04-03 22:57:12.51: SIM {TimeUS : 302134931, Roll : 0.0, Pitch : 0.0, Yaw : 353.0, Alt : 584.090026855, Lat : -35.363261, Lng : 149.1652299, Q1 : 0.998134791851, Q2 : 0.0, Q3 : 0.0, Q4 : -0.0610485821962}
2019-04-03 22:57:12.61: SIM {TimeUS : 302234891, Roll : 0.0, Pitch : 0.0, Yaw : 353.0, Alt : 584.090026855, Lat : -35.363261, Lng : 149.1652299, Q1 : 0.998134791851, Q2 : 0.0, Q3 : 0.0, Q4 : -0.0610485821962}
2019-04-03 22:57:12.71: SIM {TimeUS : 302334851, Roll : 0.0, Pitch : 0.0, Yaw : 353.0, Alt : 584.090026855, Lat : -35.363261, Lng : 149.1652299, Q1 : 0.998134791851, Q2 : 0.0, Q3 : 0.0, Q4 : -0.0610485821962}
2019-04-03 22:57:12.81: SIM {TimeUS : 302434811, Roll : 0.0, Pitch : 0.0, Yaw : 353.0, Alt : 584.090026855, Lat : -35.363261, Lng : 149.1652299, Q1 : 0.998134791851, Q2 : 0.0, Q3 : 0.0, Q4 : -0.0610485821962}
2019-04-03 22:57:12.91: SIM {TimeUS : 302534771, Roll : 0.0, Pitch : 0.0, Yaw : 353.0, Alt : 584.090026855, Lat : -35.363261, Lng : 149.1652299, Q1 : 0.998134791851, Q2 : 0.0, Q3 : 0.0, Q4 : -0.0610485821962}
2019-04-03 22:57:13.01: SIM {TimeUS : 302634731, Roll : 0.0, Pitch : 0.0, Yaw : 353.0, Alt : 584.090026855, Lat : -35.363261, Lng : 149.1652299, Q1 : 0.998134791851, Q2 : 0.0, Q3 : 0.0, Q4 : -0.0610485821962}
2019-04-03 22:57:13.11: SIM {TimeUS : 302734691, Roll : 0.0, Pitch : 0.0, Yaw : 353.0, Alt : 584.090026855, Lat : -35.363261, Lng : 149.1652299, Q1 : 0.998134791851, Q2 : 0.0, Q3 : 0.0, Q4 : -0.0610485821962}
2019-04-03 22:57:13.21: SIM {TimeUS : 302834651, Roll : 0.0, Pitch : 0.0, Yaw : 353.0, Alt : 584.090026855, Lat : -35.363261, Lng : 149.1652299, Q1 : 0.998134791851, Q2 : 0.0, Q3 : 0.0, Q4 : -0.0610485821962}
2019-04-03 22:57:13.31: SIM {TimeUS : 302934611, Roll : 0.0, Pitch : 0.0, Yaw : 353.0, Alt : 584.090026855, Lat : -35.363261, Lng : 149.1652299, Q1 : 0.998134791851, Q2 : 0.0, Q3 : 0.0, Q4 : -0.0610485821962}
2019-04-03 22:57:13.41: SIM {TimeUS : 303034571, Roll : 0.0, Pitch : 0.0, Yaw : 353.0, Alt : 584.090026855, Lat : -35.363261, Lng : 149.1652299, Q1 : 0.998134791851, Q2 : 0.0, Q3 : 0.0, Q4 : -0.0610485821962}
2019-04-03 22:57:13.51: SIM {TimeUS : 303134531, Roll : 0.0, Pitch : 0.0, Yaw : 353.0, Alt : 584.090026855, Lat : -35.363261, Lng : 149.1652299, Q1 : 0.998134791851, Q2 : 0.0, Q3 : 0.0, Q4 : -0.0610485821962}
2019-04-03 22:57:13.61: SIM {TimeUS : 303234491, Roll : 0.0, Pitch : 0.0, Yaw : 353.0, Alt : 584.090026855, Lat : -35.363261, Lng : 149.1652299, Q1 : 0.998134791851, Q2 : 0.0, Q3 : 0.0, Q4 : -0.0610485821962}
2019-04-03 22:57:13.71: SIM {TimeUS : 303334451, Roll : 0.0, Pitch : 0.0, Yaw : 353.0, Alt : 584.090026855, Lat : -35.363261, Lng : 149.1652299, Q1 : 0.998134791851, Q2 : 0.0, Q3 : 0.0, Q4 : -0.0610485821962}
2019-04-03 22:57:15.71: SIM {TimeUS : 305334484, Roll : 0.0, Pitch : 0.0, Yaw : 353.0, Alt : 584.090026855, Lat : -35.363261, Lng : 149.1652299, Q1 : 0.998134791851, Q2 : 0.0, Q3 : 0.0, Q4 : -0.0610485821962}
2019-04-03 22:57:15.81: SIM {TimeUS : 305434444, Roll : 0.0, Pitch : 0.0, Yaw : 353.0, Alt : 584.090026855, Lat : -35.363261, Lng : 149.1652299, Q1 : 0.998134791851, Q2 : 0.0, Q3 : 0.0, Q4 : -0.0610485821962}
2019-04-03 22:57:15.91: SIM {TimeUS : 305534404, Roll : 0.0, Pitch : 0.0, Yaw : 353.0, Alt : 584.090026855, Lat : -35.363261, Lng : 149.1652299, Q1 : 0.998134791851, Q2 : 0.0, Q3 : 0.0, Q4 : -0.0610485821962}
2019-04-03 22:57:16.01: SIM {TimeUS : 305634364, Roll : 0.0, Pitch : 0.0, Yaw : 353.0, Alt : 584.090026855, Lat : -35.363261, Lng : 149.1652299, Q1 : 0.998134791851, Q2 : 0.0, Q3 : 0.0, Q4 : -0.0610485821962}
2019-04-03 22:57:16.11: SIM {TimeUS : 305734324, Roll : 0.0, Pitch : 0.0, Yaw : 353.0, Alt : 584.090026855, Lat : -35.363261, Lng : 149.1652299, Q1 : 0.998134791851, Q2 : 0.0, Q3 : 0.0, Q4 : -0.0610485821962}
2019-04-03 22:57:16.21: SIM {TimeUS : 305834284, Roll : 0.0, Pitch : 0.0, Yaw : 353.0, Alt : 584.090026855, Lat : -35.363261, Lng : 149.1652299, Q1 : 0.998134791851, Q2 : 0.0, Q3 : 0.0, Q4 : -0.0610485821962}
2019-04-03 22:57:16.31: SIM {TimeUS : 305934244, Roll : 0.0, Pitch : 0.0, Yaw : 353.0, Alt : 584.090026855, Lat : -35.363261, Lng : 149.1652299, Q1 : 0.998134791851, Q2 : 0.0, Q3 : 0.0, Q4 : -0.0610485821962}
2019-04-03 22:57:16.42: SIM {TimeUS : 306035037, Roll : 0.0, Pitch : 0.0, Yaw : 353.0, Alt : 584.090026855, Lat : -35.363261, Lng : 149.1652299, Q1 : 0.998134791851, Q2 : 0.0, Q3 : 0.0, Q4 : -0.0610485821962}
2019-04-03 22:57:16.51: SIM {TimeUS : 306134997, Roll : 0.0, Pitch : 0.0, Yaw : 353.0, Alt : 584.090026855, Lat : -35.363261, Lng : 149.1652299, Q1 : 0.998134791851, Q2 : 0.0, Q3 : 0.0, Q4 : -0.0610485821962}
2019-04-03 22:57:16.61: SIM {TimeUS : 306234957, Roll : 0.0, Pitch : 0.0, Yaw : 353.0, Alt : 584.090026855, Lat : -35.363261, Lng : 149.1652299, Q1 : 0.998134791851, Q2 : 0.0, Q3 : 0.0, Q4 : -0.0610485821962}
2019-04-03 22:57:16.71: SIM {TimeUS : 306334917, Roll : 0.0, Pitch : 0.0, Yaw : 353.0, Alt : 584.090026855, Lat : -35.363261, Lng : 149.1652299, Q1 : 0.998134791851, Q2 : 0.0, Q3 : 0.0, Q4 : -0.0610485821962}
2019-04-03 22:57:16.81: SIM {TimeUS : 306434877, Roll : 0.0, Pitch : 0.0, Yaw : 353.0, Alt : 584.090026855, Lat : -35.363261, Lng : 149.1652299, Q1 : 0.998134791851, Q2 : 0.0, Q3 : 0.0, Q4 : -0.0610485821962}
2019-04-03 22:57:16.91: SIM {TimeUS : 306534837, Roll : 0.0, Pitch : 0.0, Yaw : 353.0, Alt : 584.090026855, Lat : -35.363261, Lng : 149.1652299, Q1 : 0.998134791851, Q2 : 0.0, Q3 : 0.0, Q4 : -0.0610485821962}
2019-04-03 22:57:17.01: SIM {TimeUS : 306634797, Roll : 0.0, Pitch : 0.0, Yaw : 353.0, Alt : 584.090026855, Lat : -35.363261, Lng : 149.1652299, Q1 : 0.998134791851, Q2 : 0.0, Q3 : 0.0, Q4 : -0.0610485821962}
2019-04-03 22:57:17.11: SIM {TimeUS : 306734757, Roll : 0.0, Pitch : 0.0, Yaw : 353.0, Alt : 584.090026855, Lat : -35.363261, Lng : 149.1652299, Q1 : 0.998134791851, Q2 : 0.0, Q3 : 0.0, Q4 : -0.0610485821962}
2019-04-03 22:57:17.21: SIM {TimeUS : 306834717, Roll : 0.0, Pitch : 0.0, Yaw : 353.0, Alt : 584.090026855, Lat : -35.363261, Lng : 149.1652299, Q1 : 0.998134791851, Q2 : 0.0, Q3 : 0.0, Q4 : -0.0610485821962}
2019-04-03 22:57:17.31: SIM {TimeUS : 306934677, Roll : 0.0, Pitch : 0.0, Yaw : 353.0, Alt : 584.090026855, Lat : -35.363261, Lng : 149.1652299, Q1 : 0.998134791851, Q2 : 0.0, Q3 : 0.0, Q4 : -0.0610485821962}
2019-04-03 22:57:17.41: SIM {TimeUS : 307034637, Roll : 0.0, Pitch : 0.0, Yaw : 353.0, Alt : 584.090026855, Lat : -35.363261, Lng : 149.1652299, Q1 : 0.998134791851, Q2 : 0.0, Q3 : 0.0, Q4 : -0.0610485821962}
2019-04-03 22:57:17.51: SIM {TimeUS : 307134597, Roll : 0.0, Pitch : 0.0, Yaw : 353.0, Alt : 584.090026855, Lat : -35.363261, Lng : 149.1652299, Q1 : 0.998134791851, Q2 : 0.0, Q3 : 0.0, Q4 : -0.0610485821962}
2019-04-03 22:57:17.61: SIM {TimeUS : 307234557, Roll : 0.0, Pitch : 0.0, Yaw : 353.0, Alt : 584.090026855, Lat : -35.363261, Lng : 149.1652299, Q1 : 0.998134791851, Q2 : 0.0, Q3 : 0.0, Q4 : -0.0610485821962}
2019-04-03 22:57:17.71: SIM {TimeUS : 307334517, Roll : 0.0, Pitch : 0.0, Yaw : 353.0, Alt : 584.090026855, Lat : -35.363261, Lng : 149.1652299, Q1 : 0.998134791851, Q2 : 0.0, Q3 : 0.0, Q4 : -0.0610485821962}
2019-04-03 22:57:17.81: SIM {TimeUS : 307434477, Roll : 0.0, Pitch : 0.0, Yaw : 353.0, Alt : 584.090026855, Lat : -35.363261, Lng : 149.1652299, Q1 : 0.998134791851, Q2 : 0.0, Q3 : 0.0, Q4 : -0.0610485821962}
2019-04-03 22:57:17.91: SIM {TimeUS : 307534437, Roll : 0.0, Pitch : 0.0, Yaw : 353.0, Alt : 584.090026855, Lat : -35.363261, Lng : 149.1652299, Q1 : 0.998134791851, Q2 : 0.0, Q3 : 0.0, Q4 : -0.0610485821962}
2019-04-03 22:57:18.01: SIM {TimeUS : 307634397, Roll : 0.0, Pitch : 0.0, Yaw : 353.0, Alt : 584.090026855, Lat : -35.363261, Lng : 149.1652299, Q1 : 0.998134791851, Q2 : 0.0, Q3 : 0.0, Q4 : -0.0610485821962}
2019-04-03 22:57:18.11: SIM {TimeUS : 307734357, Roll : 0.0, Pitch : 0.0, Yaw : 353.0, Alt : 584.090026855, Lat : -35.363261, Lng : 149.1652299, Q1 : 0.998134791851, Q2 : 0.0, Q3 : 0.0, Q4 : -0.0610485821962}
2019-04-03 22:57:18.21: SIM {TimeUS : 307834317, Roll : 0.0, Pitch : 0.0, Yaw : 353.0, Alt : 584.090026855, Lat : -35.363261, Lng : 149.1652299, Q1 : 0.998134791851, Q2 : 0.0, Q3 : 0.0, Q4 : -0.0610485821962}
2019-04-03 22:57:18.31: SIM {TimeUS : 307934277, Roll : 0.0, Pitch : 0.0, Yaw : 353.0, Alt : 584.090026855, Lat : -35.363261, Lng : 149.1652299, Q1 : 0.998134791851, Q2 : 0.0, Q3 : 0.0, Q4 : -0.0610485821962}
2019-04-03 22:57:18.41: SIM {TimeUS : 308034237, Roll : 0.0, Pitch : 0.0, Yaw : 353.0, Alt : 584.090026855, Lat : -35.363261, Lng : 149.1652299, Q1 : 0.998134791851, Q2 : 0.0, Q3 : 0.0, Q4 : -0.0610485821962}
2019-04-03 22:57:18.52: SIM {TimeUS : 308135030, Roll : 0.0, Pitch : 0.0, Yaw : 353.0, Alt : 584.090026855, Lat : -35.363261, Lng : 149.1652299, Q1 : 0.998134791851, Q2 : 0.0, Q3 : 0.0, Q4 : -0.0610485821962}
2019-04-03 22:57:18.61: SIM {TimeUS : 308234990, Roll : 0.0, Pitch : 0.0, Yaw : 353.0, Alt : 584.090026855, Lat : -35.363261, Lng : 149.1652299, Q1 : 0.998134791851, Q2 : 0.0, Q3 : 0.0, Q4 : -0.0610485821962}
2019-04-03 22:57:18.71: SIM {TimeUS : 308334950, Roll : 0.0, Pitch : 0.0, Yaw : 353.0, Alt : 584.090026855, Lat : -35.363261, Lng : 149.1652299, Q1 : 0.998134791851, Q2 : 0.0, Q3 : 0.0, Q4 : -0.0610485821962}
2019-04-03 22:57:18.81: SIM {TimeUS : 308434910, Roll : 0.0, Pitch : 0.0, Yaw : 353.0, Alt : 584.090026855, Lat : -35.363261, Lng : 149.1652299, Q1 : 0.998134791851, Q2 : 0.0, Q3 : 0.0, Q4 : -0.0610485821962}
2019-04-03 22:57:18.91: SIM {TimeUS : 308534870, Roll : 0.0, Pitch : 0.0, Yaw : 353.0, Alt : 584.090026855, Lat : -35.363261, Lng : 149.1652299, Q1 : 0.998134791851, Q2 : 0.0, Q3 : 0.0, Q4 : -0.0610485821962}
2019-04-03 22:57:19.01: SIM {TimeUS : 308634830, Roll : 0.0, Pitch : 0.0, Yaw : 353.0, Alt : 584.090026855, Lat : -35.363261, Lng : 149.1652299, Q1 : 0.998134791851, Q2 : 0.0, Q3 : 0.0, Q4 : -0.0610485821962}
2019-04-03 22:57:19.11: SIM {TimeUS : 308734790, Roll : 0.0, Pitch : 0.0, Yaw : 353.0, Alt : 584.090026855, Lat : -35.363261, Lng : 149.1652299, Q1 : 0.998134791851, Q2 : 0.0, Q3 : 0.0, Q4 : -0.0610485821962}
2019-04-03 22:57:19.21: SIM {TimeUS : 308834750, Roll : 0.0, Pitch : 0.0, Yaw : 353.0, Alt : 584.090026855, Lat : -35.363261, Lng : 149.1652299, Q1 : 0.998134791851, Q2 : 0.0, Q3 : 0.0, Q4 : -0.0610485821962}
2019-04-03 22:57:19.31: SIM {TimeUS : 308934710, Roll : 0.0, Pitch : 0.0, Yaw : 353.0, Alt : 584.090026855, Lat : -35.363261, Lng : 149.1652299, Q1 : 0.998134791851, Q2 : 0.0, Q3 : 0.0, Q4 : -0.0610485821962}
2019-04-03 22:57:19.41: SIM {TimeUS : 309034670, Roll : 0.0, Pitch : 0.0, Yaw : 353.0, Alt : 584.090026855, Lat : -35.363261, Lng : 149.1652299, Q1 : 0.998134791851, Q2 : 0.0, Q3 : 0.0, Q4 : -0.0610485821962}
2019-04-03 22:57:19.51: SIM {TimeUS : 309134630, Roll : 0.0, Pitch : 0.0, Yaw : 353.0, Alt : 584.090026855, Lat : -35.363261, Lng : 149.1652299, Q1 : 0.998134791851, Q2 : 0.0, Q3 : 0.0, Q4 : -0.0610485821962}
2019-04-03 22:57:19.61: SIM {TimeUS : 309234590, Roll : 0.0, Pitch : 0.0, Yaw : 353.0, Alt : 584.090026855, Lat : -35.363261, Lng : 149.1652299, Q1 : 0.998134791851, Q2 : 0.0, Q3 : 0.0, Q4 : -0.0610485821962}
2019-04-03 22:57:19.71: SIM {TimeUS : 309334550, Roll : 0.0, Pitch : 0.0, Yaw : 353.0, Alt : 584.090026855, Lat : -35.363261, Lng : 149.1652299, Q1 : 0.998134791851, Q2 : 0.0, Q3 : 0.0, Q4 : -0.0610485821962}
2019-04-03 22:57:19.81: SIM {TimeUS : 309434510, Roll : 0.0, Pitch : 0.0, Yaw : 353.0, Alt : 584.090026855, Lat : -35.363261, Lng : 149.1652299, Q1 : 0.998134791851, Q2 : 0.0, Q3 : 0.0, Q4 : -0.0610485821962}
2019-04-03 22:57:19.91: SIM {TimeUS : 309534470, Roll : 0.0, Pitch : 0.0, Yaw : 353.0, Alt : 584.090026855, Lat : -35.363261, Lng : 149.1652299, Q1 : 0.998134791851, Q2 : 0.0, Q3 : 0.0, Q4 : -0.0610486753285}
2019-04-03 22:57:20.01: SIM {TimeUS : 309634430, Roll : 0.0, Pitch : 0.0, Yaw : 353.0, Alt : 584.090026855, Lat : -35.363261, Lng : 149.1652299, Q1 : 0.998134791851, Q2 : 0.0, Q3 : 0.0, Q4 : -0.0610486753285}
2019-04-03 22:57:20.11: SIM {TimeUS : 309734390, Roll : 0.0, Pitch : 0.0, Yaw : 353.0, Alt : 584.090026855, Lat : -35.363261, Lng : 149.1652299, Q1 : 0.998134791851, Q2 : 0.0, Q3 : 0.0, Q4 : -0.0610486753285}
2019-04-03 22:57:20.21: SIM {TimeUS : 309834350, Roll : 0.0, Pitch : 0.0, Yaw : 353.0, Alt : 584.090026855, Lat : -35.363261, Lng : 149.1652299, Q1 : 0.998134791851, Q2 : 0.0, Q3 : 0.0, Q4 : -0.0610486753285}
2019-04-03 22:57:20.31: SIM {TimeUS : 309934310, Roll : 0.0, Pitch : 0.0, Yaw : 353.0, Alt : 584.090026855, Lat : -35.363261, Lng : 149.1652299, Q1 : 0.998134791851, Q2 : 0.0, Q3 : 0.0, Q4 : -0.0610486753285}
2019-04-03 22:57:20.41: SIM {TimeUS : 310034270, Roll : 0.0, Pitch : 0.0, Yaw : 353.0, Alt : 584.090026855, Lat : -35.363261, Lng : 149.1652299, Q1 : 0.998134791851, Q2 : 0.0, Q3 : 0.0, Q4 : -0.0610486753285}
2019-04-03 22:57:20.51: SIM {TimeUS : 310134230, Roll : 0.0, Pitch : 0.0, Yaw : 353.0, Alt : 584.090026855, Lat : -35.363261, Lng : 149.1652299, Q1 : 0.998134791851, Q2 : 0.0, Q3 : 0.0, Q4 : -0.0610486753285}
2019-04-03 22:57:20.62: SIM {TimeUS : 310235023, Roll : 0.0, Pitch : 0.0, Yaw : 353.0, Alt : 584.090026855, Lat : -35.363261, Lng : 149.1652299, Q1 : 0.998134791851, Q2 : 0.0, Q3 : 0.0, Q4 : -0.0610486753285}
2019-04-03 22:57:20.71: SIM {TimeUS : 310334983, Roll : 0.0, Pitch : 0.0, Yaw : 353.0, Alt : 584.099975586, Lat : -35.363261, Lng : 149.1652299, Q1 : 0.998134791851, Q2 : 0.0, Q3 : 0.0, Q4 : -0.0610486753285}
2019-04-03 22:57:20.81: SIM {TimeUS : 310434943, Roll : 0.0, Pitch : 0.0, Yaw : 353.0, Alt : 584.099975586, Lat : -35.363261, Lng : 149.1652299, Q1 : 0.998134791851, Q2 : 0.0, Q3 : 0.0, Q4 : -0.0610486753285}
2019-04-03 22:57:20.91: SIM {TimeUS : 310534903, Roll : 0.0, Pitch : 0.0, Yaw : 353.0, Alt : 584.109985352, Lat : -35.363261, Lng : 149.1652299, Q1 : 0.998134791851, Q2 : 0.0, Q3 : 0.0, Q4 : -0.0610486753285}
2019-04-03 22:57:21.01: SIM {TimeUS : 310634863, Roll : 0.0, Pitch : 0.0, Yaw : 353.0, Alt : 584.130004883, Lat : -35.363261, Lng : 149.1652299, Q1 : 0.998134791851, Q2 : 0.0, Q3 : 0.0, Q4 : -0.0610486827791}
2019-04-03 22:57:21.11: SIM {TimeUS : 310734823, Roll : 0.0, Pitch : 0.0, Yaw : 353.0, Alt : 584.159973145, Lat : -35.363261, Lng : 149.1652299, Q1 : 0.998134791851, Q2 : 0.0, Q3 : 0.0, Q4 : -0.0610486753285}
2019-04-03 22:57:21.21: SIM {TimeUS : 310834783, Roll : 0.0, Pitch : 0.0, Yaw : 353.0, Alt : 584.190002441, Lat : -35.363261, Lng : 149.1652299, Q1 : 0.998134791851, Q2 : 0.0, Q3 : 0.0, Q4 : -0.0610486753285}
2019-04-03 22:57:21.31: SIM {TimeUS : 310934743, Roll : -0.01, Pitch : 0.0, Yaw : 352.99, Alt : 584.229980469, Lat : -35.363261, Lng : 149.1652299, Q1 : 0.998134613037, Q2 : -0.00013151987514, Q3 : -6.69866349199e-05, Q4 : -0.0610520876944}
2019-04-03 22:57:21.41: SIM {TimeUS : 311034703, Roll : -0.06, Pitch : -0.04, Yaw : 352.99, Alt : 584.320007324, Lat : -35.363261, Lng : 149.1652299, Q1 : 0.998133182526, Q2 : -0.000627823872492, Q3 : -0.000390011875425, Q4 : -0.0610707327724}
2019-04-03 22:57:21.51: SIM {TimeUS : 311134663, Roll : -0.14, Pitch : -0.12, Yaw : 352.99, Alt : 584.450012207, Lat : -35.363261, Lng : 149.1652299, Q1 : 0.998129725456, Q2 : -0.00129671744071, Q3 : -0.000991021399386, Q4 : -0.0611100196838}
2019-04-03 22:57:21.61: SIM {TimeUS : 311234623, Roll : -0.21, Pitch : -0.2, Yaw : 352.98, Alt : 584.609985352, Lat : -35.363261, Lng : 149.1652299, Q1 : 0.998124301434, Q2 : -0.00196200725622, Q3 : -0.00169796589762, Q4 : -0.0611651204526}
2019-04-03 22:57:21.71: SIM {TimeUS : 311334583, Roll : -0.25, Pitch : -0.25, Yaw : 352.98, Alt : 584.760009766, Lat : -35.363261, Lng : 149.1652299, Q1 : 0.998119235039, Q2 : -0.00233290740289, Q3 : -0.00208074785769, Q4 : -0.061222333461}
2019-04-03 22:57:21.81: SIM {TimeUS : 311434543, Roll : -0.25, Pitch : -0.25, Yaw : 352.97, Alt : 584.91998291, Lat : -35.363261, Lng : 149.1652299, Q1 : 0.998116016388, Q2 : -0.00233772979118, Q3 : -0.00208480050787, Q4 : -0.0612752102315}
2019-04-03 22:57:21.91: SIM {TimeUS : 311534503, Roll : -0.19, Pitch : -0.21, Yaw : 352.96, Alt : 585.070007324, Lat : -35.363261, Lng : 149.1652299, Q1 : 0.998114824295, Q2 : -0.00177448848262, Q3 : -0.00177327601705, Q4 : -0.0613231249154}
2019-04-03 22:57:22.01: SIM {TimeUS : 311634463, Roll : -0.11, Pitch : -0.13, Yaw : 352.96, Alt : 585.219970703, Lat : -35.363261, Lng : 149.1652299, Q1 : 0.998114466667, Q2 : -0.00107924221084, Q3 : -0.00111957790796, Q4 : -0.061360809952}
2019-04-03 22:57:22.11: SIM {TimeUS : 311734423, Roll : -0.05, Pitch : -0.03, Yaw : 352.96, Alt : 585.380004883, Lat : -35.363261, Lng : 149.1652299, Q1 : 0.998113751411, Q2 : -0.000491964223329, Q3 : -0.000295923586236, Q4 : -0.0613896399736}
2019-04-03 22:57:22.21: SIM {TimeUS : 311834383, Roll : -0.02, Pitch : 0.01, Yaw : 352.95, Alt : 585.549987793, Lat : -35.363261, Lng : 149.1652298, Q1 : 0.998112678528, Q2 : -0.000193242100067, Q3 : 0.000150884006871, Q4 : -0.0614092089236}
2019-04-03 22:57:22.31: SIM {TimeUS : 311934343, Roll : -0.01, Pitch : 0.02, Yaw : 352.95, Alt : 585.729980469, Lat : -35.363261, Lng : 149.1652298, Q1 : 0.998111486435, Q2 : -8.52818993735e-05, Q3 : 0.000209560414078, Q4 : -0.0614282824099}
2019-04-03 22:57:22.41: SIM {TimeUS : 312034303, Roll : 0.0, Pitch : 0.0, Yaw : 352.95, Alt : 585.909973145, Lat : -35.363261, Lng : 149.1652298, Q1 : 0.998110890388, Q2 : -3.51405906258e-05, Q3 : 3.56286036549e-05, Q4 : -0.0614380948246}
2019-04-03 22:57:22.51: SIM {TimeUS : 312134263, Roll : 0.0, Pitch : -0.03, Yaw : 352.95, Alt : 586.090026855, Lat : -35.3632609, Lng : 149.1652298, Q1 : 0.998110890388, Q2 : 6.70533045195e-05, Q3 : -0.00028637557989, Q4 : -0.0614381060004}
2019-04-03 22:57:22.61: SIM {TimeUS : 312234223, Roll : 0.03, Pitch : -0.07, Yaw : 352.95, Alt : 586.280029297, Lat : -35.3632609, Lng : 149.1652298, Q1 : 0.998111844063, Q2 : 0.000245839415584, Q3 : -0.00070177327143, Q4 : -0.0614178478718}
2019-04-03 22:57:22.72: SIM {TimeUS : 312335016, Roll : 0.02, Pitch : -0.09, Yaw : 352.95, Alt : 586.469970703, Lat : -35.3632609, Lng : 149.1652298, Q1 : 0.998112976551, Q2 : 0.000207885110285, Q3 : -0.000882718304638, Q4 : -0.0613974817097}
2019-04-03 22:57:22.81: SIM {TimeUS : 312434976, Roll : 0.0, Pitch : -0.1, Yaw : 352.96, Alt : 586.659973145, Lat : -35.3632609, Lng : 149.1652298, Q1 : 0.998114585876, Q2 : -1.52553357111e-05, Q3 : -0.000911938434001, Q4 : -0.0613720305264}
2019-04-03 22:57:22.91: SIM {TimeUS : 312534936, Roll : -0.02, Pitch : -0.09, Yaw : 352.96, Alt : 586.859985352, Lat : -35.3632609, Lng : 149.1652298, Q1 : 0.998115777969, Q2 : -0.000240114037297, Q3 : -0.000809347780887, Q4 : -0.0613530576229}
2019-04-03 22:57:23.01: SIM {TimeUS : 312634896, Roll : -0.04, Pitch : -0.07, Yaw : 352.96, Alt : 587.059997559, Lat : -35.3632609, Lng : 149.1652298, Q1 : 0.99811643362, Q2 : -0.000440502160927, Q3 : -0.000611507624853, Q4 : -0.0613435544074}
2019-04-03 22:57:23.11: SIM {TimeUS : 312734856, Roll : -0.05, Pitch : -0.04, Yaw : 352.96, Alt : 587.260009766, Lat : -35.3632609, Lng : 149.1652298, Q1 : 0.998116791248, Q2 : -0.000501670583617, Q3 : -0.000383106787922, Q4 : -0.0613392591476}
2019-04-03 22:57:23.21: SIM {TimeUS : 312834816, Roll : -0.06, Pitch : -0.02, Yaw : 352.96, Alt : 587.460021973, Lat : -35.3632609, Lng : 149.1652298, Q1 : 0.998116791248, Q2 : -0.00059005030198, Q3 : -0.000139415278682, Q4 : -0.0613391511142}
2019-04-03 22:57:23.31: SIM {TimeUS : 312934776, Roll : -0.07, Pitch : 0.0, Yaw : 352.96, Alt : 587.66998291, Lat : -35.3632608, Lng : 149.1652297, Q1 : 0.998116731644, Q2 : -0.000644805608317, Q3 : 9.17775396374e-05, Q4 : -0.0613403320312}
2019-04-03 22:57:23.41: SIM {TimeUS : 313034736, Roll : -0.08, Pitch : 0.01, Yaw : 352.96, Alt : 587.880004883, Lat : -35.3632608, Lng : 149.1652297, Q1 : 0.998116075993, Q2 : -0.000699385302141, Q3 : 0.000190976250451, Q4 : -0.0613499991596}
2019-04-03 22:57:23.51: SIM {TimeUS : 313134696, Roll : -0.08, Pitch : 0.01, Yaw : 352.96, Alt : 588.090026855, Lat : -35.3632608, Lng : 149.1652297, Q1 : 0.998114824295, Q2 : -0.000769286882132, Q3 : 0.00013608885638, Q4 : -0.0613695755601}
2019-04-03 22:57:23.61: SIM {TimeUS : 313234656, Roll : -0.1, Pitch : -0.01, Yaw : 352.95, Alt : 588.289978027, Lat : -35.3632608, Lng : 149.1652297, Q1 : 0.998112559319, Q2 : -0.000943560095038, Q3 : -4.17439223384e-05, Q4 : -0.0614045150578}
2019-04-03 22:57:23.71: SIM {TimeUS : 313334616, Roll : -0.14, Pitch : -0.04, Yaw : 352.95, Alt : 588.510009766, Lat : -35.3632608, Lng : 149.1652297, Q1 : 0.998108685017, Q2 : -0.00124737957958, Q3 : -0.00033294345485, Q4 : -0.0614608339965}
2019-04-03 22:57:23.81: SIM {TimeUS : 313434576, Roll : -0.19, Pitch : -0.09, Yaw : 352.94, Alt : 588.719970703, Lat : -35.3632608, Lng : 149.1652296, Q1 : 0.998103618622, Q2 : -0.00176656467374, Q3 : -0.000686302781105, Q4 : -0.0615273937583}
2019-04-03 22:57:23.91: SIM {TimeUS : 313534536, Roll : -0.24, Pitch : -0.13, Yaw : 352.93, Alt : 588.929992676, Lat : -35.3632608, Lng : 149.1652296, Q1 : 0.998097419739, Q2 : -0.00219413335435, Q3 : -0.00106875377242, Q4 : -0.0616088099778}
2019-04-03 22:57:24.01: SIM {TimeUS : 313634496, Roll : -0.3, Pitch : -0.19, Yaw : 352.92, Alt : 589.150024414, Lat : -35.3632608, Lng : 149.1652296, Q1 : 0.998089432716, Q2 : -0.00275476835668, Q3 : -0.00154497497715, Q4 : -0.0617046244442}
2019-04-03 22:57:24.11: SIM {TimeUS : 313734456, Roll : -0.37, Pitch : -0.25, Yaw : 352.91, Alt : 589.359985352, Lat : -35.3632608, Lng : 149.1652294, Q1 : 0.998080074787, Q2 : -0.00340603408404, Q3 : -0.00197866372764, Q4 : -0.0618114471436}
2019-04-03 22:57:24.21: SIM {TimeUS : 313834416, Roll : -0.4, Pitch : -0.28, Yaw : 352.9, Alt : 589.559997559, Lat : -35.3632608, Lng : 149.1652294, Q1 : 0.998071372509, Q2 : -0.00370833138004, Q3 : -0.00224630557932, Q4 : -0.0619250275195}
2019-04-03 22:57:24.31: SIM {TimeUS : 313934376, Roll : -0.37, Pitch : -0.27, Yaw : 352.88, Alt : 589.760009766, Lat : -35.3632607, Lng : 149.1652294, Q1 : 0.99806535244, Q2 : -0.00343032577075, Q3 : -0.00219583394937, Q4 : -0.0620398856699}
2019-04-03 22:57:24.41: SIM {TimeUS : 314034336, Roll : -0.3, Pitch : -0.24, Yaw : 352.87, Alt : 589.940002441, Lat : -35.3632607, Lng : 149.1652293, Q1 : 0.998060703278, Q2 : -0.00282367295586, Q3 : -0.00199679797515, Q4 : -0.0621518269181}
2019-04-03 22:57:24.51: SIM {TimeUS : 314134296, Roll : -0.23, Pitch : -0.21, Yaw : 352.86, Alt : 590.119995117, Lat : -35.3632607, Lng : 149.1652293, Q1 : 0.99805611372, Q2 : -0.00218687951565, Q3 : -0.00174349092413, Q4 : -0.0622588135302}
2019-04-03 22:57:24.61: SIM {TimeUS : 314234256, Roll : -0.18, Pitch : -0.19, Yaw : 352.84, Alt : 590.280029297, Lat : -35.3632607, Lng : 149.1652293, Q1 : 0.99805110693, Q2 : -0.001750138239, Q3 : -0.00155792373698, Q4 : -0.0623582489789}
2019-04-03 22:57:24.71: SIM {TimeUS : 314334216, Roll : -0.22, Pitch : -0.19, Yaw : 352.83, Alt : 590.429992676, Lat : -35.3632605, Lng : 149.1652292, Q1 : 0.998044312, Q2 : -0.00209867348894, Q3 : -0.00160399451852, Q4 : -0.0624546073377}
2019-04-03 22:57:24.82: SIM {TimeUS : 314435009, Roll : -0.5, Pitch : -0.25, Yaw : 352.82, Alt : 590.570007324, Lat : -35.3632605, Lng : 149.1652292, Q1 : 0.998029649258, Q2 : -0.004531418439, Q3 : -0.0019595103804, Q4 : -0.0625496655703}
2019-04-03 22:57:24.91: SIM {TimeUS : 314534969, Roll : -1.05, Pitch : -0.35, Yaw : 352.81, Alt : 590.700012207, Lat : -35.3632605, Lng : 149.1652291, Q1 : 0.997988522053, Q2 : -0.00939920637757, Q3 : -0.00249121617526, Q4 : -0.0626451969147}
2019-04-03 22:57:25.01: SIM {TimeUS : 314634929, Roll : -1.85, Pitch : -0.48, Yaw : 352.81, Alt : 590.809997559, Lat : -35.3632605, Lng : 149.1652289, Q1 : 0.99788916111, Q2 : -0.0164368953556, Q3 : -0.00325015489943, Q4 : -0.0627420097589}
2019-04-03 22:57:25.11: SIM {TimeUS : 314734889, Roll : -2.81, Pitch : -0.65, Yaw : 352.8, Alt : 590.909973145, Lat : -35.3632604, Lng : 149.1652289, Q1 : 0.99770539999, Q2 : -0.0248722285032, Q3 : -0.00414726883173, Q4 : -0.0628342404962}
2019-04-03 22:57:25.21: SIM {TimeUS : 314834849, Roll : -3.81, Pitch : -0.8, Yaw : 352.8, Alt : 591.0, Lat : -35.3632604, Lng : 149.1652287, Q1 : 0.997437000275, Q2 : -0.0336768776178, Q3 : -0.00495149614289, Q4 : -0.0629345551133}
2019-04-03 22:57:25.31: SIM {TimeUS : 314934809, Roll : -4.66, Pitch : -0.93, Yaw : 352.8, Alt : 591.070007324, Lat : -35.3632604, Lng : 149.1652284, Q1 : 0.997148454189, Q2 : -0.0410959534347, Q3 : -0.00554963713512, Q4 : -0.0630499124527}
2019-04-03 22:57:25.41: SIM {TimeUS : 315034769, Roll : -5.28, Pitch : -1.01, Yaw : 352.79, Alt : 591.140014648, Lat : -35.3632604, Lng : 149.1652282, Q1 : 0.996896505356, Q2 : -0.0465814992785, Q3 : -0.00595626607537, Q4 : -0.0631833001971}
2019-04-03 22:57:25.51: SIM {TimeUS : 315134729, Roll : -5.72, Pitch : -1.05, Yaw : 352.78, Alt : 591.200012207, Lat : -35.3632604, Lng : 149.1652279, Q1 : 0.9967020154, Q2 : -0.0503775067627, Q3 : -0.00606105290353, Q4 : -0.0633287578821}
2019-04-03 22:57:25.61: SIM {TimeUS : 315234689, Roll : -6.03, Pitch : -1.08, Yaw : 352.76, Alt : 591.25, Lat : -35.3632604, Lng : 149.1652274, Q1 : 0.996549427509, Q2 : -0.0531282909214, Q3 : -0.0061006709002, Q4 : -0.0634778141975}
2019-04-03 22:57:25.71: SIM {TimeUS : 315334649, Roll : -6.3, Pitch : -1.11, Yaw : 352.75, Alt : 591.299987793, Lat : -35.3632603, Lng : 149.1652269, Q1 : 0.996408879757, Q2 : -0.055528126657, Q3 : -0.0062269968912, Q4 : -0.0636176839471}
2019-04-03 22:57:25.81: SIM {TimeUS : 315434609, Roll : -6.59, Pitch : -1.15, Yaw : 352.74, Alt : 591.340026855, Lat : -35.3632603, Lng : 149.1652263, Q1 : 0.996258437634, Q2 : -0.0579990185797, Q3 : -0.00641312729567, Q4 : -0.0637506917119}
2019-04-03 22:57:25.91: SIM {TimeUS : 315534569, Roll : -6.87, Pitch : -1.19, Yaw : 352.73, Alt : 591.380004883, Lat : -35.3632602, Lng : 149.1652256, Q1 : 0.99609798193, Q2 : -0.0605379343033, Q3 : -0.00661788741127, Q4 : -0.0638760849833}
2019-04-03 22:57:26.01: SIM {TimeUS : 315634529, Roll : -7.2, Pitch : -1.24, Yaw : 352.72, Alt : 591.409973145, Lat : -35.3632602, Lng : 149.1652249, Q1 : 0.995913684368, Q2 : -0.0633505359292, Q3 : -0.00684269843623, Q4 : -0.0639985650778}
2019-04-03 22:57:26.11: SIM {TimeUS : 315734489, Roll : -7.55, Pitch : -1.29, Yaw : 352.71, Alt : 591.440002441, Lat : -35.3632601, Lng : 149.165224, Q1 : 0.995703101158, Q2 : -0.0664356872439, Q3 : -0.00706467172131, Q4 : -0.064122967422}
2019-04-03 22:57:26.21: SIM {TimeUS : 315834449, Roll : -7.89, Pitch : -1.35, Yaw : 352.7, Alt : 591.469970703, Lat : -35.3632601, Lng : 149.1652231, Q1 : 0.99549049139, Q2 : -0.0694119185209, Q3 : -0.0073940702714, Q4 : -0.0642337277532}
2019-04-03 22:57:26.31: SIM {TimeUS : 315934409, Roll : -8.14, Pitch : -1.4, Yaw : 352.7, Alt : 591.489990234, Lat : -35.3632599, Lng : 149.1652221, Q1 : 0.995320379734, Q2 : -0.071678109467, Q3 : -0.00765953119844, Q4 : -0.0643496289849}
2019-04-03 22:57:26.41: SIM {TimeUS : 316034369, Roll : -8.32, Pitch : -1.41, Yaw : 352.68, Alt : 591.510009766, Lat : -35.3632599, Lng : 149.165221, Q1 : 0.995201468468, Q2 : -0.0731980651617, Q3 : -0.0077023464255, Q4 : -0.0644731670618}
2019-04-03 22:57:26.51: SIM {TimeUS : 316134329, Roll : -8.41, Pitch : -1.41, Yaw : 352.67, Alt : 591.539978027, Lat : -35.3632598, Lng : 149.1652198, Q1 : 0.995133578777, Q2 : -0.0740297213197, Q3 : -0.00762777263299, Q4 : -0.0645802766085}
2019-04-03 22:57:26.61: SIM {TimeUS : 316234289, Roll : -8.47, Pitch : -1.41, Yaw : 352.66, Alt : 591.559997559, Lat : -35.3632598, Lng : 149.1652184, Q1 : 0.995088458061, Q2 : -0.0745490267873, Q3 : -0.00758361630142, Q4 : -0.0646828711033}
2019-04-03 22:57:26.71: SIM {TimeUS : 316334249, Roll : -8.55, Pitch : -1.42, Yaw : 352.65, Alt : 591.58001709, Lat : -35.3632598, Lng : 149.1652172, Q1 : 0.995033681393, Q2 : -0.0751963332295, Q3 : -0.00757129443809, Q4 : -0.0647779926658}
2019-04-03 22:57:26.81: SIM {TimeUS : 316434209, Roll : -8.68, Pitch : -1.43, Yaw : 352.64, Alt : 591.599975586, Lat : -35.3632598, Lng : 149.1652157, Q1 : 0.994936585426, Q2 : -0.0763903781772, Q3 : -0.00760509539396, Q4 : -0.0648683011532}
2019-04-03 22:57:26.91: SIM {TimeUS : 316535002, Roll : -8.93, Pitch : -1.42, Yaw : 352.62, Alt : 591.619995117, Lat : -35.3632597, Lng : 149.1652141, Q1 : 0.994760870934, Q2 : -0.0785029232502, Q3 : -0.00736219761893, Q4 : -0.0650690943003}
2019-04-03 22:57:27.01: SIM {TimeUS : 316634962, Roll : -9.32, Pitch : -1.21, Yaw : 352.31, Alt : 591.640014648, Lat : -35.3632597, Lng : 149.1652126, Q1 : 0.994338035583, Q2 : -0.0818131789565, Q3 : -0.00507182721049, Q4 : -0.0676220804453}
2019-04-03 22:57:27.11: SIM {TimeUS : 316734922, Roll : -9.84, Pitch : -0.81, Yaw : 351.06, Alt : 591.659973145, Lat : -35.3632596, Lng : 149.165211, Q1 : 0.993216514587, Q2 : -0.0860586389899, Q3 : -0.00042080602725, Q4 : -0.0781964287162}
2019-04-03 22:57:27.21: SIM {TimeUS : 316834882, Roll : -10.38, Pitch : -0.63, Yaw : 348.28, Alt : 591.679992676, Lat : -35.3632596, Lng : 149.1652092, Q1 : 0.990635335445, Q2 : -0.0905619114637, Q3 : 0.00374637241475, Q4 : -0.10210852325}
2019-04-03 22:57:27.31: SIM {TimeUS : 316934842, Roll : -10.8, Pitch : -0.98, Yaw : 343.88, Alt : 591.690002441, Lat : -35.3632596, Lng : 149.1652073, Q1 : 0.985585272312, Q2 : -0.0944077968597, Q3 : 0.00475520733744, Q4 : -0.140307381749}
2019-04-03 22:57:27.41: SIM {TimeUS : 317034802, Roll : -10.97, Pitch : -2.0, Yaw : 338.08, Alt : 591.710021973, Lat : -35.3632596, Lng : 149.1652056, Q1 : 0.976799070835, Q2 : -0.0971350967884, Q3 : 0.00109451869503, Q4 : -0.190859094262}
2019-04-03 22:57:27.51: SIM {TimeUS : 317134762, Roll : -10.76, Pitch : -3.66, Yaw : 331.15, Alt : 591.729980469, Lat : -35.3632596, Lng : 149.1652035, Q1 : 0.962967813015, Q2 : -0.0987368747592, Q3 : -0.00748661765829, Q4 : -0.250774770975}
2019-04-03 22:57:27.61: SIM {TimeUS : 317234722, Roll : -10.11, Pitch : -5.77, Yaw : 323.37, Alt : 591.760009766, Lat : -35.3632597, Lng : 149.1652015, Q1 : 0.943060934544, Q2 : -0.0993452072144, Q3 : -0.0199514310807, Q4 : -0.316810011864}
2019-04-03 22:57:27.71: SIM {TimeUS : 317334682, Roll : -9.0, Pitch : -8.03, Yaw : 314.98, Alt : 591.780029297, Lat : -35.3632598, Lng : 149.1651992, Q1 : 0.916611135006, Q2 : -0.0991067588329, Q3 : -0.0345158167183, Q4 : -0.385759681463}
2019-04-03 22:57:27.81: SIM {TimeUS : 317434642, Roll : -7.44, Pitch : -10.17, Yaw : 306.23, Alt : 591.809997559, Lat : -35.3632598, Lng : 149.1651971, Q1 : 0.88394266367, Q2 : -0.0977102816105, Q3 : -0.0496768243611, Q4 : -0.454566001892}
2019-04-03 22:57:27.91: SIM {TimeUS : 317534602, Roll : -5.5, Pitch : -11.96, Yaw : 297.39, Alt : 591.83001709, Lat : -35.3632599, Lng : 149.1651947, Q1 : 0.846191346645, Q2 : -0.0948784202337, Q3 : -0.0641588568687, Q4 : -0.52042478323}
2019-04-03 22:57:28.01: SIM {TimeUS : 317634562, Roll : -3.32, Pitch : -13.27, Yaw : 288.76, Alt : 591.859985352, Lat : -35.3632601, Lng : 149.1651923, Q1 : 0.805171608925, Q2 : -0.0906911790371, Q3 : -0.077155418694, Q4 : -0.580965459347}
2019-04-03 22:57:28.11: SIM {TimeUS : 317734522, Roll : -1.12, Pitch : -14.04, Yaw : 280.61, Alt : 591.890014648, Lat : -35.3632601, Lng : 149.1651896, Q1 : 0.762921631336, Q2 : -0.0855676829815, Q3 : -0.0878821313381, Q4 : -0.634748339653}
2019-04-03 22:57:28.21: SIM {TimeUS : 317834482, Roll : 0.97, Pitch : -14.37, Yaw : 273.15, Alt : 591.91998291, Lat : -35.3632602, Lng : 149.165187, Q1 : 0.721289932728, Q2 : -0.0798469483852, Q3 : -0.0966865494847, Q4 : -0.681187987328}
2019-04-03 22:57:28.31: SIM {TimeUS : 317934442, Roll : 3.13, Pitch : -14.37, Yaw : 266.66, Alt : 591.950012207, Lat : -35.3632602, Lng : 149.1651843, Q1 : 0.683077335358, Q2 : -0.0723855420947, Q3 : -0.105553500354, Q4 : -0.719043910503}
2019-04-03 22:57:28.41: SIM {TimeUS : 318034402, Roll : 5.14, Pitch : -14.13, Yaw : 261.67, Alt : 591.979980469, Lat : -35.3632601, Lng : 149.1651814, Q1 : 0.652500450611, Q2 : -0.0638469457626, Q3 : -0.114045277238, Q4 : -0.746431767941}
2019-04-03 22:57:28.51: SIM {TimeUS : 318134362, Roll : 6.65, Pitch : -13.77, Yaw : 258.49, Alt : 592.020019531, Lat : -35.3632599, Lng : 149.1651784, Q1 : 0.632468283176, Q2 : -0.0562326945364, Q3 : -0.120360903442, Q4 : -0.763108789921}
2019-04-03 22:57:28.61: SIM {TimeUS : 318234322, Roll : 7.41, Pitch : -13.48, Yaw : 257.09, Alt : 592.049987793, Lat : -35.3632598, Lng : 149.1651753, Q1 : 0.623501598835, Q2 : -0.0516293011606, Q3 : -0.123205475509, Q4 : -0.770325005054}
2019-04-03 22:57:28.71: SIM {TimeUS : 318334282, Roll : 7.3, Pitch : -13.38, Yaw : 257.22, Alt : 592.08001709, Lat : -35.3632597, Lng : 149.1651722, Q1 : 0.624322354794, Q2 : -0.0514236092567, Q3 : -0.122030317783, Q4 : -0.769860982895}
2019-04-03 22:57:28.81: SIM {TimeUS : 318434242, Roll : 6.42, Pitch : -13.55, Yaw : 258.54, Alt : 592.119995117, Lat : -35.3632595, Lng : 149.165169, Q1 : 0.632744133472, Q2 : -0.0559945777059, Q3 : -0.117642305791, Q4 : -0.763321518898}
2019-04-03 22:57:28.92: SIM {TimeUS : 318535035, Roll : 4.94, Pitch : -13.95, Yaw : 260.76, Alt : 592.159973145, Lat : -35.3632592, Lng : 149.1651656, Q1 : 0.646454036236, Q2 : -0.0647454112768, Q3 : -0.111231006682, Q4 : -0.752019226551}
2019-04-03 22:57:29.01: SIM {TimeUS : 318634995, Roll : 3.12, Pitch : -14.48, Yaw : 263.5, Alt : 592.200012207, Lat : -35.3632589, Lng : 149.1651622, Q1 : 0.662899255753, Q2 : -0.0759532898664, Q3 : -0.104092910886, Q4 : -0.737536668777}
2019-04-03 22:57:29.11: SIM {TimeUS : 318734955, Roll : 1.24, Pitch : -14.98, Yaw : 266.46, Alt : 592.229980469, Lat : -35.3632585, Lng : 149.1651588, Q1 : 0.680103063583, Q2 : -0.0876295343041, Q3 : -0.0971870049834, Q4 : -0.721342921257}
2019-04-03 22:57:29.21: SIM {TimeUS : 318834915, Roll : -0.46, Pitch : -15.36, Yaw : 269.32, Alt : 592.270019531, Lat : -35.3632582, Lng : 149.1651551, Q1 : 0.696205019951, Q2 : -0.0979294925928, Q3 : -0.0911499112844, Q4 : -0.70526599884}
2019-04-03 22:57:29.31: SIM {TimeUS : 318934875, Roll : -1.81, Pitch : -15.59, Yaw : 271.76, Alt : 592.309997559, Lat : -35.363258, Lng : 149.1651516, Q1 : 0.709662079811, Q2 : -0.105710908771, Q3 : -0.0864236652851, Q4 : -0.691184401512}
2019-04-03 22:57:29.41: SIM {TimeUS : 319034835, Roll : -2.7, Pitch : -15.64, Yaw : 273.56, Alt : 592.349975586, Lat : -35.3632577, Lng : 149.1651479, Q1 : 0.719559073448, Q2 : -0.110211901367, Q3 : -0.0831740647554, Q4 : -0.680566012859}
2019-04-03 22:57:29.51: SIM {TimeUS : 319134795, Roll : -3.07, Pitch : -15.59, Yaw : 274.62, Alt : 592.390014648, Lat : -35.3632574, Lng : 149.1651441, Q1 : 0.725529432297, Q2 : -0.111486427486, Q3 : -0.0816414877772, Q4 : -0.674175441265}
2019-04-03 22:57:29.61: SIM {TimeUS : 319234755, Roll : -3.01, Pitch : -15.53, Yaw : 274.95, Alt : 592.429992676, Lat : -35.3632574, Lng : 149.1651403, Q1 : 0.727599740028, Q2 : -0.110549688339, Q3 : -0.0819559171796, Q4 : -0.672057032585}
2019-04-03 22:57:29.71: SIM {TimeUS : 319334715, Roll : -2.62, Pitch : -15.54, Yaw : 274.65, Alt : 592.469970703, Lat : -35.3632573, Lng : 149.1651365, Q1 : 0.726193070412, Q2 : -0.108306713402, Q3 : -0.084026247263, Q4 : -0.673686027527}
2019-04-03 22:57:29.81: SIM {TimeUS : 319434675, Roll : -2.01, Pitch : -15.62, Yaw : 273.86, Alt : 592.510009766, Lat : -35.3632572, Lng : 149.1651326, Q1 : 0.722031056881, Q2 : -0.105497479439, Q3 : -0.0873937159777, Q4 : -0.678162038326}
2019-04-03 22:57:29.91: SIM {TimeUS : 319534635, Roll : -1.3, Pitch : -15.74, Yaw : 272.76, Alt : 592.549987793, Lat : -35.3632571, Lng : 149.1651286, Q1 : 0.716012299061, Q2 : -0.102648474276, Q3 : -0.0913596227765, Q4 : -0.684429109097}
2019-04-03 22:57:30.01: SIM {TimeUS : 319634595, Roll : -0.58, Pitch : -15.87, Yaw : 271.53, Alt : 592.590026855, Lat : -35.363257, Lng : 149.1651245, Q1 : 0.709138274193, Q2 : -0.0999565646052, Q3 : -0.0953705981374, Q4 : -0.691401541233}
2019-04-03 22:57:30.11: SIM {TimeUS : 319734555, Roll : 0.07, Pitch : -15.96, Yaw : 270.33, Alt : 592.640014648, Lat : -35.363257, Lng : 149.1651205, Q1 : 0.702363967896, Q2 : -0.097420796752, Q3 : -0.0989214107394, Q4 : -0.69814658165}
2019-04-03 22:57:30.21: SIM {TimeUS : 319834515, Roll : 0.62, Pitch : -16.01, Yaw : 269.3, Alt : 592.679992676, Lat : -35.3632568, Lng : 149.1651163, Q1 : 0.696450948715, Q2 : -0.0953240841627, Q3 : -0.101736046374, Q4 : -0.703931212425}
2019-04-03 22:57:30.31: SIM {TimeUS : 319934475, Roll : 0.99, Pitch : -16.04, Yaw : 268.51, Alt : 592.719970703, Lat : -35.3632568, Lng : 149.1651121, Q1 : 0.691927611828, Q2 : -0.093917876482, Q3 : -0.103584691882, Q4 : -0.708297848701}
2019-04-03 22:57:30.41: SIM {TimeUS : 320034435, Roll : 1.21, Pitch : -16.07, Yaw : 268.03, Alt : 592.760009766, Lat : -35.3632567, Lng : 149.165108, Q1 : 0.689072608948, Q2 : -0.0932684093714, Q3 : -0.10467723012, Q4 : -0.711001157761}
2019-04-03 22:57:30.51: SIM {TimeUS : 320134395, Roll : 1.25, Pitch : -16.1, Yaw : 267.84, Alt : 592.799987793, Lat : -35.3632567, Lng : 149.1651037, Q1 : 0.687914907932, Q2 : -0.0933607369661, Q3 : -0.104933828115, Q4 : -0.712071418762}
2019-04-03 22:57:30.61: SIM {TimeUS : 320234355, Roll : 1.15, Pitch : -16.12, Yaw : 267.92, Alt : 592.840026855, Lat : -35.3632567, Lng : 149.1650994, Q1 : 0.688300430775, Q2 : -0.0940142199397, Q3 : -0.10451965034, Q4 : -0.711673736572}
2019-04-03 22:57:30.71: SIM {TimeUS : 320334315, Roll : 0.94, Pitch : -16.14, Yaw : 268.21, Alt : 592.880004883, Lat : -35.3632566, Lng : 149.1650951, Q1 : 0.689899206161, Q2 : -0.0951407849789, Q3 : -0.103570908308, Q4 : -0.710112988949}
2019-04-03 22:57:30.81: SIM {TimeUS : 320434275, Roll : 0.65, Pitch : -16.15, Yaw : 268.64, Alt : 592.91998291, Lat : -35.3632565, Lng : 149.1650906, Q1 : 0.692300438881, Q2 : -0.0965580418706, Q3 : -0.102253824472, Q4 : -0.707771718502}
2019-04-03 22:57:30.91: SIM {TimeUS : 320534235, Roll : 0.34, Pitch : -16.18, Yaw : 269.13, Alt : 592.960021973, Lat : -35.3632564, Lng : 149.1650862, Q1 : 0.695058763027, Q2 : -0.0981961935759, Q3 : -0.100929893553, Q4 : -0.705027639866}
2019-04-03 22:57:31.02: SIM {TimeUS : 320635028, Roll : 0.05, Pitch : -16.23, Yaw : 269.63, Alt : 593.0, Lat : -35.3632562, Lng : 149.1650818, Q1 : 0.69782435894, Q2 : -0.0998180136085, Q3 : -0.099870018661, Q4 : -0.702213287354}
2019-04-03 22:57:31.11: SIM {TimeUS : 320734988, Roll : -0.18, Pitch : -16.25, Yaw : 270.06, Alt : 593.049987793, Lat : -35.3632562, Lng : 149.1650773, Q1 : 0.700266301632, Q2 : -0.101044885814, Q3 : -0.0988976657391, Q4 : -0.699740171432}
2019-04-03 22:57:31.21: SIM {TimeUS : 320834948, Roll : -0.36, Pitch : -16.27, Yaw : 270.41, Alt : 593.090026855, Lat : -35.3632561, Lng : 149.1650728, Q1 : 0.702170491219, Q2 : -0.101997293532, Q3 : -0.098211966455, Q4 : -0.697787582874}
2019-04-03 22:57:31.31: SIM {TimeUS : 320934908, Roll : -0.48, Pitch : -16.32, Yaw : 270.63, Alt : 593.130004883, Lat : -35.3632561, Lng : 149.1650682, Q1 : 0.703412413597, Q2 : -0.102795384824, Q3 : -0.0979678630829, Q4 : -0.696452736855}
2019-04-03 22:57:31.41: SIM {TimeUS : 321034868, Roll : -0.53, Pitch : -16.37, Yaw : 270.74, Alt : 593.16998291, Lat : -35.3632561, Lng : 149.1650637, Q1 : 0.703987419605, Q2 : -0.103315927088, Q3 : -0.0981569066644, Q4 : -0.695767819881}
2019-04-03 22:57:31.51: SIM {TimeUS : 321134828, Roll : -0.49, Pitch : -16.42, Yaw : 270.75, Alt : 593.210021973, Lat : -35.363256, Lng : 149.165059, Q1 : 0.703992187977, Q2 : -0.103387966752, Q3 : -0.0986589640379, Q4 : -0.695681214333}
2019-04-03 22:57:31.61: SIM {TimeUS : 321234788, Roll : -0.39, Pitch : -16.45, Yaw : 270.66, Alt : 593.25, Lat : -35.363256, Lng : 149.1650545, Q1 : 0.70354872942, Q2 : -0.103047654033, Q3 : -0.099366299808, Q4 : -0.696079552174}
2019-04-03 22:57:31.71: SIM {TimeUS : 321334748, Roll : -0.27, Pitch : -16.48, Yaw : 270.52, Alt : 593.299987793, Lat : -35.363256, Lng : 149.1650498, Q1 : 0.702772974968, Q2 : -0.102589823306, Q3 : -0.100138358772, Q4 : -0.696819782257}
2019-04-03 22:57:31.81: SIM {TimeUS : 321434708, Roll : -0.15, Pitch : -16.5, Yaw : 270.35, Alt : 593.340026855, Lat : -35.3632559, Lng : 149.165045, Q1 : 0.701823174953, Q2 : -0.102134004235, Q3 : -0.100835435092, Q4 : -0.697742938995}
2019-04-03 22:57:31.91: SIM {TimeUS : 321534668, Roll : -0.04, Pitch : -16.51, Yaw : 270.18, Alt : 593.380004883, Lat : -35.3632559, Lng : 149.1650405, Q1 : 0.700861513615, Q2 : -0.101711034775, Q3 : -0.101462632418, Q4 : -0.698679745197}
2019-04-03 22:57:32.01: SIM {TimeUS : 321634628, Roll : 0.03, Pitch : -16.54, Yaw : 270.03, Alt : 593.41998291, Lat : -35.3632559, Lng : 149.1650357, Q1 : 0.699997425079, Q2 : -0.101483643055, Q3 : -0.101945251226, Q4 : -0.699508309364}
2019-04-03 22:57:32.11: SIM {TimeUS : 321734588, Roll : 0.08, Pitch : -16.56, Yaw : 269.92, Alt : 593.460021973, Lat : -35.3632559, Lng : 149.165031, Q1 : 0.699336111546, Q2 : -0.101416543126, Q3 : -0.102288164198, Q4 : -0.700129210949}
2019-04-03 22:57:32.21: SIM {TimeUS : 321834548, Roll : 0.12, Pitch : -16.59, Yaw : 269.85, Alt : 593.510009766, Lat : -35.3632559, Lng : 149.1650263, Q1 : 0.698941290379, Q2 : -0.10142608732, Q3 : -0.102649129927, Q4 : -0.700469076633}
2019-04-03 22:57:32.31: SIM {TimeUS : 321934508, Roll : 0.13, Pitch : -16.63, Yaw : 269.83, Alt : 593.549987793, Lat : -35.3632558, Lng : 149.1650215, Q1 : 0.698810696602, Q2 : -0.101610302925, Q3 : -0.102924033999, Q4 : -0.700532376766}
2019-04-03 22:57:32.41: SIM {TimeUS : 322034468, Roll : 0.12, Pitch : -16.66, Yaw : 269.86, Alt : 593.590026855, Lat : -35.3632558, Lng : 149.1650167, Q1 : 0.698941767216, Q2 : -0.101866073906, Q3 : -0.10313910991, Q4 : -0.700332820415}
2019-04-03 22:57:32.51: SIM {TimeUS : 322134428, Roll : 0.09, Pitch : -16.68, Yaw : 269.93, Alt : 593.630004883, Lat : -35.3632558, Lng : 149.1650119, Q1 : 0.699298083782, Q2 : -0.102109074593, Q3 : -0.103102274239, Q4 : -0.699947059155}
2019-04-03 22:57:32.61: SIM {TimeUS : 322234388, Roll : 0.06, Pitch : -16.71, Yaw : 270.02, Alt : 593.66998291, Lat : -35.3632558, Lng : 149.165007, Q1 : 0.699814140797, Q2 : -0.102362543344, Q3 : -0.103171050549, Q4 : -0.699383914471}
2019-04-03 22:57:32.71: SIM {TimeUS : 322334348, Roll : 0.03, Pitch : -16.74, Yaw : 270.13, Alt : 593.719970703, Lat : -35.3632558, Lng : 149.1650022, Q1 : 0.700420022011, Q2 : -0.102586910129, Q3 : -0.103281728923, Q4 : -0.698727846146}
