2019-04-03 21:33:18.21: SIM {TimeUS : 45235232, Roll : 0.0, Pitch : 0.0, Yaw : 353.0, Alt : 584.090026855, Lat : -35.363261, Lng : 149.1652299, Q1 : 0.998134791851, Q2 : 0.0, Q3 : 0.0, Q4 : -0.0610485821962}
2019-04-03 21:33:18.31: SIM {TimeUS : 45335192, Roll : 0.0, Pitch : 0.0, Yaw : 353.0, Alt : 584.090026855, Lat : -35.363261, Lng : 149.1652299, Q1 : 0.998134791851, Q2 : 0.0, Q3 : 0.0, Q4 : -0.0610485821962}
2019-04-03 21:33:18.41: SIM {TimeUS : 45435152, Roll : 0.0, Pitch : 0.0, Yaw : 353.0, Alt : 584.090026855, Lat : -35.363261, Lng : 149.1652299, Q1 : 0.998134791851, Q2 : 0.0, Q3 : 0.0, Q4 : -0.0610485821962}
2019-04-03 21:33:18.51: SIM {TimeUS : 45535112, Roll : 0.0, Pitch : 0.0, Yaw : 353.0, Alt : 584.090026855, Lat : -35.363261, Lng : 149.1652299, Q1 : 0.998134791851, Q2 : 0.0, Q3 : 0.0, Q4 : -0.0610485821962}
2019-04-03 21:33:18.61: SIM {TimeUS : 45635072, Roll : 0.0, Pitch : 0.0, Yaw : 353.0, Alt : 584.090026855, Lat : -35.363261, Lng : 149.1652299, Q1 : 0.998134791851, Q2 : 0.0, Q3 : 0.0, Q4 : -0.0610485821962}
2019-04-03 21:33:18.71: SIM {TimeUS : 45735032, Roll : 0.0, Pitch : 0.0, Yaw : 353.0, Alt : 584.090026855, Lat : -35.363261, Lng : 149.1652299, Q1 : 0.998134791851, Q2 : 0.0, Q3 : 0.0, Q4 : -0.0610485821962}
2019-04-03 21:33:18.81: SIM {TimeUS : 45834992, Roll : 0.0, Pitch : 0.0, Yaw : 353.0, Alt : 584.090026855, Lat : -35.363261, Lng : 149.1652299, Q1 : 0.998134791851, Q2 : 0.0, Q3 : 0.0, Q4 : -0.0610485821962}
2019-04-03 21:33:18.91: SIM {TimeUS : 45934952, Roll : 0.0, Pitch : 0.0, Yaw : 353.0, Alt : 584.090026855, Lat : -35.363261, Lng : 149.1652299, Q1 : 0.998134791851, Q2 : 0.0, Q3 : 0.0, Q4 : -0.0610485821962}
2019-04-03 21:33:19.01: SIM {TimeUS : 46034912, Roll : 0.0, Pitch : 0.0, Yaw : 353.0, Alt : 584.090026855, Lat : -35.363261, Lng : 149.1652299, Q1 : 0.998134791851, Q2 : 0.0, Q3 : 0.0, Q4 : -0.0610485821962}
2019-04-03 21:33:19.11: SIM {TimeUS : 46134872, Roll : 0.0, Pitch : 0.0, Yaw : 353.0, Alt : 584.090026855, Lat : -35.363261, Lng : 149.1652299, Q1 : 0.998134791851, Q2 : 0.0, Q3 : 0.0, Q4 : -0.0610485821962}
2019-04-03 21:33:19.21: SIM {TimeUS : 46234832, Roll : 0.0, Pitch : 0.0, Yaw : 353.0, Alt : 584.090026855, Lat : -35.363261, Lng : 149.1652299, Q1 : 0.998134791851, Q2 : 0.0, Q3 : 0.0, Q4 : -0.0610485821962}
2019-04-03 21:33:19.31: SIM {TimeUS : 46334792, Roll : 0.0, Pitch : 0.0, Yaw : 353.0, Alt : 584.090026855, Lat : -35.363261, Lng : 149.1652299, Q1 : 0.998134791851, Q2 : 0.0, Q3 : 0.0, Q4 : -0.0610485821962}
2019-04-03 21:33:19.41: SIM {TimeUS : 46434752, Roll : 0.0, Pitch : 0.0, Yaw : 353.0, Alt : 584.090026855, Lat : -35.363261, Lng : 149.1652299, Q1 : 0.998134791851, Q2 : 0.0, Q3 : 0.0, Q4 : -0.0610485821962}
2019-04-03 21:33:19.51: SIM {TimeUS : 46534712, Roll : 0.0, Pitch : 0.0, Yaw : 353.0, Alt : 584.090026855, Lat : -35.363261, Lng : 149.1652299, Q1 : 0.998134791851, Q2 : 0.0, Q3 : 0.0, Q4 : -0.0610485821962}
2019-04-03 21:33:19.61: SIM {TimeUS : 46634672, Roll : 0.0, Pitch : 0.0, Yaw : 353.0, Alt : 584.090026855, Lat : -35.363261, Lng : 149.1652299, Q1 : 0.998134791851, Q2 : 0.0, Q3 : 0.0, Q4 : -0.0610485821962}
2019-04-03 21:33:19.71: SIM {TimeUS : 46734632, Roll : 0.0, Pitch : 0.0, Yaw : 353.0, Alt : 584.090026855, Lat : -35.363261, Lng : 149.1652299, Q1 : 0.998134791851, Q2 : 0.0, Q3 : 0.0, Q4 : -0.0610485821962}
2019-04-03 21:33:19.81: SIM {TimeUS : 46834592, Roll : 0.0, Pitch : 0.0, Yaw : 353.0, Alt : 584.090026855, Lat : -35.363261, Lng : 149.1652299, Q1 : 0.998134791851, Q2 : 0.0, Q3 : 0.0, Q4 : -0.0610485821962}
2019-04-03 21:33:19.91: SIM {TimeUS : 46934552, Roll : 0.0, Pitch : 0.0, Yaw : 353.0, Alt : 584.090026855, Lat : -35.363261, Lng : 149.1652299, Q1 : 0.998134791851, Q2 : 0.0, Q3 : 0.0, Q4 : -0.0610485821962}
2019-04-03 21:33:20.01: SIM {TimeUS : 47034512, Roll : 0.0, Pitch : 0.0, Yaw : 353.0, Alt : 584.090026855, Lat : -35.363261, Lng : 149.1652299, Q1 : 0.998134791851, Q2 : 0.0, Q3 : 0.0, Q4 : -0.0610485821962}
2019-04-03 21:33:20.11: SIM {TimeUS : 47134472, Roll : 0.0, Pitch : 0.0, Yaw : 353.0, Alt : 584.090026855, Lat : -35.363261, Lng : 149.1652299, Q1 : 0.998134791851, Q2 : 0.0, Q3 : 0.0, Q4 : -0.0610485821962}
2019-04-03 21:33:20.22: SIM {TimeUS : 47235265, Roll : 0.0, Pitch : 0.0, Yaw : 353.0, Alt : 584.090026855, Lat : -35.363261, Lng : 149.1652299, Q1 : 0.998134791851, Q2 : 0.0, Q3 : 0.0, Q4 : -0.0610485821962}
2019-04-03 21:33:20.31: SIM {TimeUS : 47335225, Roll : 0.0, Pitch : 0.0, Yaw : 353.0, Alt : 584.090026855, Lat : -35.363261, Lng : 149.1652299, Q1 : 0.998134791851, Q2 : 0.0, Q3 : 0.0, Q4 : -0.0610485821962}
2019-04-03 21:33:20.41: SIM {TimeUS : 47435185, Roll : 0.0, Pitch : 0.0, Yaw : 353.0, Alt : 584.090026855, Lat : -35.363261, Lng : 149.1652299, Q1 : 0.998134791851, Q2 : 0.0, Q3 : 0.0, Q4 : -0.0610485821962}
2019-04-03 21:33:20.51: SIM {TimeUS : 47535145, Roll : 0.0, Pitch : 0.0, Yaw : 353.0, Alt : 584.090026855, Lat : -35.363261, Lng : 149.1652299, Q1 : 0.998134791851, Q2 : 0.0, Q3 : 0.0, Q4 : -0.0610485821962}
2019-04-03 21:33:20.61: SIM {TimeUS : 47635105, Roll : 0.0, Pitch : 0.0, Yaw : 353.0, Alt : 584.090026855, Lat : -35.363261, Lng : 149.1652299, Q1 : 0.998134791851, Q2 : 0.0, Q3 : 0.0, Q4 : -0.0610485821962}
2019-04-03 21:33:20.71: SIM {TimeUS : 47735065, Roll : 0.0, Pitch : 0.0, Yaw : 353.0, Alt : 584.090026855, Lat : -35.363261, Lng : 149.1652299, Q1 : 0.998134791851, Q2 : 0.0, Q3 : 0.0, Q4 : -0.0610485821962}
2019-04-03 21:33:20.81: SIM {TimeUS : 47835025, Roll : 0.0, Pitch : 0.0, Yaw : 353.0, Alt : 584.090026855, Lat : -35.363261, Lng : 149.1652299, Q1 : 0.998134791851, Q2 : 0.0, Q3 : 0.0, Q4 : -0.0610485821962}
2019-04-03 21:33:20.91: SIM {TimeUS : 47934985, Roll : 0.0, Pitch : 0.0, Yaw : 353.0, Alt : 584.090026855, Lat : -35.363261, Lng : 149.1652299, Q1 : 0.998134791851, Q2 : 0.0, Q3 : 0.0, Q4 : -0.0610485821962}
2019-04-03 21:33:21.01: SIM {TimeUS : 48034945, Roll : 0.0, Pitch : 0.0, Yaw : 353.0, Alt : 584.090026855, Lat : -35.363261, Lng : 149.1652299, Q1 : 0.998134791851, Q2 : 0.0, Q3 : 0.0, Q4 : -0.0610485821962}
2019-04-03 21:33:21.11: SIM {TimeUS : 48134905, Roll : 0.0, Pitch : 0.0, Yaw : 353.0, Alt : 584.090026855, Lat : -35.363261, Lng : 149.1652299, Q1 : 0.998134791851, Q2 : 0.0, Q3 : 0.0, Q4 : -0.0610485821962}
2019-04-03 21:33:21.21: SIM {TimeUS : 48234865, Roll : 0.0, Pitch : 0.0, Yaw : 353.0, Alt : 584.090026855, Lat : -35.363261, Lng : 149.1652299, Q1 : 0.998134791851, Q2 : 0.0, Q3 : 0.0, Q4 : -0.0610485821962}
2019-04-03 21:33:21.31: SIM {TimeUS : 48334825, Roll : 0.0, Pitch : 0.0, Yaw : 353.0, Alt : 584.090026855, Lat : -35.363261, Lng : 149.1652299, Q1 : 0.998134791851, Q2 : 0.0, Q3 : 0.0, Q4 : -0.0610485821962}
2019-04-03 21:33:21.41: SIM {TimeUS : 48434785, Roll : 0.0, Pitch : 0.0, Yaw : 353.0, Alt : 584.090026855, Lat : -35.363261, Lng : 149.1652299, Q1 : 0.998134791851, Q2 : 0.0, Q3 : 0.0, Q4 : -0.0610485821962}
2019-04-03 21:33:21.51: SIM {TimeUS : 48534745, Roll : 0.0, Pitch : 0.0, Yaw : 353.0, Alt : 584.090026855, Lat : -35.363261, Lng : 149.1652299, Q1 : 0.998134791851, Q2 : 0.0, Q3 : 0.0, Q4 : -0.0610485821962}
2019-04-03 21:33:21.61: SIM {TimeUS : 48634705, Roll : 0.0, Pitch : 0.0, Yaw : 353.0, Alt : 584.090026855, Lat : -35.363261, Lng : 149.1652299, Q1 : 0.998134791851, Q2 : 0.0, Q3 : 0.0, Q4 : -0.0610485821962}
2019-04-03 21:33:21.71: SIM {TimeUS : 48734665, Roll : 0.0, Pitch : 0.0, Yaw : 353.0, Alt : 584.090026855, Lat : -35.363261, Lng : 149.1652299, Q1 : 0.998134791851, Q2 : 0.0, Q3 : 0.0, Q4 : -0.0610485821962}
2019-04-03 21:33:21.81: SIM {TimeUS : 48834625, Roll : 0.0, Pitch : 0.0, Yaw : 353.0, Alt : 584.090026855, Lat : -35.363261, Lng : 149.1652299, Q1 : 0.998134791851, Q2 : 0.0, Q3 : 0.0, Q4 : -0.0610485821962}
2019-04-03 21:33:21.91: SIM {TimeUS : 48934585, Roll : 0.0, Pitch : 0.0, Yaw : 353.0, Alt : 584.090026855, Lat : -35.363261, Lng : 149.1652299, Q1 : 0.998134791851, Q2 : 0.0, Q3 : 0.0, Q4 : -0.0610485821962}
2019-04-03 21:33:22.01: SIM {TimeUS : 49034545, Roll : 0.0, Pitch : 0.0, Yaw : 353.0, Alt : 584.090026855, Lat : -35.363261, Lng : 149.1652299, Q1 : 0.998134791851, Q2 : 0.0, Q3 : 0.0, Q4 : -0.0610485821962}
2019-04-03 21:33:22.11: SIM {TimeUS : 49134505, Roll : 0.0, Pitch : 0.0, Yaw : 353.0, Alt : 584.090026855, Lat : -35.363261, Lng : 149.1652299, Q1 : 0.998134791851, Q2 : 0.0, Q3 : 0.0, Q4 : -0.0610485821962}
2019-04-03 21:33:22.21: SIM {TimeUS : 49234465, Roll : 0.0, Pitch : 0.0, Yaw : 353.0, Alt : 584.090026855, Lat : -35.363261, Lng : 149.1652299, Q1 : 0.998134791851, Q2 : 0.0, Q3 : 0.0, Q4 : -0.0610485821962}
2019-04-03 21:33:22.32: SIM {TimeUS : 49335258, Roll : 0.0, Pitch : 0.0, Yaw : 353.0, Alt : 584.090026855, Lat : -35.363261, Lng : 149.1652299, Q1 : 0.998134791851, Q2 : 0.0, Q3 : 0.0, Q4 : -0.0610485821962}
2019-04-03 21:33:22.41: SIM {TimeUS : 49435218, Roll : 0.0, Pitch : 0.0, Yaw : 353.0, Alt : 584.090026855, Lat : -35.363261, Lng : 149.1652299, Q1 : 0.998134791851, Q2 : 0.0, Q3 : 0.0, Q4 : -0.0610485821962}
2019-04-03 21:33:22.51: SIM {TimeUS : 49535178, Roll : 0.0, Pitch : 0.0, Yaw : 353.0, Alt : 584.090026855, Lat : -35.363261, Lng : 149.1652299, Q1 : 0.998134791851, Q2 : 0.0, Q3 : 0.0, Q4 : -0.0610485821962}
2019-04-03 21:33:22.61: SIM {TimeUS : 49635138, Roll : 0.0, Pitch : 0.0, Yaw : 353.0, Alt : 584.090026855, Lat : -35.363261, Lng : 149.1652299, Q1 : 0.998134791851, Q2 : 0.0, Q3 : 0.0, Q4 : -0.0610485821962}
2019-04-03 21:33:22.71: SIM {TimeUS : 49735098, Roll : 0.0, Pitch : 0.0, Yaw : 353.0, Alt : 584.090026855, Lat : -35.363261, Lng : 149.1652299, Q1 : 0.998134791851, Q2 : 0.0, Q3 : 0.0, Q4 : -0.0610485821962}
2019-04-03 21:33:22.81: SIM {TimeUS : 49835058, Roll : 0.0, Pitch : 0.0, Yaw : 353.0, Alt : 584.090026855, Lat : -35.363261, Lng : 149.1652299, Q1 : 0.998134791851, Q2 : 0.0, Q3 : 0.0, Q4 : -0.0610485821962}
2019-04-03 21:33:22.91: SIM {TimeUS : 49935018, Roll : 0.0, Pitch : 0.0, Yaw : 353.0, Alt : 584.090026855, Lat : -35.363261, Lng : 149.1652299, Q1 : 0.998134791851, Q2 : 0.0, Q3 : 0.0, Q4 : -0.0610485821962}
2019-04-03 21:33:23.01: SIM {TimeUS : 50034978, Roll : 0.0, Pitch : 0.0, Yaw : 353.0, Alt : 584.090026855, Lat : -35.363261, Lng : 149.1652299, Q1 : 0.998134791851, Q2 : 0.0, Q3 : 0.0, Q4 : -0.0610485821962}
2019-04-03 21:33:23.11: SIM {TimeUS : 50134938, Roll : 0.0, Pitch : 0.0, Yaw : 353.0, Alt : 584.090026855, Lat : -35.363261, Lng : 149.1652299, Q1 : 0.998134791851, Q2 : 0.0, Q3 : 0.0, Q4 : -0.0610485821962}
2019-04-03 21:33:23.21: SIM {TimeUS : 50234898, Roll : 0.0, Pitch : 0.0, Yaw : 353.0, Alt : 584.090026855, Lat : -35.363261, Lng : 149.1652299, Q1 : 0.998134791851, Q2 : 0.0, Q3 : 0.0, Q4 : -0.0610485821962}
2019-04-03 21:33:23.31: SIM {TimeUS : 50334858, Roll : 0.0, Pitch : 0.0, Yaw : 353.0, Alt : 584.090026855, Lat : -35.363261, Lng : 149.1652299, Q1 : 0.998134791851, Q2 : 0.0, Q3 : 0.0, Q4 : -0.0610485821962}
2019-04-03 21:33:23.41: SIM {TimeUS : 50434818, Roll : 0.0, Pitch : 0.0, Yaw : 353.0, Alt : 584.090026855, Lat : -35.363261, Lng : 149.1652299, Q1 : 0.998134791851, Q2 : 0.0, Q3 : 0.0, Q4 : -0.0610485821962}
2019-04-03 21:33:23.51: SIM {TimeUS : 50534778, Roll : 0.0, Pitch : 0.0, Yaw : 353.0, Alt : 584.090026855, Lat : -35.363261, Lng : 149.1652299, Q1 : 0.998134791851, Q2 : 0.0, Q3 : 0.0, Q4 : -0.0610485821962}
2019-04-03 21:33:23.61: SIM {TimeUS : 50634738, Roll : 0.0, Pitch : 0.0, Yaw : 353.0, Alt : 584.090026855, Lat : -35.363261, Lng : 149.1652299, Q1 : 0.998134791851, Q2 : 0.0, Q3 : 0.0, Q4 : -0.0610485821962}
2019-04-03 21:33:23.71: SIM {TimeUS : 50734698, Roll : 0.0, Pitch : 0.0, Yaw : 353.0, Alt : 584.090026855, Lat : -35.363261, Lng : 149.1652299, Q1 : 0.998134791851, Q2 : 0.0, Q3 : 0.0, Q4 : -0.0610485821962}
2019-04-03 21:33:23.81: SIM {TimeUS : 50834658, Roll : 0.0, Pitch : 0.0, Yaw : 353.0, Alt : 584.090026855, Lat : -35.363261, Lng : 149.1652299, Q1 : 0.998134791851, Q2 : 0.0, Q3 : 0.0, Q4 : -0.0610485821962}
2019-04-03 21:33:23.91: SIM {TimeUS : 50934618, Roll : 0.0, Pitch : 0.0, Yaw : 353.0, Alt : 584.090026855, Lat : -35.363261, Lng : 149.1652299, Q1 : 0.998134791851, Q2 : 0.0, Q3 : 0.0, Q4 : -0.0610485821962}
2019-04-03 21:33:24.01: SIM {TimeUS : 51034578, Roll : 0.0, Pitch : 0.0, Yaw : 353.0, Alt : 584.090026855, Lat : -35.363261, Lng : 149.1652299, Q1 : 0.998134791851, Q2 : 0.0, Q3 : 0.0, Q4 : -0.0610485821962}
2019-04-03 21:33:24.11: SIM {TimeUS : 51134538, Roll : 0.0, Pitch : 0.0, Yaw : 353.0, Alt : 584.090026855, Lat : -35.363261, Lng : 149.1652299, Q1 : 0.998134791851, Q2 : 0.0, Q3 : 0.0, Q4 : -0.0610485821962}
2019-04-03 21:33:24.21: SIM {TimeUS : 51234498, Roll : 0.0, Pitch : 0.0, Yaw : 353.0, Alt : 584.090026855, Lat : -35.363261, Lng : 149.1652299, Q1 : 0.998134791851, Q2 : 0.0, Q3 : 0.0, Q4 : -0.0610485821962}
2019-04-03 21:33:24.31: SIM {TimeUS : 51334458, Roll : 0.0, Pitch : 0.0, Yaw : 353.0, Alt : 584.090026855, Lat : -35.363261, Lng : 149.1652299, Q1 : 0.998134791851, Q2 : 0.0, Q3 : 0.0, Q4 : -0.0610485821962}
2019-04-03 21:33:24.42: SIM {TimeUS : 51435251, Roll : 0.0, Pitch : 0.0, Yaw : 353.0, Alt : 584.090026855, Lat : -35.363261, Lng : 149.1652299, Q1 : 0.998134791851, Q2 : 0.0, Q3 : 0.0, Q4 : -0.0610485821962}
2019-04-03 21:33:24.51: SIM {TimeUS : 51535211, Roll : 0.0, Pitch : 0.0, Yaw : 353.0, Alt : 584.090026855, Lat : -35.363261, Lng : 149.1652299, Q1 : 0.998134791851, Q2 : 0.0, Q3 : 0.0, Q4 : -0.0610485821962}
2019-04-03 21:33:24.61: SIM {TimeUS : 51635171, Roll : 0.0, Pitch : 0.0, Yaw : 353.0, Alt : 584.090026855, Lat : -35.363261, Lng : 149.1652299, Q1 : 0.998134791851, Q2 : 0.0, Q3 : 0.0, Q4 : -0.0610485821962}
2019-04-03 21:33:24.71: SIM {TimeUS : 51735131, Roll : 0.0, Pitch : 0.0, Yaw : 353.0, Alt : 584.090026855, Lat : -35.363261, Lng : 149.1652299, Q1 : 0.998134791851, Q2 : 0.0, Q3 : 0.0, Q4 : -0.0610485821962}
2019-04-03 21:33:24.81: SIM {TimeUS : 51835091, Roll : 0.0, Pitch : 0.0, Yaw : 353.0, Alt : 584.090026855, Lat : -35.363261, Lng : 149.1652299, Q1 : 0.998134791851, Q2 : 0.0, Q3 : 0.0, Q4 : -0.0610485821962}
2019-04-03 21:33:24.91: SIM {TimeUS : 51935051, Roll : 0.0, Pitch : 0.0, Yaw : 353.0, Alt : 584.090026855, Lat : -35.363261, Lng : 149.1652299, Q1 : 0.998134791851, Q2 : 0.0, Q3 : 0.0, Q4 : -0.0610485821962}
2019-04-03 21:33:25.01: SIM {TimeUS : 52035011, Roll : 0.0, Pitch : 0.0, Yaw : 353.0, Alt : 584.090026855, Lat : -35.363261, Lng : 149.1652299, Q1 : 0.998134791851, Q2 : 0.0, Q3 : 0.0, Q4 : -0.0610485821962}
2019-04-03 21:33:25.11: SIM {TimeUS : 52134971, Roll : 0.0, Pitch : 0.0, Yaw : 353.0, Alt : 584.090026855, Lat : -35.363261, Lng : 149.1652299, Q1 : 0.998134791851, Q2 : 0.0, Q3 : 0.0, Q4 : -0.0610485821962}
2019-04-03 21:33:25.21: SIM {TimeUS : 52234931, Roll : 0.0, Pitch : 0.0, Yaw : 353.0, Alt : 584.090026855, Lat : -35.363261, Lng : 149.1652299, Q1 : 0.998134791851, Q2 : 0.0, Q3 : 0.0, Q4 : -0.0610485821962}
2019-04-03 21:33:25.31: SIM {TimeUS : 52334891, Roll : 0.0, Pitch : 0.0, Yaw : 353.0, Alt : 584.090026855, Lat : -35.363261, Lng : 149.1652299, Q1 : 0.998134791851, Q2 : 0.0, Q3 : 0.0, Q4 : -0.0610485821962}
2019-04-03 21:33:25.41: SIM {TimeUS : 52434851, Roll : 0.0, Pitch : 0.0, Yaw : 353.0, Alt : 584.090026855, Lat : -35.363261, Lng : 149.1652299, Q1 : 0.998134791851, Q2 : 0.0, Q3 : 0.0, Q4 : -0.0610485821962}
2019-04-03 21:33:25.51: SIM {TimeUS : 52534811, Roll : 0.0, Pitch : 0.0, Yaw : 353.0, Alt : 584.090026855, Lat : -35.363261, Lng : 149.1652299, Q1 : 0.998134791851, Q2 : 0.0, Q3 : 0.0, Q4 : -0.0610485821962}
2019-04-03 21:33:25.61: SIM {TimeUS : 52634771, Roll : 0.0, Pitch : 0.0, Yaw : 353.0, Alt : 584.090026855, Lat : -35.363261, Lng : 149.1652299, Q1 : 0.998134791851, Q2 : 0.0, Q3 : 0.0, Q4 : -0.0610485821962}
2019-04-03 21:33:25.71: SIM {TimeUS : 52734731, Roll : 0.0, Pitch : 0.0, Yaw : 353.0, Alt : 584.090026855, Lat : -35.363261, Lng : 149.1652299, Q1 : 0.998134791851, Q2 : 0.0, Q3 : 0.0, Q4 : -0.0610485821962}
2019-04-03 21:33:25.81: SIM {TimeUS : 52834691, Roll : 0.0, Pitch : 0.0, Yaw : 353.0, Alt : 584.090026855, Lat : -35.363261, Lng : 149.1652299, Q1 : 0.998134791851, Q2 : 0.0, Q3 : 0.0, Q4 : -0.0610485821962}
2019-04-03 21:33:25.91: SIM {TimeUS : 52934651, Roll : 0.0, Pitch : 0.0, Yaw : 353.0, Alt : 584.090026855, Lat : -35.363261, Lng : 149.1652299, Q1 : 0.998134791851, Q2 : 0.0, Q3 : 0.0, Q4 : -0.0610485821962}
2019-04-03 21:33:26.01: SIM {TimeUS : 53034611, Roll : 0.0, Pitch : 0.0, Yaw : 353.0, Alt : 584.090026855, Lat : -35.363261, Lng : 149.1652299, Q1 : 0.998134791851, Q2 : 0.0, Q3 : 0.0, Q4 : -0.0610485821962}
2019-04-03 21:33:26.11: SIM {TimeUS : 53134571, Roll : 0.0, Pitch : 0.0, Yaw : 353.0, Alt : 584.090026855, Lat : -35.363261, Lng : 149.1652299, Q1 : 0.998134791851, Q2 : 0.0, Q3 : 0.0, Q4 : -0.0610485821962}
2019-04-03 21:33:26.21: SIM {TimeUS : 53234531, Roll : 0.0, Pitch : 0.0, Yaw : 353.0, Alt : 584.090026855, Lat : -35.363261, Lng : 149.1652299, Q1 : 0.998134791851, Q2 : 0.0, Q3 : 0.0, Q4 : -0.0610485821962}
2019-04-03 21:33:26.31: SIM {TimeUS : 53334491, Roll : 0.0, Pitch : 0.0, Yaw : 353.0, Alt : 584.090026855, Lat : -35.363261, Lng : 149.1652299, Q1 : 0.998134791851, Q2 : 0.0, Q3 : 0.0, Q4 : -0.0610485821962}
2019-04-03 21:33:26.41: SIM {TimeUS : 53434451, Roll : 0.0, Pitch : 0.0, Yaw : 353.0, Alt : 584.090026855, Lat : -35.363261, Lng : 149.1652299, Q1 : 0.998134791851, Q2 : 0.0, Q3 : 0.0, Q4 : -0.0610485821962}
2019-04-03 21:33:26.52: SIM {TimeUS : 53535244, Roll : 0.0, Pitch : 0.0, Yaw : 353.0, Alt : 584.090026855, Lat : -35.363261, Lng : 149.1652299, Q1 : 0.998134791851, Q2 : 0.0, Q3 : 0.0, Q4 : -0.0610485821962}
2019-04-03 21:33:26.61: SIM {TimeUS : 53635204, Roll : 0.0, Pitch : 0.0, Yaw : 353.0, Alt : 584.090026855, Lat : -35.363261, Lng : 149.1652299, Q1 : 0.998134791851, Q2 : 0.0, Q3 : 0.0, Q4 : -0.0610485821962}
2019-04-03 21:33:26.71: SIM {TimeUS : 53735164, Roll : 0.0, Pitch : 0.0, Yaw : 353.0, Alt : 584.090026855, Lat : -35.363261, Lng : 149.1652299, Q1 : 0.998134791851, Q2 : 0.0, Q3 : 0.0, Q4 : -0.0610485821962}
2019-04-03 21:33:26.81: SIM {TimeUS : 53835124, Roll : 0.0, Pitch : 0.0, Yaw : 353.0, Alt : 584.090026855, Lat : -35.363261, Lng : 149.1652299, Q1 : 0.998134791851, Q2 : 0.0, Q3 : 0.0, Q4 : -0.0610485821962}
2019-04-03 21:33:26.91: SIM {TimeUS : 53935084, Roll : 0.0, Pitch : 0.0, Yaw : 353.0, Alt : 584.090026855, Lat : -35.363261, Lng : 149.1652299, Q1 : 0.998134791851, Q2 : 0.0, Q3 : 0.0, Q4 : -0.0610485821962}
2019-04-03 21:33:27.01: SIM {TimeUS : 54035044, Roll : 0.0, Pitch : 0.0, Yaw : 353.0, Alt : 584.090026855, Lat : -35.363261, Lng : 149.1652299, Q1 : 0.998134791851, Q2 : 0.0, Q3 : 0.0, Q4 : -0.0610485821962}
2019-04-03 21:33:27.11: SIM {TimeUS : 54135004, Roll : 0.0, Pitch : 0.0, Yaw : 353.0, Alt : 584.090026855, Lat : -35.363261, Lng : 149.1652299, Q1 : 0.998134791851, Q2 : 0.0, Q3 : 0.0, Q4 : -0.0610485821962}
2019-04-03 21:33:27.21: SIM {TimeUS : 54234964, Roll : 0.0, Pitch : 0.0, Yaw : 353.0, Alt : 584.090026855, Lat : -35.363261, Lng : 149.1652299, Q1 : 0.998134791851, Q2 : 0.0, Q3 : 0.0, Q4 : -0.0610485821962}
2019-04-03 21:33:27.31: SIM {TimeUS : 54334924, Roll : 0.0, Pitch : 0.0, Yaw : 353.0, Alt : 584.090026855, Lat : -35.363261, Lng : 149.1652299, Q1 : 0.998134791851, Q2 : 0.0, Q3 : 0.0, Q4 : -0.0610485821962}
2019-04-03 21:33:27.41: SIM {TimeUS : 54434884, Roll : 0.0, Pitch : 0.0, Yaw : 353.0, Alt : 584.090026855, Lat : -35.363261, Lng : 149.1652299, Q1 : 0.998134791851, Q2 : 0.0, Q3 : 0.0, Q4 : -0.0610485821962}
2019-04-03 21:33:27.51: SIM {TimeUS : 54534844, Roll : 0.0, Pitch : 0.0, Yaw : 353.0, Alt : 584.090026855, Lat : -35.363261, Lng : 149.1652299, Q1 : 0.998134791851, Q2 : 0.0, Q3 : 0.0, Q4 : -0.0610485821962}
2019-04-03 21:33:27.61: SIM {TimeUS : 54634804, Roll : 0.0, Pitch : 0.0, Yaw : 353.0, Alt : 584.090026855, Lat : -35.363261, Lng : 149.1652299, Q1 : 0.998134791851, Q2 : 0.0, Q3 : 0.0, Q4 : -0.0610485821962}
2019-04-03 21:33:27.71: SIM {TimeUS : 54734764, Roll : 0.0, Pitch : 0.0, Yaw : 353.0, Alt : 584.090026855, Lat : -35.363261, Lng : 149.1652299, Q1 : 0.998134791851, Q2 : 0.0, Q3 : 0.0, Q4 : -0.0610485821962}
2019-04-03 21:33:27.81: SIM {TimeUS : 54834724, Roll : 0.0, Pitch : 0.0, Yaw : 353.0, Alt : 584.090026855, Lat : -35.363261, Lng : 149.1652299, Q1 : 0.998134791851, Q2 : 0.0, Q3 : 0.0, Q4 : -0.0610485821962}
2019-04-03 21:33:27.91: SIM {TimeUS : 54934684, Roll : 0.0, Pitch : 0.0, Yaw : 353.0, Alt : 584.090026855, Lat : -35.363261, Lng : 149.1652299, Q1 : 0.998134791851, Q2 : 0.0, Q3 : 0.0, Q4 : -0.0610485821962}
2019-04-03 21:33:28.01: SIM {TimeUS : 55034644, Roll : 0.0, Pitch : 0.0, Yaw : 353.0, Alt : 584.090026855, Lat : -35.363261, Lng : 149.1652299, Q1 : 0.998134791851, Q2 : 0.0, Q3 : 0.0, Q4 : -0.0610485821962}
2019-04-03 21:33:29.71: SIM {TimeUS : 56734797, Roll : 0.0, Pitch : 0.0, Yaw : 353.0, Alt : 584.090026855, Lat : -35.363261, Lng : 149.1652299, Q1 : 0.998134791851, Q2 : 0.0, Q3 : 0.0, Q4 : -0.0610485821962}
2019-04-03 21:33:29.81: SIM {TimeUS : 56834757, Roll : 0.0, Pitch : 0.0, Yaw : 353.0, Alt : 584.090026855, Lat : -35.363261, Lng : 149.1652299, Q1 : 0.998134791851, Q2 : 0.0, Q3 : 0.0, Q4 : -0.0610485821962}
2019-04-03 21:33:29.91: SIM {TimeUS : 56934717, Roll : 0.0, Pitch : 0.0, Yaw : 353.0, Alt : 584.090026855, Lat : -35.363261, Lng : 149.1652299, Q1 : 0.998134791851, Q2 : 0.0, Q3 : 0.0, Q4 : -0.0610485821962}
2019-04-03 21:33:30.01: SIM {TimeUS : 57034677, Roll : 0.0, Pitch : 0.0, Yaw : 353.0, Alt : 584.090026855, Lat : -35.363261, Lng : 149.1652299, Q1 : 0.998134791851, Q2 : 0.0, Q3 : 0.0, Q4 : -0.0610485821962}
2019-04-03 21:33:30.11: SIM {TimeUS : 57134637, Roll : 0.0, Pitch : 0.0, Yaw : 353.0, Alt : 584.090026855, Lat : -35.363261, Lng : 149.1652299, Q1 : 0.998134791851, Q2 : 0.0, Q3 : 0.0, Q4 : -0.0610485821962}
2019-04-03 21:33:30.21: SIM {TimeUS : 57234597, Roll : 0.0, Pitch : 0.0, Yaw : 353.0, Alt : 584.090026855, Lat : -35.363261, Lng : 149.1652299, Q1 : 0.998134791851, Q2 : 0.0, Q3 : 0.0, Q4 : -0.0610485821962}
2019-04-03 21:33:30.31: SIM {TimeUS : 57334557, Roll : 0.0, Pitch : 0.0, Yaw : 353.0, Alt : 584.090026855, Lat : -35.363261, Lng : 149.1652299, Q1 : 0.998134791851, Q2 : 0.0, Q3 : 0.0, Q4 : -0.0610485821962}
2019-04-03 21:33:30.41: SIM {TimeUS : 57434517, Roll : 0.0, Pitch : 0.0, Yaw : 353.0, Alt : 584.090026855, Lat : -35.363261, Lng : 149.1652299, Q1 : 0.998134791851, Q2 : 0.0, Q3 : 0.0, Q4 : -0.0610485821962}
2019-04-03 21:33:30.51: SIM {TimeUS : 57534477, Roll : 0.0, Pitch : 0.0, Yaw : 353.0, Alt : 584.090026855, Lat : -35.363261, Lng : 149.1652299, Q1 : 0.998134791851, Q2 : 0.0, Q3 : 0.0, Q4 : -0.0610485821962}
2019-04-03 21:33:30.62: SIM {TimeUS : 57635270, Roll : 0.0, Pitch : 0.0, Yaw : 353.0, Alt : 584.090026855, Lat : -35.363261, Lng : 149.1652299, Q1 : 0.998134791851, Q2 : 0.0, Q3 : 0.0, Q4 : -0.0610485821962}
2019-04-03 21:33:30.71: SIM {TimeUS : 57735230, Roll : 0.0, Pitch : 0.0, Yaw : 353.0, Alt : 584.090026855, Lat : -35.363261, Lng : 149.1652299, Q1 : 0.998134791851, Q2 : 0.0, Q3 : 0.0, Q4 : -0.0610485821962}
2019-04-03 21:33:30.81: SIM {TimeUS : 57835190, Roll : 0.0, Pitch : 0.0, Yaw : 353.0, Alt : 584.090026855, Lat : -35.363261, Lng : 149.1652299, Q1 : 0.998134791851, Q2 : 0.0, Q3 : 0.0, Q4 : -0.0610485821962}
2019-04-03 21:33:30.91: SIM {TimeUS : 57935150, Roll : 0.0, Pitch : 0.0, Yaw : 353.0, Alt : 584.090026855, Lat : -35.363261, Lng : 149.1652299, Q1 : 0.998134791851, Q2 : 0.0, Q3 : 0.0, Q4 : -0.0610485821962}
2019-04-03 21:33:31.01: SIM {TimeUS : 58035110, Roll : 0.0, Pitch : 0.0, Yaw : 353.0, Alt : 584.090026855, Lat : -35.363261, Lng : 149.1652299, Q1 : 0.998134791851, Q2 : 0.0, Q3 : 0.0, Q4 : -0.0610485821962}
2019-04-03 21:33:31.11: SIM {TimeUS : 58135070, Roll : 0.0, Pitch : 0.0, Yaw : 353.0, Alt : 584.090026855, Lat : -35.363261, Lng : 149.1652299, Q1 : 0.998134791851, Q2 : 0.0, Q3 : 0.0, Q4 : -0.0610485821962}
2019-04-03 21:33:31.21: SIM {TimeUS : 58235030, Roll : 0.0, Pitch : 0.0, Yaw : 353.0, Alt : 584.090026855, Lat : -35.363261, Lng : 149.1652299, Q1 : 0.998134791851, Q2 : 0.0, Q3 : 0.0, Q4 : -0.0610485821962}
2019-04-03 21:33:31.31: SIM {TimeUS : 58334990, Roll : 0.0, Pitch : 0.0, Yaw : 353.0, Alt : 584.090026855, Lat : -35.363261, Lng : 149.1652299, Q1 : 0.998134791851, Q2 : 0.0, Q3 : 0.0, Q4 : -0.0610485821962}
2019-04-03 21:33:31.41: SIM {TimeUS : 58434950, Roll : 0.0, Pitch : 0.0, Yaw : 353.0, Alt : 584.090026855, Lat : -35.363261, Lng : 149.1652299, Q1 : 0.998134791851, Q2 : 0.0, Q3 : 0.0, Q4 : -0.0610485821962}
2019-04-03 21:33:31.51: SIM {TimeUS : 58534910, Roll : 0.0, Pitch : 0.0, Yaw : 353.0, Alt : 584.090026855, Lat : -35.363261, Lng : 149.1652299, Q1 : 0.998134791851, Q2 : 0.0, Q3 : 0.0, Q4 : -0.0610485821962}
2019-04-03 21:33:31.61: SIM {TimeUS : 58634870, Roll : 0.0, Pitch : 0.0, Yaw : 353.0, Alt : 584.090026855, Lat : -35.363261, Lng : 149.1652299, Q1 : 0.998134791851, Q2 : 0.0, Q3 : 0.0, Q4 : -0.0610485821962}
2019-04-03 21:33:31.71: SIM {TimeUS : 58734830, Roll : 0.0, Pitch : 0.0, Yaw : 353.0, Alt : 584.090026855, Lat : -35.363261, Lng : 149.1652299, Q1 : 0.998134791851, Q2 : 0.0, Q3 : 0.0, Q4 : -0.0610485821962}
2019-04-03 21:33:31.81: SIM {TimeUS : 58834790, Roll : 0.0, Pitch : 0.0, Yaw : 353.0, Alt : 584.090026855, Lat : -35.363261, Lng : 149.1652299, Q1 : 0.998134791851, Q2 : 0.0, Q3 : 0.0, Q4 : -0.0610485821962}
2019-04-03 21:33:31.91: SIM {TimeUS : 58934750, Roll : 0.0, Pitch : 0.0, Yaw : 353.0, Alt : 584.090026855, Lat : -35.363261, Lng : 149.1652299, Q1 : 0.998134791851, Q2 : 0.0, Q3 : 0.0, Q4 : -0.0610485821962}
2019-04-03 21:33:32.01: SIM {TimeUS : 59034710, Roll : 0.0, Pitch : 0.0, Yaw : 353.0, Alt : 584.090026855, Lat : -35.363261, Lng : 149.1652299, Q1 : 0.998134791851, Q2 : 0.0, Q3 : 0.0, Q4 : -0.0610485821962}
2019-04-03 21:33:32.11: SIM {TimeUS : 59134670, Roll : 0.0, Pitch : 0.0, Yaw : 353.0, Alt : 584.090026855, Lat : -35.363261, Lng : 149.1652299, Q1 : 0.998134791851, Q2 : 0.0, Q3 : 0.0, Q4 : -0.0610485821962}
2019-04-03 21:33:32.21: SIM {TimeUS : 59234630, Roll : 0.0, Pitch : 0.0, Yaw : 353.0, Alt : 584.090026855, Lat : -35.363261, Lng : 149.1652299, Q1 : 0.998134791851, Q2 : 0.0, Q3 : 0.0, Q4 : -0.0610485821962}
2019-04-03 21:33:32.31: SIM {TimeUS : 59334590, Roll : 0.0, Pitch : 0.0, Yaw : 353.0, Alt : 584.090026855, Lat : -35.363261, Lng : 149.1652299, Q1 : 0.998134791851, Q2 : 0.0, Q3 : 0.0, Q4 : -0.0610485821962}
2019-04-03 21:33:32.41: SIM {TimeUS : 59434550, Roll : 0.0, Pitch : 0.0, Yaw : 353.0, Alt : 584.090026855, Lat : -35.363261, Lng : 149.1652299, Q1 : 0.998134791851, Q2 : 0.0, Q3 : 0.0, Q4 : -0.0610485821962}
2019-04-03 21:33:32.51: SIM {TimeUS : 59534510, Roll : 0.0, Pitch : 0.0, Yaw : 353.0, Alt : 584.090026855, Lat : -35.363261, Lng : 149.1652299, Q1 : 0.998134791851, Q2 : 0.0, Q3 : 0.0, Q4 : -0.0610485821962}
2019-04-03 21:33:32.61: SIM {TimeUS : 59634470, Roll : 0.0, Pitch : 0.0, Yaw : 353.0, Alt : 584.090026855, Lat : -35.363261, Lng : 149.1652299, Q1 : 0.998134791851, Q2 : 0.0, Q3 : 0.0, Q4 : -0.0610485821962}
2019-04-03 21:33:32.72: SIM {TimeUS : 59735263, Roll : 0.0, Pitch : 0.0, Yaw : 353.0, Alt : 584.090026855, Lat : -35.363261, Lng : 149.1652299, Q1 : 0.998134791851, Q2 : 0.0, Q3 : 0.0, Q4 : -0.0610485821962}
2019-04-03 21:33:32.81: SIM {TimeUS : 59835223, Roll : 0.0, Pitch : 0.0, Yaw : 353.0, Alt : 584.090026855, Lat : -35.363261, Lng : 149.1652299, Q1 : 0.998134791851, Q2 : 0.0, Q3 : 0.0, Q4 : -0.0610485821962}
2019-04-03 21:33:32.91: SIM {TimeUS : 59935183, Roll : 0.0, Pitch : 0.0, Yaw : 353.0, Alt : 584.090026855, Lat : -35.363261, Lng : 149.1652299, Q1 : 0.998134791851, Q2 : 0.0, Q3 : 0.0, Q4 : -0.0610485821962}
2019-04-03 21:33:33.01: SIM {TimeUS : 60035143, Roll : 0.0, Pitch : 0.0, Yaw : 353.0, Alt : 584.090026855, Lat : -35.363261, Lng : 149.1652299, Q1 : 0.998134791851, Q2 : 0.0, Q3 : 0.0, Q4 : -0.0610485821962}
2019-04-03 21:33:33.11: SIM {TimeUS : 60135103, Roll : 0.0, Pitch : 0.0, Yaw : 353.0, Alt : 584.090026855, Lat : -35.363261, Lng : 149.1652299, Q1 : 0.998134791851, Q2 : 0.0, Q3 : 0.0, Q4 : -0.0610485821962}
2019-04-03 21:33:33.21: SIM {TimeUS : 60235063, Roll : 0.0, Pitch : 0.0, Yaw : 353.0, Alt : 584.090026855, Lat : -35.363261, Lng : 149.1652299, Q1 : 0.998134791851, Q2 : 0.0, Q3 : 0.0, Q4 : -0.0610485821962}
2019-04-03 21:33:33.31: SIM {TimeUS : 60335023, Roll : 0.0, Pitch : 0.0, Yaw : 353.0, Alt : 584.090026855, Lat : -35.363261, Lng : 149.1652299, Q1 : 0.998134791851, Q2 : 0.0, Q3 : 0.0, Q4 : -0.0610485821962}
2019-04-03 21:33:33.41: SIM {TimeUS : 60434983, Roll : 0.0, Pitch : 0.0, Yaw : 353.0, Alt : 584.090026855, Lat : -35.363261, Lng : 149.1652299, Q1 : 0.998134791851, Q2 : 0.0, Q3 : 0.0, Q4 : -0.0610485821962}
2019-04-03 21:33:33.51: SIM {TimeUS : 60534943, Roll : 0.0, Pitch : 0.0, Yaw : 353.0, Alt : 584.090026855, Lat : -35.363261, Lng : 149.1652299, Q1 : 0.998134791851, Q2 : 0.0, Q3 : 0.0, Q4 : -0.0610485821962}
2019-04-03 21:33:33.61: SIM {TimeUS : 60634903, Roll : 0.0, Pitch : 0.0, Yaw : 353.0, Alt : 584.090026855, Lat : -35.363261, Lng : 149.1652299, Q1 : 0.998134791851, Q2 : 0.0, Q3 : 0.0, Q4 : -0.0610485821962}
2019-04-03 21:33:33.71: SIM {TimeUS : 60734863, Roll : 0.0, Pitch : 0.0, Yaw : 353.0, Alt : 584.090026855, Lat : -35.363261, Lng : 149.1652299, Q1 : 0.998134791851, Q2 : 0.0, Q3 : 0.0, Q4 : -0.0610485821962}
2019-04-03 21:33:33.81: SIM {TimeUS : 60834823, Roll : 0.0, Pitch : 0.0, Yaw : 353.0, Alt : 584.090026855, Lat : -35.363261, Lng : 149.1652299, Q1 : 0.998134791851, Q2 : 0.0, Q3 : 0.0, Q4 : -0.0610485821962}
2019-04-03 21:33:33.91: SIM {TimeUS : 60934783, Roll : 0.0, Pitch : 0.0, Yaw : 353.0, Alt : 584.090026855, Lat : -35.363261, Lng : 149.1652299, Q1 : 0.998134791851, Q2 : 0.0, Q3 : 0.0, Q4 : -0.0610485821962}
2019-04-03 21:33:34.01: SIM {TimeUS : 61034743, Roll : 0.0, Pitch : 0.0, Yaw : 353.0, Alt : 584.090026855, Lat : -35.363261, Lng : 149.1652299, Q1 : 0.998134791851, Q2 : 0.0, Q3 : 0.0, Q4 : -0.0610485821962}
2019-04-03 21:33:34.11: SIM {TimeUS : 61134703, Roll : 0.0, Pitch : 0.0, Yaw : 353.0, Alt : 584.090026855, Lat : -35.363261, Lng : 149.1652299, Q1 : 0.998134791851, Q2 : 0.0, Q3 : 0.0, Q4 : -0.0610485821962}
2019-04-03 21:33:34.21: SIM {TimeUS : 61234663, Roll : 0.0, Pitch : 0.0, Yaw : 353.0, Alt : 584.090026855, Lat : -35.363261, Lng : 149.1652299, Q1 : 0.998134791851, Q2 : 0.0, Q3 : 0.0, Q4 : -0.0610485821962}
2019-04-03 21:33:34.31: SIM {TimeUS : 61334623, Roll : 0.0, Pitch : 0.0, Yaw : 353.0, Alt : 584.090026855, Lat : -35.363261, Lng : 149.1652299, Q1 : 0.998134791851, Q2 : 0.0, Q3 : 0.0, Q4 : -0.0610485821962}
2019-04-03 21:33:34.41: SIM {TimeUS : 61434583, Roll : 0.0, Pitch : 0.0, Yaw : 353.0, Alt : 584.090026855, Lat : -35.363261, Lng : 149.1652299, Q1 : 0.998134791851, Q2 : 0.0, Q3 : 0.0, Q4 : -0.0610485821962}
2019-04-03 21:33:34.51: SIM {TimeUS : 61534543, Roll : 0.0, Pitch : 0.0, Yaw : 353.0, Alt : 584.090026855, Lat : -35.363261, Lng : 149.1652299, Q1 : 0.998134791851, Q2 : 0.0, Q3 : 0.0, Q4 : -0.0610485821962}
2019-04-03 21:33:34.61: SIM {TimeUS : 61634503, Roll : 0.0, Pitch : 0.0, Yaw : 353.0, Alt : 584.090026855, Lat : -35.363261, Lng : 149.1652299, Q1 : 0.998134791851, Q2 : 0.0, Q3 : 0.0, Q4 : -0.0610485821962}
2019-04-03 21:33:34.71: SIM {TimeUS : 61734463, Roll : 0.0, Pitch : 0.0, Yaw : 353.0, Alt : 584.090026855, Lat : -35.363261, Lng : 149.1652299, Q1 : 0.998134791851, Q2 : 0.0, Q3 : 0.0, Q4 : -0.0610485821962}
2019-04-03 21:33:34.82: SIM {TimeUS : 61835256, Roll : 0.0, Pitch : 0.0, Yaw : 353.0, Alt : 584.090026855, Lat : -35.363261, Lng : 149.1652299, Q1 : 0.998134791851, Q2 : 0.0, Q3 : 0.0, Q4 : -0.0610485821962}
2019-04-03 21:33:34.91: SIM {TimeUS : 61935216, Roll : 0.0, Pitch : 0.0, Yaw : 353.0, Alt : 584.090026855, Lat : -35.363261, Lng : 149.1652299, Q1 : 0.998134791851, Q2 : 0.0, Q3 : 0.0, Q4 : -0.0610485821962}
2019-04-03 21:33:35.01: SIM {TimeUS : 62035176, Roll : 0.0, Pitch : 0.0, Yaw : 353.0, Alt : 584.090026855, Lat : -35.363261, Lng : 149.1652299, Q1 : 0.998134791851, Q2 : 0.0, Q3 : 0.0, Q4 : -0.0610485821962}
2019-04-03 21:33:35.11: SIM {TimeUS : 62135136, Roll : 0.0, Pitch : 0.0, Yaw : 353.0, Alt : 584.090026855, Lat : -35.363261, Lng : 149.1652299, Q1 : 0.998134791851, Q2 : 0.0, Q3 : 0.0, Q4 : -0.0610485821962}
2019-04-03 21:33:35.21: SIM {TimeUS : 62235096, Roll : 0.0, Pitch : 0.0, Yaw : 353.0, Alt : 584.090026855, Lat : -35.363261, Lng : 149.1652299, Q1 : 0.998134791851, Q2 : 0.0, Q3 : 0.0, Q4 : -0.0610486716032}
2019-04-03 21:33:35.31: SIM {TimeUS : 62335056, Roll : 0.0, Pitch : 0.0, Yaw : 353.0, Alt : 584.090026855, Lat : -35.363261, Lng : 149.1652299, Q1 : 0.998134791851, Q2 : 0.0, Q3 : 0.0, Q4 : -0.0610486753285}
2019-04-03 21:33:35.41: SIM {TimeUS : 62435016, Roll : 0.0, Pitch : 0.0, Yaw : 353.0, Alt : 584.090026855, Lat : -35.363261, Lng : 149.1652299, Q1 : 0.998134791851, Q2 : 0.0, Q3 : 0.0, Q4 : -0.0610486753285}
2019-04-03 21:33:35.51: SIM {TimeUS : 62534976, Roll : 0.0, Pitch : 0.0, Yaw : 353.0, Alt : 584.090026855, Lat : -35.363261, Lng : 149.1652299, Q1 : 0.998134791851, Q2 : 0.0, Q3 : 0.0, Q4 : -0.0610486753285}
2019-04-03 21:33:35.61: SIM {TimeUS : 62634936, Roll : 0.0, Pitch : 0.0, Yaw : 353.0, Alt : 584.090026855, Lat : -35.363261, Lng : 149.1652299, Q1 : 0.998134791851, Q2 : 0.0, Q3 : 0.0, Q4 : -0.0610486753285}
2019-04-03 21:33:35.71: SIM {TimeUS : 62734896, Roll : 0.0, Pitch : 0.0, Yaw : 353.0, Alt : 584.090026855, Lat : -35.363261, Lng : 149.1652299, Q1 : 0.998134791851, Q2 : 0.0, Q3 : 0.0, Q4 : -0.0610486753285}
2019-04-03 21:33:35.81: SIM {TimeUS : 62834856, Roll : 0.0, Pitch : 0.0, Yaw : 353.0, Alt : 584.090026855, Lat : -35.363261, Lng : 149.1652299, Q1 : 0.998134791851, Q2 : 0.0, Q3 : 0.0, Q4 : -0.0610486753285}
2019-04-03 21:33:35.91: SIM {TimeUS : 62934816, Roll : 0.0, Pitch : 0.0, Yaw : 353.0, Alt : 584.090026855, Lat : -35.363261, Lng : 149.1652299, Q1 : 0.998134791851, Q2 : 0.0, Q3 : 0.0, Q4 : -0.0610486753285}
2019-04-03 21:33:36.01: SIM {TimeUS : 63034776, Roll : 0.0, Pitch : 0.0, Yaw : 353.0, Alt : 584.099975586, Lat : -35.363261, Lng : 149.1652299, Q1 : 0.998134791851, Q2 : 0.0, Q3 : 0.0, Q4 : -0.0610486753285}
2019-04-03 21:33:36.11: SIM {TimeUS : 63134736, Roll : 0.0, Pitch : 0.0, Yaw : 353.0, Alt : 584.099975586, Lat : -35.363261, Lng : 149.1652299, Q1 : 0.998134791851, Q2 : 0.0, Q3 : 0.0, Q4 : -0.0610486753285}
2019-04-03 21:33:36.21: SIM {TimeUS : 63234696, Roll : 0.0, Pitch : 0.0, Yaw : 353.0, Alt : 584.119995117, Lat : -35.363261, Lng : 149.1652299, Q1 : 0.998134791851, Q2 : 0.0, Q3 : 0.0, Q4 : -0.0610486753285}
2019-04-03 21:33:36.31: SIM {TimeUS : 63334656, Roll : 0.0, Pitch : 0.0, Yaw : 353.0, Alt : 584.140014648, Lat : -35.363261, Lng : 149.1652299, Q1 : 0.998134791851, Q2 : 0.0, Q3 : 0.0, Q4 : -0.0610486753285}
2019-04-03 21:33:36.41: SIM {TimeUS : 63434616, Roll : 0.0, Pitch : 0.0, Yaw : 353.0, Alt : 584.16998291, Lat : -35.363261, Lng : 149.1652299, Q1 : 0.998134791851, Q2 : 0.0, Q3 : 0.0, Q4 : -0.0610486753285}
2019-04-03 21:33:36.51: SIM {TimeUS : 63534576, Roll : 0.0, Pitch : 0.0, Yaw : 353.0, Alt : 584.210021973, Lat : -35.363261, Lng : 149.1652299, Q1 : 0.998134791851, Q2 : 0.0, Q3 : 0.0, Q4 : -0.0610486753285}
2019-04-03 21:33:36.61: SIM {TimeUS : 63634536, Roll : -0.02, Pitch : -0.01, Yaw : 352.99, Alt : 584.260009766, Lat : -35.363261, Lng : 149.1652299, Q1 : 0.998134672642, Q2 : -0.000189764177776, Q3 : -0.000134899368277, Q4 : -0.0610503219068}
2019-04-03 21:33:36.71: SIM {TimeUS : 63734496, Roll : -0.08, Pitch : -0.06, Yaw : 352.99, Alt : 584.369995117, Lat : -35.363261, Lng : 149.1652299, Q1 : 0.998133599758, Q2 : -0.000798622844741, Q3 : -0.000538032792974, Q4 : -0.0610609203577}
2019-04-03 21:33:36.81: SIM {TimeUS : 63834456, Roll : -0.15, Pitch : -0.12, Yaw : 352.99, Alt : 584.510009766, Lat : -35.363261, Lng : 149.1652299, Q1 : 0.998131513596, Q2 : -0.00142244889867, Q3 : -0.00101497746073, Q4 : -0.0610773861408}
2019-04-03 21:33:36.92: SIM {TimeUS : 63935249, Roll : -0.18, Pitch : -0.14, Yaw : 352.99, Alt : 584.66998291, Lat : -35.363261, Lng : 149.1652299, Q1 : 0.998129487038, Q2 : -0.00171327218413, Q3 : -0.00120245723519, Q4 : -0.0611001588404}
2019-04-03 21:33:37.01: SIM {TimeUS : 64035209, Roll : -0.19, Pitch : -0.15, Yaw : 352.99, Alt : 584.83001709, Lat : -35.363261, Lng : 149.1652299, Q1 : 0.998127579689, Q2 : -0.0017730438849, Q3 : -0.00120773690287, Q4 : -0.0611294172704}
2019-04-03 21:33:37.11: SIM {TimeUS : 64135169, Roll : -0.17, Pitch : -0.12, Yaw : 352.98, Alt : 584.979980469, Lat : -35.363261, Lng : 149.1652299, Q1 : 0.998126327991, Q2 : -0.0015812193742, Q3 : -0.000988217187114, Q4 : -0.0611588135362}
2019-04-03 21:33:37.21: SIM {TimeUS : 64235129, Roll : -0.11, Pitch : -0.06, Yaw : 352.98, Alt : 585.130004883, Lat : -35.363261, Lng : 149.1652299, Q1 : 0.998125612736, Q2 : -0.00104617490433, Q3 : -0.00046582435607, Q4 : -0.0611883960664}
2019-04-03 21:33:37.31: SIM {TimeUS : 64335089, Roll : -0.04, Pitch : -0.01, Yaw : 352.98, Alt : 585.289978027, Lat : -35.363261, Lng : 149.1652299, Q1 : 0.998124182224, Q2 : -0.000386308034649, Q3 : -0.000136195812956, Q4 : -0.061220061034}
2019-04-03 21:33:37.41: SIM {TimeUS : 64435049, Roll : 0.0, Pitch : -0.01, Yaw : 352.97, Alt : 585.450012207, Lat : -35.363261, Lng : 149.1652299, Q1 : 0.998122990131, Q2 : 4.5041408157e-05, Q3 : -0.000104513776023, Q4 : -0.0612415038049}
2019-04-03 21:33:37.51: SIM {TimeUS : 64535009, Roll : 0.02, Pitch : 0.0, Yaw : 352.97, Alt : 585.630004883, Lat : -35.363261, Lng : 149.1652299, Q1 : 0.99812245369, Q2 : 0.000243399408646, Q3 : -8.07682081359e-05, Q4 : -0.0612495020032}
2019-04-03 21:33:37.61: SIM {TimeUS : 64634969, Roll : 0.03, Pitch : 0.01, Yaw : 352.97, Alt : 585.799987793, Lat : -35.363261, Lng : 149.1652299, Q1 : 0.998122930527, Q2 : 0.000297972466797, Q3 : 7.48759193812e-05, Q4 : -0.0612410232425}
2019-04-03 21:33:37.71: SIM {TimeUS : 64734929, Roll : 0.02, Pitch : 0.02, Yaw : 352.97, Alt : 585.979980469, Lat : -35.363261, Lng : 149.1652298, Q1 : 0.998123943806, Q2 : 0.000245886360062, Q3 : 0.000214032232179, Q4 : -0.0612254552543}
2019-04-03 21:33:37.81: SIM {TimeUS : 64834889, Roll : 0.0, Pitch : 0.02, Yaw : 352.98, Alt : 586.16998291, Lat : -35.363261, Lng : 149.1652298, Q1 : 0.998125374317, Q2 : -1.03334195956e-05, Q3 : 0.000235107800108, Q4 : -0.0612026713789}
2019-04-03 21:33:37.91: SIM {TimeUS : 64934849, Roll : -0.03, Pitch : 0.0, Yaw : 352.98, Alt : 586.359985352, Lat : -35.363261, Lng : 149.1652298, Q1 : 0.998126685619, Q2 : -0.00033743007225, Q3 : 7.69569451222e-05, Q4 : -0.0611808262765}
2019-04-03 21:33:38.01: SIM {TimeUS : 65034809, Roll : -0.06, Pitch : 0.01, Yaw : 352.98, Alt : 586.549987793, Lat : -35.363261, Lng : 149.1652298, Q1 : 0.998127996922, Q2 : -0.00054061418632, Q3 : 0.000152382839588, Q4 : -0.0611578784883}
2019-04-03 21:33:38.11: SIM {TimeUS : 65134769, Roll : -0.05, Pitch : 0.04, Yaw : 352.98, Alt : 586.75, Lat : -35.3632609, Lng : 149.1652298, Q1 : 0.998129069805, Q2 : -0.000449809478596, Q3 : 0.000392500078306, Q4 : -0.0611389912665}
2019-04-03 21:33:38.21: SIM {TimeUS : 65234729, Roll : -0.02, Pitch : 0.05, Yaw : 352.99, Alt : 586.950012207, Lat : -35.3632609, Lng : 149.1652298, Q1 : 0.998129546642, Q2 : -0.000154748078785, Q3 : 0.000485014985316, Q4 : -0.0611324831843}
2019-04-03 21:33:38.31: SIM {TimeUS : 65334689, Roll : 0.0, Pitch : 0.05, Yaw : 352.98, Alt : 587.150024414, Lat : -35.3632609, Lng : 149.1652298, Q1 : 0.998128890991, Q2 : -2.15561776713e-05, Q3 : 0.000463072472485, Q4 : -0.0611436627805}
2019-04-03 21:33:38.41: SIM {TimeUS : 65434649, Roll : -0.01, Pitch : 0.03, Yaw : 352.98, Alt : 587.349975586, Lat : -35.3632609, Lng : 149.1652298, Q1 : 0.998127698898, Q2 : -0.000141859520227, Q3 : 0.000325821893057, Q4 : -0.061163470149}
2019-04-03 21:33:38.51: SIM {TimeUS : 65534609, Roll : -0.05, Pitch : 0.01, Yaw : 352.98, Alt : 587.549987793, Lat : -35.3632609, Lng : 149.1652298, Q1 : 0.998126029968, Q2 : -0.000510185433086, Q3 : 0.000190119506442, Q4 : -0.0611901320517}
2019-04-03 21:33:38.61: SIM {TimeUS : 65634569, Roll : -0.08, Pitch : 0.0, Yaw : 352.98, Alt : 587.760009766, Lat : -35.3632609, Lng : 149.1652298, Q1 : 0.998124539852, Q2 : -0.000754264474381, Q3 : 0.00011049832392, Q4 : -0.0612114369869}
2019-04-03 21:33:38.71: SIM {TimeUS : 65734529, Roll : -0.08, Pitch : 0.0, Yaw : 352.97, Alt : 587.969970703, Lat : -35.3632609, Lng : 149.1652298, Q1 : 0.998122692108, Q2 : -0.000739184208214, Q3 : 1.88598733075e-05, Q4 : -0.0612414926291}
2019-04-03 21:33:38.81: SIM {TimeUS : 65834489, Roll : -0.06, Pitch : 0.0, Yaw : 352.97, Alt : 588.179992676, Lat : -35.3632609, Lng : 149.1652298, Q1 : 0.998120903969, Q2 : -0.000612080504652, Q3 : -1.31583565235e-05, Q4 : -0.0612720437348}
2019-04-03 21:33:38.91: SIM {TimeUS : 65934449, Roll : -0.04, Pitch : 0.0, Yaw : 352.97, Alt : 588.390014648, Lat : -35.3632609, Lng : 149.1652298, Q1 : 0.998119235039, Q2 : -0.000434600806329, Q3 : -2.76595765172e-05, Q4 : -0.0613006912172}
2019-04-03 21:33:39.02: SIM {TimeUS : 66035242, Roll : -0.03, Pitch : -0.01, Yaw : 352.96, Alt : 588.599975586, Lat : -35.3632609, Lng : 149.1652298, Q1 : 0.998118042946, Q2 : -0.000351074879291, Q3 : -8.08489567135e-05, Q4 : -0.0613209605217}
2019-04-03 21:33:39.11: SIM {TimeUS : 66135202, Roll : -0.03, Pitch : -0.02, Yaw : 352.96, Alt : 588.799987793, Lat : -35.3632609, Lng : 149.1652298, Q1 : 0.998117387295, Q2 : -0.000304990157019, Q3 : -0.000201890579774, Q4 : -0.0613311976194}
2019-04-03 21:33:39.21: SIM {TimeUS : 66235162, Roll : -0.02, Pitch : -0.03, Yaw : 352.96, Alt : 588.989990234, Lat : -35.3632609, Lng : 149.1652298, Q1 : 0.998117089272, Q2 : -0.000218741814024, Q3 : -0.000277338869637, Q4 : -0.0613369271159}
2019-04-03 21:33:39.31: SIM {TimeUS : 66335122, Roll : 0.0, Pitch : -0.03, Yaw : 352.96, Alt : 589.16998291, Lat : -35.3632609, Lng : 149.1652298, Q1 : 0.998116970062, Q2 : 4.523177995e-05, Q3 : -0.000318591453834, Q4 : -0.0613383725286}
2019-04-03 21:33:39.41: SIM {TimeUS : 66435082, Roll : 0.03, Pitch : -0.04, Yaw : 352.96, Alt : 589.340026855, Lat : -35.3632609, Lng : 149.1652297, Q1 : 0.998117089272, Q2 : 0.000320688210195, Q3 : -0.000436471862486, Q4 : -0.061335504055}
2019-04-03 21:33:39.51: SIM {TimeUS : 66535042, Roll : 0.0, Pitch : -0.05, Yaw : 352.96, Alt : 589.5, Lat : -35.3632609, Lng : 149.1652297, Q1 : 0.998117208481, Q2 : 3.05060916617e-06, Q3 : -0.000517622742336, Q4 : -0.0613334774971}
2019-04-03 21:33:39.61: SIM {TimeUS : 66635002, Roll : -0.2, Pitch : -0.16, Yaw : 352.96, Alt : 589.650024414, Lat : -35.3632609, Lng : 149.1652297, Q1 : 0.998114645481, Q2 : -0.00189217412844, Q3 : -0.0013137483038, Q4 : -0.0613346360624}
2019-04-03 21:33:39.71: SIM {TimeUS : 66734962, Roll : -0.65, Pitch : -0.4, Yaw : 352.96, Alt : 589.780029297, Lat : -35.3632609, Lng : 149.1652297, Q1 : 0.998094439507, Q2 : -0.00591184478253, Q3 : -0.00316725927405, Q4 : -0.0613397546113}
2019-04-03 21:33:39.81: SIM {TimeUS : 66834922, Roll : -1.34, Pitch : -0.75, Yaw : 352.97, Alt : 589.900024414, Lat : -35.3632609, Lng : 149.1652297, Q1 : 0.998024880886, Q2 : -0.0121383080259, Q3 : -0.00587909389287, Q4 : -0.0613546296954}
2019-04-03 21:33:39.91: SIM {TimeUS : 66934882, Roll : -2.2, Pitch : -1.2, Yaw : 352.98, Alt : 590.010009766, Lat : -35.3632609, Lng : 149.1652296, Q1 : 0.997872233391, Q2 : -0.0198886916041, Q3 : -0.00933096371591, Q4 : -0.0613873451948}
2019-04-03 21:33:40.01: SIM {TimeUS : 67034842, Roll : -3.13, Pitch : -1.69, Yaw : 352.99, Alt : 590.099975586, Lat : -35.3632608, Lng : 149.1652296, Q1 : 0.997624397278, Q2 : -0.0282469373196, Q3 : -0.0130849583074, Q4 : -0.0614529624581}
2019-04-03 21:33:40.11: SIM {TimeUS : 67134802, Roll : -4.0, Pitch : -2.15, Yaw : 353.0, Alt : 590.190002441, Lat : -35.3632608, Lng : 149.1652293, Q1 : 0.997314155102, Q2 : -0.0360086224973, Q3 : -0.0166158806533, Q4 : -0.0615772008896}
2019-04-03 21:33:40.21: SIM {TimeUS : 67234762, Roll : -4.7, Pitch : -2.53, Yaw : 353.01, Alt : 590.260009766, Lat : -35.3632607, Lng : 149.1652292, Q1 : 0.997000217438, Q2 : -0.0423490405083, Q3 : -0.0195439029485, Q4 : -0.0617674402893}
2019-04-03 21:33:40.31: SIM {TimeUS : 67334722, Roll : -5.23, Pitch : -2.83, Yaw : 353.0, Alt : 590.320007324, Lat : -35.3632605, Lng : 149.1652289, Q1 : 0.996724069118, Q2 : -0.0470822677016, Q3 : -0.021887967363, Q4 : -0.0620108358562}
2019-04-03 21:33:40.41: SIM {TimeUS : 67434682, Roll : -5.61, Pitch : -3.07, Yaw : 352.99, Alt : 590.380004883, Lat : -35.3632604, Lng : 149.1652286, Q1 : 0.996497273445, Q2 : -0.0505083017051, Q3 : -0.0237250681967, Q4 : -0.0622834861279}
2019-04-03 21:33:40.51: SIM {TimeUS : 67534642, Roll : -5.91, Pitch : -3.25, Yaw : 352.98, Alt : 590.41998291, Lat : -35.3632604, Lng : 149.1652282, Q1 : 0.996304988861, Q2 : -0.0531934723258, Q3 : -0.0251275468618, Q4 : -0.0625729486346}
2019-04-03 21:33:40.61: SIM {TimeUS : 67634602, Roll : -6.19, Pitch : -3.41, Yaw : 352.96, Alt : 590.460021973, Lat : -35.3632602, Lng : 149.1652277, Q1 : 0.996113419533, Q2 : -0.0557696036994, Q3 : -0.0263994541019, Q4 : -0.0628560334444}
2019-04-03 21:33:40.71: SIM {TimeUS : 67734562, Roll : -6.5, Pitch : -3.6, Yaw : 352.95, Alt : 590.5, Lat : -35.3632599, Lng : 149.165227, Q1 : 0.995898723602, Q2 : -0.0585411116481, Q3 : -0.0278382692486, Q4 : -0.063116542995}
2019-04-03 21:33:40.81: SIM {TimeUS : 67834522, Roll : -6.83, Pitch : -3.8, Yaw : 352.94, Alt : 590.530029297, Lat : -35.3632598, Lng : 149.1652264, Q1 : 0.995661854744, Q2 : -0.0614812858403, Q3 : -0.0293882973492, Q4 : -0.0633547380567}
2019-04-03 21:33:40.91: SIM {TimeUS : 67934482, Roll : -7.1, Pitch : -3.97, Yaw : 352.93, Alt : 590.559997559, Lat : -35.3632596, Lng : 149.1652255, Q1 : 0.995448827744, Q2 : -0.0639837905765, Q3 : -0.0307619515806, Q4 : -0.063572704792}
2019-04-03 21:33:41.01: SIM {TimeUS : 68034442, Roll : -7.31, Pitch : -4.1, Yaw : 352.93, Alt : 590.590026855, Lat : -35.3632592, Lng : 149.1652246, Q1 : 0.995283663273, Q2 : -0.0658330619335, Q3 : -0.0317872986197, Q4 : -0.0637652128935}
2019-04-03 21:33:41.11: SIM {TimeUS : 68135235, Roll : -7.45, Pitch : -4.2, Yaw : 352.92, Alt : 590.609985352, Lat : -35.363259, Lng : 149.1652238, Q1 : 0.995166480541, Q2 : -0.0670838803053, Q3 : -0.0324997641146, Q4 : -0.0639319121838}
2019-04-03 21:33:41.21: SIM {TimeUS : 68235195, Roll : -7.55, Pitch : -4.25, Yaw : 352.91, Alt : 590.630004883, Lat : -35.3632586, Lng : 149.1652227, Q1 : 0.99508368969, Q2 : -0.0679865628481, Q3 : -0.0328903496265, Q4 : -0.0640667080879}
2019-04-03 21:33:41.31: SIM {TimeUS : 68335155, Roll : -7.65, Pitch : -4.28, Yaw : 352.9, Alt : 590.650024414, Lat : -35.3632583, Lng : 149.1652216, Q1 : 0.995009183884, Q2 : -0.0688659846783, Q3 : -0.0331146754324, Q4 : -0.0641695857048}
2019-04-03 21:33:41.41: SIM {TimeUS : 68435115, Roll : -7.78, Pitch : -4.31, Yaw : 352.9, Alt : 590.66998291, Lat : -35.3632579, Lng : 149.1652203, Q1 : 0.994914591312, Q2 : -0.0700696110725, Q3 : -0.0332784354687, Q4 : -0.0642481595278}
2019-04-03 21:33:41.51: SIM {TimeUS : 68535075, Roll : -8.07, Pitch : -4.23, Yaw : 352.78, Alt : 590.679992676, Lat : -35.3632574, Lng : 149.1652192, Q1 : 0.994699835777, Q2 : -0.0725339725614, Q3 : -0.0323833487928, Q4 : -0.0652872249484}
2019-04-03 21:33:41.61: SIM {TimeUS : 68635035, Roll : -8.57, Pitch : -4.0, Yaw : 352.03, Alt : 590.700012207, Lat : -35.363257, Lng : 149.1652178, Q1 : 0.994001090527, Q2 : -0.0769987180829, Q3 : -0.0295984745026, Q4 : -0.0718123018742}
2019-04-03 21:33:41.71: SIM {TimeUS : 68734995, Roll : -9.17, Pitch : -3.86, Yaw : 349.94, Alt : 590.710021973, Lat : -35.3632566, Lng : 149.1652164, Q1 : 0.992158353329, Q2 : -0.0825933218002, Q3 : -0.0265043713152, Q4 : -0.089986898005}
2019-04-03 21:33:41.81: SIM {TimeUS : 68834955, Roll : -9.58, Pitch : -4.15, Yaw : 346.2, Alt : 590.729980469, Lat : -35.3632561, Lng : 149.1652149, Q1 : 0.988275825977, Q2 : -0.0872307345271, Q3 : -0.0258251260966, Q4 : -0.122616246343}
2019-04-03 21:33:41.91: SIM {TimeUS : 68934915, Roll : -9.6, Pitch : -4.99, Yaw : 340.91, Alt : 590.739990234, Lat : -35.3632556, Lng : 149.1652131, Q1 : 0.981167435646, Q2 : -0.0896824747324, Q3 : -0.0289421640337, Q4 : -0.168611526489}
2019-04-03 21:33:42.01: SIM {TimeUS : 69034875, Roll : -9.11, Pitch : -6.34, Yaw : 334.35, Alt : 590.760009766, Lat : -35.3632553, Lng : 149.1652115, Q1 : 0.969506800175, Q2 : -0.0896047353745, Q3 : -0.03618735075, Q4 : -0.225206658244}
2019-04-03 21:33:42.11: SIM {TimeUS : 69134835, Roll : -8.07, Pitch : -8.02, Yaw : 326.78, Alt : 590.770019531, Lat : -35.3632548, Lng : 149.1652097, Q1 : 0.952163755894, Q2 : -0.0872273519635, Q3 : -0.0468092449009, Q4 : -0.289109796286}
2019-04-03 21:33:42.21: SIM {TimeUS : 69234795, Roll : -6.48, Pitch : -9.79, Yaw : 318.5, Alt : 590.789978027, Lat : -35.3632543, Lng : 149.1652078, Q1 : 0.928520679474, Q2 : -0.0828901678324, Q3 : -0.0597411543131, Q4 : -0.356944918633}
2019-04-03 21:33:42.31: SIM {TimeUS : 69334755, Roll : -4.43, Pitch : -11.39, Yaw : 309.76, Alt : 590.799987793, Lat : -35.3632538, Lng : 149.1652058, Q1 : 0.898669242859, Q2 : -0.0769764557481, Q3 : -0.0734815597534, Q4 : -0.425521612167}
2019-04-03 21:33:42.41: SIM {TimeUS : 69434715, Roll : -2.0, Pitch : -12.63, Yaw : 300.9, Alt : 590.820007324, Lat : -35.3632534, Lng : 149.1652037, Q1 : 0.863574564457, Q2 : -0.0693776383996, Q3 : -0.0871693342924, Q4 : -0.491759300232}
2019-04-03 21:33:42.51: SIM {TimeUS : 69534675, Roll : 0.87, Pitch : -13.34, Yaw : 292.48, Alt : 590.83001709, Lat : -35.3632529, Lng : 149.1652015, Q1 : 0.826258838177, Q2 : -0.058229919523, Q3 : -0.100784756243, Q4 : -0.551133453846}
2019-04-03 21:33:42.61: SIM {TimeUS : 69634635, Roll : 3.79, Pitch : -13.46, Yaw : 285.41, Alt : 590.849975586, Lat : -35.3632523, Lng : 149.1651992, Q1 : 0.791961014271, Q2 : -0.044852476567, Q3 : -0.113173082471, Q4 : -0.598312497139}
2019-04-03 21:33:42.71: SIM {TimeUS : 69734595, Roll : 6.2, Pitch : -13.21, Yaw : 280.32, Alt : 590.869995117, Lat : -35.3632516, Lng : 149.1651968, Q1 : 0.765660226345, Q2 : -0.0322853699327, Q3 : -0.122658461332, Q4 : -0.630616366863}
2019-04-03 21:33:42.81: SIM {TimeUS : 69834555, Roll : 7.71, Pitch : -12.88, Yaw : 277.41, Alt : 590.880004883, Lat : -35.3632507, Lng : 149.1651944, Q1 : 0.749871015549, Q2 : -0.023641474545, Q3 : -0.128186777234, Q4 : -0.648616015911}
2019-04-03 21:33:42.91: SIM {TimeUS : 69934515, Roll : 8.17, Pitch : -12.7, Yaw : 276.44, Alt : 590.900024414, Lat : -35.36325, Lng : 149.165192, Q1 : 0.744530856609, Q2 : -0.0207488462329, Q3 : -0.129492238164, Q4 : -0.654580056667}
2019-04-03 21:33:43.01: SIM {TimeUS : 70034475, Roll : 7.64, Pitch : -12.8, Yaw : 277.06, Alt : 590.91998291, Lat : -35.3632489, Lng : 149.1651895, Q1 : 0.747936367989, Q2 : -0.0240653958172, Q3 : -0.127261638641, Q4 : -0.651011943817}
2019-04-03 21:33:43.12: SIM {TimeUS : 70135268, Roll : 6.32, Pitch : -13.2, Yaw : 278.89, Alt : 590.940002441, Lat : -35.363248, Lng : 149.1651867, Q1 : 0.757772624493, Q2 : -0.032966863364, Q3 : -0.122862756252, Q4 : -0.639998912811}
2019-04-03 21:33:43.21: SIM {TimeUS : 70235228, Roll : 4.52, Pitch : -13.79, Yaw : 281.54, Alt : 590.960021973, Lat : -35.3632469, Lng : 149.1651841, Q1 : 0.771430552006, Q2 : -0.0455336794257, Q3 : -0.117687866092, Q4 : -0.623675525188}
2019-04-03 21:33:43.31: SIM {TimeUS : 70335188, Roll : 2.5, Pitch : -14.42, Yaw : 284.66, Alt : 590.979980469, Lat : -35.3632458, Lng : 149.1651814, Q1 : 0.786817133427, Q2 : -0.0595277808607, Q3 : -0.112604856491, Q4 : -0.603900134563}
2019-04-03 21:33:43.41: SIM {TimeUS : 70435148, Roll : 0.52, Pitch : -14.98, Yaw : 287.93, Alt : 591.010009766, Lat : -35.3632446, Lng : 149.1651785, Q1 : 0.802114486694, Q2 : -0.0730112418532, Q3 : -0.108100637794, Q4 : -0.582748651505}
2019-04-03 21:33:43.51: SIM {TimeUS : 70535108, Roll : -1.2, Pitch : -15.37, Yaw : 290.98, Alt : 591.030029297, Lat : -35.3632434, Lng : 149.1651756, Q1 : 0.815794289112, Q2 : -0.0843545794487, Q3 : -0.10437682271, Q4 : -0.56255620718}
2019-04-03 21:33:43.61: SIM {TimeUS : 70635068, Roll : -2.49, Pitch : -15.59, Yaw : 293.5, Alt : 591.049987793, Lat : -35.3632422, Lng : 149.1651726, Q1 : 0.82674741745, Q2 : -0.0924314782023, Q3 : -0.101570665836, Q4 : -0.545553445816}
2019-04-03 21:33:43.71: SIM {TimeUS : 70735028, Roll : -3.29, Pitch : -15.64, Yaw : 295.27, Alt : 591.08001709, Lat : -35.363241, Lng : 149.1651695, Q1 : 0.834400415421, Q2 : -0.0968551412225, Q3 : -0.0997029840946, Q4 : -0.533342540264}
2019-04-03 21:33:43.81: SIM {TimeUS : 70834988, Roll : -3.57, Pitch : -15.62, Yaw : 296.23, Alt : 591.099975586, Lat : -35.36324, Lng : 149.1651662, Q1 : 0.838604271412, Q2 : -0.098021671176, Q3 : -0.0990186259151, Q4 : -0.526621282101}
2019-04-03 21:33:43.91: SIM {TimeUS : 70934948, Roll : -3.43, Pitch : -15.58, Yaw : 296.4, Alt : 591.119995117, Lat : -35.3632389, Lng : 149.1651628, Q1 : 0.83955770731, Q2 : -0.0966379493475, Q3 : -0.0995323359966, Q4 : -0.525259315968}
2019-04-03 21:33:44.01: SIM {TimeUS : 71034908, Roll : -2.97, Pitch : -15.58, Yaw : 295.91, Alt : 591.150024414, Lat : -35.3632378, Lng : 149.1651594, Q1 : 0.837680399418, Q2 : -0.0937006101012, Q3 : -0.10121460259, Q4 : -0.528457522392}
2019-04-03 21:33:44.11: SIM {TimeUS : 71134868, Roll : -2.29, Pitch : -15.63, Yaw : 294.93, Alt : 591.16998291, Lat : -35.3632367, Lng : 149.1651561, Q1 : 0.833622217178, Q2 : -0.0898720324039, Q3 : -0.103973962367, Q4 : -0.534964025021}
2019-04-03 21:33:44.21: SIM {TimeUS : 71234828, Roll : -1.48, Pitch : -15.73, Yaw : 293.66, Alt : 591.190002441, Lat : -35.3632355, Lng : 149.1651525, Q1 : 0.828173816204, Q2 : -0.0856243446469, Q3 : -0.107500880957, Q4 : -0.543360114098}
2019-04-03 21:33:44.31: SIM {TimeUS : 71334788, Roll : -0.65, Pitch : -15.85, Yaw : 292.3, Alt : 591.219970703, Lat : -35.3632345, Lng : 149.1651489, Q1 : 0.822143733501, Q2 : -0.0815192982554, Q3 : -0.111435309052, Q4 : -0.55228292942}
2019-04-03 21:33:44.41: SIM {TimeUS : 71434748, Roll : 0.1, Pitch : -16.0, Yaw : 291.02, Alt : 591.239990234, Lat : -35.3632333, Lng : 149.1651453, Q1 : 0.816295027733, Q2 : -0.0781069174409, Q3 : -0.115261748433, Q4 : -0.560603618622}
2019-04-03 21:33:44.51: SIM {TimeUS : 71534708, Roll : 0.68, Pitch : -16.12, Yaw : 289.95, Alt : 591.270019531, Lat : -35.3632322, Lng : 149.1651415, Q1 : 0.81129771471, Q2 : -0.0756540596485, Q3 : -0.118248142302, Q4 : -0.56752961874}
2019-04-03 21:33:44.61: SIM {TimeUS : 71634668, Roll : 1.06, Pitch : -16.18, Yaw : 289.18, Alt : 591.289978027, Lat : -35.363231, Lng : 149.1651378, Q1 : 0.807640969753, Q2 : -0.0740450844169, Q3 : -0.120081678033, Q4 : -0.572550296783}
2019-04-03 21:33:44.71: SIM {TimeUS : 71734628, Roll : 1.26, Pitch : -16.19, Yaw : 288.74, Alt : 591.309997559, Lat : -35.3632298, Lng : 149.165134, Q1 : 0.805549800396, Q2 : -0.0731765925884, Q3 : -0.120814487338, Q4 : -0.575446426868}
2019-04-03 21:33:44.81: SIM {TimeUS : 71834588, Roll : 1.28, Pitch : -16.18, Yaw : 288.61, Alt : 591.340026855, Lat : -35.3632286, Lng : 149.1651301, Q1 : 0.80496352911, Q2 : -0.0731383040547, Q3 : -0.120789222419, Q4 : -0.576276421547}
2019-04-03 21:33:44.91: SIM {TimeUS : 71934548, Roll : 1.13, Pitch : -16.17, Yaw : 288.77, Alt : 591.359985352, Lat : -35.3632274, Lng : 149.1651262, Q1 : 0.805660963058, Q2 : -0.0739460960031, Q3 : -0.120055526495, Q4 : -0.575351297855}
2019-04-03 21:33:45.01: SIM {TimeUS : 72034508, Roll : 0.86, Pitch : -16.15, Yaw : 289.13, Alt : 591.380004883, Lat : -35.3632261, Lng : 149.1651223, Q1 : 0.807310819626, Q2 : -0.0754137858748, Q3 : -0.118834152818, Q4 : -0.573097229004}
2019-04-03 21:33:45.11: SIM {TimeUS : 72134468, Roll : 0.53, Pitch : -16.17, Yaw : 289.62, Alt : 591.409973145, Lat : -35.3632249, Lng : 149.1651183, Q1 : 0.809515595436, Q2 : -0.077266074717, Q3 : -0.117667786777, Q4 : -0.569972574711}
2019-04-03 21:33:45.22: SIM {TimeUS : 72235261, Roll : 0.2, Pitch : -16.22, Yaw : 290.16, Alt : 591.429992676, Lat : -35.3632236, Lng : 149.1651143, Q1 : 0.8119135499, Q2 : -0.0793496370316, Q3 : -0.116730049253, Q4 : -0.566457509995}
2019-04-03 21:33:45.31: SIM {TimeUS : 72335221, Roll : -0.09, Pitch : -16.29, Yaw : 290.67, Alt : 591.450012207, Lat : -35.3632222, Lng : 149.1651102, Q1 : 0.814168155193, Q2 : -0.0812667831779, Q3 : -0.116071820259, Q4 : -0.563074886799}
2019-04-03 21:33:45.41: SIM {TimeUS : 72435181, Roll : -0.32, Pitch : -16.34, Yaw : 291.11, Alt : 591.479980469, Lat : -35.3632209, Lng : 149.1651062, Q1 : 0.816083848476, Q2 : -0.0827264711261, Q3 : -0.115612439811, Q4 : -0.560176134109}
2019-04-03 21:33:45.51: SIM {TimeUS : 72535141, Roll : -0.47, Pitch : -16.38, Yaw : 291.43, Alt : 591.5, Lat : -35.3632197, Lng : 149.165102, Q1 : 0.817493379116, Q2 : -0.0837008431554, Q3 : -0.11543854326, Q4 : -0.558007776737}
2019-04-03 21:33:45.61: SIM {TimeUS : 72635101, Roll : -0.54, Pitch : -16.45, Yaw : 291.62, Alt : 591.530029297, Lat : -35.3632184, Lng : 149.1650979, Q1 : 0.818314373493, Q2 : -0.0842801257968, Q3 : -0.115711353719, Q4 : -0.556659162045}
2019-04-03 21:33:45.71: SIM {TimeUS : 72735061, Roll : -0.54, Pitch : -16.51, Yaw : 291.69, Alt : 591.549987793, Lat : -35.3632171, Lng : 149.1650937, Q1 : 0.818575799465, Q2 : -0.084498859942, Q3 : -0.116208791733, Q4 : -0.556137740612}
2019-04-03 21:33:45.81: SIM {TimeUS : 72835021, Roll : -0.47, Pitch : -16.54, Yaw : 291.65, Alt : 591.570007324, Lat : -35.3632157, Lng : 149.1650895, Q1 : 0.818384170532, Q2 : -0.0842090025544, Q3 : -0.116690836847, Q4 : -0.556362748146}
2019-04-03 21:33:45.91: SIM {TimeUS : 72934981, Roll : -0.36, Pitch : -16.54, Yaw : 291.52, Alt : 591.599975586, Lat : -35.3632143, Lng : 149.1650852, Q1 : 0.817842662334, Q2 : -0.0835921913385, Q3 : -0.117186948657, Q4 : -0.557147145271}
2019-04-03 21:33:46.01: SIM {TimeUS : 73034941, Roll : -0.22, Pitch : -16.56, Yaw : 291.34, Alt : 591.619995117, Lat : -35.363213, Lng : 149.1650809, Q1 : 0.817056596279, Q2 : -0.0828539654613, Q3 : -0.117820210755, Q4 : -0.558276116848}
2019-04-03 21:33:46.11: SIM {TimeUS : 73134901, Roll : -0.07, Pitch : -16.58, Yaw : 291.14, Alt : 591.640014648, Lat : -35.3632117, Lng : 149.1650766, Q1 : 0.816170275211, Q2 : -0.0820360407233, Q3 : -0.118607364595, Q4 : -0.559525251389}
2019-04-03 21:33:46.21: SIM {TimeUS : 73234861, Roll : 0.07, Pitch : -16.62, Yaw : 290.95, Alt : 591.66998291, Lat : -35.3632104, Lng : 149.1650723, Q1 : 0.815281510353, Q2 : -0.08142362535, Q3 : -0.119515195489, Q4 : -0.560715973377}
2019-04-03 21:33:46.31: SIM {TimeUS : 73334821, Roll : 0.16, Pitch : -16.67, Yaw : 290.78, Alt : 591.690002441, Lat : -35.3632091, Lng : 149.165068, Q1 : 0.81449764967, Q2 : -0.0811350271106, Q3 : -0.120151050389, Q4 : -0.561760127544}
2019-04-03 21:33:46.41: SIM {TimeUS : 73434781, Roll : 0.2, Pitch : -16.7, Yaw : 290.66, Alt : 591.719970703, Lat : -35.3632076, Lng : 149.1650637, Q1 : 0.813897907734, Q2 : -0.0811469256878, Q3 : -0.12051397562, Q4 : -0.562549412251}
2019-04-03 21:33:46.51: SIM {TimeUS : 73534741, Roll : 0.21, Pitch : -16.73, Yaw : 290.59, Alt : 591.739990234, Lat : -35.3632063, Lng : 149.1650593, Q1 : 0.813541173935, Q2 : -0.0812793150544, Q3 : -0.120704747736, Q4 : -0.563005208969}
2019-04-03 21:33:46.61: SIM {TimeUS : 73634701, Roll : 0.22, Pitch : -16.74, Yaw : 290.58, Alt : 591.760009766, Lat : -35.363205, Lng : 149.1650549, Q1 : 0.81344640255, Q2 : -0.0813188701868, Q3 : -0.120819874108, Q4 : -0.563111662865}
2019-04-03 21:33:46.71: SIM {TimeUS : 73734661, Roll : 0.23, Pitch : -16.75, Yaw : 290.6, Alt : 591.789978027, Lat : -35.3632036, Lng : 149.1650503, Q1 : 0.813577353954, Q2 : -0.0812694728374, Q3 : -0.120911113918, Q4 : -0.562909960747}
2019-04-03 21:33:46.81: SIM {TimeUS : 73834621, Roll : 0.22, Pitch : -16.77, Yaw : 290.66, Alt : 591.809997559, Lat : -35.3632021, Lng : 149.165046, Q1 : 0.813845515251, Q2 : -0.081385910511, Q3 : -0.121097281575, Q4 : -0.562465369701}
2019-04-03 21:33:46.91: SIM {TimeUS : 73934581, Roll : 0.19, Pitch : -16.81, Yaw : 290.75, Alt : 591.840026855, Lat : -35.3632008, Lng : 149.1650415, Q1 : 0.814196586609, Q2 : -0.0817273557186, Q3 : -0.12126814574, Q4 : -0.561870634556}
2019-04-03 21:33:47.01: SIM {TimeUS : 74034541, Roll : 0.14, Pitch : -16.85, Yaw : 290.84, Alt : 591.859985352, Lat : -35.3631994, Lng : 149.1650371, Q1 : 0.814591348171, Q2 : -0.0821658968925, Q3 : -0.121364749968, Q4 : -0.561213254929}
