2019-04-03 21:29:22.00: SIM {TimeUS : 40816167, Roll : 0.0, Pitch : 0.0, Yaw : 353.0, Alt : 584.090026855, Lat : -35.363261, Lng : 149.1652299, Q1 : 0.998134791851, Q2 : 0.0, Q3 : 0.0, Q4 : -0.0610485821962}
2019-04-03 21:29:22.11: SIM {TimeUS : 40935286, Roll : 0.0, Pitch : 0.0, Yaw : 353.0, Alt : 584.090026855, Lat : -35.363261, Lng : 149.1652299, Q1 : 0.998134791851, Q2 : 0.0, Q3 : 0.0, Q4 : -0.0610485821962}
2019-04-03 21:29:22.21: SIM {TimeUS : 41035246, Roll : 0.0, Pitch : 0.0, Yaw : 353.0, Alt : 584.090026855, Lat : -35.363261, Lng : 149.1652299, Q1 : 0.998134791851, Q2 : 0.0, Q3 : 0.0, Q4 : -0.0610485821962}
2019-04-03 21:29:22.31: SIM {TimeUS : 41135206, Roll : 0.0, Pitch : 0.0, Yaw : 353.0, Alt : 584.090026855, Lat : -35.363261, Lng : 149.1652299, Q1 : 0.998134791851, Q2 : 0.0, Q3 : 0.0, Q4 : -0.0610485821962}
2019-04-03 21:29:22.41: SIM {TimeUS : 41235166, Roll : 0.0, Pitch : 0.0, Yaw : 353.0, Alt : 584.090026855, Lat : -35.363261, Lng : 149.1652299, Q1 : 0.998134791851, Q2 : 0.0, Q3 : 0.0, Q4 : -0.0610485821962}
2019-04-03 21:29:22.51: SIM {TimeUS : 41335126, Roll : 0.0, Pitch : 0.0, Yaw : 353.0, Alt : 584.090026855, Lat : -35.363261, Lng : 149.1652299, Q1 : 0.998134791851, Q2 : 0.0, Q3 : 0.0, Q4 : -0.0610485821962}
2019-04-03 21:29:22.61: SIM {TimeUS : 41435086, Roll : 0.0, Pitch : 0.0, Yaw : 353.0, Alt : 584.090026855, Lat : -35.363261, Lng : 149.1652299, Q1 : 0.998134791851, Q2 : 0.0, Q3 : 0.0, Q4 : -0.0610485821962}
2019-04-03 21:29:22.71: SIM {TimeUS : 41535046, Roll : 0.0, Pitch : 0.0, Yaw : 353.0, Alt : 584.090026855, Lat : -35.363261, Lng : 149.1652299, Q1 : 0.998134791851, Q2 : 0.0, Q3 : 0.0, Q4 : -0.0610485821962}
2019-04-03 21:29:22.81: SIM {TimeUS : 41635006, Roll : 0.0, Pitch : 0.0, Yaw : 353.0, Alt : 584.090026855, Lat : -35.363261, Lng : 149.1652299, Q1 : 0.998134791851, Q2 : 0.0, Q3 : 0.0, Q4 : -0.0610485821962}
2019-04-03 21:29:22.91: SIM {TimeUS : 41734966, Roll : 0.0, Pitch : 0.0, Yaw : 353.0, Alt : 584.090026855, Lat : -35.363261, Lng : 149.1652299, Q1 : 0.998134791851, Q2 : 0.0, Q3 : 0.0, Q4 : -0.0610485821962}
2019-04-03 21:29:23.01: SIM {TimeUS : 41834926, Roll : 0.0, Pitch : 0.0, Yaw : 353.0, Alt : 584.090026855, Lat : -35.363261, Lng : 149.1652299, Q1 : 0.998134791851, Q2 : 0.0, Q3 : 0.0, Q4 : -0.0610485821962}
2019-04-03 21:29:23.11: SIM {TimeUS : 41934886, Roll : 0.0, Pitch : 0.0, Yaw : 353.0, Alt : 584.090026855, Lat : -35.363261, Lng : 149.1652299, Q1 : 0.998134791851, Q2 : 0.0, Q3 : 0.0, Q4 : -0.0610485821962}
2019-04-03 21:29:23.21: SIM {TimeUS : 42034846, Roll : 0.0, Pitch : 0.0, Yaw : 353.0, Alt : 584.090026855, Lat : -35.363261, Lng : 149.1652299, Q1 : 0.998134791851, Q2 : 0.0, Q3 : 0.0, Q4 : -0.0610485821962}
2019-04-03 21:29:23.31: SIM {TimeUS : 42134806, Roll : 0.0, Pitch : 0.0, Yaw : 353.0, Alt : 584.090026855, Lat : -35.363261, Lng : 149.1652299, Q1 : 0.998134791851, Q2 : 0.0, Q3 : 0.0, Q4 : -0.0610485821962}
2019-04-03 21:29:23.41: SIM {TimeUS : 42234766, Roll : 0.0, Pitch : 0.0, Yaw : 353.0, Alt : 584.090026855, Lat : -35.363261, Lng : 149.1652299, Q1 : 0.998134791851, Q2 : 0.0, Q3 : 0.0, Q4 : -0.0610485821962}
2019-04-03 21:29:23.51: SIM {TimeUS : 42334726, Roll : 0.0, Pitch : 0.0, Yaw : 353.0, Alt : 584.090026855, Lat : -35.363261, Lng : 149.1652299, Q1 : 0.998134791851, Q2 : 0.0, Q3 : 0.0, Q4 : -0.0610485821962}
2019-04-03 21:29:23.61: SIM {TimeUS : 42434686, Roll : 0.0, Pitch : 0.0, Yaw : 353.0, Alt : 584.090026855, Lat : -35.363261, Lng : 149.1652299, Q1 : 0.998134791851, Q2 : 0.0, Q3 : 0.0, Q4 : -0.0610485821962}
2019-04-03 21:29:23.71: SIM {TimeUS : 42534646, Roll : 0.0, Pitch : 0.0, Yaw : 353.0, Alt : 584.090026855, Lat : -35.363261, Lng : 149.1652299, Q1 : 0.998134791851, Q2 : 0.0, Q3 : 0.0, Q4 : -0.0610485821962}
2019-04-03 21:29:23.81: SIM {TimeUS : 42634606, Roll : 0.0, Pitch : 0.0, Yaw : 353.0, Alt : 584.090026855, Lat : -35.363261, Lng : 149.1652299, Q1 : 0.998134791851, Q2 : 0.0, Q3 : 0.0, Q4 : -0.0610485821962}
2019-04-03 21:29:23.91: SIM {TimeUS : 42734566, Roll : 0.0, Pitch : 0.0, Yaw : 353.0, Alt : 584.090026855, Lat : -35.363261, Lng : 149.1652299, Q1 : 0.998134791851, Q2 : 0.0, Q3 : 0.0, Q4 : -0.0610485821962}
2019-04-03 21:29:24.01: SIM {TimeUS : 42834526, Roll : 0.0, Pitch : 0.0, Yaw : 353.0, Alt : 584.090026855, Lat : -35.363261, Lng : 149.1652299, Q1 : 0.998134791851, Q2 : 0.0, Q3 : 0.0, Q4 : -0.0610485821962}
2019-04-03 21:29:24.11: SIM {TimeUS : 42935319, Roll : 0.0, Pitch : 0.0, Yaw : 353.0, Alt : 584.090026855, Lat : -35.363261, Lng : 149.1652299, Q1 : 0.998134791851, Q2 : 0.0, Q3 : 0.0, Q4 : -0.0610485821962}
2019-04-03 21:29:24.21: SIM {TimeUS : 43035279, Roll : 0.0, Pitch : 0.0, Yaw : 353.0, Alt : 584.090026855, Lat : -35.363261, Lng : 149.1652299, Q1 : 0.998134791851, Q2 : 0.0, Q3 : 0.0, Q4 : -0.0610485821962}
2019-04-03 21:29:24.31: SIM {TimeUS : 43135239, Roll : 0.0, Pitch : 0.0, Yaw : 353.0, Alt : 584.090026855, Lat : -35.363261, Lng : 149.1652299, Q1 : 0.998134791851, Q2 : 0.0, Q3 : 0.0, Q4 : -0.0610485821962}
2019-04-03 21:29:24.41: SIM {TimeUS : 43235199, Roll : 0.0, Pitch : 0.0, Yaw : 353.0, Alt : 584.090026855, Lat : -35.363261, Lng : 149.1652299, Q1 : 0.998134791851, Q2 : 0.0, Q3 : 0.0, Q4 : -0.0610485821962}
2019-04-03 21:29:24.51: SIM {TimeUS : 43335159, Roll : 0.0, Pitch : 0.0, Yaw : 353.0, Alt : 584.090026855, Lat : -35.363261, Lng : 149.1652299, Q1 : 0.998134791851, Q2 : 0.0, Q3 : 0.0, Q4 : -0.0610485821962}
2019-04-03 21:29:24.61: SIM {TimeUS : 43435119, Roll : 0.0, Pitch : 0.0, Yaw : 353.0, Alt : 584.090026855, Lat : -35.363261, Lng : 149.1652299, Q1 : 0.998134791851, Q2 : 0.0, Q3 : 0.0, Q4 : -0.0610485821962}
2019-04-03 21:29:24.71: SIM {TimeUS : 43535079, Roll : 0.0, Pitch : 0.0, Yaw : 353.0, Alt : 584.090026855, Lat : -35.363261, Lng : 149.1652299, Q1 : 0.998134791851, Q2 : 0.0, Q3 : 0.0, Q4 : -0.0610485821962}
2019-04-03 21:29:24.81: SIM {TimeUS : 43635039, Roll : 0.0, Pitch : 0.0, Yaw : 353.0, Alt : 584.090026855, Lat : -35.363261, Lng : 149.1652299, Q1 : 0.998134791851, Q2 : 0.0, Q3 : 0.0, Q4 : -0.0610485821962}
2019-04-03 21:29:24.91: SIM {TimeUS : 43734999, Roll : 0.0, Pitch : 0.0, Yaw : 353.0, Alt : 584.090026855, Lat : -35.363261, Lng : 149.1652299, Q1 : 0.998134791851, Q2 : 0.0, Q3 : 0.0, Q4 : -0.0610485821962}
2019-04-03 21:29:25.01: SIM {TimeUS : 43834959, Roll : 0.0, Pitch : 0.0, Yaw : 353.0, Alt : 584.090026855, Lat : -35.363261, Lng : 149.1652299, Q1 : 0.998134791851, Q2 : 0.0, Q3 : 0.0, Q4 : -0.0610485821962}
2019-04-03 21:29:25.11: SIM {TimeUS : 43934919, Roll : 0.0, Pitch : 0.0, Yaw : 353.0, Alt : 584.090026855, Lat : -35.363261, Lng : 149.1652299, Q1 : 0.998134791851, Q2 : 0.0, Q3 : 0.0, Q4 : -0.0610485821962}
2019-04-03 21:29:25.21: SIM {TimeUS : 44034879, Roll : 0.0, Pitch : 0.0, Yaw : 353.0, Alt : 584.090026855, Lat : -35.363261, Lng : 149.1652299, Q1 : 0.998134791851, Q2 : 0.0, Q3 : 0.0, Q4 : -0.0610485821962}
2019-04-03 21:29:25.31: SIM {TimeUS : 44134839, Roll : 0.0, Pitch : 0.0, Yaw : 353.0, Alt : 584.090026855, Lat : -35.363261, Lng : 149.1652299, Q1 : 0.998134791851, Q2 : 0.0, Q3 : 0.0, Q4 : -0.0610485821962}
2019-04-03 21:29:25.41: SIM {TimeUS : 44234799, Roll : 0.0, Pitch : 0.0, Yaw : 353.0, Alt : 584.090026855, Lat : -35.363261, Lng : 149.1652299, Q1 : 0.998134791851, Q2 : 0.0, Q3 : 0.0, Q4 : -0.0610485821962}
2019-04-03 21:29:25.51: SIM {TimeUS : 44334759, Roll : 0.0, Pitch : 0.0, Yaw : 353.0, Alt : 584.090026855, Lat : -35.363261, Lng : 149.1652299, Q1 : 0.998134791851, Q2 : 0.0, Q3 : 0.0, Q4 : -0.0610485821962}
2019-04-03 21:29:25.61: SIM {TimeUS : 44434719, Roll : 0.0, Pitch : 0.0, Yaw : 353.0, Alt : 584.090026855, Lat : -35.363261, Lng : 149.1652299, Q1 : 0.998134791851, Q2 : 0.0, Q3 : 0.0, Q4 : -0.0610485821962}
2019-04-03 21:29:25.71: SIM {TimeUS : 44534679, Roll : 0.0, Pitch : 0.0, Yaw : 353.0, Alt : 584.090026855, Lat : -35.363261, Lng : 149.1652299, Q1 : 0.998134791851, Q2 : 0.0, Q3 : 0.0, Q4 : -0.0610485821962}
2019-04-03 21:29:25.81: SIM {TimeUS : 44634639, Roll : 0.0, Pitch : 0.0, Yaw : 353.0, Alt : 584.090026855, Lat : -35.363261, Lng : 149.1652299, Q1 : 0.998134791851, Q2 : 0.0, Q3 : 0.0, Q4 : -0.0610485821962}
2019-04-03 21:29:25.91: SIM {TimeUS : 44734599, Roll : 0.0, Pitch : 0.0, Yaw : 353.0, Alt : 584.090026855, Lat : -35.363261, Lng : 149.1652299, Q1 : 0.998134791851, Q2 : 0.0, Q3 : 0.0, Q4 : -0.0610485821962}
2019-04-03 21:29:26.01: SIM {TimeUS : 44834559, Roll : 0.0, Pitch : 0.0, Yaw : 353.0, Alt : 584.090026855, Lat : -35.363261, Lng : 149.1652299, Q1 : 0.998134791851, Q2 : 0.0, Q3 : 0.0, Q4 : -0.0610485821962}
2019-04-03 21:29:26.11: SIM {TimeUS : 44934519, Roll : 0.0, Pitch : 0.0, Yaw : 353.0, Alt : 584.090026855, Lat : -35.363261, Lng : 149.1652299, Q1 : 0.998134791851, Q2 : 0.0, Q3 : 0.0, Q4 : -0.0610485821962}
2019-04-03 21:29:26.21: SIM {TimeUS : 45035312, Roll : 0.0, Pitch : 0.0, Yaw : 353.0, Alt : 584.090026855, Lat : -35.363261, Lng : 149.1652299, Q1 : 0.998134791851, Q2 : 0.0, Q3 : 0.0, Q4 : -0.0610485821962}
2019-04-03 21:29:26.31: SIM {TimeUS : 45135272, Roll : 0.0, Pitch : 0.0, Yaw : 353.0, Alt : 584.090026855, Lat : -35.363261, Lng : 149.1652299, Q1 : 0.998134791851, Q2 : 0.0, Q3 : 0.0, Q4 : -0.0610485821962}
2019-04-03 21:29:26.41: SIM {TimeUS : 45235232, Roll : 0.0, Pitch : 0.0, Yaw : 353.0, Alt : 584.090026855, Lat : -35.363261, Lng : 149.1652299, Q1 : 0.998134791851, Q2 : 0.0, Q3 : 0.0, Q4 : -0.0610485821962}
2019-04-03 21:29:26.51: SIM {TimeUS : 45335192, Roll : 0.0, Pitch : 0.0, Yaw : 353.0, Alt : 584.090026855, Lat : -35.363261, Lng : 149.1652299, Q1 : 0.998134791851, Q2 : 0.0, Q3 : 0.0, Q4 : -0.0610485821962}
2019-04-03 21:29:26.61: SIM {TimeUS : 45435152, Roll : 0.0, Pitch : 0.0, Yaw : 353.0, Alt : 584.090026855, Lat : -35.363261, Lng : 149.1652299, Q1 : 0.998134791851, Q2 : 0.0, Q3 : 0.0, Q4 : -0.0610485821962}
2019-04-03 21:29:26.71: SIM {TimeUS : 45535112, Roll : 0.0, Pitch : 0.0, Yaw : 353.0, Alt : 584.090026855, Lat : -35.363261, Lng : 149.1652299, Q1 : 0.998134791851, Q2 : 0.0, Q3 : 0.0, Q4 : -0.0610485821962}
2019-04-03 21:29:26.81: SIM {TimeUS : 45635072, Roll : 0.0, Pitch : 0.0, Yaw : 353.0, Alt : 584.090026855, Lat : -35.363261, Lng : 149.1652299, Q1 : 0.998134791851, Q2 : 0.0, Q3 : 0.0, Q4 : -0.0610485821962}
2019-04-03 21:29:26.91: SIM {TimeUS : 45735032, Roll : 0.0, Pitch : 0.0, Yaw : 353.0, Alt : 584.090026855, Lat : -35.363261, Lng : 149.1652299, Q1 : 0.998134791851, Q2 : 0.0, Q3 : 0.0, Q4 : -0.0610485821962}
2019-04-03 21:29:27.01: SIM {TimeUS : 45834992, Roll : 0.0, Pitch : 0.0, Yaw : 353.0, Alt : 584.090026855, Lat : -35.363261, Lng : 149.1652299, Q1 : 0.998134791851, Q2 : 0.0, Q3 : 0.0, Q4 : -0.0610485821962}
2019-04-03 21:29:27.11: SIM {TimeUS : 45934952, Roll : 0.0, Pitch : 0.0, Yaw : 353.0, Alt : 584.090026855, Lat : -35.363261, Lng : 149.1652299, Q1 : 0.998134791851, Q2 : 0.0, Q3 : 0.0, Q4 : -0.0610485821962}
2019-04-03 21:29:27.21: SIM {TimeUS : 46034912, Roll : 0.0, Pitch : 0.0, Yaw : 353.0, Alt : 584.090026855, Lat : -35.363261, Lng : 149.1652299, Q1 : 0.998134791851, Q2 : 0.0, Q3 : 0.0, Q4 : -0.0610485821962}
2019-04-03 21:29:27.31: SIM {TimeUS : 46134872, Roll : 0.0, Pitch : 0.0, Yaw : 353.0, Alt : 584.090026855, Lat : -35.363261, Lng : 149.1652299, Q1 : 0.998134791851, Q2 : 0.0, Q3 : 0.0, Q4 : -0.0610485821962}
2019-04-03 21:29:27.41: SIM {TimeUS : 46234832, Roll : 0.0, Pitch : 0.0, Yaw : 353.0, Alt : 584.090026855, Lat : -35.363261, Lng : 149.1652299, Q1 : 0.998134791851, Q2 : 0.0, Q3 : 0.0, Q4 : -0.0610485821962}
2019-04-03 21:29:27.51: SIM {TimeUS : 46334792, Roll : 0.0, Pitch : 0.0, Yaw : 353.0, Alt : 584.090026855, Lat : -35.363261, Lng : 149.1652299, Q1 : 0.998134791851, Q2 : 0.0, Q3 : 0.0, Q4 : -0.0610485821962}
2019-04-03 21:29:27.61: SIM {TimeUS : 46434752, Roll : 0.0, Pitch : 0.0, Yaw : 353.0, Alt : 584.090026855, Lat : -35.363261, Lng : 149.1652299, Q1 : 0.998134791851, Q2 : 0.0, Q3 : 0.0, Q4 : -0.0610485821962}
2019-04-03 21:29:27.71: SIM {TimeUS : 46534712, Roll : 0.0, Pitch : 0.0, Yaw : 353.0, Alt : 584.090026855, Lat : -35.363261, Lng : 149.1652299, Q1 : 0.998134791851, Q2 : 0.0, Q3 : 0.0, Q4 : -0.0610485821962}
2019-04-03 21:29:27.81: SIM {TimeUS : 46634672, Roll : 0.0, Pitch : 0.0, Yaw : 353.0, Alt : 584.090026855, Lat : -35.363261, Lng : 149.1652299, Q1 : 0.998134791851, Q2 : 0.0, Q3 : 0.0, Q4 : -0.0610485821962}
2019-04-03 21:29:27.91: SIM {TimeUS : 46734632, Roll : 0.0, Pitch : 0.0, Yaw : 353.0, Alt : 584.090026855, Lat : -35.363261, Lng : 149.1652299, Q1 : 0.998134791851, Q2 : 0.0, Q3 : 0.0, Q4 : -0.0610485821962}
2019-04-03 21:29:28.01: SIM {TimeUS : 46834592, Roll : 0.0, Pitch : 0.0, Yaw : 353.0, Alt : 584.090026855, Lat : -35.363261, Lng : 149.1652299, Q1 : 0.998134791851, Q2 : 0.0, Q3 : 0.0, Q4 : -0.0610485821962}
2019-04-03 21:29:28.11: SIM {TimeUS : 46934552, Roll : 0.0, Pitch : 0.0, Yaw : 353.0, Alt : 584.090026855, Lat : -35.363261, Lng : 149.1652299, Q1 : 0.998134791851, Q2 : 0.0, Q3 : 0.0, Q4 : -0.0610485821962}
2019-04-03 21:29:28.21: SIM {TimeUS : 47034512, Roll : 0.0, Pitch : 0.0, Yaw : 353.0, Alt : 584.090026855, Lat : -35.363261, Lng : 149.1652299, Q1 : 0.998134791851, Q2 : 0.0, Q3 : 0.0, Q4 : -0.0610485821962}
2019-04-03 21:29:28.31: SIM {TimeUS : 47135305, Roll : 0.0, Pitch : 0.0, Yaw : 353.0, Alt : 584.090026855, Lat : -35.363261, Lng : 149.1652299, Q1 : 0.998134791851, Q2 : 0.0, Q3 : 0.0, Q4 : -0.0610485821962}
2019-04-03 21:29:28.41: SIM {TimeUS : 47235265, Roll : 0.0, Pitch : 0.0, Yaw : 353.0, Alt : 584.090026855, Lat : -35.363261, Lng : 149.1652299, Q1 : 0.998134791851, Q2 : 0.0, Q3 : 0.0, Q4 : -0.0610485821962}
2019-04-03 21:29:28.51: SIM {TimeUS : 47335225, Roll : 0.0, Pitch : 0.0, Yaw : 353.0, Alt : 584.090026855, Lat : -35.363261, Lng : 149.1652299, Q1 : 0.998134791851, Q2 : 0.0, Q3 : 0.0, Q4 : -0.0610485821962}
2019-04-03 21:29:28.61: SIM {TimeUS : 47435185, Roll : 0.0, Pitch : 0.0, Yaw : 353.0, Alt : 584.090026855, Lat : -35.363261, Lng : 149.1652299, Q1 : 0.998134791851, Q2 : 0.0, Q3 : 0.0, Q4 : -0.0610485821962}
2019-04-03 21:29:28.71: SIM {TimeUS : 47535145, Roll : 0.0, Pitch : 0.0, Yaw : 353.0, Alt : 584.090026855, Lat : -35.363261, Lng : 149.1652299, Q1 : 0.998134791851, Q2 : 0.0, Q3 : 0.0, Q4 : -0.0610485821962}
2019-04-03 21:29:28.81: SIM {TimeUS : 47635105, Roll : 0.0, Pitch : 0.0, Yaw : 353.0, Alt : 584.090026855, Lat : -35.363261, Lng : 149.1652299, Q1 : 0.998134791851, Q2 : 0.0, Q3 : 0.0, Q4 : -0.0610485821962}
2019-04-03 21:29:28.91: SIM {TimeUS : 47735065, Roll : 0.0, Pitch : 0.0, Yaw : 353.0, Alt : 584.090026855, Lat : -35.363261, Lng : 149.1652299, Q1 : 0.998134791851, Q2 : 0.0, Q3 : 0.0, Q4 : -0.0610485821962}
2019-04-03 21:29:29.01: SIM {TimeUS : 47835025, Roll : 0.0, Pitch : 0.0, Yaw : 353.0, Alt : 584.090026855, Lat : -35.363261, Lng : 149.1652299, Q1 : 0.998134791851, Q2 : 0.0, Q3 : 0.0, Q4 : -0.0610485821962}
2019-04-03 21:29:29.11: SIM {TimeUS : 47934985, Roll : 0.0, Pitch : 0.0, Yaw : 353.0, Alt : 584.090026855, Lat : -35.363261, Lng : 149.1652299, Q1 : 0.998134791851, Q2 : 0.0, Q3 : 0.0, Q4 : -0.0610485821962}
2019-04-03 21:29:29.21: SIM {TimeUS : 48034945, Roll : 0.0, Pitch : 0.0, Yaw : 353.0, Alt : 584.090026855, Lat : -35.363261, Lng : 149.1652299, Q1 : 0.998134791851, Q2 : 0.0, Q3 : 0.0, Q4 : -0.0610485821962}
2019-04-03 21:29:29.31: SIM {TimeUS : 48134905, Roll : 0.0, Pitch : 0.0, Yaw : 353.0, Alt : 584.090026855, Lat : -35.363261, Lng : 149.1652299, Q1 : 0.998134791851, Q2 : 0.0, Q3 : 0.0, Q4 : -0.0610485821962}
2019-04-03 21:29:29.41: SIM {TimeUS : 48234865, Roll : 0.0, Pitch : 0.0, Yaw : 353.0, Alt : 584.090026855, Lat : -35.363261, Lng : 149.1652299, Q1 : 0.998134791851, Q2 : 0.0, Q3 : 0.0, Q4 : -0.0610485821962}
2019-04-03 21:29:29.51: SIM {TimeUS : 48334825, Roll : 0.0, Pitch : 0.0, Yaw : 353.0, Alt : 584.090026855, Lat : -35.363261, Lng : 149.1652299, Q1 : 0.998134791851, Q2 : 0.0, Q3 : 0.0, Q4 : -0.0610485821962}
2019-04-03 21:29:29.61: SIM {TimeUS : 48434785, Roll : 0.0, Pitch : 0.0, Yaw : 353.0, Alt : 584.090026855, Lat : -35.363261, Lng : 149.1652299, Q1 : 0.998134791851, Q2 : 0.0, Q3 : 0.0, Q4 : -0.0610485821962}
2019-04-03 21:29:29.71: SIM {TimeUS : 48534745, Roll : 0.0, Pitch : 0.0, Yaw : 353.0, Alt : 584.090026855, Lat : -35.363261, Lng : 149.1652299, Q1 : 0.998134791851, Q2 : 0.0, Q3 : 0.0, Q4 : -0.0610485821962}
2019-04-03 21:29:29.81: SIM {TimeUS : 48634705, Roll : 0.0, Pitch : 0.0, Yaw : 353.0, Alt : 584.090026855, Lat : -35.363261, Lng : 149.1652299, Q1 : 0.998134791851, Q2 : 0.0, Q3 : 0.0, Q4 : -0.0610485821962}
2019-04-03 21:29:29.91: SIM {TimeUS : 48734665, Roll : 0.0, Pitch : 0.0, Yaw : 353.0, Alt : 584.090026855, Lat : -35.363261, Lng : 149.1652299, Q1 : 0.998134791851, Q2 : 0.0, Q3 : 0.0, Q4 : -0.0610485821962}
2019-04-03 21:29:30.01: SIM {TimeUS : 48834625, Roll : 0.0, Pitch : 0.0, Yaw : 353.0, Alt : 584.090026855, Lat : -35.363261, Lng : 149.1652299, Q1 : 0.998134791851, Q2 : 0.0, Q3 : 0.0, Q4 : -0.0610485821962}
2019-04-03 21:29:30.11: SIM {TimeUS : 48934585, Roll : 0.0, Pitch : 0.0, Yaw : 353.0, Alt : 584.090026855, Lat : -35.363261, Lng : 149.1652299, Q1 : 0.998134791851, Q2 : 0.0, Q3 : 0.0, Q4 : -0.0610485821962}
2019-04-03 21:29:30.21: SIM {TimeUS : 49034545, Roll : 0.0, Pitch : 0.0, Yaw : 353.0, Alt : 584.090026855, Lat : -35.363261, Lng : 149.1652299, Q1 : 0.998134791851, Q2 : 0.0, Q3 : 0.0, Q4 : -0.0610485821962}
2019-04-03 21:29:30.31: SIM {TimeUS : 49134505, Roll : 0.0, Pitch : 0.0, Yaw : 353.0, Alt : 584.090026855, Lat : -35.363261, Lng : 149.1652299, Q1 : 0.998134791851, Q2 : 0.0, Q3 : 0.0, Q4 : -0.0610485821962}
2019-04-03 21:29:30.41: SIM {TimeUS : 49235298, Roll : 0.0, Pitch : 0.0, Yaw : 353.0, Alt : 584.090026855, Lat : -35.363261, Lng : 149.1652299, Q1 : 0.998134791851, Q2 : 0.0, Q3 : 0.0, Q4 : -0.0610485821962}
2019-04-03 21:29:30.51: SIM {TimeUS : 49335258, Roll : 0.0, Pitch : 0.0, Yaw : 353.0, Alt : 584.090026855, Lat : -35.363261, Lng : 149.1652299, Q1 : 0.998134791851, Q2 : 0.0, Q3 : 0.0, Q4 : -0.0610485821962}
2019-04-03 21:29:30.61: SIM {TimeUS : 49435218, Roll : 0.0, Pitch : 0.0, Yaw : 353.0, Alt : 584.090026855, Lat : -35.363261, Lng : 149.1652299, Q1 : 0.998134791851, Q2 : 0.0, Q3 : 0.0, Q4 : -0.0610485821962}
2019-04-03 21:29:30.71: SIM {TimeUS : 49535178, Roll : 0.0, Pitch : 0.0, Yaw : 353.0, Alt : 584.090026855, Lat : -35.363261, Lng : 149.1652299, Q1 : 0.998134791851, Q2 : 0.0, Q3 : 0.0, Q4 : -0.0610485821962}
2019-04-03 21:29:30.81: SIM {TimeUS : 49635138, Roll : 0.0, Pitch : 0.0, Yaw : 353.0, Alt : 584.090026855, Lat : -35.363261, Lng : 149.1652299, Q1 : 0.998134791851, Q2 : 0.0, Q3 : 0.0, Q4 : -0.0610485821962}
2019-04-03 21:29:30.91: SIM {TimeUS : 49735098, Roll : 0.0, Pitch : 0.0, Yaw : 353.0, Alt : 584.090026855, Lat : -35.363261, Lng : 149.1652299, Q1 : 0.998134791851, Q2 : 0.0, Q3 : 0.0, Q4 : -0.0610485821962}
2019-04-03 21:29:31.01: SIM {TimeUS : 49835058, Roll : 0.0, Pitch : 0.0, Yaw : 353.0, Alt : 584.090026855, Lat : -35.363261, Lng : 149.1652299, Q1 : 0.998134791851, Q2 : 0.0, Q3 : 0.0, Q4 : -0.0610485821962}
2019-04-03 21:29:31.11: SIM {TimeUS : 49935018, Roll : 0.0, Pitch : 0.0, Yaw : 353.0, Alt : 584.090026855, Lat : -35.363261, Lng : 149.1652299, Q1 : 0.998134791851, Q2 : 0.0, Q3 : 0.0, Q4 : -0.0610485821962}
2019-04-03 21:29:31.21: SIM {TimeUS : 50034978, Roll : 0.0, Pitch : 0.0, Yaw : 353.0, Alt : 584.090026855, Lat : -35.363261, Lng : 149.1652299, Q1 : 0.998134791851, Q2 : 0.0, Q3 : 0.0, Q4 : -0.0610485821962}
2019-04-03 21:29:31.31: SIM {TimeUS : 50134938, Roll : 0.0, Pitch : 0.0, Yaw : 353.0, Alt : 584.090026855, Lat : -35.363261, Lng : 149.1652299, Q1 : 0.998134791851, Q2 : 0.0, Q3 : 0.0, Q4 : -0.0610485821962}
2019-04-03 21:29:31.41: SIM {TimeUS : 50234898, Roll : 0.0, Pitch : 0.0, Yaw : 353.0, Alt : 584.090026855, Lat : -35.363261, Lng : 149.1652299, Q1 : 0.998134791851, Q2 : 0.0, Q3 : 0.0, Q4 : -0.0610485821962}
2019-04-03 21:29:31.51: SIM {TimeUS : 50334858, Roll : 0.0, Pitch : 0.0, Yaw : 353.0, Alt : 584.090026855, Lat : -35.363261, Lng : 149.1652299, Q1 : 0.998134791851, Q2 : 0.0, Q3 : 0.0, Q4 : -0.0610485821962}
2019-04-03 21:29:31.61: SIM {TimeUS : 50434818, Roll : 0.0, Pitch : 0.0, Yaw : 353.0, Alt : 584.090026855, Lat : -35.363261, Lng : 149.1652299, Q1 : 0.998134791851, Q2 : 0.0, Q3 : 0.0, Q4 : -0.0610485821962}
2019-04-03 21:29:31.71: SIM {TimeUS : 50534778, Roll : 0.0, Pitch : 0.0, Yaw : 353.0, Alt : 584.090026855, Lat : -35.363261, Lng : 149.1652299, Q1 : 0.998134791851, Q2 : 0.0, Q3 : 0.0, Q4 : -0.0610485821962}
2019-04-03 21:29:31.81: SIM {TimeUS : 50634738, Roll : 0.0, Pitch : 0.0, Yaw : 353.0, Alt : 584.090026855, Lat : -35.363261, Lng : 149.1652299, Q1 : 0.998134791851, Q2 : 0.0, Q3 : 0.0, Q4 : -0.0610485821962}
2019-04-03 21:29:33.71: SIM {TimeUS : 52534811, Roll : 0.0, Pitch : 0.0, Yaw : 353.0, Alt : 584.090026855, Lat : -35.363261, Lng : 149.1652299, Q1 : 0.998134791851, Q2 : 0.0, Q3 : 0.0, Q4 : -0.0610485821962}
2019-04-03 21:29:33.81: SIM {TimeUS : 52634771, Roll : 0.0, Pitch : 0.0, Yaw : 353.0, Alt : 584.090026855, Lat : -35.363261, Lng : 149.1652299, Q1 : 0.998134791851, Q2 : 0.0, Q3 : 0.0, Q4 : -0.0610485821962}
2019-04-03 21:29:33.91: SIM {TimeUS : 52734731, Roll : 0.0, Pitch : 0.0, Yaw : 353.0, Alt : 584.090026855, Lat : -35.363261, Lng : 149.1652299, Q1 : 0.998134791851, Q2 : 0.0, Q3 : 0.0, Q4 : -0.0610485821962}
2019-04-03 21:29:34.01: SIM {TimeUS : 52834691, Roll : 0.0, Pitch : 0.0, Yaw : 353.0, Alt : 584.090026855, Lat : -35.363261, Lng : 149.1652299, Q1 : 0.998134791851, Q2 : 0.0, Q3 : 0.0, Q4 : -0.0610485821962}
2019-04-03 21:29:34.11: SIM {TimeUS : 52934651, Roll : 0.0, Pitch : 0.0, Yaw : 353.0, Alt : 584.090026855, Lat : -35.363261, Lng : 149.1652299, Q1 : 0.998134791851, Q2 : 0.0, Q3 : 0.0, Q4 : -0.0610485821962}
2019-04-03 21:29:34.21: SIM {TimeUS : 53034611, Roll : 0.0, Pitch : 0.0, Yaw : 353.0, Alt : 584.090026855, Lat : -35.363261, Lng : 149.1652299, Q1 : 0.998134791851, Q2 : 0.0, Q3 : 0.0, Q4 : -0.0610485821962}
2019-04-03 21:29:34.31: SIM {TimeUS : 53134571, Roll : 0.0, Pitch : 0.0, Yaw : 353.0, Alt : 584.090026855, Lat : -35.363261, Lng : 149.1652299, Q1 : 0.998134791851, Q2 : 0.0, Q3 : 0.0, Q4 : -0.0610485821962}
2019-04-03 21:29:34.41: SIM {TimeUS : 53234531, Roll : 0.0, Pitch : 0.0, Yaw : 353.0, Alt : 584.090026855, Lat : -35.363261, Lng : 149.1652299, Q1 : 0.998134791851, Q2 : 0.0, Q3 : 0.0, Q4 : -0.0610485821962}
2019-04-03 21:29:34.51: SIM {TimeUS : 53335324, Roll : 0.0, Pitch : 0.0, Yaw : 353.0, Alt : 584.090026855, Lat : -35.363261, Lng : 149.1652299, Q1 : 0.998134791851, Q2 : 0.0, Q3 : 0.0, Q4 : -0.0610485821962}
2019-04-03 21:29:34.61: SIM {TimeUS : 53435284, Roll : 0.0, Pitch : 0.0, Yaw : 353.0, Alt : 584.090026855, Lat : -35.363261, Lng : 149.1652299, Q1 : 0.998134791851, Q2 : 0.0, Q3 : 0.0, Q4 : -0.0610485821962}
2019-04-03 21:29:34.71: SIM {TimeUS : 53535244, Roll : 0.0, Pitch : 0.0, Yaw : 353.0, Alt : 584.090026855, Lat : -35.363261, Lng : 149.1652299, Q1 : 0.998134791851, Q2 : 0.0, Q3 : 0.0, Q4 : -0.0610485821962}
2019-04-03 21:29:34.81: SIM {TimeUS : 53635204, Roll : 0.0, Pitch : 0.0, Yaw : 353.0, Alt : 584.090026855, Lat : -35.363261, Lng : 149.1652299, Q1 : 0.998134791851, Q2 : 0.0, Q3 : 0.0, Q4 : -0.0610485821962}
2019-04-03 21:29:34.91: SIM {TimeUS : 53735164, Roll : 0.0, Pitch : 0.0, Yaw : 353.0, Alt : 584.090026855, Lat : -35.363261, Lng : 149.1652299, Q1 : 0.998134791851, Q2 : 0.0, Q3 : 0.0, Q4 : -0.0610485821962}
2019-04-03 21:29:35.01: SIM {TimeUS : 53835124, Roll : 0.0, Pitch : 0.0, Yaw : 353.0, Alt : 584.090026855, Lat : -35.363261, Lng : 149.1652299, Q1 : 0.998134791851, Q2 : 0.0, Q3 : 0.0, Q4 : -0.0610485821962}
2019-04-03 21:29:35.11: SIM {TimeUS : 53935084, Roll : 0.0, Pitch : 0.0, Yaw : 353.0, Alt : 584.090026855, Lat : -35.363261, Lng : 149.1652299, Q1 : 0.998134791851, Q2 : 0.0, Q3 : 0.0, Q4 : -0.0610485821962}
2019-04-03 21:29:35.21: SIM {TimeUS : 54035044, Roll : 0.0, Pitch : 0.0, Yaw : 353.0, Alt : 584.090026855, Lat : -35.363261, Lng : 149.1652299, Q1 : 0.998134791851, Q2 : 0.0, Q3 : 0.0, Q4 : -0.0610485821962}
2019-04-03 21:29:35.31: SIM {TimeUS : 54135004, Roll : 0.0, Pitch : 0.0, Yaw : 353.0, Alt : 584.090026855, Lat : -35.363261, Lng : 149.1652299, Q1 : 0.998134791851, Q2 : 0.0, Q3 : 0.0, Q4 : -0.0610485821962}
2019-04-03 21:29:35.41: SIM {TimeUS : 54234964, Roll : 0.0, Pitch : 0.0, Yaw : 353.0, Alt : 584.090026855, Lat : -35.363261, Lng : 149.1652299, Q1 : 0.998134791851, Q2 : 0.0, Q3 : 0.0, Q4 : -0.0610485821962}
2019-04-03 21:29:35.51: SIM {TimeUS : 54334924, Roll : 0.0, Pitch : 0.0, Yaw : 353.0, Alt : 584.090026855, Lat : -35.363261, Lng : 149.1652299, Q1 : 0.998134791851, Q2 : 0.0, Q3 : 0.0, Q4 : -0.0610485821962}
2019-04-03 21:29:35.61: SIM {TimeUS : 54434884, Roll : 0.0, Pitch : 0.0, Yaw : 353.0, Alt : 584.090026855, Lat : -35.363261, Lng : 149.1652299, Q1 : 0.998134791851, Q2 : 0.0, Q3 : 0.0, Q4 : -0.0610485821962}
2019-04-03 21:29:35.71: SIM {TimeUS : 54534844, Roll : 0.0, Pitch : 0.0, Yaw : 353.0, Alt : 584.090026855, Lat : -35.363261, Lng : 149.1652299, Q1 : 0.998134791851, Q2 : 0.0, Q3 : 0.0, Q4 : -0.0610485821962}
2019-04-03 21:29:35.81: SIM {TimeUS : 54634804, Roll : 0.0, Pitch : 0.0, Yaw : 353.0, Alt : 584.090026855, Lat : -35.363261, Lng : 149.1652299, Q1 : 0.998134791851, Q2 : 0.0, Q3 : 0.0, Q4 : -0.0610485821962}
2019-04-03 21:29:35.91: SIM {TimeUS : 54734764, Roll : 0.0, Pitch : 0.0, Yaw : 353.0, Alt : 584.090026855, Lat : -35.363261, Lng : 149.1652299, Q1 : 0.998134791851, Q2 : 0.0, Q3 : 0.0, Q4 : -0.0610485821962}
2019-04-03 21:29:36.01: SIM {TimeUS : 54834724, Roll : 0.0, Pitch : 0.0, Yaw : 353.0, Alt : 584.090026855, Lat : -35.363261, Lng : 149.1652299, Q1 : 0.998134791851, Q2 : 0.0, Q3 : 0.0, Q4 : -0.0610485821962}
2019-04-03 21:29:36.11: SIM {TimeUS : 54934684, Roll : 0.0, Pitch : 0.0, Yaw : 353.0, Alt : 584.090026855, Lat : -35.363261, Lng : 149.1652299, Q1 : 0.998134791851, Q2 : 0.0, Q3 : 0.0, Q4 : -0.0610485821962}
2019-04-03 21:29:36.21: SIM {TimeUS : 55034644, Roll : 0.0, Pitch : 0.0, Yaw : 353.0, Alt : 584.090026855, Lat : -35.363261, Lng : 149.1652299, Q1 : 0.998134791851, Q2 : 0.0, Q3 : 0.0, Q4 : -0.0610485821962}
2019-04-03 21:29:36.31: SIM {TimeUS : 55134604, Roll : 0.0, Pitch : 0.0, Yaw : 353.0, Alt : 584.090026855, Lat : -35.363261, Lng : 149.1652299, Q1 : 0.998134791851, Q2 : 0.0, Q3 : 0.0, Q4 : -0.0610485821962}
2019-04-03 21:29:36.41: SIM {TimeUS : 55234564, Roll : 0.0, Pitch : 0.0, Yaw : 353.0, Alt : 584.090026855, Lat : -35.363261, Lng : 149.1652299, Q1 : 0.998134791851, Q2 : 0.0, Q3 : 0.0, Q4 : -0.0610485821962}
2019-04-03 21:29:36.51: SIM {TimeUS : 55334524, Roll : 0.0, Pitch : 0.0, Yaw : 353.0, Alt : 584.090026855, Lat : -35.363261, Lng : 149.1652299, Q1 : 0.998134791851, Q2 : 0.0, Q3 : 0.0, Q4 : -0.0610485821962}
2019-04-03 21:29:36.61: SIM {TimeUS : 55435317, Roll : 0.0, Pitch : 0.0, Yaw : 353.0, Alt : 584.090026855, Lat : -35.363261, Lng : 149.1652299, Q1 : 0.998134791851, Q2 : 0.0, Q3 : 0.0, Q4 : -0.0610485821962}
2019-04-03 21:29:36.71: SIM {TimeUS : 55535277, Roll : 0.0, Pitch : 0.0, Yaw : 353.0, Alt : 584.090026855, Lat : -35.363261, Lng : 149.1652299, Q1 : 0.998134791851, Q2 : 0.0, Q3 : 0.0, Q4 : -0.0610485821962}
2019-04-03 21:29:36.81: SIM {TimeUS : 55635237, Roll : 0.0, Pitch : 0.0, Yaw : 353.0, Alt : 584.090026855, Lat : -35.363261, Lng : 149.1652299, Q1 : 0.998134791851, Q2 : 0.0, Q3 : 0.0, Q4 : -0.0610485821962}
2019-04-03 21:29:36.91: SIM {TimeUS : 55735197, Roll : 0.0, Pitch : 0.0, Yaw : 353.0, Alt : 584.090026855, Lat : -35.363261, Lng : 149.1652299, Q1 : 0.998134791851, Q2 : 0.0, Q3 : 0.0, Q4 : -0.0610485821962}
2019-04-03 21:29:37.01: SIM {TimeUS : 55835157, Roll : 0.0, Pitch : 0.0, Yaw : 353.0, Alt : 584.090026855, Lat : -35.363261, Lng : 149.1652299, Q1 : 0.998134791851, Q2 : 0.0, Q3 : 0.0, Q4 : -0.0610485821962}
2019-04-03 21:29:37.11: SIM {TimeUS : 55935117, Roll : 0.0, Pitch : 0.0, Yaw : 353.0, Alt : 584.090026855, Lat : -35.363261, Lng : 149.1652299, Q1 : 0.998134791851, Q2 : 0.0, Q3 : 0.0, Q4 : -0.0610485821962}
2019-04-03 21:29:37.21: SIM {TimeUS : 56035077, Roll : 0.0, Pitch : 0.0, Yaw : 353.0, Alt : 584.090026855, Lat : -35.363261, Lng : 149.1652299, Q1 : 0.998134791851, Q2 : 0.0, Q3 : 0.0, Q4 : -0.0610485821962}
2019-04-03 21:29:37.31: SIM {TimeUS : 56135037, Roll : 0.0, Pitch : 0.0, Yaw : 353.0, Alt : 584.090026855, Lat : -35.363261, Lng : 149.1652299, Q1 : 0.998134791851, Q2 : 0.0, Q3 : 0.0, Q4 : -0.0610485821962}
2019-04-03 21:29:37.41: SIM {TimeUS : 56234997, Roll : 0.0, Pitch : 0.0, Yaw : 353.0, Alt : 584.090026855, Lat : -35.363261, Lng : 149.1652299, Q1 : 0.998134791851, Q2 : 0.0, Q3 : 0.0, Q4 : -0.0610485821962}
2019-04-03 21:29:37.51: SIM {TimeUS : 56334957, Roll : 0.0, Pitch : 0.0, Yaw : 353.0, Alt : 584.090026855, Lat : -35.363261, Lng : 149.1652299, Q1 : 0.998134791851, Q2 : 0.0, Q3 : 0.0, Q4 : -0.0610485821962}
2019-04-03 21:29:37.61: SIM {TimeUS : 56434917, Roll : 0.0, Pitch : 0.0, Yaw : 353.0, Alt : 584.090026855, Lat : -35.363261, Lng : 149.1652299, Q1 : 0.998134791851, Q2 : 0.0, Q3 : 0.0, Q4 : -0.0610485821962}
2019-04-03 21:29:37.71: SIM {TimeUS : 56534877, Roll : 0.0, Pitch : 0.0, Yaw : 353.0, Alt : 584.090026855, Lat : -35.363261, Lng : 149.1652299, Q1 : 0.998134791851, Q2 : 0.0, Q3 : 0.0, Q4 : -0.0610485821962}
2019-04-03 21:29:37.81: SIM {TimeUS : 56634837, Roll : 0.0, Pitch : 0.0, Yaw : 353.0, Alt : 584.090026855, Lat : -35.363261, Lng : 149.1652299, Q1 : 0.998134791851, Q2 : 0.0, Q3 : 0.0, Q4 : -0.0610485821962}
2019-04-03 21:29:37.91: SIM {TimeUS : 56734797, Roll : 0.0, Pitch : 0.0, Yaw : 353.0, Alt : 584.090026855, Lat : -35.363261, Lng : 149.1652299, Q1 : 0.998134791851, Q2 : 0.0, Q3 : 0.0, Q4 : -0.0610485821962}
2019-04-03 21:29:38.01: SIM {TimeUS : 56834757, Roll : 0.0, Pitch : 0.0, Yaw : 353.0, Alt : 584.090026855, Lat : -35.363261, Lng : 149.1652299, Q1 : 0.998134791851, Q2 : 0.0, Q3 : 0.0, Q4 : -0.0610485821962}
2019-04-03 21:29:38.11: SIM {TimeUS : 56934717, Roll : 0.0, Pitch : 0.0, Yaw : 353.0, Alt : 584.090026855, Lat : -35.363261, Lng : 149.1652299, Q1 : 0.998134791851, Q2 : 0.0, Q3 : 0.0, Q4 : -0.0610485821962}
2019-04-03 21:29:38.21: SIM {TimeUS : 57034677, Roll : 0.0, Pitch : 0.0, Yaw : 353.0, Alt : 584.090026855, Lat : -35.363261, Lng : 149.1652299, Q1 : 0.998134791851, Q2 : 0.0, Q3 : 0.0, Q4 : -0.0610485821962}
2019-04-03 21:29:38.31: SIM {TimeUS : 57134637, Roll : 0.0, Pitch : 0.0, Yaw : 353.0, Alt : 584.090026855, Lat : -35.363261, Lng : 149.1652299, Q1 : 0.998134791851, Q2 : 0.0, Q3 : 0.0, Q4 : -0.0610485821962}
2019-04-03 21:29:38.41: SIM {TimeUS : 57234597, Roll : 0.0, Pitch : 0.0, Yaw : 353.0, Alt : 584.090026855, Lat : -35.363261, Lng : 149.1652299, Q1 : 0.998134791851, Q2 : 0.0, Q3 : 0.0, Q4 : -0.0610485821962}
2019-04-03 21:29:38.51: SIM {TimeUS : 57334557, Roll : 0.0, Pitch : 0.0, Yaw : 353.0, Alt : 584.090026855, Lat : -35.363261, Lng : 149.1652299, Q1 : 0.998134791851, Q2 : 0.0, Q3 : 0.0, Q4 : -0.0610485821962}
2019-04-03 21:29:38.61: SIM {TimeUS : 57434517, Roll : 0.0, Pitch : 0.0, Yaw : 353.0, Alt : 584.090026855, Lat : -35.363261, Lng : 149.1652299, Q1 : 0.998134791851, Q2 : 0.0, Q3 : 0.0, Q4 : -0.0610485821962}
2019-04-03 21:29:38.71: SIM {TimeUS : 57535310, Roll : 0.0, Pitch : 0.0, Yaw : 353.0, Alt : 584.090026855, Lat : -35.363261, Lng : 149.1652299, Q1 : 0.998134791851, Q2 : 0.0, Q3 : 0.0, Q4 : -0.0610485821962}
2019-04-03 21:29:38.81: SIM {TimeUS : 57635270, Roll : 0.0, Pitch : 0.0, Yaw : 353.0, Alt : 584.090026855, Lat : -35.363261, Lng : 149.1652299, Q1 : 0.998134791851, Q2 : 0.0, Q3 : 0.0, Q4 : -0.0610485821962}
2019-04-03 21:29:38.91: SIM {TimeUS : 57735230, Roll : 0.0, Pitch : 0.0, Yaw : 353.0, Alt : 584.090026855, Lat : -35.363261, Lng : 149.1652299, Q1 : 0.998134791851, Q2 : 0.0, Q3 : 0.0, Q4 : -0.0610485821962}
2019-04-03 21:29:39.01: SIM {TimeUS : 57835190, Roll : 0.0, Pitch : 0.0, Yaw : 353.0, Alt : 584.090026855, Lat : -35.363261, Lng : 149.1652299, Q1 : 0.998134791851, Q2 : 0.0, Q3 : 0.0, Q4 : -0.0610485821962}
2019-04-03 21:29:39.11: SIM {TimeUS : 57935150, Roll : 0.0, Pitch : 0.0, Yaw : 353.0, Alt : 584.090026855, Lat : -35.363261, Lng : 149.1652299, Q1 : 0.998134791851, Q2 : 0.0, Q3 : 0.0, Q4 : -0.0610485821962}
2019-04-03 21:29:39.21: SIM {TimeUS : 58035110, Roll : 0.0, Pitch : 0.0, Yaw : 353.0, Alt : 584.090026855, Lat : -35.363261, Lng : 149.1652299, Q1 : 0.998134791851, Q2 : 0.0, Q3 : 0.0, Q4 : -0.061048604548}
2019-04-03 21:29:39.31: SIM {TimeUS : 58135070, Roll : 0.0, Pitch : 0.0, Yaw : 353.0, Alt : 584.090026855, Lat : -35.363261, Lng : 149.1652299, Q1 : 0.998134791851, Q2 : 0.0, Q3 : 0.0, Q4 : -0.0610486753285}
2019-04-03 21:29:39.41: SIM {TimeUS : 58235030, Roll : 0.0, Pitch : 0.0, Yaw : 353.0, Alt : 584.090026855, Lat : -35.363261, Lng : 149.1652299, Q1 : 0.998134791851, Q2 : 0.0, Q3 : 0.0, Q4 : -0.0610486641526}
2019-04-03 21:29:39.51: SIM {TimeUS : 58334990, Roll : 0.0, Pitch : 0.0, Yaw : 353.0, Alt : 584.090026855, Lat : -35.363261, Lng : 149.1652299, Q1 : 0.998134791851, Q2 : 0.0, Q3 : 0.0, Q4 : -0.0610486753285}
2019-04-03 21:29:39.61: SIM {TimeUS : 58434950, Roll : 0.0, Pitch : 0.0, Yaw : 353.0, Alt : 584.090026855, Lat : -35.363261, Lng : 149.1652299, Q1 : 0.998134791851, Q2 : 0.0, Q3 : 0.0, Q4 : -0.0610486753285}
2019-04-03 21:29:39.71: SIM {TimeUS : 58534910, Roll : 0.0, Pitch : 0.0, Yaw : 353.0, Alt : 584.090026855, Lat : -35.363261, Lng : 149.1652299, Q1 : 0.998134791851, Q2 : 0.0, Q3 : 0.0, Q4 : -0.0610486753285}
2019-04-03 21:29:39.81: SIM {TimeUS : 58634870, Roll : 0.0, Pitch : 0.0, Yaw : 353.0, Alt : 584.090026855, Lat : -35.363261, Lng : 149.1652299, Q1 : 0.998134791851, Q2 : 0.0, Q3 : 0.0, Q4 : -0.0610486753285}
2019-04-03 21:29:39.91: SIM {TimeUS : 58734830, Roll : 0.0, Pitch : 0.0, Yaw : 353.0, Alt : 584.090026855, Lat : -35.363261, Lng : 149.1652299, Q1 : 0.998134791851, Q2 : 0.0, Q3 : 0.0, Q4 : -0.0610486753285}
2019-04-03 21:29:40.01: SIM {TimeUS : 58834790, Roll : 0.0, Pitch : 0.0, Yaw : 353.0, Alt : 584.090026855, Lat : -35.363261, Lng : 149.1652299, Q1 : 0.998134791851, Q2 : 0.0, Q3 : 0.0, Q4 : -0.0610486753285}
2019-04-03 21:29:40.11: SIM {TimeUS : 58934750, Roll : 0.0, Pitch : 0.0, Yaw : 353.0, Alt : 584.099975586, Lat : -35.363261, Lng : 149.1652299, Q1 : 0.998134791851, Q2 : 0.0, Q3 : 0.0, Q4 : -0.0610486753285}
2019-04-03 21:29:40.21: SIM {TimeUS : 59034710, Roll : 0.0, Pitch : 0.0, Yaw : 353.0, Alt : 584.109985352, Lat : -35.363261, Lng : 149.1652299, Q1 : 0.998134791851, Q2 : 0.0, Q3 : 0.0, Q4 : -0.0610486753285}
2019-04-03 21:29:40.31: SIM {TimeUS : 59134670, Roll : 0.0, Pitch : 0.0, Yaw : 353.0, Alt : 584.119995117, Lat : -35.363261, Lng : 149.1652299, Q1 : 0.998134791851, Q2 : 0.0, Q3 : 0.0, Q4 : -0.0610486753285}
2019-04-03 21:29:40.41: SIM {TimeUS : 59234630, Roll : 0.0, Pitch : 0.0, Yaw : 353.0, Alt : 584.150024414, Lat : -35.363261, Lng : 149.1652299, Q1 : 0.998134791851, Q2 : 0.0, Q3 : 0.0, Q4 : -0.0610486753285}
2019-04-03 21:29:40.51: SIM {TimeUS : 59334590, Roll : 0.0, Pitch : 0.0, Yaw : 353.0, Alt : 584.179992676, Lat : -35.363261, Lng : 149.1652299, Q1 : 0.998134791851, Q2 : 0.0, Q3 : 0.0, Q4 : -0.0610486753285}
2019-04-03 21:29:40.61: SIM {TimeUS : 59434550, Roll : 0.0, Pitch : 0.0, Yaw : 352.99, Alt : 584.219970703, Lat : -35.363261, Lng : 149.1652299, Q1 : 0.998134791851, Q2 : -1.53975433932e-05, Q3 : -9.15393320611e-06, Q4 : -0.0610489472747}
2019-04-03 21:29:40.71: SIM {TimeUS : 59534510, Roll : -0.04, Pitch : -0.03, Yaw : 352.99, Alt : 584.280029297, Lat : -35.363261, Lng : 149.1652299, Q1 : 0.998134315014, Q2 : -0.000406349805417, Q3 : -0.000258311833022, Q4 : -0.0610551647842}
2019-04-03 21:29:40.81: SIM {TimeUS : 59635303, Roll : -0.1, Pitch : -0.08, Yaw : 352.99, Alt : 584.409973145, Lat : -35.363261, Lng : 149.1652299, Q1 : 0.998132944107, Q2 : -0.000973044894636, Q3 : -0.000717489805538, Q4 : -0.0610668249428}
2019-04-03 21:29:40.91: SIM {TimeUS : 59735263, Roll : -0.16, Pitch : -0.13, Yaw : 352.99, Alt : 584.559997559, Lat : -35.363261, Lng : 149.1652299, Q1 : 0.998130857944, Q2 : -0.00146508181933, Q3 : -0.00106158747803, Q4 : -0.0610862895846}
2019-04-03 21:29:41.01: SIM {TimeUS : 59835223, Roll : -0.18, Pitch : -0.15, Yaw : 352.99, Alt : 584.719970703, Lat : -35.363261, Lng : 149.1652299, Q1 : 0.998128950596, Q2 : -0.00170378072653, Q3 : -0.00124390178826, Q4 : -0.0611082240939}
2019-04-03 21:29:41.11: SIM {TimeUS : 59935183, Roll : -0.17, Pitch : -0.14, Yaw : 352.99, Alt : 584.869995117, Lat : -35.363261, Lng : 149.1652299, Q1 : 0.998128056526, Q2 : -0.00159183121286, Q3 : -0.00119296333287, Q4 : -0.0611266121268}
2019-04-03 21:29:41.21: SIM {TimeUS : 60035143, Roll : -0.14, Pitch : -0.12, Yaw : 352.98, Alt : 585.020019531, Lat : -35.363261, Lng : 149.1652299, Q1 : 0.998127758503, Q2 : -0.00129670230672, Q3 : -0.000977024086751, Q4 : -0.0611428618431}
2019-04-03 21:29:41.31: SIM {TimeUS : 60135103, Roll : -0.12, Pitch : -0.07, Yaw : 352.98, Alt : 585.16998291, Lat : -35.363261, Lng : 149.1652299, Q1 : 0.998127758503, Q2 : -0.00110301899258, Q3 : -0.000624634616543, Q4 : -0.0611513219774}
2019-04-03 21:29:41.41: SIM {TimeUS : 60235063, Roll : -0.11, Pitch : -0.02, Yaw : 352.98, Alt : 585.33001709, Lat : -35.363261, Lng : 149.1652299, Q1 : 0.998127818108, Q2 : -0.00103254418354, Q3 : -0.000159963936312, Q4 : -0.0611535795033}
2019-04-03 21:29:41.51: SIM {TimeUS : 60335023, Roll : -0.12, Pitch : 0.01, Yaw : 352.98, Alt : 585.5, Lat : -35.363261, Lng : 149.1652299, Q1 : 0.998127281666, Q2 : -0.00107824557927, Q3 : 0.000186539647984, Q4 : -0.0611615851521}
2019-04-03 21:29:41.61: SIM {TimeUS : 60434983, Roll : -0.12, Pitch : 0.02, Yaw : 352.98, Alt : 585.66998291, Lat : -35.363261, Lng : 149.1652299, Q1 : 0.998126506805, Q2 : -0.00103892688639, Q3 : 0.000272873032372, Q4 : -0.0611750520766}
2019-04-03 21:29:41.71: SIM {TimeUS : 60534943, Roll : -0.1, Pitch : 0.01, Yaw : 352.98, Alt : 585.849975586, Lat : -35.363261, Lng : 149.1652298, Q1 : 0.998126149178, Q2 : -0.000870826654136, Q3 : 0.000191857412574, Q4 : -0.0611839368939}
2019-04-03 21:29:41.81: SIM {TimeUS : 60634903, Roll : -0.06, Pitch : -0.01, Yaw : 352.98, Alt : 586.030029297, Lat : -35.363261, Lng : 149.1652298, Q1 : 0.998125851154, Q2 : -0.000574379693717, Q3 : -7.57751986384e-05, Q4 : -0.0611925199628}
2019-04-03 21:29:41.91: SIM {TimeUS : 60734863, Roll : -0.02, Pitch : -0.05, Yaw : 352.98, Alt : 586.219970703, Lat : -35.363261, Lng : 149.1652298, Q1 : 0.998125851154, Q2 : -0.000206953583984, Q3 : -0.000432944972999, Q4 : -0.0611933209002}
2019-04-03 21:29:42.01: SIM {TimeUS : 60834823, Roll : 0.0, Pitch : -0.06, Yaw : 352.98, Alt : 586.409973145, Lat : -35.363261, Lng : 149.1652298, Q1 : 0.998125851154, Q2 : -3.68812288798e-05, Q3 : -0.00060497818049, Q4 : -0.061191726476}
2019-04-03 21:29:42.11: SIM {TimeUS : 60934783, Roll : -0.01, Pitch : -0.04, Yaw : 352.98, Alt : 586.599975586, Lat : -35.363261, Lng : 149.1652298, Q1 : 0.998126208782, Q2 : -0.000130524000269, Q3 : -0.000421599717811, Q4 : -0.0611880756915}
2019-04-03 21:29:42.21: SIM {TimeUS : 61034743, Roll : -0.03, Pitch : -0.01, Yaw : 352.98, Alt : 586.799987793, Lat : -35.363261, Lng : 149.1652298, Q1 : 0.998125970364, Q2 : -0.000308279355522, Q3 : -6.99600132066e-05, Q4 : -0.0611923076212}
2019-04-03 21:29:42.31: SIM {TimeUS : 61134703, Roll : -0.03, Pitch : 0.02, Yaw : 352.98, Alt : 587.0, Lat : -35.363261, Lng : 149.1652298, Q1 : 0.998125374317, Q2 : -0.000261235545622, Q3 : 0.000229674507864, Q4 : -0.0612016804516}
2019-04-03 21:29:42.41: SIM {TimeUS : 61234663, Roll : -0.02, Pitch : 0.03, Yaw : 352.98, Alt : 587.200012207, Lat : -35.3632609, Lng : 149.1652298, Q1 : 0.998125314713, Q2 : -0.000205882461159, Q3 : 0.000348630972439, Q4 : -0.0612026713789}
2019-04-03 21:29:42.51: SIM {TimeUS : 61334623, Roll : 0.0, Pitch : 0.02, Yaw : 352.98, Alt : 587.400024414, Lat : -35.3632609, Lng : 149.1652298, Q1 : 0.998125314713, Q2 : 3.57129356416e-05, Q3 : 0.000231617785175, Q4 : -0.0612033233047}
2019-04-03 21:29:42.61: SIM {TimeUS : 61434583, Roll : 0.03, Pitch : -0.01, Yaw : 352.98, Alt : 587.609985352, Lat : -35.3632609, Lng : 149.1652298, Q1 : 0.998125314713, Q2 : 0.000317241967423, Q3 : -0.000170778061147, Q4 : -0.061202365905}
2019-04-03 21:29:42.71: SIM {TimeUS : 61534543, Roll : 0.05, Pitch : -0.03, Yaw : 352.98, Alt : 587.809997559, Lat : -35.3632609, Lng : 149.1652298, Q1 : 0.99812489748, Q2 : 0.00048831035383, Q3 : -0.000341151200701, Q4 : -0.0612077154219}
2019-04-03 21:29:42.81: SIM {TimeUS : 61634503, Roll : 0.06, Pitch : -0.01, Yaw : 352.97, Alt : 588.020019531, Lat : -35.3632609, Lng : 149.1652298, Q1 : 0.998123824596, Q2 : 0.000518695975188, Q3 : -0.000165485471371, Q4 : -0.0612254999578}
2019-04-03 21:29:42.91: SIM {TimeUS : 61735296, Roll : 0.04, Pitch : 0.0, Yaw : 352.97, Alt : 588.229980469, Lat : -35.3632609, Lng : 149.1652298, Q1 : 0.998122811317, Q2 : 0.00041594268987, Q3 : -4.45581026725e-05, Q4 : -0.0612423941493}
2019-04-03 21:29:43.01: SIM {TimeUS : 61835256, Roll : 0.0, Pitch : -0.01, Yaw : 352.97, Alt : 588.440002441, Lat : -35.3632609, Lng : 149.1652297, Q1 : 0.998122036457, Q2 : 2.15875243157e-05, Q3 : -0.00015236416948, Q4 : -0.0612565912306}
2019-04-03 21:29:43.11: SIM {TimeUS : 61935216, Roll : -0.03, Pitch : -0.02, Yaw : 352.97, Alt : 588.650024414, Lat : -35.3632609, Lng : 149.1652297, Q1 : 0.998121321201, Q2 : -0.000304354645777, Q3 : -0.00022646135767, Q4 : -0.0612669922411}
2019-04-03 21:29:43.21: SIM {TimeUS : 62035176, Roll : -0.05, Pitch : -0.02, Yaw : 352.97, Alt : 588.869995117, Lat : -35.3632609, Lng : 149.1652297, Q1 : 0.998120605946, Q2 : -0.000483280047774, Q3 : -0.000220656045713, Q4 : -0.0612781979144}
2019-04-03 21:29:43.31: SIM {TimeUS : 62135136, Roll : -0.05, Pitch : -0.02, Yaw : 352.97, Alt : 589.070007324, Lat : -35.3632609, Lng : 149.1652297, Q1 : 0.998119711876, Q2 : -0.000495006155688, Q3 : -0.000169245555298, Q4 : -0.0612925216556}
2019-04-03 21:29:43.41: SIM {TimeUS : 62235096, Roll : -0.04, Pitch : -0.02, Yaw : 352.96, Alt : 589.270019531, Lat : -35.3632609, Lng : 149.1652297, Q1 : 0.998118579388, Q2 : -0.000392224319512, Q3 : -0.000163677235832, Q4 : -0.0613121502101}
2019-04-03 21:29:43.51: SIM {TimeUS : 62335056, Roll : -0.02, Pitch : 0.0, Yaw : 352.96, Alt : 589.460021973, Lat : -35.3632609, Lng : 149.1652297, Q1 : 0.998117148876, Q2 : -0.000259495544014, Q3 : -5.7040106185e-05, Q4 : -0.0613357722759}
2019-04-03 21:29:43.61: SIM {TimeUS : 62435016, Roll : -0.01, Pitch : 0.0, Yaw : 352.96, Alt : 589.640014648, Lat : -35.3632609, Lng : 149.1652297, Q1 : 0.998115837574, Q2 : -0.000106198443973, Q3 : 7.71258237364e-06, Q4 : -0.061358332634}
2019-04-03 21:29:43.71: SIM {TimeUS : 62534976, Roll : 0.0, Pitch : 0.0, Yaw : 352.96, Alt : 589.809997559, Lat : -35.3632609, Lng : 149.1652297, Q1 : 0.998114645481, Q2 : 1.25663082144e-05, Q3 : -3.91219964513e-06, Q4 : -0.0613770522177}
2019-04-03 21:29:43.81: SIM {TimeUS : 62634936, Roll : -0.03, Pitch : -0.03, Yaw : 352.96, Alt : 589.969970703, Lat : -35.3632609, Lng : 149.1652297, Q1 : 0.998113453388, Q2 : -0.000334492942784, Q3 : -0.000285323039861, Q4 : -0.0613953582942}
2019-04-03 21:29:43.91: SIM {TimeUS : 62734896, Roll : -0.24, Pitch : -0.15, Yaw : 352.95, Alt : 590.109985352, Lat : -35.3632609, Lng : 149.1652297, Q1 : 0.998109161854, Q2 : -0.00218037585728, Q3 : -0.00125352339819, Q4 : -0.0614152960479}
2019-04-03 21:29:44.01: SIM {TimeUS : 62834856, Roll : -0.68, Pitch : -0.4, Yaw : 352.95, Alt : 590.25, Lat : -35.3632609, Lng : 149.1652296, Q1 : 0.99808716774, Q2 : -0.00615306058899, Q3 : -0.00319504365325, Q4 : -0.0614329278469}
2019-04-03 21:29:44.11: SIM {TimeUS : 62934816, Roll : -1.33, Pitch : -0.77, Yaw : 352.96, Alt : 590.359985352, Lat : -35.3632609, Lng : 149.1652296, Q1 : 0.998019099236, Q2 : -0.0120150782168, Q3 : -0.00606774492189, Q4 : -0.0614549256861}
2019-04-03 21:29:44.21: SIM {TimeUS : 63034776, Roll : -2.14, Pitch : -1.22, Yaw : 352.96, Alt : 590.469970703, Lat : -35.3632609, Lng : 149.1652296, Q1 : 0.997873723507, Q2 : -0.0193758159876, Q3 : -0.00952620059252, Q4 : -0.0614969059825}
2019-04-03 21:29:44.31: SIM {TimeUS : 63134736, Roll : -3.05, Pitch : -1.7, Yaw : 352.98, Alt : 590.559997559, Lat : -35.3632608, Lng : 149.1652294, Q1 : 0.997635781765, Q2 : -0.0275145433843, Q3 : -0.0131998015568, Q4 : -0.0615761764348}
2019-04-03 21:29:44.41: SIM {TimeUS : 63234696, Roll : -3.93, Pitch : -2.15, Yaw : 352.99, Alt : 590.640014648, Lat : -35.3632608, Lng : 149.1652293, Q1 : 0.997329115868, Q2 : -0.035369951278, Q3 : -0.0166235454381, Q4 : -0.0617032796144}
2019-04-03 21:29:44.51: SIM {TimeUS : 63334656, Roll : -4.65, Pitch : -2.5, Yaw : 352.99, Alt : 590.719970703, Lat : -35.3632607, Lng : 149.1652291, Q1 : 0.997019588947, Q2 : -0.0418230891228, Q3 : -0.0193319749087, Q4 : -0.0618788264692}
2019-04-03 21:29:44.61: SIM {TimeUS : 63434616, Roll : -5.17, Pitch : -2.76, Yaw : 352.99, Alt : 590.780029297, Lat : -35.3632605, Lng : 149.1652288, Q1 : 0.996755599976, Q2 : -0.0465580895543, Q3 : -0.0213256701827, Q4 : -0.0620957538486}
2019-04-03 21:29:44.71: SIM {TimeUS : 63534576, Roll : -5.57, Pitch : -2.98, Yaw : 352.98, Alt : 590.83001709, Lat : -35.3632604, Lng : 149.1652284, Q1 : 0.996534049511, Q2 : -0.0500725917518, Q3 : -0.0229642763734, Q4 : -0.0623322799802}
2019-04-03 21:29:44.81: SIM {TimeUS : 63634536, Roll : -5.88, Pitch : -3.16, Yaw : 352.97, Alt : 590.880004883, Lat : -35.3632603, Lng : 149.1652281, Q1 : 0.996339321136, Q2 : -0.0528749376535, Q3 : -0.0244235955179, Q4 : -0.0625763833523}
2019-04-03 21:29:44.91: SIM {TimeUS : 63734496, Roll : -6.18, Pitch : -3.36, Yaw : 352.96, Alt : 590.91998291, Lat : -35.3632602, Lng : 149.1652274, Q1 : 0.996133565903, Q2 : -0.0556481070817, Q3 : -0.0259806104004, Q4 : -0.0628191381693}
2019-04-03 21:29:45.01: SIM {TimeUS : 63835289, Roll : -6.51, Pitch : -3.58, Yaw : 352.95, Alt : 590.960021973, Lat : -35.3632599, Lng : 149.1652269, Q1 : 0.995903193951, Q2 : -0.0585922971368, Q3 : -0.0277089495212, Q4 : -0.0630554109812}
2019-04-03 21:29:45.11: SIM {TimeUS : 63935249, Roll : -6.82, Pitch : -3.77, Yaw : 352.95, Alt : 590.989990234, Lat : -35.3632597, Lng : 149.1652262, Q1 : 0.995674312115, Q2 : -0.0614402890205, Q3 : -0.0291787832975, Q4 : -0.0632962659001}
2019-04-03 21:29:45.21: SIM {TimeUS : 64035209, Roll : -7.11, Pitch : -3.93, Yaw : 352.94, Alt : 591.020019531, Lat : -35.3632595, Lng : 149.1652255, Q1 : 0.995461463928, Q2 : -0.0640032887459, Q3 : -0.0303994715214, Q4 : -0.0635284930468}
2019-04-03 21:29:45.31: SIM {TimeUS : 64135169, Roll : -7.32, Pitch : -4.04, Yaw : 352.92, Alt : 591.039978027, Lat : -35.3632592, Lng : 149.1652245, Q1 : 0.995297670364, Q2 : -0.0659139677882, Q3 : -0.0312066990882, Q4 : -0.0637508332729}
2019-04-03 21:29:45.41: SIM {TimeUS : 64235129, Roll : -7.45, Pitch : -4.08, Yaw : 352.91, Alt : 591.059997559, Lat : -35.3632589, Lng : 149.1652236, Q1 : 0.995196044445, Q2 : -0.0670845881104, Q3 : -0.0315202623606, Q4 : -0.06396086514}
2019-04-03 21:29:45.51: SIM {TimeUS : 64335089, Roll : -7.54, Pitch : -4.13, Yaw : 352.9, Alt : 591.08001709, Lat : -35.3632586, Lng : 149.1652226, Q1 : 0.995126605034, Q2 : -0.0678281262517, Q3 : -0.0318220630288, Q4 : -0.0641071498394}
2019-04-03 21:29:45.61: SIM {TimeUS : 64435049, Roll : -7.62, Pitch : -4.19, Yaw : 352.89, Alt : 591.099975586, Lat : -35.3632582, Lng : 149.1652215, Q1 : 0.995055198669, Q2 : -0.0685732364655, Q3 : -0.0323062986135, Q4 : -0.0641804635525}
2019-04-03 21:29:45.71: SIM {TimeUS : 64535009, Roll : -7.74, Pitch : -4.26, Yaw : 352.9, Alt : 591.119995117, Lat : -35.3632578, Lng : 149.1652202, Q1 : 0.994959652424, Q2 : -0.069642521441, Q3 : -0.032864689827, Q4 : -0.0642275363207}
2019-04-03 21:29:45.81: SIM {TimeUS : 64634969, Roll : -8.03, Pitch : -4.2, Yaw : 352.77, Alt : 591.140014648, Lat : -35.3632574, Lng : 149.1652189, Q1 : 0.994727313519, Q2 : -0.0721774548292, Q3 : -0.032119397074, Q4 : -0.0653937831521}
2019-04-03 21:29:45.91: SIM {TimeUS : 64734929, Roll : -8.57, Pitch : -3.98, Yaw : 351.96, Alt : 591.150024414, Lat : -35.363257, Lng : 149.1652177, Q1 : 0.993972301483, Q2 : -0.0769522935152, Q3 : -0.0293176267296, Q4 : -0.0723733305931}
2019-04-03 21:29:46.01: SIM {TimeUS : 64834889, Roll : -9.21, Pitch : -3.85, Yaw : 349.79, Alt : 591.16998291, Lat : -35.3632565, Lng : 149.1652163, Q1 : 0.992016792297, Q2 : -0.0829680487514, Q3 : -0.0262436512858, Q4 : -0.0912698730826}
2019-04-03 21:29:46.11: SIM {TimeUS : 64934849, Roll : -9.66, Pitch : -4.16, Yaw : 345.97, Alt : 591.179992676, Lat : -35.3632561, Lng : 149.1652147, Q1 : 0.98796236515, Q2 : -0.0879819467664, Q3 : -0.0256687514484, Q4 : -0.124621786177}
2019-04-03 21:29:46.21: SIM {TimeUS : 65034809, Roll : -9.69, Pitch : -5.0, Yaw : 340.61, Alt : 591.190002441, Lat : -35.3632555, Lng : 149.1652131, Q1 : 0.980638504028, Q2 : -0.0905891135335, Q3 : -0.0287086162716, Q4 : -0.171223461628}
2019-04-03 21:29:46.31: SIM {TimeUS : 65134769, Roll : -9.17, Pitch : -6.33, Yaw : 333.99, Alt : 591.210021973, Lat : -35.3632552, Lng : 149.1652114, Q1 : 0.96875166893, Q2 : -0.0902391299605, Q3 : -0.0357297882438, Q4 : -0.228255420923}
2019-04-03 21:29:46.41: SIM {TimeUS : 65234729, Roll : -8.06, Pitch : -8.0, Yaw : 326.38, Alt : 591.219970703, Lat : -35.3632547, Lng : 149.1652096, Q1 : 0.951171934605, Q2 : -0.0873044729233, Q3 : -0.0464014597237, Q4 : -0.292398363352}
2019-04-03 21:29:46.51: SIM {TimeUS : 65334689, Roll : -6.42, Pitch : -9.78, Yaw : 318.08, Alt : 591.239990234, Lat : -35.3632543, Lng : 149.1652077, Q1 : 0.92726123333, Q2 : -0.082620382309, Q3 : -0.0594993308187, Q4 : -0.360305845737}
2019-04-03 21:29:46.61: SIM {TimeUS : 65434649, Roll : -4.36, Pitch : -11.39, Yaw : 309.34, Alt : 591.25, Lat : -35.3632537, Lng : 149.1652057, Q1 : 0.897126674652, Q2 : -0.0767174065113, Q3 : -0.0734361559153, Q4 : -0.428818553686}
2019-04-03 21:29:46.71: SIM {TimeUS : 65534609, Roll : -1.95, Pitch : -12.62, Yaw : 300.48, Alt : 591.270019531, Lat : -35.3632532, Lng : 149.1652035, Q1 : 0.861815214157, Q2 : -0.0692633166909, Q3 : -0.0870453119278, Q4 : -0.494874000549}
2019-04-03 21:29:46.81: SIM {TimeUS : 65634569, Roll : 0.91, Pitch : -13.31, Yaw : 292.11, Alt : 591.289978027, Lat : -35.3632528, Lng : 149.1652014, Q1 : 0.824477016926, Q2 : -0.0581319443882, Q3 : -0.100634172559, Q4 : -0.553833127022}
2019-04-03 21:29:46.91: SIM {TimeUS : 65734529, Roll : 3.84, Pitch : -13.43, Yaw : 285.1, Alt : 591.299987793, Lat : -35.3632522, Lng : 149.1651991, Q1 : 0.790403783321, Q2 : -0.0446475408971, Q3 : -0.113028526306, Q4 : -0.600410699844}
2019-04-03 21:29:47.01: SIM {TimeUS : 65835322, Roll : 6.24, Pitch : -13.16, Yaw : 280.08, Alt : 591.320007324, Lat : -35.3632514, Lng : 149.1651968, Q1 : 0.764330804348, Q2 : -0.0320450700819, Q3 : -0.122510567307, Q4 : -0.632267892361}
2019-04-03 21:29:47.11: SIM {TimeUS : 65935282, Roll : 7.71, Pitch : -12.84, Yaw : 277.27, Alt : 591.340026855, Lat : -35.3632507, Lng : 149.1651943, Q1 : 0.749104499817, Q2 : -0.023604458198, Q3 : -0.127942383289, Q4 : -0.649550616741}
2019-04-03 21:29:47.21: SIM {TimeUS : 66035242, Roll : 8.12, Pitch : -12.7, Yaw : 276.4, Alt : 591.349975586, Lat : -35.3632499, Lng : 149.1651918, Q1 : 0.744286358356, Q2 : -0.0210317596793, Q3 : -0.129224404693, Q4 : -0.654901921749}
2019-04-03 21:29:47.31: SIM {TimeUS : 66135202, Roll : 7.57, Pitch : -12.84, Yaw : 277.1, Alt : 591.369995117, Lat : -35.3632488, Lng : 149.1651892, Q1 : 0.748106837273, Q2 : -0.0247095543891, Q3 : -0.127089589834, Q4 : -0.650825560093}
2019-04-03 21:29:47.41: SIM {TimeUS : 66235162, Roll : 6.26, Pitch : -13.25, Yaw : 278.97, Alt : 591.390014648, Lat : -35.3632479, Lng : 149.1651867, Q1 : 0.758156776428, Q2 : -0.0336154252291, Q3 : -0.122845813632, Q4 : -0.63951331377}
2019-04-03 21:29:47.51: SIM {TimeUS : 66335122, Roll : 4.48, Pitch : -13.85, Yaw : 281.65, Alt : 591.409973145, Lat : -35.3632468, Lng : 149.1651839, Q1 : 0.771982252598, Q2 : -0.0460167787969, Q3 : -0.117936819792, Q4 : -0.622909963131}
2019-04-03 21:29:47.61: SIM {TimeUS : 66435082, Roll : 2.5, Pitch : -14.51, Yaw : 284.79, Alt : 591.429992676, Lat : -35.3632457, Lng : 149.1651812, Q1 : 0.787425518036, Q2 : -0.0598894804716, Q3 : -0.113281138241, Q4 : -0.602944195271}
2019-04-03 21:29:47.71: SIM {TimeUS : 66535042, Roll : 0.53, Pitch : -15.07, Yaw : 288.06, Alt : 591.460021973, Lat : -35.3632445, Lng : 149.1651784, Q1 : 0.8027099967, Q2 : -0.0732775777578, Q3 : -0.108878940344, Q4 : -0.58174943924}
2019-04-03 21:29:47.81: SIM {TimeUS : 66635002, Roll : -1.2, Pitch : -15.45, Yaw : 291.1, Alt : 591.479980469, Lat : -35.3632434, Lng : 149.1651755, Q1 : 0.816301286221, Q2 : -0.0846488028765, Q3 : -0.105020873249, Q4 : -0.56165599823}
2019-04-03 21:29:47.91: SIM {TimeUS : 66734962, Roll : -2.52, Pitch : -15.65, Yaw : 293.59, Alt : 591.5, Lat : -35.3632421, Lng : 149.1651724, Q1 : 0.827112913132, Q2 : -0.0928302928805, Q3 : -0.101951643825, Q4 : -0.544860184193}
2019-04-03 21:29:48.01: SIM {TimeUS : 66834922, Roll : -3.36, Pitch : -15.67, Yaw : 295.34, Alt : 591.520019531, Lat : -35.363241, Lng : 149.1651693, Q1 : 0.834591388702, Q2 : -0.0974886268377, Q3 : -0.0996441990137, Q4 : -0.532939255238}
2019-04-03 21:29:48.11: SIM {TimeUS : 66934882, Roll : -3.68, Pitch : -15.62, Yaw : 296.26, Alt : 591.539978027, Lat : -35.3632398, Lng : 149.1651661, Q1 : 0.838627159595, Q2 : -0.0987926721573, Q3 : -0.0985123366117, Q4 : -0.526535749435}
2019-04-03 21:29:48.21: SIM {TimeUS : 67034842, Roll : -3.54, Pitch : -15.55, Yaw : 296.39, Alt : 591.570007324, Lat : -35.3632388, Lng : 149.1651628, Q1 : 0.839440762997, Q2 : -0.0973499715328, Q3 : -0.0988345965743, Q4 : -0.525446474552}
2019-04-03 21:29:48.31: SIM {TimeUS : 67134802, Roll : -3.03, Pitch : -15.54, Yaw : 295.87, Alt : 591.590026855, Lat : -35.3632377, Lng : 149.1651594, Q1 : 0.837481617928, Q2 : -0.0940319523215, Q3 : -0.100663408637, Q4 : -0.528818905354}
2019-04-03 21:29:48.41: SIM {TimeUS : 67234762, Roll : -2.29, Pitch : -15.61, Yaw : 294.87, Alt : 591.609985352, Lat : -35.3632366, Lng : 149.1651559, Q1 : 0.833364963531, Q2 : -0.0898516997695, Q3 : -0.103772200644, Q4 : -0.535407185555}
2019-04-03 21:29:48.51: SIM {TimeUS : 67334722, Roll : -1.45, Pitch : -15.75, Yaw : 293.6, Alt : 591.630004883, Lat : -35.3632355, Lng : 149.1651523, Q1 : 0.827849626541, Q2 : -0.085593380034, Q3 : -0.107769474387, Q4 : -0.543805539608}
2019-04-03 21:29:48.61: SIM {TimeUS : 67434682, Roll : -0.61, Pitch : -15.91, Yaw : 292.24, Alt : 591.659973145, Lat : -35.3632343, Lng : 149.1651488, Q1 : 0.821793615818, Q2 : -0.0815669298172, Q3 : -0.111970432103, Q4 : -0.552688717842}
2019-04-03 21:29:48.71: SIM {TimeUS : 67534642, Roll : 0.15, Pitch : -16.03, Yaw : 290.96, Alt : 591.679992676, Lat : -35.3632333, Lng : 149.1651451, Q1 : 0.816019058228, Q2 : -0.0779261365533, Q3 : -0.115640416741, Q4 : -0.560952484608}
2019-04-03 21:29:48.81: SIM {TimeUS : 67634602, Roll : 0.75, Pitch : -16.1, Yaw : 289.91, Alt : 591.700012207, Lat : -35.3632321, Lng : 149.1651413, Q1 : 0.811156690121, Q2 : -0.0750613361597, Q3 : -0.118408128619, Q4 : -0.567776441574}
2019-04-03 21:29:48.91: SIM {TimeUS : 67734562, Roll : 1.16, Pitch : -16.14, Yaw : 289.15, Alt : 591.719970703, Lat : -35.363231, Lng : 149.1651377, Q1 : 0.807622015476, Q2 : -0.0732100605965, Q3 : -0.120237320662, Q4 : -0.572651684284}
2019-04-03 21:29:49.01: SIM {TimeUS : 67834522, Roll : 1.35, Pitch : -16.17, Yaw : 288.73, Alt : 591.75, Lat : -35.3632298, Lng : 149.1651339, Q1 : 0.805610895157, Q2 : -0.0724470317364, Q3 : -0.121185615659, Q4 : -0.575375199318}
2019-04-03 21:29:49.11: SIM {TimeUS : 67935315, Roll : 1.35, Pitch : -16.2, Yaw : 288.63, Alt : 591.770019531, Lat : -35.3632286, Lng : 149.16513, Q1 : 0.805088341236, Q2 : -0.0726999640465, Q3 : -0.121327228844, Q4 : -0.576044440269}
2019-04-03 21:29:49.21: SIM {TimeUS : 68035275, Roll : 1.19, Pitch : -16.23, Yaw : 288.81, Alt : 591.789978027, Lat : -35.3632273, Lng : 149.165126, Q1 : 0.805841326714, Q2 : -0.0738305300474, Q3 : -0.120823167264, Q4 : -0.574952661991}
2019-04-03 21:29:49.31: SIM {TimeUS : 68135235, Roll : 0.9, Pitch : -16.27, Yaw : 289.19, Alt : 591.820007324, Lat : -35.3632261, Lng : 149.1651221, Q1 : 0.807516515255, Q2 : -0.075648330152, Q3 : -0.119916185737, Q4 : -0.57255089283}
2019-04-03 21:29:49.41: SIM {TimeUS : 68235195, Roll : 0.54, Pitch : -16.32, Yaw : 289.69, Alt : 591.840026855, Lat : -35.3632248, Lng : 149.1651182, Q1 : 0.809729158878, Q2 : -0.0778961032629, Q3 : -0.118773959577, Q4 : -0.569353699684}
2019-04-03 21:29:49.51: SIM {TimeUS : 68335155, Roll : 0.17, Pitch : -16.36, Yaw : 290.23, Alt : 591.859985352, Lat : -35.3632234, Lng : 149.1651142, Q1 : 0.812121808529, Q2 : -0.0801472440362, Q3 : -0.117611527443, Q4 : -0.565864086151}
2019-04-03 21:29:49.61: SIM {TimeUS : 68435115, Roll : -0.14, Pitch : -16.39, Yaw : 290.75, Alt : 591.880004883, Lat : -35.3632221, Lng : 149.1651101, Q1 : 0.814386725426, Q2 : -0.082085005939, Q3 : -0.116609409451, Q4 : -0.562528729439}
2019-04-03 21:29:49.71: SIM {TimeUS : 68535075, Roll : -0.39, Pitch : -16.41, Yaw : 291.18, Alt : 591.909973145, Lat : -35.3632209, Lng : 149.1651061, Q1 : 0.816291034222, Q2 : -0.0835267305374, Q3 : -0.115864619613, Q4 : -0.559703230858}
2019-04-03 21:29:49.81: SIM {TimeUS : 68635035, Roll : -0.54, Pitch : -16.44, Yaw : 291.49, Alt : 591.929992676, Lat : -35.3632196, Lng : 149.165102, Q1 : 0.817686021328, Q2 : -0.0843636542559, Q3 : -0.115577600896, Q4 : -0.557596802711}
2019-04-03 21:29:49.91: SIM {TimeUS : 68734995, Roll : -0.59, Pitch : -16.48, Yaw : 291.67, Alt : 591.950012207, Lat : -35.3632183, Lng : 149.1650979, Q1 : 0.818488478661, Q2 : -0.0847430676222, Q3 : -0.115760460496, Q4 : -0.556322455406}
2019-04-03 21:29:50.01: SIM {TimeUS : 68834955, Roll : -0.55, Pitch : -16.53, Yaw : 291.73, Alt : 591.979980469, Lat : -35.363217, Lng : 149.1650937, Q1 : 0.818730592728, Q2 : -0.0846576988697, Q3 : -0.116317026317, Q4 : -0.555863022804}
2019-04-03 21:29:50.11: SIM {TimeUS : 68934915, Roll : -0.46, Pitch : -16.58, Yaw : 291.67, Alt : 592.0, Lat : -35.3632157, Lng : 149.1650895, Q1 : 0.818484663963, Q2 : -0.0842848569155, Q3 : -0.11707431078, Q4 : -0.556122779846}
2019-04-03 21:29:50.21: SIM {TimeUS : 69034875, Roll : -0.34, Pitch : -16.62, Yaw : 291.54, Alt : 592.020019531, Lat : -35.3632142, Lng : 149.1650852, Q1 : 0.817863345146, Q2 : -0.0837621167302, Q3 : -0.117869898677, Q4 : -0.556947231293}
2019-04-03 21:29:50.31: SIM {TimeUS : 69134835, Roll : -0.2, Pitch : -16.64, Yaw : 291.35, Alt : 592.049987793, Lat : -35.363213, Lng : 149.1650809, Q1 : 0.817024350166, Q2 : -0.0831084027886, Q3 : -0.118542216718, Q4 : -0.558132588863}
2019-04-03 21:29:50.41: SIM {TimeUS : 69234795, Roll : -0.07, Pitch : -16.67, Yaw : 291.14, Alt : 592.070007324, Lat : -35.3632117, Lng : 149.1650766, Q1 : 0.816090941429, Q2 : -0.0824963971972, Q3 : -0.119212709367, Q4 : -0.559444606304}
2019-04-03 21:29:50.51: SIM {TimeUS : 69334755, Roll : 0.03, Pitch : -16.7, Yaw : 290.95, Alt : 592.090026855, Lat : -35.3632104, Lng : 149.1650723, Q1 : 0.815183579922, Q2 : -0.0820557028055, Q3 : -0.119839996099, Q4 : -0.560696899891}
2019-04-03 21:29:50.61: SIM {TimeUS : 69434715, Roll : 0.12, Pitch : -16.76, Yaw : 290.78, Alt : 592.109985352, Lat : -35.363209, Lng : 149.165068, Q1 : 0.814373195171, Q2 : -0.0819250792265, Q3 : -0.120563544333, Q4 : -0.561737537384}
2019-04-03 21:29:50.71: SIM {TimeUS : 69534675, Roll : 0.18, Pitch : -16.81, Yaw : 290.66, Alt : 592.140014648, Lat : -35.3632075, Lng : 149.1650637, Q1 : 0.813779473305, Q2 : -0.0818382948637, Q3 : -0.121151022613, Q4 : -0.562483668327}
2019-04-03 21:29:50.81: SIM {TimeUS : 69634635, Roll : 0.22, Pitch : -16.86, Yaw : 290.6, Alt : 592.159973145, Lat : -35.3632063, Lng : 149.1650593, Q1 : 0.813426911831, Q2 : -0.0818888917565, Q3 : -0.121630996466, Q4 : -0.562882602215}
2019-04-03 21:29:50.91: SIM {TimeUS : 69734595, Roll : 0.24, Pitch : -16.89, Yaw : 290.58, Alt : 592.179992676, Lat : -35.3632049, Lng : 149.1650549, Q1 : 0.813334524632, Q2 : -0.0818943083286, Q3 : -0.121948488057, Q4 : -0.562946617603}
