2019-04-03 22:38:46.50: SIM {TimeUS : 41915727, Roll : 0.0, Pitch : 0.0, Yaw : 353.0, Alt : 584.090026855, Lat : -35.363261, Lng : 149.1652299, Q1 : 0.998134791851, Q2 : 0.0, Q3 : 0.0, Q4 : -0.0610485821962}
2019-04-03 22:38:46.61: SIM {TimeUS : 42034846, Roll : 0.0, Pitch : 0.0, Yaw : 353.0, Alt : 584.090026855, Lat : -35.363261, Lng : 149.1652299, Q1 : 0.998134791851, Q2 : 0.0, Q3 : 0.0, Q4 : -0.0610485821962}
2019-04-03 22:38:46.71: SIM {TimeUS : 42134806, Roll : 0.0, Pitch : 0.0, Yaw : 353.0, Alt : 584.090026855, Lat : -35.363261, Lng : 149.1652299, Q1 : 0.998134791851, Q2 : 0.0, Q3 : 0.0, Q4 : -0.0610485821962}
2019-04-03 22:38:46.81: SIM {TimeUS : 42234766, Roll : 0.0, Pitch : 0.0, Yaw : 353.0, Alt : 584.090026855, Lat : -35.363261, Lng : 149.1652299, Q1 : 0.998134791851, Q2 : 0.0, Q3 : 0.0, Q4 : -0.0610485821962}
2019-04-03 22:38:46.91: SIM {TimeUS : 42334726, Roll : 0.0, Pitch : 0.0, Yaw : 353.0, Alt : 584.090026855, Lat : -35.363261, Lng : 149.1652299, Q1 : 0.998134791851, Q2 : 0.0, Q3 : 0.0, Q4 : -0.0610485821962}
2019-04-03 22:38:47.01: SIM {TimeUS : 42434686, Roll : 0.0, Pitch : 0.0, Yaw : 353.0, Alt : 584.090026855, Lat : -35.363261, Lng : 149.1652299, Q1 : 0.998134791851, Q2 : 0.0, Q3 : 0.0, Q4 : -0.0610485821962}
2019-04-03 22:38:47.11: SIM {TimeUS : 42534646, Roll : 0.0, Pitch : 0.0, Yaw : 353.0, Alt : 584.090026855, Lat : -35.363261, Lng : 149.1652299, Q1 : 0.998134791851, Q2 : 0.0, Q3 : 0.0, Q4 : -0.0610485821962}
2019-04-03 22:38:47.21: SIM {TimeUS : 42634606, Roll : 0.0, Pitch : 0.0, Yaw : 353.0, Alt : 584.090026855, Lat : -35.363261, Lng : 149.1652299, Q1 : 0.998134791851, Q2 : 0.0, Q3 : 0.0, Q4 : -0.0610485821962}
2019-04-03 22:38:47.31: SIM {TimeUS : 42734566, Roll : 0.0, Pitch : 0.0, Yaw : 353.0, Alt : 584.090026855, Lat : -35.363261, Lng : 149.1652299, Q1 : 0.998134791851, Q2 : 0.0, Q3 : 0.0, Q4 : -0.0610485821962}
2019-04-03 22:38:47.41: SIM {TimeUS : 42834526, Roll : 0.0, Pitch : 0.0, Yaw : 353.0, Alt : 584.090026855, Lat : -35.363261, Lng : 149.1652299, Q1 : 0.998134791851, Q2 : 0.0, Q3 : 0.0, Q4 : -0.0610485821962}
2019-04-03 22:38:47.51: SIM {TimeUS : 42934486, Roll : 0.0, Pitch : 0.0, Yaw : 353.0, Alt : 584.090026855, Lat : -35.363261, Lng : 149.1652299, Q1 : 0.998134791851, Q2 : 0.0, Q3 : 0.0, Q4 : -0.0610485821962}
2019-04-03 22:38:47.61: SIM {TimeUS : 43034446, Roll : 0.0, Pitch : 0.0, Yaw : 353.0, Alt : 584.090026855, Lat : -35.363261, Lng : 149.1652299, Q1 : 0.998134791851, Q2 : 0.0, Q3 : 0.0, Q4 : -0.0610485821962}
2019-04-03 22:38:47.71: SIM {TimeUS : 43134406, Roll : 0.0, Pitch : 0.0, Yaw : 353.0, Alt : 584.090026855, Lat : -35.363261, Lng : 149.1652299, Q1 : 0.998134791851, Q2 : 0.0, Q3 : 0.0, Q4 : -0.0610485821962}
2019-04-03 22:38:47.81: SIM {TimeUS : 43234366, Roll : 0.0, Pitch : 0.0, Yaw : 353.0, Alt : 584.090026855, Lat : -35.363261, Lng : 149.1652299, Q1 : 0.998134791851, Q2 : 0.0, Q3 : 0.0, Q4 : -0.0610485821962}
2019-04-03 22:38:47.91: SIM {TimeUS : 43334326, Roll : 0.0, Pitch : 0.0, Yaw : 353.0, Alt : 584.090026855, Lat : -35.363261, Lng : 149.1652299, Q1 : 0.998134791851, Q2 : 0.0, Q3 : 0.0, Q4 : -0.0610485821962}
2019-04-03 22:38:48.01: SIM {TimeUS : 43434286, Roll : 0.0, Pitch : 0.0, Yaw : 353.0, Alt : 584.090026855, Lat : -35.363261, Lng : 149.1652299, Q1 : 0.998134791851, Q2 : 0.0, Q3 : 0.0, Q4 : -0.0610485821962}
2019-04-03 22:38:48.11: SIM {TimeUS : 43534246, Roll : 0.0, Pitch : 0.0, Yaw : 353.0, Alt : 584.090026855, Lat : -35.363261, Lng : 149.1652299, Q1 : 0.998134791851, Q2 : 0.0, Q3 : 0.0, Q4 : -0.0610485821962}
2019-04-03 22:38:48.21: SIM {TimeUS : 43634206, Roll : 0.0, Pitch : 0.0, Yaw : 353.0, Alt : 584.090026855, Lat : -35.363261, Lng : 149.1652299, Q1 : 0.998134791851, Q2 : 0.0, Q3 : 0.0, Q4 : -0.0610485821962}
2019-04-03 22:38:48.31: SIM {TimeUS : 43734166, Roll : 0.0, Pitch : 0.0, Yaw : 353.0, Alt : 584.090026855, Lat : -35.363261, Lng : 149.1652299, Q1 : 0.998134791851, Q2 : 0.0, Q3 : 0.0, Q4 : -0.0610485821962}
2019-04-03 22:38:48.41: SIM {TimeUS : 43834126, Roll : 0.0, Pitch : 0.0, Yaw : 353.0, Alt : 584.090026855, Lat : -35.363261, Lng : 149.1652299, Q1 : 0.998134791851, Q2 : 0.0, Q3 : 0.0, Q4 : -0.0610485821962}
2019-04-03 22:38:48.51: SIM {TimeUS : 43934086, Roll : 0.0, Pitch : 0.0, Yaw : 353.0, Alt : 584.090026855, Lat : -35.363261, Lng : 149.1652299, Q1 : 0.998134791851, Q2 : 0.0, Q3 : 0.0, Q4 : -0.0610485821962}
2019-04-03 22:38:48.62: SIM {TimeUS : 44034879, Roll : 0.0, Pitch : 0.0, Yaw : 353.0, Alt : 584.090026855, Lat : -35.363261, Lng : 149.1652299, Q1 : 0.998134791851, Q2 : 0.0, Q3 : 0.0, Q4 : -0.0610485821962}
2019-04-03 22:38:48.71: SIM {TimeUS : 44134839, Roll : 0.0, Pitch : 0.0, Yaw : 353.0, Alt : 584.090026855, Lat : -35.363261, Lng : 149.1652299, Q1 : 0.998134791851, Q2 : 0.0, Q3 : 0.0, Q4 : -0.0610485821962}
2019-04-03 22:38:48.81: SIM {TimeUS : 44234799, Roll : 0.0, Pitch : 0.0, Yaw : 353.0, Alt : 584.090026855, Lat : -35.363261, Lng : 149.1652299, Q1 : 0.998134791851, Q2 : 0.0, Q3 : 0.0, Q4 : -0.0610485821962}
2019-04-03 22:38:48.91: SIM {TimeUS : 44334759, Roll : 0.0, Pitch : 0.0, Yaw : 353.0, Alt : 584.090026855, Lat : -35.363261, Lng : 149.1652299, Q1 : 0.998134791851, Q2 : 0.0, Q3 : 0.0, Q4 : -0.0610485821962}
2019-04-03 22:38:49.01: SIM {TimeUS : 44434719, Roll : 0.0, Pitch : 0.0, Yaw : 353.0, Alt : 584.090026855, Lat : -35.363261, Lng : 149.1652299, Q1 : 0.998134791851, Q2 : 0.0, Q3 : 0.0, Q4 : -0.0610485821962}
2019-04-03 22:38:49.11: SIM {TimeUS : 44534679, Roll : 0.0, Pitch : 0.0, Yaw : 353.0, Alt : 584.090026855, Lat : -35.363261, Lng : 149.1652299, Q1 : 0.998134791851, Q2 : 0.0, Q3 : 0.0, Q4 : -0.0610485821962}
2019-04-03 22:38:49.21: SIM {TimeUS : 44634639, Roll : 0.0, Pitch : 0.0, Yaw : 353.0, Alt : 584.090026855, Lat : -35.363261, Lng : 149.1652299, Q1 : 0.998134791851, Q2 : 0.0, Q3 : 0.0, Q4 : -0.0610485821962}
2019-04-03 22:38:49.31: SIM {TimeUS : 44734599, Roll : 0.0, Pitch : 0.0, Yaw : 353.0, Alt : 584.090026855, Lat : -35.363261, Lng : 149.1652299, Q1 : 0.998134791851, Q2 : 0.0, Q3 : 0.0, Q4 : -0.0610485821962}
2019-04-03 22:38:49.41: SIM {TimeUS : 44834559, Roll : 0.0, Pitch : 0.0, Yaw : 353.0, Alt : 584.090026855, Lat : -35.363261, Lng : 149.1652299, Q1 : 0.998134791851, Q2 : 0.0, Q3 : 0.0, Q4 : -0.0610485821962}
2019-04-03 22:38:49.51: SIM {TimeUS : 44934519, Roll : 0.0, Pitch : 0.0, Yaw : 353.0, Alt : 584.090026855, Lat : -35.363261, Lng : 149.1652299, Q1 : 0.998134791851, Q2 : 0.0, Q3 : 0.0, Q4 : -0.0610485821962}
2019-04-03 22:38:49.61: SIM {TimeUS : 45034479, Roll : 0.0, Pitch : 0.0, Yaw : 353.0, Alt : 584.090026855, Lat : -35.363261, Lng : 149.1652299, Q1 : 0.998134791851, Q2 : 0.0, Q3 : 0.0, Q4 : -0.0610485821962}
2019-04-03 22:38:49.71: SIM {TimeUS : 45134439, Roll : 0.0, Pitch : 0.0, Yaw : 353.0, Alt : 584.090026855, Lat : -35.363261, Lng : 149.1652299, Q1 : 0.998134791851, Q2 : 0.0, Q3 : 0.0, Q4 : -0.0610485821962}
2019-04-03 22:38:49.81: SIM {TimeUS : 45234399, Roll : 0.0, Pitch : 0.0, Yaw : 353.0, Alt : 584.090026855, Lat : -35.363261, Lng : 149.1652299, Q1 : 0.998134791851, Q2 : 0.0, Q3 : 0.0, Q4 : -0.0610485821962}
2019-04-03 22:38:49.91: SIM {TimeUS : 45334359, Roll : 0.0, Pitch : 0.0, Yaw : 353.0, Alt : 584.090026855, Lat : -35.363261, Lng : 149.1652299, Q1 : 0.998134791851, Q2 : 0.0, Q3 : 0.0, Q4 : -0.0610485821962}
2019-04-03 22:38:50.01: SIM {TimeUS : 45434319, Roll : 0.0, Pitch : 0.0, Yaw : 353.0, Alt : 584.090026855, Lat : -35.363261, Lng : 149.1652299, Q1 : 0.998134791851, Q2 : 0.0, Q3 : 0.0, Q4 : -0.0610485821962}
2019-04-03 22:38:50.11: SIM {TimeUS : 45534279, Roll : 0.0, Pitch : 0.0, Yaw : 353.0, Alt : 584.090026855, Lat : -35.363261, Lng : 149.1652299, Q1 : 0.998134791851, Q2 : 0.0, Q3 : 0.0, Q4 : -0.0610485821962}
2019-04-03 22:38:50.21: SIM {TimeUS : 45634239, Roll : 0.0, Pitch : 0.0, Yaw : 353.0, Alt : 584.090026855, Lat : -35.363261, Lng : 149.1652299, Q1 : 0.998134791851, Q2 : 0.0, Q3 : 0.0, Q4 : -0.0610485821962}
2019-04-03 22:38:50.31: SIM {TimeUS : 45734199, Roll : 0.0, Pitch : 0.0, Yaw : 353.0, Alt : 584.090026855, Lat : -35.363261, Lng : 149.1652299, Q1 : 0.998134791851, Q2 : 0.0, Q3 : 0.0, Q4 : -0.0610485821962}
2019-04-03 22:38:50.41: SIM {TimeUS : 45834159, Roll : 0.0, Pitch : 0.0, Yaw : 353.0, Alt : 584.090026855, Lat : -35.363261, Lng : 149.1652299, Q1 : 0.998134791851, Q2 : 0.0, Q3 : 0.0, Q4 : -0.0610485821962}
2019-04-03 22:38:50.51: SIM {TimeUS : 45934119, Roll : 0.0, Pitch : 0.0, Yaw : 353.0, Alt : 584.090026855, Lat : -35.363261, Lng : 149.1652299, Q1 : 0.998134791851, Q2 : 0.0, Q3 : 0.0, Q4 : -0.0610485821962}
2019-04-03 22:38:50.61: SIM {TimeUS : 46034079, Roll : 0.0, Pitch : 0.0, Yaw : 353.0, Alt : 584.090026855, Lat : -35.363261, Lng : 149.1652299, Q1 : 0.998134791851, Q2 : 0.0, Q3 : 0.0, Q4 : -0.0610485821962}
2019-04-03 22:38:50.72: SIM {TimeUS : 46134872, Roll : 0.0, Pitch : 0.0, Yaw : 353.0, Alt : 584.090026855, Lat : -35.363261, Lng : 149.1652299, Q1 : 0.998134791851, Q2 : 0.0, Q3 : 0.0, Q4 : -0.0610485821962}
2019-04-03 22:38:50.81: SIM {TimeUS : 46234832, Roll : 0.0, Pitch : 0.0, Yaw : 353.0, Alt : 584.090026855, Lat : -35.363261, Lng : 149.1652299, Q1 : 0.998134791851, Q2 : 0.0, Q3 : 0.0, Q4 : -0.0610485821962}
2019-04-03 22:38:50.91: SIM {TimeUS : 46334792, Roll : 0.0, Pitch : 0.0, Yaw : 353.0, Alt : 584.090026855, Lat : -35.363261, Lng : 149.1652299, Q1 : 0.998134791851, Q2 : 0.0, Q3 : 0.0, Q4 : -0.0610485821962}
2019-04-03 22:38:51.01: SIM {TimeUS : 46434752, Roll : 0.0, Pitch : 0.0, Yaw : 353.0, Alt : 584.090026855, Lat : -35.363261, Lng : 149.1652299, Q1 : 0.998134791851, Q2 : 0.0, Q3 : 0.0, Q4 : -0.0610485821962}
2019-04-03 22:38:51.11: SIM {TimeUS : 46534712, Roll : 0.0, Pitch : 0.0, Yaw : 353.0, Alt : 584.090026855, Lat : -35.363261, Lng : 149.1652299, Q1 : 0.998134791851, Q2 : 0.0, Q3 : 0.0, Q4 : -0.0610485821962}
2019-04-03 22:38:51.21: SIM {TimeUS : 46634672, Roll : 0.0, Pitch : 0.0, Yaw : 353.0, Alt : 584.090026855, Lat : -35.363261, Lng : 149.1652299, Q1 : 0.998134791851, Q2 : 0.0, Q3 : 0.0, Q4 : -0.0610485821962}
2019-04-03 22:38:51.31: SIM {TimeUS : 46734632, Roll : 0.0, Pitch : 0.0, Yaw : 353.0, Alt : 584.090026855, Lat : -35.363261, Lng : 149.1652299, Q1 : 0.998134791851, Q2 : 0.0, Q3 : 0.0, Q4 : -0.0610485821962}
2019-04-03 22:38:51.41: SIM {TimeUS : 46834592, Roll : 0.0, Pitch : 0.0, Yaw : 353.0, Alt : 584.090026855, Lat : -35.363261, Lng : 149.1652299, Q1 : 0.998134791851, Q2 : 0.0, Q3 : 0.0, Q4 : -0.0610485821962}
2019-04-03 22:38:51.51: SIM {TimeUS : 46934552, Roll : 0.0, Pitch : 0.0, Yaw : 353.0, Alt : 584.090026855, Lat : -35.363261, Lng : 149.1652299, Q1 : 0.998134791851, Q2 : 0.0, Q3 : 0.0, Q4 : -0.0610485821962}
2019-04-03 22:38:51.61: SIM {TimeUS : 47034512, Roll : 0.0, Pitch : 0.0, Yaw : 353.0, Alt : 584.090026855, Lat : -35.363261, Lng : 149.1652299, Q1 : 0.998134791851, Q2 : 0.0, Q3 : 0.0, Q4 : -0.0610485821962}
2019-04-03 22:38:51.71: SIM {TimeUS : 47134472, Roll : 0.0, Pitch : 0.0, Yaw : 353.0, Alt : 584.090026855, Lat : -35.363261, Lng : 149.1652299, Q1 : 0.998134791851, Q2 : 0.0, Q3 : 0.0, Q4 : -0.0610485821962}
2019-04-03 22:38:51.81: SIM {TimeUS : 47234432, Roll : 0.0, Pitch : 0.0, Yaw : 353.0, Alt : 584.090026855, Lat : -35.363261, Lng : 149.1652299, Q1 : 0.998134791851, Q2 : 0.0, Q3 : 0.0, Q4 : -0.0610485821962}
2019-04-03 22:38:51.91: SIM {TimeUS : 47334392, Roll : 0.0, Pitch : 0.0, Yaw : 353.0, Alt : 584.090026855, Lat : -35.363261, Lng : 149.1652299, Q1 : 0.998134791851, Q2 : 0.0, Q3 : 0.0, Q4 : -0.0610485821962}
2019-04-03 22:38:52.01: SIM {TimeUS : 47434352, Roll : 0.0, Pitch : 0.0, Yaw : 353.0, Alt : 584.090026855, Lat : -35.363261, Lng : 149.1652299, Q1 : 0.998134791851, Q2 : 0.0, Q3 : 0.0, Q4 : -0.0610485821962}
2019-04-03 22:38:52.11: SIM {TimeUS : 47534312, Roll : 0.0, Pitch : 0.0, Yaw : 353.0, Alt : 584.090026855, Lat : -35.363261, Lng : 149.1652299, Q1 : 0.998134791851, Q2 : 0.0, Q3 : 0.0, Q4 : -0.0610485821962}
2019-04-03 22:38:52.21: SIM {TimeUS : 47634272, Roll : 0.0, Pitch : 0.0, Yaw : 353.0, Alt : 584.090026855, Lat : -35.363261, Lng : 149.1652299, Q1 : 0.998134791851, Q2 : 0.0, Q3 : 0.0, Q4 : -0.0610485821962}
2019-04-03 22:38:52.31: SIM {TimeUS : 47734232, Roll : 0.0, Pitch : 0.0, Yaw : 353.0, Alt : 584.090026855, Lat : -35.363261, Lng : 149.1652299, Q1 : 0.998134791851, Q2 : 0.0, Q3 : 0.0, Q4 : -0.0610485821962}
2019-04-03 22:38:52.41: SIM {TimeUS : 47834192, Roll : 0.0, Pitch : 0.0, Yaw : 353.0, Alt : 584.090026855, Lat : -35.363261, Lng : 149.1652299, Q1 : 0.998134791851, Q2 : 0.0, Q3 : 0.0, Q4 : -0.0610485821962}
2019-04-03 22:38:52.51: SIM {TimeUS : 47934152, Roll : 0.0, Pitch : 0.0, Yaw : 353.0, Alt : 584.090026855, Lat : -35.363261, Lng : 149.1652299, Q1 : 0.998134791851, Q2 : 0.0, Q3 : 0.0, Q4 : -0.0610485821962}
2019-04-03 22:38:52.61: SIM {TimeUS : 48034112, Roll : 0.0, Pitch : 0.0, Yaw : 353.0, Alt : 584.090026855, Lat : -35.363261, Lng : 149.1652299, Q1 : 0.998134791851, Q2 : 0.0, Q3 : 0.0, Q4 : -0.0610485821962}
2019-04-03 22:38:52.71: SIM {TimeUS : 48134072, Roll : 0.0, Pitch : 0.0, Yaw : 353.0, Alt : 584.090026855, Lat : -35.363261, Lng : 149.1652299, Q1 : 0.998134791851, Q2 : 0.0, Q3 : 0.0, Q4 : -0.0610485821962}
2019-04-03 22:38:52.82: SIM {TimeUS : 48234865, Roll : 0.0, Pitch : 0.0, Yaw : 353.0, Alt : 584.090026855, Lat : -35.363261, Lng : 149.1652299, Q1 : 0.998134791851, Q2 : 0.0, Q3 : 0.0, Q4 : -0.0610485821962}
2019-04-03 22:38:52.91: SIM {TimeUS : 48334825, Roll : 0.0, Pitch : 0.0, Yaw : 353.0, Alt : 584.090026855, Lat : -35.363261, Lng : 149.1652299, Q1 : 0.998134791851, Q2 : 0.0, Q3 : 0.0, Q4 : -0.0610485821962}
2019-04-03 22:38:53.01: SIM {TimeUS : 48434785, Roll : 0.0, Pitch : 0.0, Yaw : 353.0, Alt : 584.090026855, Lat : -35.363261, Lng : 149.1652299, Q1 : 0.998134791851, Q2 : 0.0, Q3 : 0.0, Q4 : -0.0610485821962}
2019-04-03 22:38:53.11: SIM {TimeUS : 48534745, Roll : 0.0, Pitch : 0.0, Yaw : 353.0, Alt : 584.090026855, Lat : -35.363261, Lng : 149.1652299, Q1 : 0.998134791851, Q2 : 0.0, Q3 : 0.0, Q4 : -0.0610485821962}
2019-04-03 22:38:53.21: SIM {TimeUS : 48634705, Roll : 0.0, Pitch : 0.0, Yaw : 353.0, Alt : 584.090026855, Lat : -35.363261, Lng : 149.1652299, Q1 : 0.998134791851, Q2 : 0.0, Q3 : 0.0, Q4 : -0.0610485821962}
2019-04-03 22:38:53.31: SIM {TimeUS : 48734665, Roll : 0.0, Pitch : 0.0, Yaw : 353.0, Alt : 584.090026855, Lat : -35.363261, Lng : 149.1652299, Q1 : 0.998134791851, Q2 : 0.0, Q3 : 0.0, Q4 : -0.0610485821962}
2019-04-03 22:38:53.41: SIM {TimeUS : 48834625, Roll : 0.0, Pitch : 0.0, Yaw : 353.0, Alt : 584.090026855, Lat : -35.363261, Lng : 149.1652299, Q1 : 0.998134791851, Q2 : 0.0, Q3 : 0.0, Q4 : -0.0610485821962}
2019-04-03 22:38:53.51: SIM {TimeUS : 48934585, Roll : 0.0, Pitch : 0.0, Yaw : 353.0, Alt : 584.090026855, Lat : -35.363261, Lng : 149.1652299, Q1 : 0.998134791851, Q2 : 0.0, Q3 : 0.0, Q4 : -0.0610485821962}
2019-04-03 22:38:53.61: SIM {TimeUS : 49034545, Roll : 0.0, Pitch : 0.0, Yaw : 353.0, Alt : 584.090026855, Lat : -35.363261, Lng : 149.1652299, Q1 : 0.998134791851, Q2 : 0.0, Q3 : 0.0, Q4 : -0.0610485821962}
2019-04-03 22:38:53.71: SIM {TimeUS : 49134505, Roll : 0.0, Pitch : 0.0, Yaw : 353.0, Alt : 584.090026855, Lat : -35.363261, Lng : 149.1652299, Q1 : 0.998134791851, Q2 : 0.0, Q3 : 0.0, Q4 : -0.0610485821962}
2019-04-03 22:38:53.81: SIM {TimeUS : 49234465, Roll : 0.0, Pitch : 0.0, Yaw : 353.0, Alt : 584.090026855, Lat : -35.363261, Lng : 149.1652299, Q1 : 0.998134791851, Q2 : 0.0, Q3 : 0.0, Q4 : -0.0610485821962}
2019-04-03 22:38:53.91: SIM {TimeUS : 49334425, Roll : 0.0, Pitch : 0.0, Yaw : 353.0, Alt : 584.090026855, Lat : -35.363261, Lng : 149.1652299, Q1 : 0.998134791851, Q2 : 0.0, Q3 : 0.0, Q4 : -0.0610485821962}
2019-04-03 22:38:54.01: SIM {TimeUS : 49434385, Roll : 0.0, Pitch : 0.0, Yaw : 353.0, Alt : 584.090026855, Lat : -35.363261, Lng : 149.1652299, Q1 : 0.998134791851, Q2 : 0.0, Q3 : 0.0, Q4 : -0.0610485821962}
2019-04-03 22:38:54.11: SIM {TimeUS : 49534345, Roll : 0.0, Pitch : 0.0, Yaw : 353.0, Alt : 584.090026855, Lat : -35.363261, Lng : 149.1652299, Q1 : 0.998134791851, Q2 : 0.0, Q3 : 0.0, Q4 : -0.0610485821962}
2019-04-03 22:38:54.21: SIM {TimeUS : 49634305, Roll : 0.0, Pitch : 0.0, Yaw : 353.0, Alt : 584.090026855, Lat : -35.363261, Lng : 149.1652299, Q1 : 0.998134791851, Q2 : 0.0, Q3 : 0.0, Q4 : -0.0610485821962}
2019-04-03 22:38:54.31: SIM {TimeUS : 49734265, Roll : 0.0, Pitch : 0.0, Yaw : 353.0, Alt : 584.090026855, Lat : -35.363261, Lng : 149.1652299, Q1 : 0.998134791851, Q2 : 0.0, Q3 : 0.0, Q4 : -0.0610485821962}
2019-04-03 22:38:54.41: SIM {TimeUS : 49834225, Roll : 0.0, Pitch : 0.0, Yaw : 353.0, Alt : 584.090026855, Lat : -35.363261, Lng : 149.1652299, Q1 : 0.998134791851, Q2 : 0.0, Q3 : 0.0, Q4 : -0.0610485821962}
2019-04-03 22:38:54.51: SIM {TimeUS : 49934185, Roll : 0.0, Pitch : 0.0, Yaw : 353.0, Alt : 584.090026855, Lat : -35.363261, Lng : 149.1652299, Q1 : 0.998134791851, Q2 : 0.0, Q3 : 0.0, Q4 : -0.0610485821962}
2019-04-03 22:38:54.61: SIM {TimeUS : 50034145, Roll : 0.0, Pitch : 0.0, Yaw : 353.0, Alt : 584.090026855, Lat : -35.363261, Lng : 149.1652299, Q1 : 0.998134791851, Q2 : 0.0, Q3 : 0.0, Q4 : -0.0610485821962}
2019-04-03 22:38:54.71: SIM {TimeUS : 50134105, Roll : 0.0, Pitch : 0.0, Yaw : 353.0, Alt : 584.090026855, Lat : -35.363261, Lng : 149.1652299, Q1 : 0.998134791851, Q2 : 0.0, Q3 : 0.0, Q4 : -0.0610485821962}
2019-04-03 22:38:54.81: SIM {TimeUS : 50234065, Roll : 0.0, Pitch : 0.0, Yaw : 353.0, Alt : 584.090026855, Lat : -35.363261, Lng : 149.1652299, Q1 : 0.998134791851, Q2 : 0.0, Q3 : 0.0, Q4 : -0.0610485821962}
2019-04-03 22:38:54.92: SIM {TimeUS : 50334858, Roll : 0.0, Pitch : 0.0, Yaw : 353.0, Alt : 584.090026855, Lat : -35.363261, Lng : 149.1652299, Q1 : 0.998134791851, Q2 : 0.0, Q3 : 0.0, Q4 : -0.0610485821962}
2019-04-03 22:38:55.01: SIM {TimeUS : 50434818, Roll : 0.0, Pitch : 0.0, Yaw : 353.0, Alt : 584.090026855, Lat : -35.363261, Lng : 149.1652299, Q1 : 0.998134791851, Q2 : 0.0, Q3 : 0.0, Q4 : -0.0610485821962}
2019-04-03 22:38:55.11: SIM {TimeUS : 50534778, Roll : 0.0, Pitch : 0.0, Yaw : 353.0, Alt : 584.090026855, Lat : -35.363261, Lng : 149.1652299, Q1 : 0.998134791851, Q2 : 0.0, Q3 : 0.0, Q4 : -0.0610485821962}
2019-04-03 22:38:55.21: SIM {TimeUS : 50634738, Roll : 0.0, Pitch : 0.0, Yaw : 353.0, Alt : 584.090026855, Lat : -35.363261, Lng : 149.1652299, Q1 : 0.998134791851, Q2 : 0.0, Q3 : 0.0, Q4 : -0.0610485821962}
2019-04-03 22:38:55.31: SIM {TimeUS : 50734698, Roll : 0.0, Pitch : 0.0, Yaw : 353.0, Alt : 584.090026855, Lat : -35.363261, Lng : 149.1652299, Q1 : 0.998134791851, Q2 : 0.0, Q3 : 0.0, Q4 : -0.0610485821962}
2019-04-03 22:38:55.41: SIM {TimeUS : 50834658, Roll : 0.0, Pitch : 0.0, Yaw : 353.0, Alt : 584.090026855, Lat : -35.363261, Lng : 149.1652299, Q1 : 0.998134791851, Q2 : 0.0, Q3 : 0.0, Q4 : -0.0610485821962}
2019-04-03 22:38:55.51: SIM {TimeUS : 50934618, Roll : 0.0, Pitch : 0.0, Yaw : 353.0, Alt : 584.090026855, Lat : -35.363261, Lng : 149.1652299, Q1 : 0.998134791851, Q2 : 0.0, Q3 : 0.0, Q4 : -0.0610485821962}
2019-04-03 22:38:55.61: SIM {TimeUS : 51034578, Roll : 0.0, Pitch : 0.0, Yaw : 353.0, Alt : 584.090026855, Lat : -35.363261, Lng : 149.1652299, Q1 : 0.998134791851, Q2 : 0.0, Q3 : 0.0, Q4 : -0.0610485821962}
2019-04-03 22:38:55.71: SIM {TimeUS : 51134538, Roll : 0.0, Pitch : 0.0, Yaw : 353.0, Alt : 584.090026855, Lat : -35.363261, Lng : 149.1652299, Q1 : 0.998134791851, Q2 : 0.0, Q3 : 0.0, Q4 : -0.0610485821962}
2019-04-03 22:38:55.81: SIM {TimeUS : 51234498, Roll : 0.0, Pitch : 0.0, Yaw : 353.0, Alt : 584.090026855, Lat : -35.363261, Lng : 149.1652299, Q1 : 0.998134791851, Q2 : 0.0, Q3 : 0.0, Q4 : -0.0610485821962}
2019-04-03 22:38:55.91: SIM {TimeUS : 51334458, Roll : 0.0, Pitch : 0.0, Yaw : 353.0, Alt : 584.090026855, Lat : -35.363261, Lng : 149.1652299, Q1 : 0.998134791851, Q2 : 0.0, Q3 : 0.0, Q4 : -0.0610485821962}
2019-04-03 22:38:56.01: SIM {TimeUS : 51434418, Roll : 0.0, Pitch : 0.0, Yaw : 353.0, Alt : 584.090026855, Lat : -35.363261, Lng : 149.1652299, Q1 : 0.998134791851, Q2 : 0.0, Q3 : 0.0, Q4 : -0.0610485821962}
2019-04-03 22:38:56.11: SIM {TimeUS : 51534378, Roll : 0.0, Pitch : 0.0, Yaw : 353.0, Alt : 584.090026855, Lat : -35.363261, Lng : 149.1652299, Q1 : 0.998134791851, Q2 : 0.0, Q3 : 0.0, Q4 : -0.0610485821962}
2019-04-03 22:38:56.21: SIM {TimeUS : 51634338, Roll : 0.0, Pitch : 0.0, Yaw : 353.0, Alt : 584.090026855, Lat : -35.363261, Lng : 149.1652299, Q1 : 0.998134791851, Q2 : 0.0, Q3 : 0.0, Q4 : -0.0610485821962}
2019-04-03 22:38:56.31: SIM {TimeUS : 51734298, Roll : 0.0, Pitch : 0.0, Yaw : 353.0, Alt : 584.090026855, Lat : -35.363261, Lng : 149.1652299, Q1 : 0.998134791851, Q2 : 0.0, Q3 : 0.0, Q4 : -0.0610485821962}
2019-04-03 22:38:58.11: SIM {TimeUS : 53534411, Roll : 0.0, Pitch : 0.0, Yaw : 353.0, Alt : 584.090026855, Lat : -35.363261, Lng : 149.1652299, Q1 : 0.998134791851, Q2 : 0.0, Q3 : 0.0, Q4 : -0.0610485821962}
2019-04-03 22:38:58.21: SIM {TimeUS : 53634371, Roll : 0.0, Pitch : 0.0, Yaw : 353.0, Alt : 584.090026855, Lat : -35.363261, Lng : 149.1652299, Q1 : 0.998134791851, Q2 : 0.0, Q3 : 0.0, Q4 : -0.0610485821962}
2019-04-03 22:38:58.31: SIM {TimeUS : 53734331, Roll : 0.0, Pitch : 0.0, Yaw : 353.0, Alt : 584.090026855, Lat : -35.363261, Lng : 149.1652299, Q1 : 0.998134791851, Q2 : 0.0, Q3 : 0.0, Q4 : -0.0610485821962}
2019-04-03 22:38:58.41: SIM {TimeUS : 53834291, Roll : 0.0, Pitch : 0.0, Yaw : 353.0, Alt : 584.090026855, Lat : -35.363261, Lng : 149.1652299, Q1 : 0.998134791851, Q2 : 0.0, Q3 : 0.0, Q4 : -0.0610485821962}
2019-04-03 22:38:58.51: SIM {TimeUS : 53934251, Roll : 0.0, Pitch : 0.0, Yaw : 353.0, Alt : 584.090026855, Lat : -35.363261, Lng : 149.1652299, Q1 : 0.998134791851, Q2 : 0.0, Q3 : 0.0, Q4 : -0.0610485821962}
2019-04-03 22:38:58.61: SIM {TimeUS : 54034211, Roll : 0.0, Pitch : 0.0, Yaw : 353.0, Alt : 584.090026855, Lat : -35.363261, Lng : 149.1652299, Q1 : 0.998134791851, Q2 : 0.0, Q3 : 0.0, Q4 : -0.0610485821962}
2019-04-03 22:38:58.71: SIM {TimeUS : 54134171, Roll : 0.0, Pitch : 0.0, Yaw : 353.0, Alt : 584.090026855, Lat : -35.363261, Lng : 149.1652299, Q1 : 0.998134791851, Q2 : 0.0, Q3 : 0.0, Q4 : -0.0610485821962}
2019-04-03 22:38:58.81: SIM {TimeUS : 54234131, Roll : 0.0, Pitch : 0.0, Yaw : 353.0, Alt : 584.090026855, Lat : -35.363261, Lng : 149.1652299, Q1 : 0.998134791851, Q2 : 0.0, Q3 : 0.0, Q4 : -0.0610485821962}
2019-04-03 22:38:58.91: SIM {TimeUS : 54334091, Roll : 0.0, Pitch : 0.0, Yaw : 353.0, Alt : 584.090026855, Lat : -35.363261, Lng : 149.1652299, Q1 : 0.998134791851, Q2 : 0.0, Q3 : 0.0, Q4 : -0.0610485821962}
2019-04-03 22:38:59.02: SIM {TimeUS : 54434884, Roll : 0.0, Pitch : 0.0, Yaw : 353.0, Alt : 584.090026855, Lat : -35.363261, Lng : 149.1652299, Q1 : 0.998134791851, Q2 : 0.0, Q3 : 0.0, Q4 : -0.0610485821962}
2019-04-03 22:38:59.11: SIM {TimeUS : 54534844, Roll : 0.0, Pitch : 0.0, Yaw : 353.0, Alt : 584.090026855, Lat : -35.363261, Lng : 149.1652299, Q1 : 0.998134791851, Q2 : 0.0, Q3 : 0.0, Q4 : -0.0610485821962}
2019-04-03 22:38:59.21: SIM {TimeUS : 54634804, Roll : 0.0, Pitch : 0.0, Yaw : 353.0, Alt : 584.090026855, Lat : -35.363261, Lng : 149.1652299, Q1 : 0.998134791851, Q2 : 0.0, Q3 : 0.0, Q4 : -0.0610485821962}
2019-04-03 22:38:59.31: SIM {TimeUS : 54734764, Roll : 0.0, Pitch : 0.0, Yaw : 353.0, Alt : 584.090026855, Lat : -35.363261, Lng : 149.1652299, Q1 : 0.998134791851, Q2 : 0.0, Q3 : 0.0, Q4 : -0.0610485821962}
2019-04-03 22:38:59.41: SIM {TimeUS : 54834724, Roll : 0.0, Pitch : 0.0, Yaw : 353.0, Alt : 584.090026855, Lat : -35.363261, Lng : 149.1652299, Q1 : 0.998134791851, Q2 : 0.0, Q3 : 0.0, Q4 : -0.0610485821962}
2019-04-03 22:38:59.51: SIM {TimeUS : 54934684, Roll : 0.0, Pitch : 0.0, Yaw : 353.0, Alt : 584.090026855, Lat : -35.363261, Lng : 149.1652299, Q1 : 0.998134791851, Q2 : 0.0, Q3 : 0.0, Q4 : -0.0610485821962}
2019-04-03 22:38:59.61: SIM {TimeUS : 55034644, Roll : 0.0, Pitch : 0.0, Yaw : 353.0, Alt : 584.090026855, Lat : -35.363261, Lng : 149.1652299, Q1 : 0.998134791851, Q2 : 0.0, Q3 : 0.0, Q4 : -0.0610485821962}
2019-04-03 22:38:59.71: SIM {TimeUS : 55134604, Roll : 0.0, Pitch : 0.0, Yaw : 353.0, Alt : 584.090026855, Lat : -35.363261, Lng : 149.1652299, Q1 : 0.998134791851, Q2 : 0.0, Q3 : 0.0, Q4 : -0.0610485821962}
2019-04-03 22:38:59.81: SIM {TimeUS : 55234564, Roll : 0.0, Pitch : 0.0, Yaw : 353.0, Alt : 584.090026855, Lat : -35.363261, Lng : 149.1652299, Q1 : 0.998134791851, Q2 : 0.0, Q3 : 0.0, Q4 : -0.0610485821962}
2019-04-03 22:38:59.91: SIM {TimeUS : 55334524, Roll : 0.0, Pitch : 0.0, Yaw : 353.0, Alt : 584.090026855, Lat : -35.363261, Lng : 149.1652299, Q1 : 0.998134791851, Q2 : 0.0, Q3 : 0.0, Q4 : -0.0610485821962}
2019-04-03 22:39:00.01: SIM {TimeUS : 55434484, Roll : 0.0, Pitch : 0.0, Yaw : 353.0, Alt : 584.090026855, Lat : -35.363261, Lng : 149.1652299, Q1 : 0.998134791851, Q2 : 0.0, Q3 : 0.0, Q4 : -0.0610485821962}
2019-04-03 22:39:00.11: SIM {TimeUS : 55534444, Roll : 0.0, Pitch : 0.0, Yaw : 353.0, Alt : 584.090026855, Lat : -35.363261, Lng : 149.1652299, Q1 : 0.998134791851, Q2 : 0.0, Q3 : 0.0, Q4 : -0.0610485821962}
2019-04-03 22:39:00.21: SIM {TimeUS : 55634404, Roll : 0.0, Pitch : 0.0, Yaw : 353.0, Alt : 584.090026855, Lat : -35.363261, Lng : 149.1652299, Q1 : 0.998134791851, Q2 : 0.0, Q3 : 0.0, Q4 : -0.0610485821962}
2019-04-03 22:39:00.31: SIM {TimeUS : 55734364, Roll : 0.0, Pitch : 0.0, Yaw : 353.0, Alt : 584.090026855, Lat : -35.363261, Lng : 149.1652299, Q1 : 0.998134791851, Q2 : 0.0, Q3 : 0.0, Q4 : -0.0610485821962}
2019-04-03 22:39:00.41: SIM {TimeUS : 55834324, Roll : 0.0, Pitch : 0.0, Yaw : 353.0, Alt : 584.090026855, Lat : -35.363261, Lng : 149.1652299, Q1 : 0.998134791851, Q2 : 0.0, Q3 : 0.0, Q4 : -0.0610485821962}
2019-04-03 22:39:00.51: SIM {TimeUS : 55934284, Roll : 0.0, Pitch : 0.0, Yaw : 353.0, Alt : 584.090026855, Lat : -35.363261, Lng : 149.1652299, Q1 : 0.998134791851, Q2 : 0.0, Q3 : 0.0, Q4 : -0.0610485821962}
2019-04-03 22:39:00.61: SIM {TimeUS : 56034244, Roll : 0.0, Pitch : 0.0, Yaw : 353.0, Alt : 584.090026855, Lat : -35.363261, Lng : 149.1652299, Q1 : 0.998134791851, Q2 : 0.0, Q3 : 0.0, Q4 : -0.0610485821962}
2019-04-03 22:39:00.71: SIM {TimeUS : 56134204, Roll : 0.0, Pitch : 0.0, Yaw : 353.0, Alt : 584.090026855, Lat : -35.363261, Lng : 149.1652299, Q1 : 0.998134791851, Q2 : 0.0, Q3 : 0.0, Q4 : -0.0610485821962}
2019-04-03 22:39:00.81: SIM {TimeUS : 56234164, Roll : 0.0, Pitch : 0.0, Yaw : 353.0, Alt : 584.090026855, Lat : -35.363261, Lng : 149.1652299, Q1 : 0.998134791851, Q2 : 0.0, Q3 : 0.0, Q4 : -0.0610485821962}
2019-04-03 22:39:00.91: SIM {TimeUS : 56334124, Roll : 0.0, Pitch : 0.0, Yaw : 353.0, Alt : 584.090026855, Lat : -35.363261, Lng : 149.1652299, Q1 : 0.998134791851, Q2 : 0.0, Q3 : 0.0, Q4 : -0.0610485821962}
2019-04-03 22:39:01.01: SIM {TimeUS : 56434084, Roll : 0.0, Pitch : 0.0, Yaw : 353.0, Alt : 584.090026855, Lat : -35.363261, Lng : 149.1652299, Q1 : 0.998134791851, Q2 : 0.0, Q3 : 0.0, Q4 : -0.0610485821962}
2019-04-03 22:39:01.12: SIM {TimeUS : 56534877, Roll : 0.0, Pitch : 0.0, Yaw : 353.0, Alt : 584.090026855, Lat : -35.363261, Lng : 149.1652299, Q1 : 0.998134791851, Q2 : 0.0, Q3 : 0.0, Q4 : -0.0610485821962}
2019-04-03 22:39:01.21: SIM {TimeUS : 56634837, Roll : 0.0, Pitch : 0.0, Yaw : 353.0, Alt : 584.090026855, Lat : -35.363261, Lng : 149.1652299, Q1 : 0.998134791851, Q2 : 0.0, Q3 : 0.0, Q4 : -0.0610485821962}
2019-04-03 22:39:01.31: SIM {TimeUS : 56734797, Roll : 0.0, Pitch : 0.0, Yaw : 353.0, Alt : 584.090026855, Lat : -35.363261, Lng : 149.1652299, Q1 : 0.998134791851, Q2 : 0.0, Q3 : 0.0, Q4 : -0.0610485821962}
2019-04-03 22:39:01.41: SIM {TimeUS : 56834757, Roll : 0.0, Pitch : 0.0, Yaw : 353.0, Alt : 584.090026855, Lat : -35.363261, Lng : 149.1652299, Q1 : 0.998134791851, Q2 : 0.0, Q3 : 0.0, Q4 : -0.0610485821962}
2019-04-03 22:39:01.51: SIM {TimeUS : 56934717, Roll : 0.0, Pitch : 0.0, Yaw : 353.0, Alt : 584.090026855, Lat : -35.363261, Lng : 149.1652299, Q1 : 0.998134791851, Q2 : 0.0, Q3 : 0.0, Q4 : -0.0610485821962}
2019-04-03 22:39:01.61: SIM {TimeUS : 57034677, Roll : 0.0, Pitch : 0.0, Yaw : 353.0, Alt : 584.090026855, Lat : -35.363261, Lng : 149.1652299, Q1 : 0.998134791851, Q2 : 0.0, Q3 : 0.0, Q4 : -0.0610485821962}
2019-04-03 22:39:01.71: SIM {TimeUS : 57134637, Roll : 0.0, Pitch : 0.0, Yaw : 353.0, Alt : 584.090026855, Lat : -35.363261, Lng : 149.1652299, Q1 : 0.998134791851, Q2 : 0.0, Q3 : 0.0, Q4 : -0.0610485821962}
2019-04-03 22:39:01.81: SIM {TimeUS : 57234597, Roll : 0.0, Pitch : 0.0, Yaw : 353.0, Alt : 584.090026855, Lat : -35.363261, Lng : 149.1652299, Q1 : 0.998134791851, Q2 : 0.0, Q3 : 0.0, Q4 : -0.0610485821962}
2019-04-03 22:39:01.91: SIM {TimeUS : 57334557, Roll : 0.0, Pitch : 0.0, Yaw : 353.0, Alt : 584.090026855, Lat : -35.363261, Lng : 149.1652299, Q1 : 0.998134791851, Q2 : 0.0, Q3 : 0.0, Q4 : -0.0610485821962}
2019-04-03 22:39:02.01: SIM {TimeUS : 57434517, Roll : 0.0, Pitch : 0.0, Yaw : 353.0, Alt : 584.090026855, Lat : -35.363261, Lng : 149.1652299, Q1 : 0.998134791851, Q2 : 0.0, Q3 : 0.0, Q4 : -0.0610485821962}
2019-04-03 22:39:02.11: SIM {TimeUS : 57534477, Roll : 0.0, Pitch : 0.0, Yaw : 353.0, Alt : 584.090026855, Lat : -35.363261, Lng : 149.1652299, Q1 : 0.998134791851, Q2 : 0.0, Q3 : 0.0, Q4 : -0.0610485821962}
2019-04-03 22:39:02.21: SIM {TimeUS : 57634437, Roll : 0.0, Pitch : 0.0, Yaw : 353.0, Alt : 584.090026855, Lat : -35.363261, Lng : 149.1652299, Q1 : 0.998134791851, Q2 : 0.0, Q3 : 0.0, Q4 : -0.0610485821962}
2019-04-03 22:39:02.31: SIM {TimeUS : 57734397, Roll : 0.0, Pitch : 0.0, Yaw : 353.0, Alt : 584.090026855, Lat : -35.363261, Lng : 149.1652299, Q1 : 0.998134791851, Q2 : 0.0, Q3 : 0.0, Q4 : -0.0610485821962}
2019-04-03 22:39:02.41: SIM {TimeUS : 57834357, Roll : 0.0, Pitch : 0.0, Yaw : 353.0, Alt : 584.090026855, Lat : -35.363261, Lng : 149.1652299, Q1 : 0.998134791851, Q2 : 0.0, Q3 : 0.0, Q4 : -0.0610485821962}
2019-04-03 22:39:02.51: SIM {TimeUS : 57934317, Roll : 0.0, Pitch : 0.0, Yaw : 353.0, Alt : 584.090026855, Lat : -35.363261, Lng : 149.1652299, Q1 : 0.998134791851, Q2 : 0.0, Q3 : 0.0, Q4 : -0.0610485821962}
2019-04-03 22:39:02.61: SIM {TimeUS : 58034277, Roll : 0.0, Pitch : 0.0, Yaw : 353.0, Alt : 584.090026855, Lat : -35.363261, Lng : 149.1652299, Q1 : 0.998134791851, Q2 : 0.0, Q3 : 0.0, Q4 : -0.0610485821962}
2019-04-03 22:39:02.71: SIM {TimeUS : 58134237, Roll : 0.0, Pitch : 0.0, Yaw : 353.0, Alt : 584.090026855, Lat : -35.363261, Lng : 149.1652299, Q1 : 0.998134791851, Q2 : 0.0, Q3 : 0.0, Q4 : -0.0610485821962}
2019-04-03 22:39:02.81: SIM {TimeUS : 58234197, Roll : 0.0, Pitch : 0.0, Yaw : 353.0, Alt : 584.090026855, Lat : -35.363261, Lng : 149.1652299, Q1 : 0.998134791851, Q2 : 0.0, Q3 : 0.0, Q4 : -0.0610485821962}
2019-04-03 22:39:02.91: SIM {TimeUS : 58334157, Roll : 0.0, Pitch : 0.0, Yaw : 353.0, Alt : 584.090026855, Lat : -35.363261, Lng : 149.1652299, Q1 : 0.998134791851, Q2 : 0.0, Q3 : 0.0, Q4 : -0.0610485821962}
2019-04-03 22:39:03.01: SIM {TimeUS : 58434117, Roll : 0.0, Pitch : 0.0, Yaw : 353.0, Alt : 584.090026855, Lat : -35.363261, Lng : 149.1652299, Q1 : 0.998134791851, Q2 : 0.0, Q3 : 0.0, Q4 : -0.0610485933721}
2019-04-03 22:39:03.11: SIM {TimeUS : 58534077, Roll : 0.0, Pitch : 0.0, Yaw : 353.0, Alt : 584.090026855, Lat : -35.363261, Lng : 149.1652299, Q1 : 0.998134791851, Q2 : 0.0, Q3 : 0.0, Q4 : -0.0610486753285}
2019-04-03 22:39:03.22: SIM {TimeUS : 58634870, Roll : 0.0, Pitch : 0.0, Yaw : 353.0, Alt : 584.090026855, Lat : -35.363261, Lng : 149.1652299, Q1 : 0.998134791851, Q2 : 0.0, Q3 : 0.0, Q4 : -0.0610486753285}
2019-04-03 22:39:03.31: SIM {TimeUS : 58734830, Roll : 0.0, Pitch : 0.0, Yaw : 353.0, Alt : 584.090026855, Lat : -35.363261, Lng : 149.1652299, Q1 : 0.998134791851, Q2 : 0.0, Q3 : 0.0, Q4 : -0.0610486753285}
2019-04-03 22:39:03.41: SIM {TimeUS : 58834790, Roll : 0.0, Pitch : 0.0, Yaw : 353.0, Alt : 584.090026855, Lat : -35.363261, Lng : 149.1652299, Q1 : 0.998134791851, Q2 : 0.0, Q3 : 0.0, Q4 : -0.0610486753285}
2019-04-03 22:39:03.51: SIM {TimeUS : 58934750, Roll : 0.0, Pitch : 0.0, Yaw : 353.0, Alt : 584.090026855, Lat : -35.363261, Lng : 149.1652299, Q1 : 0.998134791851, Q2 : 0.0, Q3 : 0.0, Q4 : -0.0610486753285}
2019-04-03 22:39:03.61: SIM {TimeUS : 59034710, Roll : 0.0, Pitch : 0.0, Yaw : 353.0, Alt : 584.090026855, Lat : -35.363261, Lng : 149.1652299, Q1 : 0.998134791851, Q2 : 0.0, Q3 : 0.0, Q4 : -0.0610486753285}
2019-04-03 22:39:03.71: SIM {TimeUS : 59134670, Roll : 0.0, Pitch : 0.0, Yaw : 353.0, Alt : 584.090026855, Lat : -35.363261, Lng : 149.1652299, Q1 : 0.998134791851, Q2 : 0.0, Q3 : 0.0, Q4 : -0.0610486753285}
2019-04-03 22:39:03.81: SIM {TimeUS : 59234630, Roll : 0.0, Pitch : 0.0, Yaw : 353.0, Alt : 584.090026855, Lat : -35.363261, Lng : 149.1652299, Q1 : 0.998134791851, Q2 : 0.0, Q3 : 0.0, Q4 : -0.0610486753285}
2019-04-03 22:39:03.91: SIM {TimeUS : 59334590, Roll : 0.0, Pitch : 0.0, Yaw : 353.0, Alt : 584.099975586, Lat : -35.363261, Lng : 149.1652299, Q1 : 0.998134791851, Q2 : 0.0, Q3 : 0.0, Q4 : -0.0610486753285}
2019-04-03 22:39:04.01: SIM {TimeUS : 59434550, Roll : 0.0, Pitch : 0.0, Yaw : 353.0, Alt : 584.109985352, Lat : -35.363261, Lng : 149.1652299, Q1 : 0.998134791851, Q2 : 0.0, Q3 : 0.0, Q4 : -0.0610486753285}
2019-04-03 22:39:04.11: SIM {TimeUS : 59534510, Roll : 0.0, Pitch : 0.0, Yaw : 353.0, Alt : 584.119995117, Lat : -35.363261, Lng : 149.1652299, Q1 : 0.998134791851, Q2 : 0.0, Q3 : 0.0, Q4 : -0.0610486641526}
2019-04-03 22:39:04.21: SIM {TimeUS : 59634470, Roll : 0.0, Pitch : 0.0, Yaw : 353.0, Alt : 584.150024414, Lat : -35.363261, Lng : 149.1652299, Q1 : 0.998134791851, Q2 : 0.0, Q3 : 0.0, Q4 : -0.0610486753285}
2019-04-03 22:39:04.31: SIM {TimeUS : 59734430, Roll : 0.0, Pitch : 0.0, Yaw : 353.0, Alt : 584.179992676, Lat : -35.363261, Lng : 149.1652299, Q1 : 0.998134791851, Q2 : 0.0, Q3 : 0.0, Q4 : -0.0610486753285}
2019-04-03 22:39:04.41: SIM {TimeUS : 59834390, Roll : 0.0, Pitch : 0.0, Yaw : 353.0, Alt : 584.219970703, Lat : -35.363261, Lng : 149.1652299, Q1 : 0.998134791851, Q2 : -9.6485218819e-06, Q3 : -7.89584464655e-06, Q4 : -0.0610487125814}
2019-04-03 22:39:04.51: SIM {TimeUS : 59934350, Roll : -0.04, Pitch : -0.03, Yaw : 352.99, Alt : 584.280029297, Lat : -35.363261, Lng : 149.1652299, Q1 : 0.998134255409, Q2 : -0.000386641710065, Q3 : -0.000292119890219, Q4 : -0.061055470258}
2019-04-03 22:39:04.61: SIM {TimeUS : 60034310, Roll : -0.11, Pitch : -0.08, Yaw : 352.99, Alt : 584.409973145, Lat : -35.363261, Lng : 149.1652299, Q1 : 0.998132705688, Q2 : -0.00105073570739, Q3 : -0.000699780939613, Q4 : -0.0610702075064}
2019-04-03 22:39:04.71: SIM {TimeUS : 60134270, Roll : -0.2, Pitch : -0.12, Yaw : 352.99, Alt : 584.559997559, Lat : -35.363261, Lng : 149.1652299, Q1 : 0.998130261898, Q2 : -0.00182097696234, Q3 : -0.000955512165092, Q4 : -0.0610882714391}
2019-04-03 22:39:04.81: SIM {TimeUS : 60234230, Roll : -0.26, Pitch : -0.12, Yaw : 352.99, Alt : 584.710021973, Lat : -35.363261, Lng : 149.1652299, Q1 : 0.998127818108, Q2 : -0.00238140183501, Q3 : -0.000936546945013, Q4 : -0.061108995229}
2019-04-03 22:39:04.91: SIM {TimeUS : 60334190, Roll : -0.28, Pitch : -0.11, Yaw : 352.99, Alt : 584.869995117, Lat : -35.363261, Lng : 149.1652299, Q1 : 0.998126685619, Q2 : -0.00257846387103, Q3 : -0.000811495177913, Q4 : -0.0611217394471}
2019-04-03 22:39:05.01: SIM {TimeUS : 60434150, Roll : -0.25, Pitch : -0.08, Yaw : 352.99, Alt : 585.020019531, Lat : -35.363261, Lng : 149.1652299, Q1 : 0.998126685619, Q2 : -0.0022703523282, Q3 : -0.000634936499409, Q4 : -0.0611356981099}
2019-04-03 22:39:05.11: SIM {TimeUS : 60534110, Roll : -0.19, Pitch : -0.06, Yaw : 352.98, Alt : 585.16998291, Lat : -35.363261, Lng : 149.1652299, Q1 : 0.998127043247, Q2 : -0.00169508554973, Q3 : -0.000426564685768, Q4 : -0.0611505135894}
2019-04-03 22:39:05.21: SIM {TimeUS : 60634070, Roll : -0.11, Pitch : -0.04, Yaw : 352.98, Alt : 585.33001709, Lat : -35.363261, Lng : 149.1652299, Q1 : 0.998127102852, Q2 : -0.00100867787842, Q3 : -0.000328746682499, Q4 : -0.0611651018262}
2019-04-03 22:39:05.32: SIM {TimeUS : 60734863, Roll : -0.03, Pitch : -0.04, Yaw : 352.98, Alt : 585.5, Lat : -35.363261, Lng : 149.1652299, Q1 : 0.998126864433, Q2 : -0.000314749893732, Q3 : -0.000411923072534, Q4 : -0.0611767135561}
2019-04-03 22:39:05.41: SIM {TimeUS : 60834823, Roll : 0.01, Pitch : -0.05, Yaw : 352.98, Alt : 585.66998291, Lat : -35.363261, Lng : 149.1652299, Q1 : 0.998126268387, Q2 : 0.000104216451291, Q3 : -0.000483273586724, Q4 : -0.0611863657832}
2019-04-03 22:39:05.51: SIM {TimeUS : 60934783, Roll : 0.01, Pitch : -0.04, Yaw : 352.98, Alt : 585.849975586, Lat : -35.363261, Lng : 149.1652298, Q1 : 0.998126327991, Q2 : 0.000133781912155, Q3 : -0.000413187313825, Q4 : -0.0611860156059}
2019-04-03 22:39:05.61: SIM {TimeUS : 61034743, Roll : 0.0, Pitch : -0.02, Yaw : 352.98, Alt : 586.030029297, Lat : -35.363261, Lng : 149.1652298, Q1 : 0.998127281666, Q2 : -9.67058222159e-05, Q3 : -0.000222211936489, Q4 : -0.0611713528633}
2019-04-03 22:39:05.71: SIM {TimeUS : 61134703, Roll : -0.02, Pitch : 0.0, Yaw : 352.98, Alt : 586.219970703, Lat : -35.363261, Lng : 149.1652298, Q1 : 0.998127937317, Q2 : -0.000237650252529, Q3 : 9.01379826246e-05, Q4 : -0.0611607022583}
2019-04-03 22:39:05.81: SIM {TimeUS : 61234663, Roll : -0.04, Pitch : 0.03, Yaw : 352.98, Alt : 586.409973145, Lat : -35.363261, Lng : 149.1652298, Q1 : 0.998128831387, Q2 : -0.00035407874384, Q3 : 0.000325631030137, Q4 : -0.0611445754766}
2019-04-03 22:39:05.91: SIM {TimeUS : 61334623, Roll : -0.02, Pitch : 0.02, Yaw : 352.99, Alt : 586.599975586, Lat : -35.363261, Lng : 149.1652298, Q1 : 0.998129665852, Q2 : -0.000235540108406, Q3 : 0.000260179687757, Q4 : -0.0611317493021}
2019-04-03 22:39:06.01: SIM {TimeUS : 61434583, Roll : 0.0, Pitch : -0.01, Yaw : 352.99, Alt : 586.799987793, Lat : -35.363261, Lng : 149.1652298, Q1 : 0.998129725456, Q2 : 4.789284867e-05, Q3 : -0.000138185132528, Q4 : -0.0611314810812}
2019-04-03 22:39:06.11: SIM {TimeUS : 61534543, Roll : 0.03, Pitch : -0.02, Yaw : 352.98, Alt : 587.0, Lat : -35.363261, Lng : 149.1652298, Q1 : 0.998128175735, Q2 : 0.000297721155221, Q3 : -0.000247341638897, Q4 : -0.0611557886004}
2019-04-03 22:39:06.21: SIM {TimeUS : 61634503, Roll : 0.05, Pitch : 0.0, Yaw : 352.98, Alt : 587.200012207, Lat : -35.363261, Lng : 149.1652298, Q1 : 0.998125553131, Q2 : 0.000487580429763, Q3 : -5.1160230214e-05, Q4 : -0.0611981712282}
2019-04-03 22:39:06.31: SIM {TimeUS : 61734463, Roll : 0.05, Pitch : 0.0, Yaw : 352.97, Alt : 587.400024414, Lat : -35.3632609, Lng : 149.1652298, Q1 : 0.998122751713, Q2 : 0.00046481777099, Q3 : 5.75835547352e-05, Q4 : -0.0612430162728}
2019-04-03 22:39:06.41: SIM {TimeUS : 61834423, Roll : 0.03, Pitch : 0.0, Yaw : 352.97, Alt : 587.599975586, Lat : -35.3632609, Lng : 149.1652298, Q1 : 0.998120725155, Q2 : 0.00027500174474, Q3 : 3.81451573048e-05, Q4 : -0.0612782277167}
2019-04-03 22:39:06.51: SIM {TimeUS : 61934383, Roll : 0.01, Pitch : 0.0, Yaw : 352.97, Alt : 587.809997559, Lat : -35.3632609, Lng : 149.1652298, Q1 : 0.998119652271, Q2 : 0.00015115950373, Q3 : -1.17201434477e-05, Q4 : -0.0612956024706}
2019-04-03 22:39:06.61: SIM {TimeUS : 62034343, Roll : 0.0, Pitch : 0.0, Yaw : 352.97, Alt : 588.020019531, Lat : -35.3632609, Lng : 149.1652298, Q1 : 0.99811899662, Q2 : 1.4735480363e-05, Q3 : -8.291737322e-05, Q4 : -0.061306681484}
2019-04-03 22:39:06.71: SIM {TimeUS : 62134303, Roll : -0.01, Pitch : -0.01, Yaw : 352.96, Alt : 588.229980469, Lat : -35.3632609, Lng : 149.1652298, Q1 : 0.998118519783, Q2 : -0.000113363057608, Q3 : -0.000144872377859, Q4 : -0.0613141320646}
2019-04-03 22:39:06.81: SIM {TimeUS : 62234263, Roll : -0.01, Pitch : -0.03, Yaw : 352.96, Alt : 588.440002441, Lat : -35.3632609, Lng : 149.1652298, Q1 : 0.998118579388, Q2 : -0.000131091583171, Q3 : -0.000263204128714, Q4 : -0.0613122396171}
2019-04-03 22:39:06.91: SIM {TimeUS : 62334223, Roll : -0.01, Pitch : -0.02, Yaw : 352.97, Alt : 588.650024414, Lat : -35.3632609, Lng : 149.1652298, Q1 : 0.998118758202, Q2 : -0.000128066458274, Q3 : -0.000251838675467, Q4 : -0.0613096058369}
2019-04-03 22:39:07.01: SIM {TimeUS : 62434183, Roll : 0.0, Pitch : -0.02, Yaw : 352.97, Alt : 588.859985352, Lat : -35.3632609, Lng : 149.1652297, Q1 : 0.99811899662, Q2 : -9.01758103282e-05, Q3 : -0.000233594197198, Q4 : -0.0613052137196}
2019-04-03 22:39:07.11: SIM {TimeUS : 62534143, Roll : 0.0, Pitch : -0.02, Yaw : 352.97, Alt : 589.070007324, Lat : -35.3632609, Lng : 149.1652297, Q1 : 0.998119354248, Q2 : -5.54995494895e-05, Q3 : -0.000221772046643, Q4 : -0.0612997487187}
2019-04-03 22:39:07.21: SIM {TimeUS : 62634103, Roll : -0.02, Pitch : -0.04, Yaw : 352.97, Alt : 589.289978027, Lat : -35.3632609, Lng : 149.1652297, Q1 : 0.998119354248, Q2 : -0.000220111061935, Q3 : -0.000347526249243, Q4 : -0.0612996146083}
2019-04-03 22:39:07.31: SIM {TimeUS : 62734063, Roll : -0.05, Pitch : -0.07, Yaw : 352.97, Alt : 589.510009766, Lat : -35.3632609, Lng : 149.1652297, Q1 : 0.998119354248, Q2 : -0.000532152887899, Q3 : -0.000591234304011, Q4 : -0.0612959712744}
2019-04-03 22:39:07.42: SIM {TimeUS : 62834856, Roll : -0.07, Pitch : -0.09, Yaw : 352.97, Alt : 589.719970703, Lat : -35.3632609, Lng : 149.1652297, Q1 : 0.998119056225, Q2 : -0.000704475038219, Q3 : -0.000797400833108, Q4 : -0.0612956695259}
2019-04-03 22:39:07.51: SIM {TimeUS : 62934816, Roll : -0.06, Pitch : -0.1, Yaw : 352.97, Alt : 589.929992676, Lat : -35.3632609, Lng : 149.1652297, Q1 : 0.998118638992, Q2 : -0.000657119322568, Q3 : -0.000902073865291, Q4 : -0.0613021403551}
2019-04-03 22:39:07.61: SIM {TimeUS : 63034776, Roll : -0.05, Pitch : -0.09, Yaw : 352.96, Alt : 590.130004883, Lat : -35.3632609, Lng : 149.1652297, Q1 : 0.998117685318, Q2 : -0.000518997316249, Q3 : -0.000810183933936, Q4 : -0.0613199174404}
2019-04-03 22:39:07.71: SIM {TimeUS : 63134736, Roll : -0.03, Pitch : -0.05, Yaw : 352.96, Alt : 590.309997559, Lat : -35.3632609, Lng : 149.1652297, Q1 : 0.99811643362, Q2 : -0.000348690577084, Q3 : -0.000470201746793, Q4 : -0.0613455437124}
2019-04-03 22:39:07.81: SIM {TimeUS : 63234696, Roll : -0.03, Pitch : -0.01, Yaw : 352.96, Alt : 590.489990234, Lat : -35.3632609, Lng : 149.1652296, Q1 : 0.998114585876, Q2 : -0.000347620691173, Q3 : -0.000111981193186, Q4 : -0.06137765944}
2019-04-03 22:39:07.91: SIM {TimeUS : 63334656, Roll : -0.04, Pitch : 0.02, Yaw : 352.95, Alt : 590.659973145, Lat : -35.3632609, Lng : 149.1652296, Q1 : 0.9981123209, Q2 : -0.000346074695699, Q3 : 0.000225444717216, Q4 : -0.061413936317}
2019-04-03 22:39:08.01: SIM {TimeUS : 63434616, Roll : 0.1, Pitch : 0.03, Yaw : 352.95, Alt : 590.809997559, Lat : -35.3632608, Lng : 149.1652296, Q1 : 0.9981097579, Q2 : 0.000927246001083, Q3 : 0.000226450967602, Q4 : -0.0614494308829}
2019-04-03 22:39:08.11: SIM {TimeUS : 63534576, Roll : 0.56, Pitch : -0.02, Yaw : 352.94, Alt : 590.950012207, Lat : -35.3632608, Lng : 149.1652296, Q1 : 0.998095989227, Q2 : 0.00488873198628, Q3 : -0.000527724158019, Q4 : -0.0614837519825}
2019-04-03 22:39:08.21: SIM {TimeUS : 63634536, Roll : 1.34, Pitch : -0.13, Yaw : 352.94, Alt : 591.08001709, Lat : -35.3632608, Lng : 149.1652296, Q1 : 0.998036623001, Q2 : 0.0116400206462, Q3 : -0.00190675223712, Q4 : -0.0615126788616}
2019-04-03 22:39:08.31: SIM {TimeUS : 63734496, Roll : 2.33, Pitch : -0.29, Yaw : 352.93, Alt : 591.190002441, Lat : -35.3632608, Lng : 149.1652296, Q1 : 0.997894346714, Q2 : 0.0201645996422, Q3 : -0.00379222678021, Q4 : -0.0615297704935}
2019-04-03 22:39:08.41: SIM {TimeUS : 63834456, Roll : 3.44, Pitch : -0.46, Yaw : 352.92, Alt : 591.299987793, Lat : -35.3632608, Lng : 149.1652297, Q1 : 0.997645795345, Q2 : 0.0297094155103, Q3 : -0.00593832787126, Q4 : -0.0615225471556}
2019-04-03 22:39:08.51: SIM {TimeUS : 63934416, Roll : 4.53, Pitch : -0.61, Yaw : 352.92, Alt : 591.390014648, Lat : -35.3632607, Lng : 149.1652298, Q1 : 0.997308850288, Q2 : 0.0391644835472, Q3 : -0.00783570297062, Q4 : -0.0614800564945}
2019-04-03 22:39:08.61: SIM {TimeUS : 64034376, Roll : 5.46, Pitch : -0.73, Yaw : 352.91, Alt : 591.469970703, Lat : -35.3632607, Lng : 149.1652299, Q1 : 0.99695456028, Q2 : 0.0471567027271, Q3 : -0.00936801731586, Q4 : -0.0614011287689}
2019-04-03 22:39:08.71: SIM {TimeUS : 64134336, Roll : 6.16, Pitch : -0.81, Yaw : 352.91, Alt : 591.539978027, Lat : -35.3632605, Lng : 149.1652302, Q1 : 0.996644675732, Q2 : 0.0532344914973, Q3 : -0.0104076806456, Q4 : -0.0612959712744}
2019-04-03 22:39:08.81: SIM {TimeUS : 64234296, Roll : 6.69, Pitch : -0.85, Yaw : 352.92, Alt : 591.599975586, Lat : -35.3632604, Lng : 149.1652305, Q1 : 0.99638915062, Q2 : 0.0578375943005, Q3 : -0.0110002979636, Q4 : -0.061176430434}
2019-04-03 22:39:08.91: SIM {TimeUS : 64334256, Roll : 7.12, Pitch : -0.89, Yaw : 352.92, Alt : 591.659973145, Lat : -35.3632604, Lng : 149.165231, Q1 : 0.996167719364, Q2 : 0.0615203641355, Q3 : -0.0116047561169, Q4 : -0.0610776096582}
2019-04-03 22:39:09.01: SIM {TimeUS : 64434216, Roll : 7.49, Pitch : -0.95, Yaw : 352.92, Alt : 591.710021973, Lat : -35.3632603, Lng : 149.1652315, Q1 : 0.995960474014, Q2 : 0.0647331923246, Q3 : -0.012353869155, Q4 : -0.0609898939729}
2019-04-03 22:39:09.11: SIM {TimeUS : 64534176, Roll : 7.84, Pitch : -1.0, Yaw : 352.93, Alt : 591.75, Lat : -35.3632602, Lng : 149.1652322, Q1 : 0.995759010315, Q2 : 0.0677280128002, Q3 : -0.0129844248295, Q4 : -0.0608965344727}
2019-04-03 22:39:09.21: SIM {TimeUS : 64634136, Roll : 8.12, Pitch : -1.03, Yaw : 352.93, Alt : 591.789978027, Lat : -35.3632599, Lng : 149.1652329, Q1 : 0.995589852333, Q2 : 0.0701820850372, Q3 : -0.0133343515918, Q4 : -0.0608074851334}
2019-04-03 22:39:09.31: SIM {TimeUS : 64734096, Roll : 8.33, Pitch : -1.04, Yaw : 352.94, Alt : 591.820007324, Lat : -35.3632598, Lng : 149.1652336, Q1 : 0.995465636253, Q2 : 0.0719420537353, Q3 : -0.0135098844767, Q4 : -0.060745652765}
2019-04-03 22:39:09.41: SIM {TimeUS : 64834056, Roll : 8.45, Pitch : -1.05, Yaw : 352.93, Alt : 591.859985352, Lat : -35.3632596, Lng : 149.1652346, Q1 : 0.995383143425, Q2 : 0.0730484724045, Q3 : -0.0137161277235, Q4 : -0.060730855912}
2019-04-03 22:39:09.51: SIM {TimeUS : 64934849, Roll : 8.54, Pitch : -1.09, Yaw : 352.93, Alt : 591.890014648, Lat : -35.3632593, Lng : 149.1652356, Q1 : 0.995320558548, Q2 : 0.0738116651773, Q3 : -0.0140679487959, Q4 : -0.0607532858849}
2019-04-03 22:39:09.61: SIM {TimeUS : 65034809, Roll : 8.65, Pitch : -1.09, Yaw : 352.93, Alt : 591.909973145, Lat : -35.3632591, Lng : 149.1652368, Q1 : 0.995252490044, Q2 : 0.0747035816312, Q3 : -0.0141696799546, Q4 : -0.0607538037002}
2019-04-03 22:39:09.71: SIM {TimeUS : 65134769, Roll : 8.87, Pitch : -0.93, Yaw : 353.04, Alt : 591.940002441, Lat : -35.3632589, Lng : 149.1652379, Q1 : 0.995176374912, Q2 : 0.0766953378916, Q3 : -0.012793363072, Q4 : -0.059818033129}
2019-04-03 22:39:09.81: SIM {TimeUS : 65234729, Roll : 9.25, Pitch : -0.52, Yaw : 353.8, Alt : 591.969970703, Lat : -35.3632586, Lng : 149.1652393, Q1 : 0.99529337883, Q2 : 0.0802964568138, Q3 : -0.00888559967279, Q4 : -0.0535227432847}
2019-04-03 22:39:09.91: SIM {TimeUS : 65334689, Roll : 9.75, Pitch : -0.13, Yaw : 355.88, Alt : 591.989990234, Lat : -35.3632583, Lng : 149.1652407, Q1 : 0.995741903782, Q2 : 0.0848888382316, Q3 : -0.00424542324618, Q4 : -0.0356931611896}
2019-04-03 22:39:10.01: SIM {TimeUS : 65434649, Roll : 10.24, Pitch : -0.23, Yaw : 359.59, Alt : 592.010009766, Lat : -35.363258, Lng : 149.1652421, Q1 : 0.996001183987, Q2 : 0.0892454311252, Q3 : -0.00237434194423, Q4 : -0.00336529128253}
2019-04-03 22:39:10.11: SIM {TimeUS : 65534609, Roll : 10.57, Pitch : -1.01, Yaw : 4.81, Alt : 592.039978027, Lat : -35.3632578, Lng : 149.1652437, Q1 : 0.99479496479, Q2 : 0.0924173370004, Q3 : -0.00491924118251, Q4 : 0.0426353849471}
2019-04-03 22:39:10.21: SIM {TimeUS : 65634569, Roll : 10.62, Pitch : -2.44, Yaw : 11.28, Alt : 592.059997559, Lat : -35.3632576, Lng : 149.1652454, Q1 : 0.990458846092, Q2 : 0.0941873788834, Q3 : -0.0120502682403, Q4 : 0.0998738706112}
2019-04-03 22:39:10.31: SIM {TimeUS : 65734529, Roll : 10.28, Pitch : -4.37, Yaw : 18.73, Alt : 592.090026855, Lat : -35.3632573, Lng : 149.165247, Q1 : 0.981423676014, Q2 : 0.0945519506931, Q3 : -0.0229722615331, Q4 : 0.165347322822}
2019-04-03 22:39:10.41: SIM {TimeUS : 65834489, Roll : 9.48, Pitch : -6.56, Yaw : 26.88, Alt : 592.109985352, Lat : -35.3632571, Lng : 149.165249, Q1 : 0.966586351395, Q2 : 0.093513675034, Q3 : -0.0362803675234, Q4 : 0.235901877284}
2019-04-03 22:39:10.51: SIM {TimeUS : 65934449, Roll : 8.21, Pitch : -8.74, Yaw : 35.5, Alt : 592.140014648, Lat : -35.3632568, Lng : 149.1652509, Q1 : 0.945522606373, Q2 : 0.0911752134562, Q3 : -0.0506401397288, Q4 : 0.308398544788}
2019-04-03 22:39:10.61: SIM {TimeUS : 66034409, Roll : 6.5, Pitch : -10.69, Yaw : 44.31, Alt : 592.16998291, Lat : -35.3632566, Lng : 149.165253, Q1 : 0.918634533882, Q2 : 0.0873690247536, Q3 : -0.0648544803262, Q4 : 0.379830390215}
2019-04-03 22:39:10.71: SIM {TimeUS : 66134369, Roll : 4.47, Pitch : -12.22, Yaw : 53.04, Alt : 592.200012207, Lat : -35.3632562, Lng : 149.1652552, Q1 : 0.887125074863, Q2 : 0.0822623670101, Q3 : -0.0778831467032, Q4 : 0.447410553694}
2019-04-03 22:39:10.81: SIM {TimeUS : 66234329, Roll : 2.33, Pitch : -13.25, Yaw : 61.39, Alt : 592.229980469, Lat : -35.363256, Lng : 149.1652575, Q1 : 0.852741241455, Q2 : 0.0763017088175, Q3 : -0.088912434876, Q4 : 0.509023606777}
2019-04-03 22:39:10.91: SIM {TimeUS : 66334289, Roll : 0.28, Pitch : -13.81, Yaw : 69.14, Alt : 592.260009766, Lat : -35.3632555, Lng : 149.1652598, Q1 : 0.817270040512, Q2 : 0.070300579071, Q3 : -0.0976045802236, Q4 : 0.563560903072}
2019-04-03 22:39:11.01: SIM {TimeUS : 66434249, Roll : -1.73, Pitch : -14.03, Yaw : 76.1, Alt : 592.289978027, Lat : -35.3632552, Lng : 149.1652623, Q1 : 0.782621085644, Q2 : 0.0634767413139, Q3 : -0.10546554625, Q4 : 0.610206484795}
2019-04-03 22:39:11.11: SIM {TimeUS : 66534209, Roll : -3.83, Pitch : -13.99, Yaw : 81.84, Alt : 592.320007324, Lat : -35.3632547, Lng : 149.1652648, Q1 : 0.752215385437, Q2 : 0.0546218603849, Q3 : -0.113761395216, Q4 : 0.646720051765}
2019-04-03 22:39:11.21: SIM {TimeUS : 66634169, Roll : -5.66, Pitch : -13.78, Yaw : 85.93, Alt : 592.349975586, Lat : -35.3632541, Lng : 149.1652675, Q1 : 0.729621708393, Q2 : 0.0457906201482, Q3 : -0.121139056981, Q4 : 0.671476483345}
2019-04-03 22:39:11.31: SIM {TimeUS : 66734129, Roll : -6.83, Pitch : -13.55, Yaw : 88.22, Alt : 592.390014648, Lat : -35.3632535, Lng : 149.1652703, Q1 : 0.716582536697, Q2 : 0.039468690753, Q3 : -0.125775128603, Q4 : 0.684932351112}
2019-04-03 22:39:11.41: SIM {TimeUS : 66834089, Roll : -7.18, Pitch : -13.41, Yaw : 88.86, Alt : 592.41998291, Lat : -35.3632528, Lng : 149.1652731, Q1 : 0.712906599045, Q2 : 0.037130407989, Q3 : -0.126799076796, Q4 : 0.688699901104}
2019-04-03 22:39:11.52: SIM {TimeUS : 66934882, Roll : -6.7, Pitch : -13.46, Yaw : 88.13, Alt : 592.460021973, Lat : -35.363252, Lng : 149.165276, Q1 : 0.717106163502, Q2 : 0.0396746695042, Q3 : -0.124459512532, Q4 : 0.684612691402}
2019-04-03 22:39:11.61: SIM {TimeUS : 67034842, Roll : -5.53, Pitch : -13.72, Yaw : 86.37, Alt : 592.5, Lat : -35.3632512, Lng : 149.165279, Q1 : 0.72697520256, Q2 : 0.0467524603009, Q3 : -0.119826950133, Q4 : 0.67450928688}
2019-04-03 22:39:11.71: SIM {TimeUS : 67134802, Roll : -3.91, Pitch : -14.16, Yaw : 83.92, Alt : 592.530029297, Lat : -35.3632504, Lng : 149.165282, Q1 : 0.740308463573, Q2 : 0.0571336746216, Q3 : -0.114294990897, Q4 : 0.660011947155}
2019-04-03 22:39:11.81: SIM {TimeUS : 67234762, Roll : -2.13, Pitch : -14.67, Yaw : 81.08, Alt : 592.570007324, Lat : -35.3632494, Lng : 149.1652851, Q1 : 0.755104005337, Q2 : 0.0689979791641, Q3 : -0.109035305679, Q4 : 0.64278191328}
2019-04-03 22:39:11.91: SIM {TimeUS : 67334722, Roll : -0.39, Pitch : -15.16, Yaw : 78.18, Alt : 592.609985352, Lat : -35.3632486, Lng : 149.1652882, Q1 : 0.769604623318, Q2 : 0.0805747583508, Q3 : -0.104597605765, Q4 : 0.624720573425}
2019-04-03 22:39:12.01: SIM {TimeUS : 67434682, Roll : 1.11, Pitch : -15.52, Yaw : 75.55, Alt : 592.650024414, Lat : -35.3632476, Lng : 149.1652916, Q1 : 0.782340168953, Q2 : 0.0903224870563, Q3 : -0.100878804922, Q4 : 0.607954978943}
2019-04-03 22:39:12.11: SIM {TimeUS : 67534642, Roll : 2.25, Pitch : -15.68, Yaw : 73.43, Alt : 592.690002441, Lat : -35.3632468, Lng : 149.1652949, Q1 : 0.792316257954, Q2 : 0.0971754789352, Q3 : -0.0977133959532, Q4 : 0.594343304634}
2019-04-03 22:39:12.21: SIM {TimeUS : 67634602, Roll : 2.94, Pitch : -15.7, Yaw : 72.01, Alt : 592.729980469, Lat : -35.3632458, Lng : 149.1652983, Q1 : 0.799022376537, Q2 : 0.100829206407, Q3 : -0.0955082848668, Q4 : 0.585042655468}
2019-04-03 22:39:12.31: SIM {TimeUS : 67734562, Roll : 3.16, Pitch : -15.66, Yaw : 71.33, Alt : 592.770019531, Lat : -35.363245, Lng : 149.1653019, Q1 : 0.802356660366, Q2 : 0.10166503489, Q3 : -0.0947261154652, Q4 : 0.580443799496}
2019-04-03 22:39:12.41: SIM {TimeUS : 67834522, Roll : 2.98, Pitch : -15.65, Yaw : 71.32, Alt : 592.809997559, Lat : -35.3632441, Lng : 149.1653055, Q1 : 0.802562534809, Q2 : 0.100335136056, Q3 : -0.0955362096429, Q4 : 0.580257713795}
2019-04-03 22:39:12.51: SIM {TimeUS : 67934482, Roll : 2.49, Pitch : -15.68, Yaw : 71.87, Alt : 592.849975586, Lat : -35.3632434, Lng : 149.1653092, Q1 : 0.800132572651, Q2 : 0.0975611880422, Q3 : -0.0977838486433, Q4 : 0.583701968193}
2019-04-03 22:39:12.61: SIM {TimeUS : 68034442, Roll : 1.8, Pitch : -15.77, Yaw : 72.82, Alt : 592.890014648, Lat : -35.3632426, Lng : 149.165313, Q1 : 0.795745849609, Q2 : 0.0940131321549, Q3 : -0.101129420102, Q4 : 0.589680373669}
2019-04-03 22:39:12.71: SIM {TimeUS : 68134402, Roll : 1.02, Pitch : -15.89, Yaw : 74.0, Alt : 592.940002441, Lat : -35.3632418, Lng : 149.1653168, Q1 : 0.790179252625, Q2 : 0.0903113931417, Q3 : -0.105093866587, Q4 : 0.597005844116}
2019-04-03 22:39:12.81: SIM {TimeUS : 68234362, Roll : 0.24, Pitch : -16.02, Yaw : 75.22, Alt : 592.979980469, Lat : -35.3632409, Lng : 149.1653207, Q1 : 0.784262776375, Q2 : 0.0867577269673, Q3 : -0.1090792045, Q4 : 0.604571580887}
2019-04-03 22:39:12.91: SIM {TimeUS : 68334322, Roll : -0.42, Pitch : -16.11, Yaw : 76.34, Alt : 593.020019531, Lat : -35.3632402, Lng : 149.1653246, Q1 : 0.778734743595, Q2 : 0.0837215334177, Q3 : -0.112512610853, Q4 : 0.611476778984}
2019-04-03 22:39:13.01: SIM {TimeUS : 68434282, Roll : -0.94, Pitch : -16.17, Yaw : 77.24, Alt : 593.059997559, Lat : -35.3632394, Lng : 149.1653285, Q1 : 0.774185717106, Q2 : 0.081443823874, Q3 : -0.11496501416, Q4 : 0.617078959942}
2019-04-03 22:39:13.11: SIM {TimeUS : 68534242, Roll : -1.25, Pitch : -16.19, Yaw : 77.87, Alt : 593.099975586, Lat : -35.3632385, Lng : 149.1653326, Q1 : 0.770993769169, Q2 : 0.0800532922149, Q3 : -0.11634927243, Q4 : 0.62098544836}
2019-04-03 22:39:13.21: SIM {TimeUS : 68634202, Roll : -1.36, Pitch : -16.2, Yaw : 78.2, Alt : 593.140014648, Lat : -35.3632377, Lng : 149.1653366, Q1 : 0.769276320934, Q2 : 0.0797127634287, Q3 : -0.116818189621, Q4 : 0.623067677021}
2019-04-03 22:39:13.31: SIM {TimeUS : 68734162, Roll : -1.29, Pitch : -16.23, Yaw : 78.25, Alt : 593.179992676, Lat : -35.3632367, Lng : 149.1653408, Q1 : 0.768950939178, Q2 : 0.0803930163383, Q3 : -0.116598814726, Q4 : 0.623422980309}
2019-04-03 22:39:13.41: SIM {TimeUS : 68834122, Roll : -1.08, Pitch : -16.27, Yaw : 78.06, Alt : 593.219970703, Lat : -35.3632359, Lng : 149.1653448, Q1 : 0.769804477692, Q2 : 0.0818365961313, Q3 : -0.11586214602, Q4 : 0.622318089008}
2019-04-03 22:39:13.51: SIM {TimeUS : 68934082, Roll : -0.79, Pitch : -16.32, Yaw : 77.69, Alt : 593.270019531, Lat : -35.3632349, Lng : 149.165349, Q1 : 0.771524846554, Q2 : 0.0836642459035, Q3 : -0.114889465272, Q4 : 0.620121061802}
2019-04-03 22:39:13.62: SIM {TimeUS : 69034875, Roll : -0.49, Pitch : -16.37, Yaw : 77.22, Alt : 593.309997559, Lat : -35.3632341, Lng : 149.1653533, Q1 : 0.773770213127, Q2 : 0.0855781584978, Q3 : -0.113961718976, Q4 : 0.617226719856}
2019-04-03 22:39:13.71: SIM {TimeUS : 69134835, Roll : -0.2, Pitch : -16.41, Yaw : 76.73, Alt : 593.349975586, Lat : -35.3632331, Lng : 149.1653576, Q1 : 0.776171565056, Q2 : 0.0872287228703, Q3 : -0.113024570048, Q4 : 0.614145219326}
2019-04-03 22:39:13.81: SIM {TimeUS : 69234795, Roll : 0.04, Pitch : -16.45, Yaw : 76.27, Alt : 593.390014648, Lat : -35.3632322, Lng : 149.1653619, Q1 : 0.778404414654, Q2 : 0.0887232422829, Q3 : -0.112312331796, Q4 : 0.611228883266}
2019-04-03 22:39:13.91: SIM {TimeUS : 69334755, Roll : 0.25, Pitch : -16.49, Yaw : 75.88, Alt : 593.429992676, Lat : -35.3632312, Lng : 149.1653663, Q1 : 0.780248224735, Q2 : 0.0899522528052, Q3 : -0.111814267933, Q4 : 0.608784735203}
2019-04-03 22:39:14.01: SIM {TimeUS : 69434715, Roll : 0.38, Pitch : -16.55, Yaw : 75.61, Alt : 593.469970703, Lat : -35.3632304, Lng : 149.1653706, Q1 : 0.78155630827, Q2 : 0.0908676683903, Q3 : -0.111761830747, Q4 : 0.606977880001}
2019-04-03 22:39:14.11: SIM {TimeUS : 69534675, Roll : 0.42, Pitch : -16.61, Yaw : 75.45, Alt : 593.510009766, Lat : -35.3632294, Lng : 149.1653751, Q1 : 0.782292604446, Q2 : 0.0913340449333, Q3 : -0.112019240856, Q4 : 0.60591095686}
2019-04-03 22:39:14.21: SIM {TimeUS : 69634635, Roll : 0.41, Pitch : -16.66, Yaw : 75.41, Alt : 593.549987793, Lat : -35.3632285, Lng : 149.1653795, Q1 : 0.782478749752, Q2 : 0.0914648026228, Q3 : -0.112425394356, Q4 : 0.605575561523}
2019-04-03 22:39:14.31: SIM {TimeUS : 69734595, Roll : 0.37, Pitch : -16.69, Yaw : 75.46, Alt : 593.590026855, Lat : -35.3632276, Lng : 149.165384, Q1 : 0.782201886177, Q2 : 0.091360129416, Q3 : -0.112820036709, Q4 : 0.605875551701}
2019-04-03 22:39:14.41: SIM {TimeUS : 69834555, Roll : 0.28, Pitch : -16.7, Yaw : 75.59, Alt : 593.640014648, Lat : -35.3632266, Lng : 149.1653885, Q1 : 0.781586587429, Q2 : 0.0910019204021, Q3 : -0.113284260035, Q4 : 0.606636464596}
2019-04-03 22:39:14.51: SIM {TimeUS : 69934515, Roll : 0.17, Pitch : -16.71, Yaw : 75.76, Alt : 593.679992676, Lat : -35.3632257, Lng : 149.165393, Q1 : 0.780774414539, Q2 : 0.0904331803322, Q3 : -0.113836728036, Q4 : 0.607663035393}
2019-04-03 22:39:14.61: SIM {TimeUS : 70034475, Roll : 0.03, Pitch : -16.72, Yaw : 75.94, Alt : 593.719970703, Lat : -35.3632248, Lng : 149.1653976, Q1 : 0.779900550842, Q2 : 0.0897289738059, Q3 : -0.114443913102, Q4 : 0.608774542809}
2019-04-03 22:39:14.71: SIM {TimeUS : 70134435, Roll : -0.09, Pitch : -16.74, Yaw : 76.11, Alt : 593.760009766, Lat : -35.3632238, Lng : 149.1654022, Q1 : 0.779063463211, Q2 : 0.0890837833285, Q3 : -0.115158297122, Q4 : 0.609805583954}
2019-04-03 22:39:14.81: SIM {TimeUS : 70234395, Roll : -0.21, Pitch : -16.76, Yaw : 76.26, Alt : 593.799987793, Lat : -35.3632228, Lng : 149.1654068, Q1 : 0.778376162052, Q2 : 0.0885541141033, Q3 : -0.115801684558, Q4 : 0.610638022423}
2019-04-03 22:39:14.91: SIM {TimeUS : 70334355, Roll : -0.29, Pitch : -16.77, Yaw : 76.35, Alt : 593.849975586, Lat : -35.3632219, Lng : 149.1654113, Q1 : 0.777902662754, Q2 : 0.0881748795509, Q3 : -0.116222761571, Q4 : 0.611215949059}
2019-04-03 22:39:15.01: SIM {TimeUS : 70434315, Roll : -0.34, Pitch : -16.78, Yaw : 76.4, Alt : 593.890014648, Lat : -35.3632209, Lng : 149.165416, Q1 : 0.777664959431, Q2 : 0.0879456624389, Q3 : -0.116524264216, Q4 : 0.611493945122}
2019-04-03 22:39:15.11: SIM {TimeUS : 70534275, Roll : -0.36, Pitch : -16.81, Yaw : 76.4, Alt : 593.929992676, Lat : -35.36322, Lng : 149.1654208, Q1 : 0.777645587921, Q2 : 0.0879571810365, Q3 : -0.11680418998, Q4 : 0.611463546753}
2019-04-03 22:39:15.21: SIM {TimeUS : 70634235, Roll : -0.32, Pitch : -16.85, Yaw : 76.36, Alt : 593.969970703, Lat : -35.363219, Lng : 149.1654255, Q1 : 0.777790725231, Q2 : 0.0883825346828, Q3 : -0.116910383105, Q4 : 0.6111972332}
2019-04-03 22:39:15.31: SIM {TimeUS : 70734195, Roll : -0.24, Pitch : -16.89, Yaw : 76.29, Alt : 594.020019531, Lat : -35.3632179, Lng : 149.1654302, Q1 : 0.778073370457, Q2 : 0.0890615954995, Q3 : -0.11687001586, Q4 : 0.610746502876}
