2019-04-03 23:04:21.32: SIM {TimeUS : 44735432, Roll : 0.0, Pitch : 0.0, Yaw : 353.0, Alt : 584.090026855, Lat : -35.363261, Lng : 149.1652299, Q1 : 0.998134791851, Q2 : 0.0, Q3 : 0.0, Q4 : -0.0610485821962}
2019-04-03 23:04:21.41: SIM {TimeUS : 44835392, Roll : 0.0, Pitch : 0.0, Yaw : 353.0, Alt : 584.090026855, Lat : -35.363261, Lng : 149.1652299, Q1 : 0.998134791851, Q2 : 0.0, Q3 : 0.0, Q4 : -0.0610485821962}
2019-04-03 23:04:21.51: SIM {TimeUS : 44935352, Roll : 0.0, Pitch : 0.0, Yaw : 353.0, Alt : 584.090026855, Lat : -35.363261, Lng : 149.1652299, Q1 : 0.998134791851, Q2 : 0.0, Q3 : 0.0, Q4 : -0.0610485821962}
2019-04-03 23:04:21.61: SIM {TimeUS : 45035312, Roll : 0.0, Pitch : 0.0, Yaw : 353.0, Alt : 584.090026855, Lat : -35.363261, Lng : 149.1652299, Q1 : 0.998134791851, Q2 : 0.0, Q3 : 0.0, Q4 : -0.0610485821962}
2019-04-03 23:04:21.71: SIM {TimeUS : 45135272, Roll : 0.0, Pitch : 0.0, Yaw : 353.0, Alt : 584.090026855, Lat : -35.363261, Lng : 149.1652299, Q1 : 0.998134791851, Q2 : 0.0, Q3 : 0.0, Q4 : -0.0610485821962}
2019-04-03 23:04:21.81: SIM {TimeUS : 45235232, Roll : 0.0, Pitch : 0.0, Yaw : 353.0, Alt : 584.090026855, Lat : -35.363261, Lng : 149.1652299, Q1 : 0.998134791851, Q2 : 0.0, Q3 : 0.0, Q4 : -0.0610485821962}
2019-04-03 23:04:21.91: SIM {TimeUS : 45335192, Roll : 0.0, Pitch : 0.0, Yaw : 353.0, Alt : 584.090026855, Lat : -35.363261, Lng : 149.1652299, Q1 : 0.998134791851, Q2 : 0.0, Q3 : 0.0, Q4 : -0.0610485821962}
2019-04-03 23:04:22.01: SIM {TimeUS : 45435152, Roll : 0.0, Pitch : 0.0, Yaw : 353.0, Alt : 584.090026855, Lat : -35.363261, Lng : 149.1652299, Q1 : 0.998134791851, Q2 : 0.0, Q3 : 0.0, Q4 : -0.0610485821962}
2019-04-03 23:04:22.11: SIM {TimeUS : 45535112, Roll : 0.0, Pitch : 0.0, Yaw : 353.0, Alt : 584.090026855, Lat : -35.363261, Lng : 149.1652299, Q1 : 0.998134791851, Q2 : 0.0, Q3 : 0.0, Q4 : -0.0610485821962}
2019-04-03 23:04:22.21: SIM {TimeUS : 45635072, Roll : 0.0, Pitch : 0.0, Yaw : 353.0, Alt : 584.090026855, Lat : -35.363261, Lng : 149.1652299, Q1 : 0.998134791851, Q2 : 0.0, Q3 : 0.0, Q4 : -0.0610485821962}
2019-04-03 23:04:22.31: SIM {TimeUS : 45735032, Roll : 0.0, Pitch : 0.0, Yaw : 353.0, Alt : 584.090026855, Lat : -35.363261, Lng : 149.1652299, Q1 : 0.998134791851, Q2 : 0.0, Q3 : 0.0, Q4 : -0.0610485821962}
2019-04-03 23:04:22.41: SIM {TimeUS : 45834992, Roll : 0.0, Pitch : 0.0, Yaw : 353.0, Alt : 584.090026855, Lat : -35.363261, Lng : 149.1652299, Q1 : 0.998134791851, Q2 : 0.0, Q3 : 0.0, Q4 : -0.0610485821962}
2019-04-03 23:04:22.51: SIM {TimeUS : 45934952, Roll : 0.0, Pitch : 0.0, Yaw : 353.0, Alt : 584.090026855, Lat : -35.363261, Lng : 149.1652299, Q1 : 0.998134791851, Q2 : 0.0, Q3 : 0.0, Q4 : -0.0610485821962}
2019-04-03 23:04:22.61: SIM {TimeUS : 46034912, Roll : 0.0, Pitch : 0.0, Yaw : 353.0, Alt : 584.090026855, Lat : -35.363261, Lng : 149.1652299, Q1 : 0.998134791851, Q2 : 0.0, Q3 : 0.0, Q4 : -0.0610485821962}
2019-04-03 23:04:22.71: SIM {TimeUS : 46134872, Roll : 0.0, Pitch : 0.0, Yaw : 353.0, Alt : 584.090026855, Lat : -35.363261, Lng : 149.1652299, Q1 : 0.998134791851, Q2 : 0.0, Q3 : 0.0, Q4 : -0.0610485821962}
2019-04-03 23:04:22.81: SIM {TimeUS : 46234832, Roll : 0.0, Pitch : 0.0, Yaw : 353.0, Alt : 584.090026855, Lat : -35.363261, Lng : 149.1652299, Q1 : 0.998134791851, Q2 : 0.0, Q3 : 0.0, Q4 : -0.0610485821962}
2019-04-03 23:04:22.91: SIM {TimeUS : 46334792, Roll : 0.0, Pitch : 0.0, Yaw : 353.0, Alt : 584.090026855, Lat : -35.363261, Lng : 149.1652299, Q1 : 0.998134791851, Q2 : 0.0, Q3 : 0.0, Q4 : -0.0610485821962}
2019-04-03 23:04:23.01: SIM {TimeUS : 46434752, Roll : 0.0, Pitch : 0.0, Yaw : 353.0, Alt : 584.090026855, Lat : -35.363261, Lng : 149.1652299, Q1 : 0.998134791851, Q2 : 0.0, Q3 : 0.0, Q4 : -0.0610485821962}
2019-04-03 23:04:23.11: SIM {TimeUS : 46534712, Roll : 0.0, Pitch : 0.0, Yaw : 353.0, Alt : 584.090026855, Lat : -35.363261, Lng : 149.1652299, Q1 : 0.998134791851, Q2 : 0.0, Q3 : 0.0, Q4 : -0.0610485821962}
2019-04-03 23:04:23.21: SIM {TimeUS : 46634672, Roll : 0.0, Pitch : 0.0, Yaw : 353.0, Alt : 584.090026855, Lat : -35.363261, Lng : 149.1652299, Q1 : 0.998134791851, Q2 : 0.0, Q3 : 0.0, Q4 : -0.0610485821962}
2019-04-03 23:04:23.32: SIM {TimeUS : 46735465, Roll : 0.0, Pitch : 0.0, Yaw : 353.0, Alt : 584.090026855, Lat : -35.363261, Lng : 149.1652299, Q1 : 0.998134791851, Q2 : 0.0, Q3 : 0.0, Q4 : -0.0610485821962}
2019-04-03 23:04:23.42: SIM {TimeUS : 46835425, Roll : 0.0, Pitch : 0.0, Yaw : 353.0, Alt : 584.090026855, Lat : -35.363261, Lng : 149.1652299, Q1 : 0.998134791851, Q2 : 0.0, Q3 : 0.0, Q4 : -0.0610485821962}
2019-04-03 23:04:23.51: SIM {TimeUS : 46935385, Roll : 0.0, Pitch : 0.0, Yaw : 353.0, Alt : 584.090026855, Lat : -35.363261, Lng : 149.1652299, Q1 : 0.998134791851, Q2 : 0.0, Q3 : 0.0, Q4 : -0.0610485821962}
2019-04-03 23:04:23.61: SIM {TimeUS : 47035345, Roll : 0.0, Pitch : 0.0, Yaw : 353.0, Alt : 584.090026855, Lat : -35.363261, Lng : 149.1652299, Q1 : 0.998134791851, Q2 : 0.0, Q3 : 0.0, Q4 : -0.0610485821962}
2019-04-03 23:04:23.71: SIM {TimeUS : 47135305, Roll : 0.0, Pitch : 0.0, Yaw : 353.0, Alt : 584.090026855, Lat : -35.363261, Lng : 149.1652299, Q1 : 0.998134791851, Q2 : 0.0, Q3 : 0.0, Q4 : -0.0610485821962}
2019-04-03 23:04:23.81: SIM {TimeUS : 47235265, Roll : 0.0, Pitch : 0.0, Yaw : 353.0, Alt : 584.090026855, Lat : -35.363261, Lng : 149.1652299, Q1 : 0.998134791851, Q2 : 0.0, Q3 : 0.0, Q4 : -0.0610485821962}
2019-04-03 23:04:23.91: SIM {TimeUS : 47335225, Roll : 0.0, Pitch : 0.0, Yaw : 353.0, Alt : 584.090026855, Lat : -35.363261, Lng : 149.1652299, Q1 : 0.998134791851, Q2 : 0.0, Q3 : 0.0, Q4 : -0.0610485821962}
2019-04-03 23:04:24.01: SIM {TimeUS : 47435185, Roll : 0.0, Pitch : 0.0, Yaw : 353.0, Alt : 584.090026855, Lat : -35.363261, Lng : 149.1652299, Q1 : 0.998134791851, Q2 : 0.0, Q3 : 0.0, Q4 : -0.0610485821962}
2019-04-03 23:04:24.11: SIM {TimeUS : 47535145, Roll : 0.0, Pitch : 0.0, Yaw : 353.0, Alt : 584.090026855, Lat : -35.363261, Lng : 149.1652299, Q1 : 0.998134791851, Q2 : 0.0, Q3 : 0.0, Q4 : -0.0610485821962}
2019-04-03 23:04:24.21: SIM {TimeUS : 47635105, Roll : 0.0, Pitch : 0.0, Yaw : 353.0, Alt : 584.090026855, Lat : -35.363261, Lng : 149.1652299, Q1 : 0.998134791851, Q2 : 0.0, Q3 : 0.0, Q4 : -0.0610485821962}
2019-04-03 23:04:24.31: SIM {TimeUS : 47735065, Roll : 0.0, Pitch : 0.0, Yaw : 353.0, Alt : 584.090026855, Lat : -35.363261, Lng : 149.1652299, Q1 : 0.998134791851, Q2 : 0.0, Q3 : 0.0, Q4 : -0.0610485821962}
2019-04-03 23:04:24.41: SIM {TimeUS : 47835025, Roll : 0.0, Pitch : 0.0, Yaw : 353.0, Alt : 584.090026855, Lat : -35.363261, Lng : 149.1652299, Q1 : 0.998134791851, Q2 : 0.0, Q3 : 0.0, Q4 : -0.0610485821962}
2019-04-03 23:04:24.51: SIM {TimeUS : 47934985, Roll : 0.0, Pitch : 0.0, Yaw : 353.0, Alt : 584.090026855, Lat : -35.363261, Lng : 149.1652299, Q1 : 0.998134791851, Q2 : 0.0, Q3 : 0.0, Q4 : -0.0610485821962}
2019-04-03 23:04:24.61: SIM {TimeUS : 48034945, Roll : 0.0, Pitch : 0.0, Yaw : 353.0, Alt : 584.090026855, Lat : -35.363261, Lng : 149.1652299, Q1 : 0.998134791851, Q2 : 0.0, Q3 : 0.0, Q4 : -0.0610485821962}
2019-04-03 23:04:24.71: SIM {TimeUS : 48134905, Roll : 0.0, Pitch : 0.0, Yaw : 353.0, Alt : 584.090026855, Lat : -35.363261, Lng : 149.1652299, Q1 : 0.998134791851, Q2 : 0.0, Q3 : 0.0, Q4 : -0.0610485821962}
2019-04-03 23:04:24.81: SIM {TimeUS : 48234865, Roll : 0.0, Pitch : 0.0, Yaw : 353.0, Alt : 584.090026855, Lat : -35.363261, Lng : 149.1652299, Q1 : 0.998134791851, Q2 : 0.0, Q3 : 0.0, Q4 : -0.0610485821962}
2019-04-03 23:04:24.91: SIM {TimeUS : 48334825, Roll : 0.0, Pitch : 0.0, Yaw : 353.0, Alt : 584.090026855, Lat : -35.363261, Lng : 149.1652299, Q1 : 0.998134791851, Q2 : 0.0, Q3 : 0.0, Q4 : -0.0610485821962}
2019-04-03 23:04:25.01: SIM {TimeUS : 48434785, Roll : 0.0, Pitch : 0.0, Yaw : 353.0, Alt : 584.090026855, Lat : -35.363261, Lng : 149.1652299, Q1 : 0.998134791851, Q2 : 0.0, Q3 : 0.0, Q4 : -0.0610485821962}
2019-04-03 23:04:25.11: SIM {TimeUS : 48534745, Roll : 0.0, Pitch : 0.0, Yaw : 353.0, Alt : 584.090026855, Lat : -35.363261, Lng : 149.1652299, Q1 : 0.998134791851, Q2 : 0.0, Q3 : 0.0, Q4 : -0.0610485821962}
2019-04-03 23:04:25.21: SIM {TimeUS : 48634705, Roll : 0.0, Pitch : 0.0, Yaw : 353.0, Alt : 584.090026855, Lat : -35.363261, Lng : 149.1652299, Q1 : 0.998134791851, Q2 : 0.0, Q3 : 0.0, Q4 : -0.0610485821962}
2019-04-03 23:04:25.31: SIM {TimeUS : 48734665, Roll : 0.0, Pitch : 0.0, Yaw : 353.0, Alt : 584.090026855, Lat : -35.363261, Lng : 149.1652299, Q1 : 0.998134791851, Q2 : 0.0, Q3 : 0.0, Q4 : -0.0610485821962}
2019-04-03 23:04:25.42: SIM {TimeUS : 48835458, Roll : 0.0, Pitch : 0.0, Yaw : 353.0, Alt : 584.090026855, Lat : -35.363261, Lng : 149.1652299, Q1 : 0.998134791851, Q2 : 0.0, Q3 : 0.0, Q4 : -0.0610485821962}
2019-04-03 23:04:25.52: SIM {TimeUS : 48935418, Roll : 0.0, Pitch : 0.0, Yaw : 353.0, Alt : 584.090026855, Lat : -35.363261, Lng : 149.1652299, Q1 : 0.998134791851, Q2 : 0.0, Q3 : 0.0, Q4 : -0.0610485821962}
2019-04-03 23:04:25.61: SIM {TimeUS : 49035378, Roll : 0.0, Pitch : 0.0, Yaw : 353.0, Alt : 584.090026855, Lat : -35.363261, Lng : 149.1652299, Q1 : 0.998134791851, Q2 : 0.0, Q3 : 0.0, Q4 : -0.0610485821962}
2019-04-03 23:04:25.71: SIM {TimeUS : 49135338, Roll : 0.0, Pitch : 0.0, Yaw : 353.0, Alt : 584.090026855, Lat : -35.363261, Lng : 149.1652299, Q1 : 0.998134791851, Q2 : 0.0, Q3 : 0.0, Q4 : -0.0610485821962}
2019-04-03 23:04:25.81: SIM {TimeUS : 49235298, Roll : 0.0, Pitch : 0.0, Yaw : 353.0, Alt : 584.090026855, Lat : -35.363261, Lng : 149.1652299, Q1 : 0.998134791851, Q2 : 0.0, Q3 : 0.0, Q4 : -0.0610485821962}
2019-04-03 23:04:25.91: SIM {TimeUS : 49335258, Roll : 0.0, Pitch : 0.0, Yaw : 353.0, Alt : 584.090026855, Lat : -35.363261, Lng : 149.1652299, Q1 : 0.998134791851, Q2 : 0.0, Q3 : 0.0, Q4 : -0.0610485821962}
2019-04-03 23:04:26.01: SIM {TimeUS : 49435218, Roll : 0.0, Pitch : 0.0, Yaw : 353.0, Alt : 584.090026855, Lat : -35.363261, Lng : 149.1652299, Q1 : 0.998134791851, Q2 : 0.0, Q3 : 0.0, Q4 : -0.0610485821962}
2019-04-03 23:04:26.11: SIM {TimeUS : 49535178, Roll : 0.0, Pitch : 0.0, Yaw : 353.0, Alt : 584.090026855, Lat : -35.363261, Lng : 149.1652299, Q1 : 0.998134791851, Q2 : 0.0, Q3 : 0.0, Q4 : -0.0610485821962}
2019-04-03 23:04:26.21: SIM {TimeUS : 49635138, Roll : 0.0, Pitch : 0.0, Yaw : 353.0, Alt : 584.090026855, Lat : -35.363261, Lng : 149.1652299, Q1 : 0.998134791851, Q2 : 0.0, Q3 : 0.0, Q4 : -0.0610485821962}
2019-04-03 23:04:26.31: SIM {TimeUS : 49735098, Roll : 0.0, Pitch : 0.0, Yaw : 353.0, Alt : 584.090026855, Lat : -35.363261, Lng : 149.1652299, Q1 : 0.998134791851, Q2 : 0.0, Q3 : 0.0, Q4 : -0.0610485821962}
2019-04-03 23:04:26.41: SIM {TimeUS : 49835058, Roll : 0.0, Pitch : 0.0, Yaw : 353.0, Alt : 584.090026855, Lat : -35.363261, Lng : 149.1652299, Q1 : 0.998134791851, Q2 : 0.0, Q3 : 0.0, Q4 : -0.0610485821962}
2019-04-03 23:04:26.51: SIM {TimeUS : 49935018, Roll : 0.0, Pitch : 0.0, Yaw : 353.0, Alt : 584.090026855, Lat : -35.363261, Lng : 149.1652299, Q1 : 0.998134791851, Q2 : 0.0, Q3 : 0.0, Q4 : -0.0610485821962}
2019-04-03 23:04:26.61: SIM {TimeUS : 50034978, Roll : 0.0, Pitch : 0.0, Yaw : 353.0, Alt : 584.090026855, Lat : -35.363261, Lng : 149.1652299, Q1 : 0.998134791851, Q2 : 0.0, Q3 : 0.0, Q4 : -0.0610485821962}
2019-04-03 23:04:26.71: SIM {TimeUS : 50134938, Roll : 0.0, Pitch : 0.0, Yaw : 353.0, Alt : 584.090026855, Lat : -35.363261, Lng : 149.1652299, Q1 : 0.998134791851, Q2 : 0.0, Q3 : 0.0, Q4 : -0.0610485821962}
2019-04-03 23:04:26.81: SIM {TimeUS : 50234898, Roll : 0.0, Pitch : 0.0, Yaw : 353.0, Alt : 584.090026855, Lat : -35.363261, Lng : 149.1652299, Q1 : 0.998134791851, Q2 : 0.0, Q3 : 0.0, Q4 : -0.0610485821962}
2019-04-03 23:04:26.91: SIM {TimeUS : 50334858, Roll : 0.0, Pitch : 0.0, Yaw : 353.0, Alt : 584.090026855, Lat : -35.363261, Lng : 149.1652299, Q1 : 0.998134791851, Q2 : 0.0, Q3 : 0.0, Q4 : -0.0610485821962}
2019-04-03 23:04:27.01: SIM {TimeUS : 50434818, Roll : 0.0, Pitch : 0.0, Yaw : 353.0, Alt : 584.090026855, Lat : -35.363261, Lng : 149.1652299, Q1 : 0.998134791851, Q2 : 0.0, Q3 : 0.0, Q4 : -0.0610485821962}
2019-04-03 23:04:27.11: SIM {TimeUS : 50534778, Roll : 0.0, Pitch : 0.0, Yaw : 353.0, Alt : 584.090026855, Lat : -35.363261, Lng : 149.1652299, Q1 : 0.998134791851, Q2 : 0.0, Q3 : 0.0, Q4 : -0.0610485821962}
2019-04-03 23:04:27.21: SIM {TimeUS : 50634738, Roll : 0.0, Pitch : 0.0, Yaw : 353.0, Alt : 584.090026855, Lat : -35.363261, Lng : 149.1652299, Q1 : 0.998134791851, Q2 : 0.0, Q3 : 0.0, Q4 : -0.0610485821962}
2019-04-03 23:04:27.31: SIM {TimeUS : 50734698, Roll : 0.0, Pitch : 0.0, Yaw : 353.0, Alt : 584.090026855, Lat : -35.363261, Lng : 149.1652299, Q1 : 0.998134791851, Q2 : 0.0, Q3 : 0.0, Q4 : -0.0610485821962}
2019-04-03 23:04:27.41: SIM {TimeUS : 50834658, Roll : 0.0, Pitch : 0.0, Yaw : 353.0, Alt : 584.090026855, Lat : -35.363261, Lng : 149.1652299, Q1 : 0.998134791851, Q2 : 0.0, Q3 : 0.0, Q4 : -0.0610485821962}
2019-04-03 23:04:27.52: SIM {TimeUS : 50935451, Roll : 0.0, Pitch : 0.0, Yaw : 353.0, Alt : 584.090026855, Lat : -35.363261, Lng : 149.1652299, Q1 : 0.998134791851, Q2 : 0.0, Q3 : 0.0, Q4 : -0.0610485821962}
2019-04-03 23:04:27.62: SIM {TimeUS : 51035411, Roll : 0.0, Pitch : 0.0, Yaw : 353.0, Alt : 584.090026855, Lat : -35.363261, Lng : 149.1652299, Q1 : 0.998134791851, Q2 : 0.0, Q3 : 0.0, Q4 : -0.0610485821962}
2019-04-03 23:04:27.71: SIM {TimeUS : 51135371, Roll : 0.0, Pitch : 0.0, Yaw : 353.0, Alt : 584.090026855, Lat : -35.363261, Lng : 149.1652299, Q1 : 0.998134791851, Q2 : 0.0, Q3 : 0.0, Q4 : -0.0610485821962}
2019-04-03 23:04:27.81: SIM {TimeUS : 51235331, Roll : 0.0, Pitch : 0.0, Yaw : 353.0, Alt : 584.090026855, Lat : -35.363261, Lng : 149.1652299, Q1 : 0.998134791851, Q2 : 0.0, Q3 : 0.0, Q4 : -0.0610485821962}
2019-04-03 23:04:27.91: SIM {TimeUS : 51335291, Roll : 0.0, Pitch : 0.0, Yaw : 353.0, Alt : 584.090026855, Lat : -35.363261, Lng : 149.1652299, Q1 : 0.998134791851, Q2 : 0.0, Q3 : 0.0, Q4 : -0.0610485821962}
2019-04-03 23:04:28.01: SIM {TimeUS : 51435251, Roll : 0.0, Pitch : 0.0, Yaw : 353.0, Alt : 584.090026855, Lat : -35.363261, Lng : 149.1652299, Q1 : 0.998134791851, Q2 : 0.0, Q3 : 0.0, Q4 : -0.0610485821962}
2019-04-03 23:04:28.11: SIM {TimeUS : 51535211, Roll : 0.0, Pitch : 0.0, Yaw : 353.0, Alt : 584.090026855, Lat : -35.363261, Lng : 149.1652299, Q1 : 0.998134791851, Q2 : 0.0, Q3 : 0.0, Q4 : -0.0610485821962}
2019-04-03 23:04:28.21: SIM {TimeUS : 51635171, Roll : 0.0, Pitch : 0.0, Yaw : 353.0, Alt : 584.090026855, Lat : -35.363261, Lng : 149.1652299, Q1 : 0.998134791851, Q2 : 0.0, Q3 : 0.0, Q4 : -0.0610485821962}
2019-04-03 23:04:28.31: SIM {TimeUS : 51735131, Roll : 0.0, Pitch : 0.0, Yaw : 353.0, Alt : 584.090026855, Lat : -35.363261, Lng : 149.1652299, Q1 : 0.998134791851, Q2 : 0.0, Q3 : 0.0, Q4 : -0.0610485821962}
2019-04-03 23:04:28.41: SIM {TimeUS : 51835091, Roll : 0.0, Pitch : 0.0, Yaw : 353.0, Alt : 584.090026855, Lat : -35.363261, Lng : 149.1652299, Q1 : 0.998134791851, Q2 : 0.0, Q3 : 0.0, Q4 : -0.0610485821962}
2019-04-03 23:04:28.51: SIM {TimeUS : 51935051, Roll : 0.0, Pitch : 0.0, Yaw : 353.0, Alt : 584.090026855, Lat : -35.363261, Lng : 149.1652299, Q1 : 0.998134791851, Q2 : 0.0, Q3 : 0.0, Q4 : -0.0610485821962}
2019-04-03 23:04:28.61: SIM {TimeUS : 52035011, Roll : 0.0, Pitch : 0.0, Yaw : 353.0, Alt : 584.090026855, Lat : -35.363261, Lng : 149.1652299, Q1 : 0.998134791851, Q2 : 0.0, Q3 : 0.0, Q4 : -0.0610485821962}
2019-04-03 23:04:28.71: SIM {TimeUS : 52134971, Roll : 0.0, Pitch : 0.0, Yaw : 353.0, Alt : 584.090026855, Lat : -35.363261, Lng : 149.1652299, Q1 : 0.998134791851, Q2 : 0.0, Q3 : 0.0, Q4 : -0.0610485821962}
2019-04-03 23:04:28.81: SIM {TimeUS : 52234931, Roll : 0.0, Pitch : 0.0, Yaw : 353.0, Alt : 584.090026855, Lat : -35.363261, Lng : 149.1652299, Q1 : 0.998134791851, Q2 : 0.0, Q3 : 0.0, Q4 : -0.0610485821962}
2019-04-03 23:04:28.91: SIM {TimeUS : 52334891, Roll : 0.0, Pitch : 0.0, Yaw : 353.0, Alt : 584.090026855, Lat : -35.363261, Lng : 149.1652299, Q1 : 0.998134791851, Q2 : 0.0, Q3 : 0.0, Q4 : -0.0610485821962}
2019-04-03 23:04:29.01: SIM {TimeUS : 52434851, Roll : 0.0, Pitch : 0.0, Yaw : 353.0, Alt : 584.090026855, Lat : -35.363261, Lng : 149.1652299, Q1 : 0.998134791851, Q2 : 0.0, Q3 : 0.0, Q4 : -0.0610485821962}
2019-04-03 23:04:29.11: SIM {TimeUS : 52534811, Roll : 0.0, Pitch : 0.0, Yaw : 353.0, Alt : 584.090026855, Lat : -35.363261, Lng : 149.1652299, Q1 : 0.998134791851, Q2 : 0.0, Q3 : 0.0, Q4 : -0.0610485821962}
2019-04-03 23:04:29.21: SIM {TimeUS : 52634771, Roll : 0.0, Pitch : 0.0, Yaw : 353.0, Alt : 584.090026855, Lat : -35.363261, Lng : 149.1652299, Q1 : 0.998134791851, Q2 : 0.0, Q3 : 0.0, Q4 : -0.0610485821962}
2019-04-03 23:04:29.31: SIM {TimeUS : 52734731, Roll : 0.0, Pitch : 0.0, Yaw : 353.0, Alt : 584.090026855, Lat : -35.363261, Lng : 149.1652299, Q1 : 0.998134791851, Q2 : 0.0, Q3 : 0.0, Q4 : -0.0610485821962}
2019-04-03 23:04:29.41: SIM {TimeUS : 52834691, Roll : 0.0, Pitch : 0.0, Yaw : 353.0, Alt : 584.090026855, Lat : -35.363261, Lng : 149.1652299, Q1 : 0.998134791851, Q2 : 0.0, Q3 : 0.0, Q4 : -0.0610485821962}
2019-04-03 23:04:29.51: SIM {TimeUS : 52934651, Roll : 0.0, Pitch : 0.0, Yaw : 353.0, Alt : 584.090026855, Lat : -35.363261, Lng : 149.1652299, Q1 : 0.998134791851, Q2 : 0.0, Q3 : 0.0, Q4 : -0.0610485821962}
2019-04-03 23:04:29.62: SIM {TimeUS : 53035444, Roll : 0.0, Pitch : 0.0, Yaw : 353.0, Alt : 584.090026855, Lat : -35.363261, Lng : 149.1652299, Q1 : 0.998134791851, Q2 : 0.0, Q3 : 0.0, Q4 : -0.0610485821962}
2019-04-03 23:04:29.72: SIM {TimeUS : 53135404, Roll : 0.0, Pitch : 0.0, Yaw : 353.0, Alt : 584.090026855, Lat : -35.363261, Lng : 149.1652299, Q1 : 0.998134791851, Q2 : 0.0, Q3 : 0.0, Q4 : -0.0610485821962}
2019-04-03 23:04:29.81: SIM {TimeUS : 53235364, Roll : 0.0, Pitch : 0.0, Yaw : 353.0, Alt : 584.090026855, Lat : -35.363261, Lng : 149.1652299, Q1 : 0.998134791851, Q2 : 0.0, Q3 : 0.0, Q4 : -0.0610485821962}
2019-04-03 23:04:29.91: SIM {TimeUS : 53335324, Roll : 0.0, Pitch : 0.0, Yaw : 353.0, Alt : 584.090026855, Lat : -35.363261, Lng : 149.1652299, Q1 : 0.998134791851, Q2 : 0.0, Q3 : 0.0, Q4 : -0.0610485821962}
2019-04-03 23:04:30.01: SIM {TimeUS : 53435284, Roll : 0.0, Pitch : 0.0, Yaw : 353.0, Alt : 584.090026855, Lat : -35.363261, Lng : 149.1652299, Q1 : 0.998134791851, Q2 : 0.0, Q3 : 0.0, Q4 : -0.0610485821962}
2019-04-03 23:04:30.11: SIM {TimeUS : 53535244, Roll : 0.0, Pitch : 0.0, Yaw : 353.0, Alt : 584.090026855, Lat : -35.363261, Lng : 149.1652299, Q1 : 0.998134791851, Q2 : 0.0, Q3 : 0.0, Q4 : -0.0610485821962}
2019-04-03 23:04:30.21: SIM {TimeUS : 53635204, Roll : 0.0, Pitch : 0.0, Yaw : 353.0, Alt : 584.090026855, Lat : -35.363261, Lng : 149.1652299, Q1 : 0.998134791851, Q2 : 0.0, Q3 : 0.0, Q4 : -0.0610485821962}
2019-04-03 23:04:30.31: SIM {TimeUS : 53735164, Roll : 0.0, Pitch : 0.0, Yaw : 353.0, Alt : 584.090026855, Lat : -35.363261, Lng : 149.1652299, Q1 : 0.998134791851, Q2 : 0.0, Q3 : 0.0, Q4 : -0.0610485821962}
2019-04-03 23:04:30.41: SIM {TimeUS : 53835124, Roll : 0.0, Pitch : 0.0, Yaw : 353.0, Alt : 584.090026855, Lat : -35.363261, Lng : 149.1652299, Q1 : 0.998134791851, Q2 : 0.0, Q3 : 0.0, Q4 : -0.0610485821962}
2019-04-03 23:04:30.51: SIM {TimeUS : 53935084, Roll : 0.0, Pitch : 0.0, Yaw : 353.0, Alt : 584.090026855, Lat : -35.363261, Lng : 149.1652299, Q1 : 0.998134791851, Q2 : 0.0, Q3 : 0.0, Q4 : -0.0610485821962}
2019-04-03 23:04:30.61: SIM {TimeUS : 54035044, Roll : 0.0, Pitch : 0.0, Yaw : 353.0, Alt : 584.090026855, Lat : -35.363261, Lng : 149.1652299, Q1 : 0.998134791851, Q2 : 0.0, Q3 : 0.0, Q4 : -0.0610485821962}
2019-04-03 23:04:30.71: SIM {TimeUS : 54135004, Roll : 0.0, Pitch : 0.0, Yaw : 353.0, Alt : 584.090026855, Lat : -35.363261, Lng : 149.1652299, Q1 : 0.998134791851, Q2 : 0.0, Q3 : 0.0, Q4 : -0.0610485821962}
2019-04-03 23:04:30.81: SIM {TimeUS : 54234964, Roll : 0.0, Pitch : 0.0, Yaw : 353.0, Alt : 584.090026855, Lat : -35.363261, Lng : 149.1652299, Q1 : 0.998134791851, Q2 : 0.0, Q3 : 0.0, Q4 : -0.0610485821962}
2019-04-03 23:04:30.91: SIM {TimeUS : 54334924, Roll : 0.0, Pitch : 0.0, Yaw : 353.0, Alt : 584.090026855, Lat : -35.363261, Lng : 149.1652299, Q1 : 0.998134791851, Q2 : 0.0, Q3 : 0.0, Q4 : -0.0610485821962}
2019-04-03 23:04:31.01: SIM {TimeUS : 54434884, Roll : 0.0, Pitch : 0.0, Yaw : 353.0, Alt : 584.090026855, Lat : -35.363261, Lng : 149.1652299, Q1 : 0.998134791851, Q2 : 0.0, Q3 : 0.0, Q4 : -0.0610485821962}
2019-04-03 23:04:31.11: SIM {TimeUS : 54534844, Roll : 0.0, Pitch : 0.0, Yaw : 353.0, Alt : 584.090026855, Lat : -35.363261, Lng : 149.1652299, Q1 : 0.998134791851, Q2 : 0.0, Q3 : 0.0, Q4 : -0.0610485821962}
2019-04-03 23:04:33.01: SIM {TimeUS : 56434917, Roll : 0.0, Pitch : 0.0, Yaw : 353.0, Alt : 584.090026855, Lat : -35.363261, Lng : 149.1652299, Q1 : 0.998134791851, Q2 : 0.0, Q3 : 0.0, Q4 : -0.0610485821962}
2019-04-03 23:04:33.11: SIM {TimeUS : 56534877, Roll : 0.0, Pitch : 0.0, Yaw : 353.0, Alt : 584.090026855, Lat : -35.363261, Lng : 149.1652299, Q1 : 0.998134791851, Q2 : 0.0, Q3 : 0.0, Q4 : -0.0610485821962}
2019-04-03 23:04:33.21: SIM {TimeUS : 56634837, Roll : 0.0, Pitch : 0.0, Yaw : 353.0, Alt : 584.090026855, Lat : -35.363261, Lng : 149.1652299, Q1 : 0.998134791851, Q2 : 0.0, Q3 : 0.0, Q4 : -0.0610485821962}
2019-04-03 23:04:33.31: SIM {TimeUS : 56734797, Roll : 0.0, Pitch : 0.0, Yaw : 353.0, Alt : 584.090026855, Lat : -35.363261, Lng : 149.1652299, Q1 : 0.998134791851, Q2 : 0.0, Q3 : 0.0, Q4 : -0.0610485821962}
2019-04-03 23:04:33.41: SIM {TimeUS : 56834757, Roll : 0.0, Pitch : 0.0, Yaw : 353.0, Alt : 584.090026855, Lat : -35.363261, Lng : 149.1652299, Q1 : 0.998134791851, Q2 : 0.0, Q3 : 0.0, Q4 : -0.0610485821962}
2019-04-03 23:04:33.51: SIM {TimeUS : 56934717, Roll : 0.0, Pitch : 0.0, Yaw : 353.0, Alt : 584.090026855, Lat : -35.363261, Lng : 149.1652299, Q1 : 0.998134791851, Q2 : 0.0, Q3 : 0.0, Q4 : -0.0610485821962}
2019-04-03 23:04:33.61: SIM {TimeUS : 57034677, Roll : 0.0, Pitch : 0.0, Yaw : 353.0, Alt : 584.090026855, Lat : -35.363261, Lng : 149.1652299, Q1 : 0.998134791851, Q2 : 0.0, Q3 : 0.0, Q4 : -0.0610485821962}
2019-04-03 23:04:33.72: SIM {TimeUS : 57135470, Roll : 0.0, Pitch : 0.0, Yaw : 353.0, Alt : 584.090026855, Lat : -35.363261, Lng : 149.1652299, Q1 : 0.998134791851, Q2 : 0.0, Q3 : 0.0, Q4 : -0.0610485821962}
2019-04-03 23:04:33.82: SIM {TimeUS : 57235430, Roll : 0.0, Pitch : 0.0, Yaw : 353.0, Alt : 584.090026855, Lat : -35.363261, Lng : 149.1652299, Q1 : 0.998134791851, Q2 : 0.0, Q3 : 0.0, Q4 : -0.0610485821962}
2019-04-03 23:04:33.91: SIM {TimeUS : 57335390, Roll : 0.0, Pitch : 0.0, Yaw : 353.0, Alt : 584.090026855, Lat : -35.363261, Lng : 149.1652299, Q1 : 0.998134791851, Q2 : 0.0, Q3 : 0.0, Q4 : -0.0610485821962}
2019-04-03 23:04:34.01: SIM {TimeUS : 57435350, Roll : 0.0, Pitch : 0.0, Yaw : 353.0, Alt : 584.090026855, Lat : -35.363261, Lng : 149.1652299, Q1 : 0.998134791851, Q2 : 0.0, Q3 : 0.0, Q4 : -0.0610485821962}
2019-04-03 23:04:34.11: SIM {TimeUS : 57535310, Roll : 0.0, Pitch : 0.0, Yaw : 353.0, Alt : 584.090026855, Lat : -35.363261, Lng : 149.1652299, Q1 : 0.998134791851, Q2 : 0.0, Q3 : 0.0, Q4 : -0.0610485821962}
2019-04-03 23:04:34.21: SIM {TimeUS : 57635270, Roll : 0.0, Pitch : 0.0, Yaw : 353.0, Alt : 584.090026855, Lat : -35.363261, Lng : 149.1652299, Q1 : 0.998134791851, Q2 : 0.0, Q3 : 0.0, Q4 : -0.0610485821962}
2019-04-03 23:04:34.31: SIM {TimeUS : 57735230, Roll : 0.0, Pitch : 0.0, Yaw : 353.0, Alt : 584.090026855, Lat : -35.363261, Lng : 149.1652299, Q1 : 0.998134791851, Q2 : 0.0, Q3 : 0.0, Q4 : -0.0610485821962}
2019-04-03 23:04:34.41: SIM {TimeUS : 57835190, Roll : 0.0, Pitch : 0.0, Yaw : 353.0, Alt : 584.090026855, Lat : -35.363261, Lng : 149.1652299, Q1 : 0.998134791851, Q2 : 0.0, Q3 : 0.0, Q4 : -0.0610485821962}
2019-04-03 23:04:34.51: SIM {TimeUS : 57935150, Roll : 0.0, Pitch : 0.0, Yaw : 353.0, Alt : 584.090026855, Lat : -35.363261, Lng : 149.1652299, Q1 : 0.998134791851, Q2 : 0.0, Q3 : 0.0, Q4 : -0.0610485821962}
2019-04-03 23:04:34.61: SIM {TimeUS : 58035110, Roll : 0.0, Pitch : 0.0, Yaw : 353.0, Alt : 584.090026855, Lat : -35.363261, Lng : 149.1652299, Q1 : 0.998134791851, Q2 : 0.0, Q3 : 0.0, Q4 : -0.0610485821962}
2019-04-03 23:04:34.71: SIM {TimeUS : 58135070, Roll : 0.0, Pitch : 0.0, Yaw : 353.0, Alt : 584.090026855, Lat : -35.363261, Lng : 149.1652299, Q1 : 0.998134791851, Q2 : 0.0, Q3 : 0.0, Q4 : -0.0610485821962}
2019-04-03 23:04:34.81: SIM {TimeUS : 58235030, Roll : 0.0, Pitch : 0.0, Yaw : 353.0, Alt : 584.090026855, Lat : -35.363261, Lng : 149.1652299, Q1 : 0.998134791851, Q2 : 0.0, Q3 : 0.0, Q4 : -0.0610485821962}
2019-04-03 23:04:34.91: SIM {TimeUS : 58334990, Roll : 0.0, Pitch : 0.0, Yaw : 353.0, Alt : 584.090026855, Lat : -35.363261, Lng : 149.1652299, Q1 : 0.998134791851, Q2 : 0.0, Q3 : 0.0, Q4 : -0.0610485821962}
2019-04-03 23:04:35.01: SIM {TimeUS : 58434950, Roll : 0.0, Pitch : 0.0, Yaw : 353.0, Alt : 584.090026855, Lat : -35.363261, Lng : 149.1652299, Q1 : 0.998134791851, Q2 : 0.0, Q3 : 0.0, Q4 : -0.0610485821962}
2019-04-03 23:04:35.11: SIM {TimeUS : 58534910, Roll : 0.0, Pitch : 0.0, Yaw : 353.0, Alt : 584.090026855, Lat : -35.363261, Lng : 149.1652299, Q1 : 0.998134791851, Q2 : 0.0, Q3 : 0.0, Q4 : -0.0610485821962}
2019-04-03 23:04:35.21: SIM {TimeUS : 58634870, Roll : 0.0, Pitch : 0.0, Yaw : 353.0, Alt : 584.090026855, Lat : -35.363261, Lng : 149.1652299, Q1 : 0.998134791851, Q2 : 0.0, Q3 : 0.0, Q4 : -0.0610485821962}
2019-04-03 23:04:35.31: SIM {TimeUS : 58734830, Roll : 0.0, Pitch : 0.0, Yaw : 353.0, Alt : 584.090026855, Lat : -35.363261, Lng : 149.1652299, Q1 : 0.998134791851, Q2 : 0.0, Q3 : 0.0, Q4 : -0.0610485821962}
2019-04-03 23:04:35.41: SIM {TimeUS : 58834790, Roll : 0.0, Pitch : 0.0, Yaw : 353.0, Alt : 584.090026855, Lat : -35.363261, Lng : 149.1652299, Q1 : 0.998134791851, Q2 : 0.0, Q3 : 0.0, Q4 : -0.0610485821962}
2019-04-03 23:04:35.51: SIM {TimeUS : 58934750, Roll : 0.0, Pitch : 0.0, Yaw : 353.0, Alt : 584.090026855, Lat : -35.363261, Lng : 149.1652299, Q1 : 0.998134791851, Q2 : 0.0, Q3 : 0.0, Q4 : -0.0610485821962}
2019-04-03 23:04:35.61: SIM {TimeUS : 59034710, Roll : 0.0, Pitch : 0.0, Yaw : 353.0, Alt : 584.090026855, Lat : -35.363261, Lng : 149.1652299, Q1 : 0.998134791851, Q2 : 0.0, Q3 : 0.0, Q4 : -0.0610485821962}
2019-04-03 23:04:35.71: SIM {TimeUS : 59134670, Roll : 0.0, Pitch : 0.0, Yaw : 353.0, Alt : 584.090026855, Lat : -35.363261, Lng : 149.1652299, Q1 : 0.998134791851, Q2 : 0.0, Q3 : 0.0, Q4 : -0.0610485821962}
2019-04-03 23:04:35.82: SIM {TimeUS : 59235463, Roll : 0.0, Pitch : 0.0, Yaw : 353.0, Alt : 584.090026855, Lat : -35.363261, Lng : 149.1652299, Q1 : 0.998134791851, Q2 : 0.0, Q3 : 0.0, Q4 : -0.0610485821962}
2019-04-03 23:04:35.92: SIM {TimeUS : 59335423, Roll : 0.0, Pitch : 0.0, Yaw : 353.0, Alt : 584.090026855, Lat : -35.363261, Lng : 149.1652299, Q1 : 0.998134791851, Q2 : 0.0, Q3 : 0.0, Q4 : -0.0610485821962}
2019-04-03 23:04:36.01: SIM {TimeUS : 59435383, Roll : 0.0, Pitch : 0.0, Yaw : 353.0, Alt : 584.090026855, Lat : -35.363261, Lng : 149.1652299, Q1 : 0.998134791851, Q2 : 0.0, Q3 : 0.0, Q4 : -0.0610485821962}
2019-04-03 23:04:36.11: SIM {TimeUS : 59535343, Roll : 0.0, Pitch : 0.0, Yaw : 353.0, Alt : 584.090026855, Lat : -35.363261, Lng : 149.1652299, Q1 : 0.998134791851, Q2 : 0.0, Q3 : 0.0, Q4 : -0.0610485821962}
2019-04-03 23:04:36.21: SIM {TimeUS : 59635303, Roll : 0.0, Pitch : 0.0, Yaw : 353.0, Alt : 584.090026855, Lat : -35.363261, Lng : 149.1652299, Q1 : 0.998134791851, Q2 : 0.0, Q3 : 0.0, Q4 : -0.0610485821962}
2019-04-03 23:04:36.31: SIM {TimeUS : 59735263, Roll : 0.0, Pitch : 0.0, Yaw : 353.0, Alt : 584.090026855, Lat : -35.363261, Lng : 149.1652299, Q1 : 0.998134791851, Q2 : 0.0, Q3 : 0.0, Q4 : -0.0610485821962}
2019-04-03 23:04:36.41: SIM {TimeUS : 59835223, Roll : 0.0, Pitch : 0.0, Yaw : 353.0, Alt : 584.090026855, Lat : -35.363261, Lng : 149.1652299, Q1 : 0.998134791851, Q2 : 0.0, Q3 : 0.0, Q4 : -0.0610485821962}
2019-04-03 23:04:36.51: SIM {TimeUS : 59935183, Roll : 0.0, Pitch : 0.0, Yaw : 353.0, Alt : 584.090026855, Lat : -35.363261, Lng : 149.1652299, Q1 : 0.998134791851, Q2 : 0.0, Q3 : 0.0, Q4 : -0.0610485821962}
2019-04-03 23:04:36.61: SIM {TimeUS : 60035143, Roll : 0.0, Pitch : 0.0, Yaw : 353.0, Alt : 584.090026855, Lat : -35.363261, Lng : 149.1652299, Q1 : 0.998134791851, Q2 : 0.0, Q3 : 0.0, Q4 : -0.0610485821962}
2019-04-03 23:04:36.71: SIM {TimeUS : 60135103, Roll : 0.0, Pitch : 0.0, Yaw : 353.0, Alt : 584.090026855, Lat : -35.363261, Lng : 149.1652299, Q1 : 0.998134791851, Q2 : 0.0, Q3 : 0.0, Q4 : -0.0610485821962}
2019-04-03 23:04:36.81: SIM {TimeUS : 60235063, Roll : 0.0, Pitch : 0.0, Yaw : 353.0, Alt : 584.090026855, Lat : -35.363261, Lng : 149.1652299, Q1 : 0.998134791851, Q2 : 0.0, Q3 : 0.0, Q4 : -0.0610485821962}
2019-04-03 23:04:36.91: SIM {TimeUS : 60335023, Roll : 0.0, Pitch : 0.0, Yaw : 353.0, Alt : 584.090026855, Lat : -35.363261, Lng : 149.1652299, Q1 : 0.998134791851, Q2 : 0.0, Q3 : 0.0, Q4 : -0.0610485821962}
2019-04-03 23:04:37.01: SIM {TimeUS : 60434983, Roll : 0.0, Pitch : 0.0, Yaw : 353.0, Alt : 584.090026855, Lat : -35.363261, Lng : 149.1652299, Q1 : 0.998134791851, Q2 : 0.0, Q3 : 0.0, Q4 : -0.0610485821962}
2019-04-03 23:04:37.11: SIM {TimeUS : 60534943, Roll : 0.0, Pitch : 0.0, Yaw : 353.0, Alt : 584.090026855, Lat : -35.363261, Lng : 149.1652299, Q1 : 0.998134791851, Q2 : 0.0, Q3 : 0.0, Q4 : -0.0610485821962}
2019-04-03 23:04:37.21: SIM {TimeUS : 60634903, Roll : 0.0, Pitch : 0.0, Yaw : 353.0, Alt : 584.090026855, Lat : -35.363261, Lng : 149.1652299, Q1 : 0.998134791851, Q2 : 0.0, Q3 : 0.0, Q4 : -0.0610485821962}
2019-04-03 23:04:37.31: SIM {TimeUS : 60734863, Roll : 0.0, Pitch : 0.0, Yaw : 353.0, Alt : 584.090026855, Lat : -35.363261, Lng : 149.1652299, Q1 : 0.998134791851, Q2 : 0.0, Q3 : 0.0, Q4 : -0.0610485821962}
2019-04-03 23:04:37.41: SIM {TimeUS : 60834823, Roll : 0.0, Pitch : 0.0, Yaw : 353.0, Alt : 584.090026855, Lat : -35.363261, Lng : 149.1652299, Q1 : 0.998134791851, Q2 : 0.0, Q3 : 0.0, Q4 : -0.0610486268997}
2019-04-03 23:04:37.51: SIM {TimeUS : 60934783, Roll : 0.0, Pitch : 0.0, Yaw : 353.0, Alt : 584.090026855, Lat : -35.363261, Lng : 149.1652299, Q1 : 0.998134791851, Q2 : 0.0, Q3 : 0.0, Q4 : -0.0610486753285}
2019-04-03 23:04:37.61: SIM {TimeUS : 61034743, Roll : 0.0, Pitch : 0.0, Yaw : 353.0, Alt : 584.090026855, Lat : -35.363261, Lng : 149.1652299, Q1 : 0.998134791851, Q2 : 0.0, Q3 : 0.0, Q4 : -0.0610486753285}
2019-04-03 23:04:37.71: SIM {TimeUS : 61134703, Roll : 0.0, Pitch : 0.0, Yaw : 353.0, Alt : 584.090026855, Lat : -35.363261, Lng : 149.1652299, Q1 : 0.998134791851, Q2 : 0.0, Q3 : 0.0, Q4 : -0.0610486753285}
2019-04-03 23:04:37.81: SIM {TimeUS : 61234663, Roll : 0.0, Pitch : 0.0, Yaw : 353.0, Alt : 584.090026855, Lat : -35.363261, Lng : 149.1652299, Q1 : 0.998134791851, Q2 : 0.0, Q3 : 0.0, Q4 : -0.0610486641526}
2019-04-03 23:04:37.92: SIM {TimeUS : 61335456, Roll : 0.0, Pitch : 0.0, Yaw : 353.0, Alt : 584.090026855, Lat : -35.363261, Lng : 149.1652299, Q1 : 0.998134791851, Q2 : 0.0, Q3 : 0.0, Q4 : -0.0610486753285}
2019-04-03 23:04:38.02: SIM {TimeUS : 61435416, Roll : 0.0, Pitch : 0.0, Yaw : 353.0, Alt : 584.090026855, Lat : -35.363261, Lng : 149.1652299, Q1 : 0.998134791851, Q2 : 0.0, Q3 : 0.0, Q4 : -0.0610486641526}
2019-04-03 23:04:38.11: SIM {TimeUS : 61535376, Roll : 0.0, Pitch : 0.0, Yaw : 353.0, Alt : 584.090026855, Lat : -35.363261, Lng : 149.1652299, Q1 : 0.998134791851, Q2 : 0.0, Q3 : 0.0, Q4 : -0.0610486753285}
2019-04-03 23:04:38.21: SIM {TimeUS : 61635336, Roll : 0.0, Pitch : 0.0, Yaw : 353.0, Alt : 584.099975586, Lat : -35.363261, Lng : 149.1652299, Q1 : 0.998134791851, Q2 : 0.0, Q3 : 0.0, Q4 : -0.0610486753285}
2019-04-03 23:04:38.31: SIM {TimeUS : 61735296, Roll : 0.0, Pitch : 0.0, Yaw : 353.0, Alt : 584.099975586, Lat : -35.363261, Lng : 149.1652299, Q1 : 0.998134791851, Q2 : 0.0, Q3 : 0.0, Q4 : -0.0610486753285}
2019-04-03 23:04:38.41: SIM {TimeUS : 61835256, Roll : 0.0, Pitch : 0.0, Yaw : 353.0, Alt : 584.109985352, Lat : -35.363261, Lng : 149.1652299, Q1 : 0.998134791851, Q2 : 0.0, Q3 : 0.0, Q4 : -0.0610486753285}
2019-04-03 23:04:38.51: SIM {TimeUS : 61935216, Roll : 0.0, Pitch : 0.0, Yaw : 353.0, Alt : 584.130004883, Lat : -35.363261, Lng : 149.1652299, Q1 : 0.998134791851, Q2 : 0.0, Q3 : 0.0, Q4 : -0.0610486753285}
2019-04-03 23:04:38.61: SIM {TimeUS : 62035176, Roll : 0.0, Pitch : 0.0, Yaw : 353.0, Alt : 584.159973145, Lat : -35.363261, Lng : 149.1652299, Q1 : 0.998134791851, Q2 : 0.0, Q3 : 0.0, Q4 : -0.0610486641526}
2019-04-03 23:04:38.71: SIM {TimeUS : 62135136, Roll : 0.0, Pitch : 0.0, Yaw : 353.0, Alt : 584.190002441, Lat : -35.363261, Lng : 149.1652299, Q1 : 0.998134791851, Q2 : 0.0, Q3 : 0.0, Q4 : -0.0610486753285}
2019-04-03 23:04:38.81: SIM {TimeUS : 62235096, Roll : 0.0, Pitch : 0.0, Yaw : 352.99, Alt : 584.229980469, Lat : -35.363261, Lng : 149.1652299, Q1 : 0.998134672642, Q2 : -7.493483281e-05, Q3 : 4.12944167749e-08, Q4 : -0.0610513612628}
2019-04-03 23:04:38.91: SIM {TimeUS : 62335056, Roll : -0.04, Pitch : 0.0, Yaw : 352.99, Alt : 584.320007324, Lat : -35.363261, Lng : 149.1652299, Q1 : 0.998133599758, Q2 : -0.000414167618146, Q3 : 5.66858143429e-05, Q4 : -0.0610673986375}
2019-04-03 23:04:39.01: SIM {TimeUS : 62435016, Roll : -0.08, Pitch : 0.0, Yaw : 352.99, Alt : 584.460021973, Lat : -35.363261, Lng : 149.1652299, Q1 : 0.998131871223, Q2 : -0.000717860239092, Q3 : 1.29283043862e-05, Q4 : -0.0610918924212}
2019-04-03 23:04:39.11: SIM {TimeUS : 62534976, Roll : -0.1, Pitch : -0.02, Yaw : 352.99, Alt : 584.609985352, Lat : -35.363261, Lng : 149.1652299, Q1 : 0.998130023479, Q2 : -0.000887189933565, Q3 : -0.000133890411234, Q4 : -0.0611198246479}
2019-04-03 23:04:39.21: SIM {TimeUS : 62634936, Roll : -0.11, Pitch : -0.04, Yaw : 352.98, Alt : 584.770019531, Lat : -35.363261, Lng : 149.1652299, Q1 : 0.998128056526, Q2 : -0.00101666850969, Q3 : -0.000341286620824, Q4 : -0.0611495412886}
2019-04-03 23:04:39.31: SIM {TimeUS : 62734896, Roll : -0.12, Pitch : -0.06, Yaw : 352.98, Alt : 584.91998291, Lat : -35.363261, Lng : 149.1652299, Q1 : 0.998126387596, Q2 : -0.0010993948672, Q3 : -0.00052907638019, Q4 : -0.0611746050417}
2019-04-03 23:04:39.41: SIM {TimeUS : 62834856, Roll : -0.11, Pitch : -0.08, Yaw : 352.98, Alt : 585.070007324, Lat : -35.363261, Lng : 149.1652299, Q1 : 0.998125135899, Q2 : -0.00102382327896, Q3 : -0.000667501997668, Q4 : -0.0611950978637}
2019-04-03 23:04:39.51: SIM {TimeUS : 62934816, Roll : -0.06, Pitch : -0.07, Yaw : 352.98, Alt : 585.229980469, Lat : -35.363261, Lng : 149.1652299, Q1 : 0.998124539852, Q2 : -0.000621070619673, Q3 : -0.00064528058283, Q4 : -0.0612096972764}
2019-04-03 23:04:39.61: SIM {TimeUS : 63034776, Roll : -0.01, Pitch : -0.04, Yaw : 352.98, Alt : 585.390014648, Lat : -35.363261, Lng : 149.1652299, Q1 : 0.998124301434, Q2 : -0.000140924137668, Q3 : -0.000414262030972, Q4 : -0.0612182319164}
2019-04-03 23:04:39.71: SIM {TimeUS : 63134736, Roll : 0.02, Pitch : 0.0, Yaw : 352.98, Alt : 585.559997559, Lat : -35.363261, Lng : 149.1652299, Q1 : 0.99812412262, Q2 : 0.000257151230471, Q3 : 5.1156450354e-05, Q4 : -0.0612224638462}
2019-04-03 23:04:39.81: SIM {TimeUS : 63234696, Roll : 0.03, Pitch : 0.06, Yaw : 352.98, Alt : 585.729980469, Lat : -35.363261, Lng : 149.1652298, Q1 : 0.998124480247, Q2 : 0.00034906930523, Q3 : 0.00051350222202, Q4 : -0.0612137950957}
2019-04-03 23:04:39.91: SIM {TimeUS : 63334656, Roll : 0.02, Pitch : 0.1, Yaw : 352.98, Alt : 585.909973145, Lat : -35.363261, Lng : 149.1652298, Q1 : 0.998124778271, Q2 : 0.000237853193539, Q3 : 0.000862451561261, Q4 : -0.0612059980631}
2019-04-03 23:04:40.02: SIM {TimeUS : 63435449, Roll : 0.0, Pitch : 0.11, Yaw : 352.98, Alt : 586.099975586, Lat : -35.363261, Lng : 149.1652298, Q1 : 0.998124778271, Q2 : 2.25541498367e-05, Q3 : 0.000983428559266, Q4 : -0.0612049140036}
2019-04-03 23:04:40.12: SIM {TimeUS : 63535409, Roll : -0.02, Pitch : 0.09, Yaw : 352.98, Alt : 586.289978027, Lat : -35.363261, Lng : 149.1652298, Q1 : 0.998124778271, Q2 : -0.000187721947441, Q3 : 0.000837317726109, Q4 : -0.0612068921328}
2019-04-03 23:04:40.21: SIM {TimeUS : 63635369, Roll : -0.02, Pitch : 0.06, Yaw : 352.98, Alt : 586.479980469, Lat : -35.363261, Lng : 149.1652298, Q1 : 0.998124659061, Q2 : -0.000139370909892, Q3 : 0.000581913569476, Q4 : -0.0612105950713}
2019-04-03 23:04:40.31: SIM {TimeUS : 63735329, Roll : -0.01, Pitch : 0.02, Yaw : 352.98, Alt : 586.66998291, Lat : -35.363261, Lng : 149.1652298, Q1 : 0.998124837875, Q2 : -0.000153049491928, Q3 : 0.000202582523343, Q4 : -0.0612117350101}
2019-04-03 23:04:40.41: SIM {TimeUS : 63835289, Roll : -0.01, Pitch : -0.01, Yaw : 352.98, Alt : 586.869995117, Lat : -35.363261, Lng : 149.1652298, Q1 : 0.998124778271, Q2 : -0.00011352848378, Q3 : -0.000104065198684, Q4 : -0.0612123422325}
2019-04-03 23:04:40.51: SIM {TimeUS : 63935249, Roll : 0.0, Pitch : 0.0, Yaw : 352.98, Alt : 587.059997559, Lat : -35.363261, Lng : 149.1652298, Q1 : 0.998124778271, Q2 : -3.39010330208e-05, Q3 : -8.50415526656e-05, Q4 : -0.0612126886845}
2019-04-03 23:04:40.61: SIM {TimeUS : 64035209, Roll : 0.0, Pitch : 0.0, Yaw : 352.98, Alt : 587.25, Lat : -35.363261, Lng : 149.1652298, Q1 : 0.998124778271, Q2 : -5.12584338139e-05, Q3 : -5.73444522161e-05, Q4 : -0.0612128414214}
2019-04-03 23:04:40.71: SIM {TimeUS : 64135169, Roll : 0.0, Pitch : 0.0, Yaw : 352.98, Alt : 587.41998291, Lat : -35.363261, Lng : 149.1652298, Q1 : 0.998124599457, Q2 : -7.0984242484e-05, Q3 : -7.37247046345e-06, Q4 : -0.0612149573863}
2019-04-03 23:04:40.81: SIM {TimeUS : 64235129, Roll : 0.02, Pitch : 0.05, Yaw : 352.98, Alt : 587.590026855, Lat : -35.363261, Lng : 149.1652298, Q1 : 0.99812412262, Q2 : 0.000235347935813, Q3 : 0.000431209395174, Q4 : -0.0612207464874}
2019-04-03 23:04:40.91: SIM {TimeUS : 64335089, Roll : 0.17, Pitch : 0.29, Yaw : 352.97, Alt : 587.739990234, Lat : -35.363261, Lng : 149.1652298, Q1 : 0.998119473457, Q2 : 0.00166760361753, Q3 : 0.00244202325121, Q4 : -0.0612277798355}
2019-04-03 23:04:41.01: SIM {TimeUS : 64435049, Roll : 0.46, Pitch : 0.81, Yaw : 352.98, Alt : 587.880004883, Lat : -35.363261, Lng : 149.1652298, Q1 : 0.998089373112, Q2 : 0.00447176024318, Q3 : 0.00688573345542, Q4 : -0.0612391754985}
2019-04-03 23:04:41.11: SIM {TimeUS : 64535009, Roll : 0.87, Pitch : 1.61, Yaw : 352.98, Alt : 588.010009766, Lat : -35.363261, Lng : 149.1652298, Q1 : 0.997992753983, Q2 : 0.00846066046506, Q3 : 0.0136299040169, Q4 : -0.0612630210817}
2019-04-03 23:04:41.21: SIM {TimeUS : 64634969, Roll : 1.35, Pitch : 2.6, Yaw : 352.99, Alt : 588.130004883, Lat : -35.363261, Lng : 149.1652298, Q1 : 0.997789859772, Q2 : 0.0132028860971, Q3 : 0.0219386424869, Q4 : -0.0613166987896}
2019-04-03 23:04:41.31: SIM {TimeUS : 64734929, Roll : 1.86, Pitch : 3.64, Yaw : 353.01, Alt : 588.229980469, Lat : -35.363261, Lng : 149.1652298, Q1 : 0.997474014759, Q2 : 0.0181767046452, Q3 : 0.0307055842131, Q4 : -0.0614189952612}
2019-04-03 23:04:41.41: SIM {TimeUS : 64834889, Roll : 2.32, Pitch : 4.59, Yaw : 353.02, Alt : 588.320007324, Lat : -35.363261, Lng : 149.1652299, Q1 : 0.997091531754, Q2 : 0.0226342491806, Q3 : 0.0387865081429, Q4 : -0.0615780130029}
2019-04-03 23:04:41.51: SIM {TimeUS : 64934849, Roll : 2.67, Pitch : 5.35, Yaw : 353.02, Alt : 588.409973145, Lat : -35.3632613, Lng : 149.1652301, Q1 : 0.996723115444, Q2 : 0.0260747466236, Q3 : 0.045201394707, Q4 : -0.0618067346513}
2019-04-03 23:04:41.61: SIM {TimeUS : 65034809, Roll : 2.92, Pitch : 5.93, Yaw : 353.01, Alt : 588.479980469, Lat : -35.3632615, Lng : 149.1652302, Q1 : 0.996400713921, Q2 : 0.0285992734134, Q3 : 0.0501160286367, Q4 : -0.062097966671}
2019-04-03 23:04:41.71: SIM {TimeUS : 65134769, Roll : 3.12, Pitch : 6.38, Yaw : 353.0, Alt : 588.539978027, Lat : -35.3632617, Lng : 149.1652305, Q1 : 0.996123731136, Q2 : 0.0305793192238, Q3 : 0.0538903810084, Q4 : -0.0624355897307}
2019-04-03 23:04:41.81: SIM {TimeUS : 65234729, Roll : 3.3, Pitch : 6.74, Yaw : 352.97, Alt : 588.599975586, Lat : -35.3632621, Lng : 149.1652308, Q1 : 0.99587649107, Q2 : 0.0323539748788, Q3 : 0.0569144487381, Q4 : -0.0628010258079}
2019-04-03 23:04:41.91: SIM {TimeUS : 65334689, Roll : 3.46, Pitch : 7.05, Yaw : 352.95, Alt : 588.650024414, Lat : -35.3632625, Lng : 149.1652311, Q1 : 0.995650172234, Q2 : 0.0338688977063, Q3 : 0.0595443919301, Q4 : -0.0631511583924}
2019-04-03 23:04:42.01: SIM {TimeUS : 65434649, Roll : 3.55, Pitch : 7.3, Yaw : 352.93, Alt : 588.690002441, Lat : -35.3632629, Lng : 149.1652315, Q1 : 0.995471417904, Q2 : 0.0348398052156, Q3 : 0.0616120323539, Q4 : -0.0634573176503}
2019-04-03 23:04:42.12: SIM {TimeUS : 65535442, Roll : 3.59, Pitch : 7.47, Yaw : 352.91, Alt : 588.729980469, Lat : -35.3632635, Lng : 149.165232, Q1 : 0.995350420475, Q2 : 0.0352334827185, Q3 : 0.0630674809217, Q4 : -0.0637076720595}
2019-04-03 23:04:42.22: SIM {TimeUS : 65635402, Roll : 3.61, Pitch : 7.58, Yaw : 352.89, Alt : 588.770019531, Lat : -35.3632641, Lng : 149.1652325, Q1 : 0.995267212391, Q2 : 0.035493478179, Q3 : 0.0640397518873, Q4 : -0.0638928562403}
2019-04-03 23:04:42.31: SIM {TimeUS : 65735362, Roll : 3.66, Pitch : 7.66, Yaw : 352.88, Alt : 588.799987793, Lat : -35.3632649, Lng : 149.165233, Q1 : 0.995197296143, Q2 : 0.0359553620219, Q3 : 0.0647317841649, Q4 : -0.0640264675021}
2019-04-03 23:04:42.41: SIM {TimeUS : 65835322, Roll : 3.72, Pitch : 7.76, Yaw : 352.88, Alt : 588.840026855, Lat : -35.3632657, Lng : 149.1652336, Q1 : 0.995116531849, Q2 : 0.0366041660309, Q3 : 0.0655305534601, Q4 : -0.0641009360552}
2019-04-03 23:04:42.51: SIM {TimeUS : 65935282, Roll : 3.74, Pitch : 7.97, Yaw : 352.93, Alt : 588.869995117, Lat : -35.3632665, Lng : 149.1652342, Q1 : 0.995015859604, Q2 : 0.0368184968829, Q3 : 0.0673432946205, Q4 : -0.0636616498232}
2019-04-03 23:04:42.61: SIM {TimeUS : 66035242, Roll : 3.56, Pitch : 8.39, Yaw : 353.45, Alt : 588.900024414, Lat : -35.3632674, Lng : 149.165235, Q1 : 0.995077550411, Q2 : 0.035127710551, Q3 : 0.0713020414114, Q4 : -0.0591840781271}
2019-04-03 23:04:42.71: SIM {TimeUS : 66135202, Roll : 3.33, Pitch : 8.99, Yaw : 355.13, Alt : 588.91998291, Lat : -35.3632683, Lng : 149.1652358, Q1 : 0.995503425598, Q2 : 0.0323206447065, Q3 : 0.0770804509521, Q4 : -0.0445749014616}
2019-04-03 23:04:42.81: SIM {TimeUS : 66235162, Roll : 3.45, Pitch : 9.5, Yaw : 358.46, Alt : 588.950012207, Lat : -35.3632694, Lng : 149.1652365, Q1 : 0.995982944965, Q2 : 0.0311417728662, Q3 : 0.0824392586946, Q4 : -0.0158738680184}
2019-04-03 23:04:42.91: SIM {TimeUS : 66335122, Roll : 4.13, Pitch : 9.69, Yaw : 3.41, Alt : 588.979980469, Lat : -35.3632705, Lng : 149.1652373, Q1 : 0.995420873165, Q2 : 0.0334171392024, Q3 : 0.0854990035295, Q4 : 0.0266545135528}
2019-04-03 23:04:43.01: SIM {TimeUS : 66435082, Roll : 5.37, Pitch : 9.39, Yaw : 9.74, Alt : 589.010009766, Lat : -35.3632716, Lng : 149.165238, Q1 : 0.992274284363, Q2 : 0.0396167077124, Q3 : 0.0854702293873, Q4 : 0.0807288587093}
2019-04-03 23:04:43.11: SIM {TimeUS : 66535042, Roll : 7.0, Pitch : 8.56, Yaw : 17.09, Alt : 589.039978027, Lat : -35.3632729, Lng : 149.1652389, Q1 : 0.984966635704, Q2 : 0.0491258017719, Q3 : 0.0827499330044, Q4 : 0.143456652761}
2019-04-03 23:04:43.21: SIM {TimeUS : 66635002, Roll : 8.76, Pitch : 7.18, Yaw : 25.13, Alt : 589.070007324, Lat : -35.3632742, Lng : 149.1652398, Q1 : 0.972319960594, Q2 : 0.0608687438071, Q3 : 0.0775755271316, Q4 : 0.21182769537}
2019-04-03 23:04:43.31: SIM {TimeUS : 66734962, Roll : 10.44, Pitch : 5.34, Yaw : 33.53, Alt : 589.099975586, Lat : -35.3632756, Lng : 149.1652407, Q1 : 0.95368373394, Q2 : 0.0736496597528, Q3 : 0.0707278028131, Q4 : 0.282949864864}
2019-04-03 23:04:43.41: SIM {TimeUS : 66834922, Roll : 11.8, Pitch : 3.21, Yaw : 42.06, Alt : 589.140014648, Lat : -35.3632772, Lng : 149.1652417, Q1 : 0.929104030132, Q2 : 0.0859131366014, Q3 : 0.0629561319947, Q4 : 0.354148536921}
2019-04-03 23:04:43.51: SIM {TimeUS : 66934882, Roll : 12.7, Pitch : 0.93, Yaw : 50.46, Alt : 589.16998291, Lat : -35.3632786, Lng : 149.1652427, Q1 : 0.899369001389, Q2 : 0.096635773778, Q3 : 0.0545430965722, Q4 : 0.422873467207}
2019-04-03 23:04:43.61: SIM {TimeUS : 67034842, Roll : 13.12, Pitch : -1.32, Yaw : 58.56, Alt : 589.210021973, Lat : -35.3632803, Lng : 149.1652437, Q1 : 0.865811645985, Q2 : 0.105308175087, Q3 : 0.045912720263, Q4 : 0.487003535032}
2019-04-03 23:04:43.71: SIM {TimeUS : 67134802, Roll : 13.12, Pitch : -3.41, Yaw : 66.2, Alt : 589.239990234, Lat : -35.363282, Lng : 149.165245, Q1 : 0.829974114895, Q2 : 0.111846610904, Q3 : 0.0375691726804, Q4 : 0.545180559158}
2019-04-03 23:04:43.81: SIM {TimeUS : 67234762, Roll : 12.79, Pitch : -5.26, Yaw : 73.32, Alt : 589.280029297, Lat : -35.3632838, Lng : 149.1652463, Q1 : 0.793268620968, Q2 : 0.116586856544, Q3 : 0.0298380311579, Q4 : 0.596860229969}
2019-04-03 23:04:43.91: SIM {TimeUS : 67334722, Roll : 12.29, Pitch : -6.86, Yaw : 79.89, Alt : 589.320007324, Lat : -35.3632856, Lng : 149.1652475, Q1 : 0.756717860699, Q2 : 0.120159603655, Q3 : 0.0230042859912, Q4 : 0.642192006111}
2019-04-03 23:04:44.01: SIM {TimeUS : 67434682, Roll : 11.69, Pitch : -8.19, Yaw : 85.97, Alt : 589.369995117, Lat : -35.3632874, Lng : 149.165249, Q1 : 0.720904171467, Q2 : 0.12278265506, Q3 : 0.0172834340483, Q4 : 0.681852519512}
2019-04-03 23:04:44.11: SIM {TimeUS : 67534642, Roll : 11.05, Pitch : -9.26, Yaw : 91.62, Alt : 589.409973145, Lat : -35.3632894, Lng : 149.1652506, Q1 : 0.685948848724, Q2 : 0.124559961259, Q3 : 0.0127842221409, Q4 : 0.716795384884}
2019-04-03 23:04:44.22: SIM {TimeUS : 67635435, Roll : 10.38, Pitch : -10.15, Yaw : 96.99, Alt : 589.450012207, Lat : -35.3632914, Lng : 149.1652522, Q1 : 0.651328146458, Q2 : 0.125776410103, Q3 : 0.00908583775163, Q4 : 0.748244285583}
2019-04-03 23:04:44.31: SIM {TimeUS : 67735395, Roll : 9.7, Pitch : -10.94, Yaw : 102.12, Alt : 589.5, Lat : -35.3632933, Lng : 149.1652538, Q1 : 0.617077112198, Q2 : 0.126842468977, Q3 : 0.00580924749374, Q4 : 0.776590704918}
2019-04-03 23:04:44.41: SIM {TimeUS : 67835355, Roll : 9.0, Pitch : -11.68, Yaw : 107.18, Alt : 589.549987793, Lat : -35.3632955, Lng : 149.1652556, Q1 : 0.582213759422, Q2 : 0.128025740385, Q3 : 0.00257019116543, Q4 : 0.802888512611}
2019-04-03 23:04:44.51: SIM {TimeUS : 67935315, Roll : 8.22, Pitch : -12.42, Yaw : 112.27, Alt : 589.590026855, Lat : -35.3632976, Lng : 149.1652574, Q1 : 0.546057522297, Q2 : 0.129335463047, Q3 : -0.00097560940776, Q4 : 0.827703177929}
2019-04-03 23:04:44.61: SIM {TimeUS : 68035275, Roll : 7.3, Pitch : -13.15, Yaw : 117.5, Alt : 589.640014648, Lat : -35.3632999, Lng : 149.1652591, Q1 : 0.508038878441, Q2 : 0.130567535758, Q3 : -0.00517891580239, Q4 : 0.851364791393}
2019-04-03 23:04:44.71: SIM {TimeUS : 68135235, Roll : 6.21, Pitch : -13.86, Yaw : 122.92, Alt : 589.690002441, Lat : -35.3633021, Lng : 149.165261, Q1 : 0.46776470542, Q2 : 0.131572574377, Q3 : -0.0103352768347, Q4 : 0.873943924904}
2019-04-03 23:04:44.81: SIM {TimeUS : 68235195, Roll : 4.89, Pitch : -14.5, Yaw : 128.58, Alt : 589.739990234, Lat : -35.3633045, Lng : 149.1652629, Q1 : 0.425051689148, Q2 : 0.132045403123, Q3 : -0.0165585111827, Q4 : 0.895332872868}
2019-04-03 23:04:44.91: SIM {TimeUS : 68335155, Roll : 3.37, Pitch : -15.03, Yaw : 134.46, Alt : 589.789978027, Lat : -35.3633069, Lng : 149.1652648, Q1 : 0.379936337471, Q2 : 0.13185107708, Q3 : -0.0236889906228, Q4 : 0.915260910988}
2019-04-03 23:04:45.01: SIM {TimeUS : 68435115, Roll : 1.43, Pitch : -15.39, Yaw : 140.46, Alt : 589.840026855, Lat : -35.3633093, Lng : 149.1652669, Q1 : 0.333586901426, Q2 : 0.130242526531, Q3 : -0.0335972905159, Q4 : 0.93307441473}
2019-04-03 23:04:45.11: SIM {TimeUS : 68535075, Roll : -0.96, Pitch : -15.51, Yaw : 146.07, Alt : 589.890014648, Lat : -35.3633118, Lng : 149.1652689, Q1 : 0.290155857801, Q2 : 0.126673400402, Q3 : -0.0474053248763, Q4 : 0.947373270988}
2019-04-03 23:04:45.21: SIM {TimeUS : 68635035, Roll : -3.39, Pitch : -15.38, Yaw : 150.7, Alt : 589.940002441, Lat : -35.3633143, Lng : 149.165271, Q1 : 0.254351526499, Q2 : 0.122066989541, Q3 : -0.0622111074626, Q4 : 0.957358181477}
2019-04-03 23:04:45.31: SIM {TimeUS : 68734995, Roll : -5.27, Pitch : -15.12, Yaw : 153.93, Alt : 589.989990234, Lat : -35.3633169, Lng : 149.1652732, Q1 : 0.229243159294, Q2 : 0.117807067931, Q3 : -0.0741352960467, Q4 : 0.963365495205}
2019-04-03 23:04:45.41: SIM {TimeUS : 68834955, Roll : -6.28, Pitch : -14.88, Yaw : 155.65, Alt : 590.039978027, Lat : -35.3633194, Lng : 149.1652753, Q1 : 0.215672180057, Q2 : 0.114957071841, Q3 : -0.0803652405739, Q4 : 0.966339409351}
2019-04-03 23:04:45.51: SIM {TimeUS : 68934915, Roll : -6.34, Pitch : -14.77, Yaw : 156.01, Alt : 590.090026855, Lat : -35.3633219, Lng : 149.1652777, Q1 : 0.212700277567, Q2 : 0.114151500165, Q3 : -0.0803483352065, Q4 : 0.96709471941}
2019-04-03 23:04:45.61: SIM {TimeUS : 69034875, Roll : -5.61, Pitch : -14.85, Yaw : 155.25, Alt : 590.140014648, Lat : -35.3633246, Lng : 149.1652801, Q1 : 0.21840646863, Q2 : 0.115680284798, Q3 : -0.0750758200884, Q4 : 0.966064333916}
2019-04-03 23:04:45.71: SIM {TimeUS : 69134835, Roll : -4.32, Pitch : -15.08, Yaw : 153.66, Alt : 590.190002441, Lat : -35.3633272, Lng : 149.1652827, Q1 : 0.230531573296, Q2 : 0.119205027819, Q3 : -0.0663391649723, Q4 : 0.963454425335}
2019-04-03 23:04:45.81: SIM {TimeUS : 69234795, Roll : -2.74, Pitch : -15.43, Yaw : 151.53, Alt : 590.239990234, Lat : -35.3633297, Lng : 149.1652852, Q1 : 0.246719956398, Q2 : 0.124273441732, Q3 : -0.0560418218374, Q4 : 0.959450244904}
2019-04-03 23:04:45.91: SIM {TimeUS : 69334755, Roll : -1.11, Pitch : -15.79, Yaw : 149.15, Alt : 590.289978027, Lat : -35.3633324, Lng : 149.1652877, Q1 : 0.264660656452, Q2 : 0.129879638553, Q3 : -0.0458420738578, Q4 : 0.954455077648}
2019-04-03 23:04:46.01: SIM {TimeUS : 69434715, Roll : 0.35, Pitch : -16.1, Yaw : 146.84, Alt : 590.340026855, Lat : -35.3633351, Lng : 149.1652902, Q1 : 0.28207680583, Q2 : 0.135162383318, Q3 : -0.0369930751622, Q4 : 0.949102342129}
2019-04-03 23:04:46.11: SIM {TimeUS : 69534675, Roll : 1.53, Pitch : -16.3, Yaw : 144.85, Alt : 590.390014648, Lat : -35.3633377, Lng : 149.1652929, Q1 : 0.297051727772, Q2 : 0.139151751995, Q3 : -0.030127890408, Q4 : 0.944187164307}
2019-04-03 23:04:46.22: SIM {TimeUS : 69635468, Roll : 2.34, Pitch : -16.37, Yaw : 143.35, Alt : 590.450012207, Lat : -35.3633406, Lng : 149.1652954, Q1 : 0.308343470097, Q2 : 0.141516685486, Q3 : -0.0255270674825, Q4 : 0.940343439579}
2019-04-03 23:04:46.32: SIM {TimeUS : 69735428, Roll : 2.75, Pitch : -16.36, Yaw : 142.46, Alt : 590.5, Lat : -35.3633434, Lng : 149.165298, Q1 : 0.315115481615, Q2 : 0.142345607281, Q3 : -0.0232740752399, Q4 : 0.938028931618}
2019-04-03 23:04:46.41: SIM {TimeUS : 69835388, Roll : 2.77, Pitch : -16.32, Yaw : 142.17, Alt : 590.549987793, Lat : -35.3633462, Lng : 149.1653006, Q1 : 0.317478597164, Q2 : 0.142017677426, Q3 : -0.0232953559607, Q4 : 0.937281012535}
2019-04-03 23:04:46.51: SIM {TimeUS : 69935348, Roll : 2.48, Pitch : -16.27, Yaw : 142.41, Alt : 590.599975586, Lat : -35.3633492, Lng : 149.1653031, Q1 : 0.315913677216, Q2 : 0.140914842486, Q3 : -0.025243120268, Q4 : 0.937925577164}
2019-04-03 23:04:46.61: SIM {TimeUS : 70035308, Roll : 1.96, Pitch : -16.27, Yaw : 143.06, Alt : 590.650024414, Lat : -35.3633522, Lng : 149.1653055, Q1 : 0.311248749495, Q2 : 0.139595583081, Q3 : -0.028698630631, Q4 : 0.939581632614}
2019-04-03 23:04:46.71: SIM {TimeUS : 70135268, Roll : 1.31, Pitch : -16.31, Yaw : 143.97, Alt : 590.700012207, Lat : -35.3633552, Lng : 149.1653082, Q1 : 0.304510265589, Q2 : 0.138450741768, Q3 : -0.0330795422196, Q4 : 0.941812455654}
2019-04-03 23:04:46.81: SIM {TimeUS : 70235228, Roll : 0.63, Pitch : -16.38, Yaw : 145.01, Alt : 590.760009766, Lat : -35.3633583, Lng : 149.1653107, Q1 : 0.296772569418, Q2 : 0.137581661344, Q3 : -0.037624116987, Q4 : 0.94423609972}
2019-04-03 23:04:46.91: SIM {TimeUS : 70335188, Roll : 0.0, Pitch : -16.45, Yaw : 146.03, Alt : 590.809997559, Lat : -35.3633613, Lng : 149.1653132, Q1 : 0.289062321186, Q2 : 0.136919379234, Q3 : -0.0417440272868, Q4 : 0.946548223495}
2019-04-03 23:04:47.01: SIM {TimeUS : 70435148, Roll : -0.51, Pitch : -16.51, Yaw : 146.93, Alt : 590.859985352, Lat : -35.3633644, Lng : 149.1653158, Q1 : 0.282248616219, Q2 : 0.1364236027, Q3 : -0.0451309159398, Q4 : 0.948518574238}
2019-04-03 23:04:47.11: SIM {TimeUS : 70535108, Roll : -0.88, Pitch : -16.56, Yaw : 147.62, Alt : 590.909973145, Lat : -35.3633675, Lng : 149.1653184, Q1 : 0.276911497116, Q2 : 0.136231571436, Q3 : -0.0474947616458, Q4 : 0.950002729893}
2019-04-03 23:04:47.21: SIM {TimeUS : 70635068, Roll : -1.08, Pitch : -16.61, Yaw : 148.08, Alt : 590.960021973, Lat : -35.3633707, Lng : 149.165321, Q1 : 0.273370087147, Q2 : 0.136378005147, Q3 : -0.0487329997122, Q4 : 0.950944244862}
2019-04-03 23:04:47.31: SIM {TimeUS : 70735028, Roll : -1.11, Pitch : -16.64, Yaw : 148.28, Alt : 591.020019531, Lat : -35.3633738, Lng : 149.1653236, Q1 : 0.271682202816, Q2 : 0.136619865894, Q3 : -0.0488031357527, Q4 : 0.951389491558}
2019-04-03 23:04:47.41: SIM {TimeUS : 70834988, Roll : -1.0, Pitch : -16.67, Yaw : 148.27, Alt : 591.070007324, Lat : -35.363377, Lng : 149.1653263, Q1 : 0.271683335304, Q2 : 0.13709127903, Q3 : -0.0480032749474, Q4 : 0.951362133026}
2019-04-03 23:04:47.51: SIM {TimeUS : 70934948, Roll : -0.81, Pitch : -16.69, Yaw : 148.07, Alt : 591.119995117, Lat : -35.3633802, Lng : 149.1653289, Q1 : 0.27308011055, Q2 : 0.1376516819, Q3 : -0.04671375826, Q4 : 0.95094537735}
2019-04-03 23:04:47.61: SIM {TimeUS : 71034908, Roll : -0.6, Pitch : -16.71, Yaw : 147.75, Alt : 591.16998291, Lat : -35.3633833, Lng : 149.1653317, Q1 : 0.275479793549, Q2 : 0.138170063496, Q3 : -0.0453781150281, Q4 : 0.950242459774}
2019-04-03 23:04:47.71: SIM {TimeUS : 71134868, Roll : -0.39, Pitch : -16.72, Yaw : 147.36, Alt : 591.229980469, Lat : -35.3633866, Lng : 149.1653344, Q1 : 0.278406113386, Q2 : 0.138668119907, Q3 : -0.0441126748919, Q4 : 0.949376285076}
2019-04-03 23:04:47.81: SIM {TimeUS : 71234828, Roll : -0.17, Pitch : -16.74, Yaw : 146.97, Alt : 591.280029297, Lat : -35.3633898, Lng : 149.165337, Q1 : 0.281397938728, Q2 : 0.139147534966, Q3 : -0.0428267531097, Q4 : 0.948482513428}
2019-04-03 23:04:47.91: SIM {TimeUS : 71334788, Roll : 0.02, Pitch : -16.76, Yaw : 146.62, Alt : 591.33001709, Lat : -35.3633929, Lng : 149.1653398, Q1 : 0.284075766802, Q2 : 0.139745861292, Q3 : -0.0416616909206, Q4 : 0.947647869587}
2019-04-03 23:04:48.01: SIM {TimeUS : 71434748, Roll : 0.18, Pitch : -16.82, Yaw : 146.34, Alt : 591.380004883, Lat : -35.3633963, Lng : 149.1653426, Q1 : 0.286191374063, Q2 : 0.140467017889, Q3 : -0.0408285409212, Q4 : 0.946940660477}
2019-04-03 23:04:48.11: SIM {TimeUS : 71534708, Roll : 0.25, Pitch : -16.87, Yaw : 146.15, Alt : 591.440002441, Lat : -35.3633996, Lng : 149.1653452, Q1 : 0.28763744235, Q2 : 0.141054794192, Q3 : -0.0406019352376, Q4 : 0.946424722672}
2019-04-03 23:04:48.21: SIM {TimeUS : 71634668, Roll : 0.26, Pitch : -16.91, Yaw : 146.06, Alt : 591.489990234, Lat : -35.3634028, Lng : 149.165348, Q1 : 0.288366913795, Q2 : 0.141351997852, Q3 : -0.0407191328704, Q4 : 0.946153342724}
2019-04-03 23:04:48.32: SIM {TimeUS : 71735461, Roll : 0.23, Pitch : -16.92, Yaw : 146.05, Alt : 591.539978027, Lat : -35.3634062, Lng : 149.1653508, Q1 : 0.288430452347, Q2 : 0.141311705112, Q3 : -0.0410071648657, Q4 : 0.946127533913}
2019-04-03 23:04:48.42: SIM {TimeUS : 71835421, Roll : 0.17, Pitch : -16.91, Yaw : 146.12, Alt : 591.590026855, Lat : -35.3634094, Lng : 149.1653534, Q1 : 0.287931025028, Q2 : 0.141109868884, Q3 : -0.0413489192724, Q4 : 0.946294903755}
2019-04-03 23:04:48.51: SIM {TimeUS : 71935381, Roll : 0.09, Pitch : -16.89, Yaw : 146.24, Alt : 591.650024414, Lat : -35.3634129, Lng : 149.1653562, Q1 : 0.287069946527, Q2 : 0.140773832798, Q3 : -0.0418925583363, Q4 : 0.946582615376}
2019-04-03 23:04:48.61: SIM {TimeUS : 72035341, Roll : -0.01, Pitch : -16.86, Yaw : 146.38, Alt : 591.700012207, Lat : -35.3634161, Lng : 149.1653591, Q1 : 0.286010891199, Q2 : 0.140358865261, Q3 : -0.0425280667841, Q4 : 0.946936368942}
2019-04-03 23:04:48.71: SIM {TimeUS : 72135301, Roll : -0.11, Pitch : -16.86, Yaw : 146.54, Alt : 591.75, Lat : -35.3634196, Lng : 149.1653618, Q1 : 0.28488060832, Q2 : 0.140170395374, Q3 : -0.0431537218392, Q4 : 0.947276651859}
2019-04-03 23:04:48.81: SIM {TimeUS : 72235261, Roll : -0.19, Pitch : -16.89, Yaw : 146.67, Alt : 591.799987793, Lat : -35.363423, Lng : 149.1653646, Q1 : 0.283833712339, Q2 : 0.140258267522, Q3 : -0.0437705367804, Q4 : 0.947549581528}
2019-04-03 23:04:48.91: SIM {TimeUS : 72335221, Roll : -0.26, Pitch : -16.95, Yaw : 146.79, Alt : 591.849975586, Lat : -35.3634264, Lng : 149.1653673, Q1 : 0.282968491316, Q2 : 0.14061447978, Q3 : -0.0442819967866, Q4 : 0.947731792927}
2019-04-03 23:04:49.01: SIM {TimeUS : 72435181, Roll : -0.28, Pitch : -16.99, Yaw : 146.86, Alt : 591.909973145, Lat : -35.3634298, Lng : 149.1653701, Q1 : 0.282350540161, Q2 : 0.140940248966, Q3 : -0.0445047467947, Q4 : 0.947857260704}
2019-04-03 23:04:49.11: SIM {TimeUS : 72535141, Roll : -0.28, Pitch : -17.03, Yaw : 146.9, Alt : 591.960021973, Lat : -35.3634331, Lng : 149.165373, Q1 : 0.282015651464, Q2 : 0.141240894794, Q3 : -0.0445336177945, Q4 : 0.94791084528}
2019-04-03 23:04:49.21: SIM {TimeUS : 72635101, Roll : -0.26, Pitch : -17.07, Yaw : 146.9, Alt : 592.010009766, Lat : -35.3634366, Lng : 149.1653758, Q1 : 0.281953185797, Q2 : 0.141689658165, Q3 : -0.0444905310869, Q4 : 0.947864472866}
2019-04-03 23:04:49.31: SIM {TimeUS : 72735061, Roll : -0.24, Pitch : -17.11, Yaw : 146.87, Alt : 592.059997559, Lat : -35.36344, Lng : 149.1653787, Q1 : 0.282151579857, Q2 : 0.142049327493, Q3 : -0.0444584414363, Q4 : 0.94775313139}
2019-04-03 23:04:49.41: SIM {TimeUS : 72835021, Roll : -0.22, Pitch : -17.12, Yaw : 146.82, Alt : 592.109985352, Lat : -35.3634434, Lng : 149.1653815, Q1 : 0.282549917698, Q2 : 0.142117962241, Q3 : -0.0443674474955, Q4 : 0.947628378868}
2019-04-03 23:04:49.51: SIM {TimeUS : 72934981, Roll : -0.19, Pitch : -17.11, Yaw : 146.76, Alt : 592.16998291, Lat : -35.3634469, Lng : 149.1653843, Q1 : 0.283052295446, Q2 : 0.142118364573, Q3 : -0.0441756695509, Q4 : 0.947487413883}
2019-04-03 23:04:49.61: SIM {TimeUS : 73034941, Roll : -0.15, Pitch : -17.11, Yaw : 146.69, Alt : 592.219970703, Lat : -35.3634502, Lng : 149.1653872, Q1 : 0.283577144146, Q2 : 0.142197459936, Q3 : -0.0439401231706, Q4 : 0.947329461575}
2019-04-03 23:04:49.71: SIM {TimeUS : 73134901, Roll : -0.11, Pitch : -17.13, Yaw : 146.62, Alt : 592.270019531, Lat : -35.3634537, Lng : 149.16539, Q1 : 0.284070849419, Q2 : 0.142415717244, Q3 : -0.0437140129507, Q4 : 0.947159230709}
2019-04-03 23:04:49.81: SIM {TimeUS : 73234861, Roll : -0.07, Pitch : -17.17, Yaw : 146.56, Alt : 592.320007324, Lat : -35.3634572, Lng : 149.1653929, Q1 : 0.284490287304, Q2 : 0.142784759402, Q3 : -0.043590452522, Q4 : 0.946983456612}
2019-04-03 23:04:49.91: SIM {TimeUS : 73334821, Roll : -0.06, Pitch : -17.19, Yaw : 146.52, Alt : 592.369995117, Lat : -35.3634607, Lng : 149.1653957, Q1 : 0.28483107686, Q2 : 0.14299082756, Q3 : -0.0436077006161, Q4 : 0.946849167347}
2019-04-03 23:04:50.01: SIM {TimeUS : 73434781, Roll : -0.07, Pitch : -17.21, Yaw : 146.49, Alt : 592.429992676, Lat : -35.3634641, Lng : 149.1653986, Q1 : 0.285060405731, Q2 : 0.14308668673, Q3 : -0.0437583699822, Q4 : 0.946758687496}
2019-04-03 23:04:50.11: SIM {TimeUS : 73534741, Roll : -0.09, Pitch : -17.21, Yaw : 146.48, Alt : 592.479980469, Lat : -35.3634677, Lng : 149.1654015, Q1 : 0.285172134638, Q2 : 0.143057599664, Q3 : -0.0439277775586, Q4 : 0.946721613407}
2019-04-03 23:04:50.21: SIM {TimeUS : 73634701, Roll : -0.1, Pitch : -17.2, Yaw : 146.49, Alt : 592.530029297, Lat : -35.3634711, Lng : 149.1654044, Q1 : 0.285166323185, Q2 : 0.142940402031, Q3 : -0.0439874380827, Q4 : 0.946738243103}
2019-04-03 23:04:50.31: SIM {TimeUS : 73734661, Roll : -0.08, Pitch : -17.19, Yaw : 146.5, Alt : 592.58001709, Lat : -35.3634745, Lng : 149.1654072, Q1 : 0.285046219826, Q2 : 0.142928987741, Q3 : -0.0438182912767, Q4 : 0.94678401947}
