2019-04-03 23:45:50.40: SIM {TimeUS : 50415659, Roll : 0.0, Pitch : 0.0, Yaw : 353.0, Alt : 584.090026855, Lat : -35.363261, Lng : 149.1652299, Q1 : 0.998134791851, Q2 : 0.0, Q3 : 0.0, Q4 : -0.0610485821962}
2019-04-03 23:45:50.51: SIM {TimeUS : 50534778, Roll : 0.0, Pitch : 0.0, Yaw : 353.0, Alt : 584.090026855, Lat : -35.363261, Lng : 149.1652299, Q1 : 0.998134791851, Q2 : 0.0, Q3 : 0.0, Q4 : -0.0610485821962}
2019-04-03 23:45:50.61: SIM {TimeUS : 50634738, Roll : 0.0, Pitch : 0.0, Yaw : 353.0, Alt : 584.090026855, Lat : -35.363261, Lng : 149.1652299, Q1 : 0.998134791851, Q2 : 0.0, Q3 : 0.0, Q4 : -0.0610485821962}
2019-04-03 23:45:50.71: SIM {TimeUS : 50734698, Roll : 0.0, Pitch : 0.0, Yaw : 353.0, Alt : 584.090026855, Lat : -35.363261, Lng : 149.1652299, Q1 : 0.998134791851, Q2 : 0.0, Q3 : 0.0, Q4 : -0.0610485821962}
2019-04-03 23:45:50.81: SIM {TimeUS : 50834658, Roll : 0.0, Pitch : 0.0, Yaw : 353.0, Alt : 584.090026855, Lat : -35.363261, Lng : 149.1652299, Q1 : 0.998134791851, Q2 : 0.0, Q3 : 0.0, Q4 : -0.0610485821962}
2019-04-03 23:45:50.91: SIM {TimeUS : 50934618, Roll : 0.0, Pitch : 0.0, Yaw : 353.0, Alt : 584.090026855, Lat : -35.363261, Lng : 149.1652299, Q1 : 0.998134791851, Q2 : 0.0, Q3 : 0.0, Q4 : -0.0610485821962}
2019-04-03 23:45:51.01: SIM {TimeUS : 51034578, Roll : 0.0, Pitch : 0.0, Yaw : 353.0, Alt : 584.090026855, Lat : -35.363261, Lng : 149.1652299, Q1 : 0.998134791851, Q2 : 0.0, Q3 : 0.0, Q4 : -0.0610485821962}
2019-04-03 23:45:51.11: SIM {TimeUS : 51134538, Roll : 0.0, Pitch : 0.0, Yaw : 353.0, Alt : 584.090026855, Lat : -35.363261, Lng : 149.1652299, Q1 : 0.998134791851, Q2 : 0.0, Q3 : 0.0, Q4 : -0.0610485821962}
2019-04-03 23:45:51.21: SIM {TimeUS : 51234498, Roll : 0.0, Pitch : 0.0, Yaw : 353.0, Alt : 584.090026855, Lat : -35.363261, Lng : 149.1652299, Q1 : 0.998134791851, Q2 : 0.0, Q3 : 0.0, Q4 : -0.0610485821962}
2019-04-03 23:45:51.31: SIM {TimeUS : 51334458, Roll : 0.0, Pitch : 0.0, Yaw : 353.0, Alt : 584.090026855, Lat : -35.363261, Lng : 149.1652299, Q1 : 0.998134791851, Q2 : 0.0, Q3 : 0.0, Q4 : -0.0610485821962}
2019-04-03 23:45:51.41: SIM {TimeUS : 51434418, Roll : 0.0, Pitch : 0.0, Yaw : 353.0, Alt : 584.090026855, Lat : -35.363261, Lng : 149.1652299, Q1 : 0.998134791851, Q2 : 0.0, Q3 : 0.0, Q4 : -0.0610485821962}
2019-04-03 23:45:51.51: SIM {TimeUS : 51534378, Roll : 0.0, Pitch : 0.0, Yaw : 353.0, Alt : 584.090026855, Lat : -35.363261, Lng : 149.1652299, Q1 : 0.998134791851, Q2 : 0.0, Q3 : 0.0, Q4 : -0.0610485821962}
2019-04-03 23:45:51.61: SIM {TimeUS : 51634338, Roll : 0.0, Pitch : 0.0, Yaw : 353.0, Alt : 584.090026855, Lat : -35.363261, Lng : 149.1652299, Q1 : 0.998134791851, Q2 : 0.0, Q3 : 0.0, Q4 : -0.0610485821962}
2019-04-03 23:45:51.71: SIM {TimeUS : 51734298, Roll : 0.0, Pitch : 0.0, Yaw : 353.0, Alt : 584.090026855, Lat : -35.363261, Lng : 149.1652299, Q1 : 0.998134791851, Q2 : 0.0, Q3 : 0.0, Q4 : -0.0610485821962}
2019-04-03 23:45:51.81: SIM {TimeUS : 51834258, Roll : 0.0, Pitch : 0.0, Yaw : 353.0, Alt : 584.090026855, Lat : -35.363261, Lng : 149.1652299, Q1 : 0.998134791851, Q2 : 0.0, Q3 : 0.0, Q4 : -0.0610485821962}
2019-04-03 23:45:51.91: SIM {TimeUS : 51934218, Roll : 0.0, Pitch : 0.0, Yaw : 353.0, Alt : 584.090026855, Lat : -35.363261, Lng : 149.1652299, Q1 : 0.998134791851, Q2 : 0.0, Q3 : 0.0, Q4 : -0.0610485821962}
2019-04-03 23:45:52.01: SIM {TimeUS : 52034178, Roll : 0.0, Pitch : 0.0, Yaw : 353.0, Alt : 584.090026855, Lat : -35.363261, Lng : 149.1652299, Q1 : 0.998134791851, Q2 : 0.0, Q3 : 0.0, Q4 : -0.0610485821962}
2019-04-03 23:45:52.11: SIM {TimeUS : 52134138, Roll : 0.0, Pitch : 0.0, Yaw : 353.0, Alt : 584.090026855, Lat : -35.363261, Lng : 149.1652299, Q1 : 0.998134791851, Q2 : 0.0, Q3 : 0.0, Q4 : -0.0610485821962}
2019-04-03 23:45:52.21: SIM {TimeUS : 52234098, Roll : 0.0, Pitch : 0.0, Yaw : 353.0, Alt : 584.090026855, Lat : -35.363261, Lng : 149.1652299, Q1 : 0.998134791851, Q2 : 0.0, Q3 : 0.0, Q4 : -0.0610485821962}
2019-04-03 23:45:52.31: SIM {TimeUS : 52334058, Roll : 0.0, Pitch : 0.0, Yaw : 353.0, Alt : 584.090026855, Lat : -35.363261, Lng : 149.1652299, Q1 : 0.998134791851, Q2 : 0.0, Q3 : 0.0, Q4 : -0.0610485821962}
2019-04-03 23:45:52.41: SIM {TimeUS : 52434018, Roll : 0.0, Pitch : 0.0, Yaw : 353.0, Alt : 584.090026855, Lat : -35.363261, Lng : 149.1652299, Q1 : 0.998134791851, Q2 : 0.0, Q3 : 0.0, Q4 : -0.0610485821962}
2019-04-03 23:45:52.51: SIM {TimeUS : 52534811, Roll : 0.0, Pitch : 0.0, Yaw : 353.0, Alt : 584.090026855, Lat : -35.363261, Lng : 149.1652299, Q1 : 0.998134791851, Q2 : 0.0, Q3 : 0.0, Q4 : -0.0610485821962}
2019-04-03 23:45:52.61: SIM {TimeUS : 52634771, Roll : 0.0, Pitch : 0.0, Yaw : 353.0, Alt : 584.090026855, Lat : -35.363261, Lng : 149.1652299, Q1 : 0.998134791851, Q2 : 0.0, Q3 : 0.0, Q4 : -0.0610485821962}
2019-04-03 23:45:52.71: SIM {TimeUS : 52734731, Roll : 0.0, Pitch : 0.0, Yaw : 353.0, Alt : 584.090026855, Lat : -35.363261, Lng : 149.1652299, Q1 : 0.998134791851, Q2 : 0.0, Q3 : 0.0, Q4 : -0.0610485821962}
2019-04-03 23:45:52.81: SIM {TimeUS : 52834691, Roll : 0.0, Pitch : 0.0, Yaw : 353.0, Alt : 584.090026855, Lat : -35.363261, Lng : 149.1652299, Q1 : 0.998134791851, Q2 : 0.0, Q3 : 0.0, Q4 : -0.0610485821962}
2019-04-03 23:45:52.91: SIM {TimeUS : 52934651, Roll : 0.0, Pitch : 0.0, Yaw : 353.0, Alt : 584.090026855, Lat : -35.363261, Lng : 149.1652299, Q1 : 0.998134791851, Q2 : 0.0, Q3 : 0.0, Q4 : -0.0610485821962}
2019-04-03 23:45:53.01: SIM {TimeUS : 53034611, Roll : 0.0, Pitch : 0.0, Yaw : 353.0, Alt : 584.090026855, Lat : -35.363261, Lng : 149.1652299, Q1 : 0.998134791851, Q2 : 0.0, Q3 : 0.0, Q4 : -0.0610485821962}
2019-04-03 23:45:53.11: SIM {TimeUS : 53134571, Roll : 0.0, Pitch : 0.0, Yaw : 353.0, Alt : 584.090026855, Lat : -35.363261, Lng : 149.1652299, Q1 : 0.998134791851, Q2 : 0.0, Q3 : 0.0, Q4 : -0.0610485821962}
2019-04-03 23:45:53.21: SIM {TimeUS : 53234531, Roll : 0.0, Pitch : 0.0, Yaw : 353.0, Alt : 584.090026855, Lat : -35.363261, Lng : 149.1652299, Q1 : 0.998134791851, Q2 : 0.0, Q3 : 0.0, Q4 : -0.0610485821962}
2019-04-03 23:45:53.31: SIM {TimeUS : 53334491, Roll : 0.0, Pitch : 0.0, Yaw : 353.0, Alt : 584.090026855, Lat : -35.363261, Lng : 149.1652299, Q1 : 0.998134791851, Q2 : 0.0, Q3 : 0.0, Q4 : -0.0610485821962}
2019-04-03 23:45:53.41: SIM {TimeUS : 53434451, Roll : 0.0, Pitch : 0.0, Yaw : 353.0, Alt : 584.090026855, Lat : -35.363261, Lng : 149.1652299, Q1 : 0.998134791851, Q2 : 0.0, Q3 : 0.0, Q4 : -0.0610485821962}
2019-04-03 23:45:53.51: SIM {TimeUS : 53534411, Roll : 0.0, Pitch : 0.0, Yaw : 353.0, Alt : 584.090026855, Lat : -35.363261, Lng : 149.1652299, Q1 : 0.998134791851, Q2 : 0.0, Q3 : 0.0, Q4 : -0.0610485821962}
2019-04-03 23:45:53.61: SIM {TimeUS : 53634371, Roll : 0.0, Pitch : 0.0, Yaw : 353.0, Alt : 584.090026855, Lat : -35.363261, Lng : 149.1652299, Q1 : 0.998134791851, Q2 : 0.0, Q3 : 0.0, Q4 : -0.0610485821962}
2019-04-03 23:45:53.71: SIM {TimeUS : 53734331, Roll : 0.0, Pitch : 0.0, Yaw : 353.0, Alt : 584.090026855, Lat : -35.363261, Lng : 149.1652299, Q1 : 0.998134791851, Q2 : 0.0, Q3 : 0.0, Q4 : -0.0610485821962}
2019-04-03 23:45:53.81: SIM {TimeUS : 53834291, Roll : 0.0, Pitch : 0.0, Yaw : 353.0, Alt : 584.090026855, Lat : -35.363261, Lng : 149.1652299, Q1 : 0.998134791851, Q2 : 0.0, Q3 : 0.0, Q4 : -0.0610485821962}
2019-04-03 23:45:53.91: SIM {TimeUS : 53934251, Roll : 0.0, Pitch : 0.0, Yaw : 353.0, Alt : 584.090026855, Lat : -35.363261, Lng : 149.1652299, Q1 : 0.998134791851, Q2 : 0.0, Q3 : 0.0, Q4 : -0.0610485821962}
2019-04-03 23:45:54.01: SIM {TimeUS : 54034211, Roll : 0.0, Pitch : 0.0, Yaw : 353.0, Alt : 584.090026855, Lat : -35.363261, Lng : 149.1652299, Q1 : 0.998134791851, Q2 : 0.0, Q3 : 0.0, Q4 : -0.0610485821962}
2019-04-03 23:45:54.11: SIM {TimeUS : 54134171, Roll : 0.0, Pitch : 0.0, Yaw : 353.0, Alt : 584.090026855, Lat : -35.363261, Lng : 149.1652299, Q1 : 0.998134791851, Q2 : 0.0, Q3 : 0.0, Q4 : -0.0610485821962}
2019-04-03 23:45:54.21: SIM {TimeUS : 54234131, Roll : 0.0, Pitch : 0.0, Yaw : 353.0, Alt : 584.090026855, Lat : -35.363261, Lng : 149.1652299, Q1 : 0.998134791851, Q2 : 0.0, Q3 : 0.0, Q4 : -0.0610485821962}
2019-04-03 23:45:54.31: SIM {TimeUS : 54334091, Roll : 0.0, Pitch : 0.0, Yaw : 353.0, Alt : 584.090026855, Lat : -35.363261, Lng : 149.1652299, Q1 : 0.998134791851, Q2 : 0.0, Q3 : 0.0, Q4 : -0.0610485821962}
2019-04-03 23:45:54.41: SIM {TimeUS : 54434051, Roll : 0.0, Pitch : 0.0, Yaw : 353.0, Alt : 584.090026855, Lat : -35.363261, Lng : 149.1652299, Q1 : 0.998134791851, Q2 : 0.0, Q3 : 0.0, Q4 : -0.0610485821962}
2019-04-03 23:45:54.51: SIM {TimeUS : 54534011, Roll : 0.0, Pitch : 0.0, Yaw : 353.0, Alt : 584.090026855, Lat : -35.363261, Lng : 149.1652299, Q1 : 0.998134791851, Q2 : 0.0, Q3 : 0.0, Q4 : -0.0610485821962}
2019-04-03 23:45:54.61: SIM {TimeUS : 54634804, Roll : 0.0, Pitch : 0.0, Yaw : 353.0, Alt : 584.090026855, Lat : -35.363261, Lng : 149.1652299, Q1 : 0.998134791851, Q2 : 0.0, Q3 : 0.0, Q4 : -0.0610485821962}
2019-04-03 23:45:54.71: SIM {TimeUS : 54734764, Roll : 0.0, Pitch : 0.0, Yaw : 353.0, Alt : 584.090026855, Lat : -35.363261, Lng : 149.1652299, Q1 : 0.998134791851, Q2 : 0.0, Q3 : 0.0, Q4 : -0.0610485821962}
2019-04-03 23:45:54.81: SIM {TimeUS : 54834724, Roll : 0.0, Pitch : 0.0, Yaw : 353.0, Alt : 584.090026855, Lat : -35.363261, Lng : 149.1652299, Q1 : 0.998134791851, Q2 : 0.0, Q3 : 0.0, Q4 : -0.0610485821962}
2019-04-03 23:45:54.91: SIM {TimeUS : 54934684, Roll : 0.0, Pitch : 0.0, Yaw : 353.0, Alt : 584.090026855, Lat : -35.363261, Lng : 149.1652299, Q1 : 0.998134791851, Q2 : 0.0, Q3 : 0.0, Q4 : -0.0610485821962}
2019-04-03 23:45:55.01: SIM {TimeUS : 55034644, Roll : 0.0, Pitch : 0.0, Yaw : 353.0, Alt : 584.090026855, Lat : -35.363261, Lng : 149.1652299, Q1 : 0.998134791851, Q2 : 0.0, Q3 : 0.0, Q4 : -0.0610485821962}
2019-04-03 23:45:55.11: SIM {TimeUS : 55134604, Roll : 0.0, Pitch : 0.0, Yaw : 353.0, Alt : 584.090026855, Lat : -35.363261, Lng : 149.1652299, Q1 : 0.998134791851, Q2 : 0.0, Q3 : 0.0, Q4 : -0.0610485821962}
2019-04-03 23:45:55.21: SIM {TimeUS : 55234564, Roll : 0.0, Pitch : 0.0, Yaw : 353.0, Alt : 584.090026855, Lat : -35.363261, Lng : 149.1652299, Q1 : 0.998134791851, Q2 : 0.0, Q3 : 0.0, Q4 : -0.0610485821962}
2019-04-03 23:45:55.31: SIM {TimeUS : 55334524, Roll : 0.0, Pitch : 0.0, Yaw : 353.0, Alt : 584.090026855, Lat : -35.363261, Lng : 149.1652299, Q1 : 0.998134791851, Q2 : 0.0, Q3 : 0.0, Q4 : -0.0610485821962}
2019-04-03 23:45:55.41: SIM {TimeUS : 55434484, Roll : 0.0, Pitch : 0.0, Yaw : 353.0, Alt : 584.090026855, Lat : -35.363261, Lng : 149.1652299, Q1 : 0.998134791851, Q2 : 0.0, Q3 : 0.0, Q4 : -0.0610485821962}
2019-04-03 23:45:55.51: SIM {TimeUS : 55534444, Roll : 0.0, Pitch : 0.0, Yaw : 353.0, Alt : 584.090026855, Lat : -35.363261, Lng : 149.1652299, Q1 : 0.998134791851, Q2 : 0.0, Q3 : 0.0, Q4 : -0.0610485821962}
2019-04-03 23:45:55.61: SIM {TimeUS : 55634404, Roll : 0.0, Pitch : 0.0, Yaw : 353.0, Alt : 584.090026855, Lat : -35.363261, Lng : 149.1652299, Q1 : 0.998134791851, Q2 : 0.0, Q3 : 0.0, Q4 : -0.0610485821962}
2019-04-03 23:45:55.71: SIM {TimeUS : 55734364, Roll : 0.0, Pitch : 0.0, Yaw : 353.0, Alt : 584.090026855, Lat : -35.363261, Lng : 149.1652299, Q1 : 0.998134791851, Q2 : 0.0, Q3 : 0.0, Q4 : -0.0610485821962}
2019-04-03 23:45:55.81: SIM {TimeUS : 55834324, Roll : 0.0, Pitch : 0.0, Yaw : 353.0, Alt : 584.090026855, Lat : -35.363261, Lng : 149.1652299, Q1 : 0.998134791851, Q2 : 0.0, Q3 : 0.0, Q4 : -0.0610485821962}
2019-04-03 23:45:55.91: SIM {TimeUS : 55934284, Roll : 0.0, Pitch : 0.0, Yaw : 353.0, Alt : 584.090026855, Lat : -35.363261, Lng : 149.1652299, Q1 : 0.998134791851, Q2 : 0.0, Q3 : 0.0, Q4 : -0.0610485821962}
2019-04-03 23:45:56.01: SIM {TimeUS : 56034244, Roll : 0.0, Pitch : 0.0, Yaw : 353.0, Alt : 584.090026855, Lat : -35.363261, Lng : 149.1652299, Q1 : 0.998134791851, Q2 : 0.0, Q3 : 0.0, Q4 : -0.0610485821962}
2019-04-03 23:45:56.11: SIM {TimeUS : 56134204, Roll : 0.0, Pitch : 0.0, Yaw : 353.0, Alt : 584.090026855, Lat : -35.363261, Lng : 149.1652299, Q1 : 0.998134791851, Q2 : 0.0, Q3 : 0.0, Q4 : -0.0610485821962}
2019-04-03 23:45:56.21: SIM {TimeUS : 56234164, Roll : 0.0, Pitch : 0.0, Yaw : 353.0, Alt : 584.090026855, Lat : -35.363261, Lng : 149.1652299, Q1 : 0.998134791851, Q2 : 0.0, Q3 : 0.0, Q4 : -0.0610485821962}
2019-04-03 23:45:56.31: SIM {TimeUS : 56334124, Roll : 0.0, Pitch : 0.0, Yaw : 353.0, Alt : 584.090026855, Lat : -35.363261, Lng : 149.1652299, Q1 : 0.998134791851, Q2 : 0.0, Q3 : 0.0, Q4 : -0.0610485821962}
2019-04-03 23:45:56.41: SIM {TimeUS : 56434084, Roll : 0.0, Pitch : 0.0, Yaw : 353.0, Alt : 584.090026855, Lat : -35.363261, Lng : 149.1652299, Q1 : 0.998134791851, Q2 : 0.0, Q3 : 0.0, Q4 : -0.0610485821962}
2019-04-03 23:45:56.51: SIM {TimeUS : 56534044, Roll : 0.0, Pitch : 0.0, Yaw : 353.0, Alt : 584.090026855, Lat : -35.363261, Lng : 149.1652299, Q1 : 0.998134791851, Q2 : 0.0, Q3 : 0.0, Q4 : -0.0610485821962}
2019-04-03 23:45:56.61: SIM {TimeUS : 56634004, Roll : 0.0, Pitch : 0.0, Yaw : 353.0, Alt : 584.090026855, Lat : -35.363261, Lng : 149.1652299, Q1 : 0.998134791851, Q2 : 0.0, Q3 : 0.0, Q4 : -0.0610485821962}
2019-04-03 23:45:56.71: SIM {TimeUS : 56734797, Roll : 0.0, Pitch : 0.0, Yaw : 353.0, Alt : 584.090026855, Lat : -35.363261, Lng : 149.1652299, Q1 : 0.998134791851, Q2 : 0.0, Q3 : 0.0, Q4 : -0.0610485821962}
2019-04-03 23:45:56.81: SIM {TimeUS : 56834757, Roll : 0.0, Pitch : 0.0, Yaw : 353.0, Alt : 584.090026855, Lat : -35.363261, Lng : 149.1652299, Q1 : 0.998134791851, Q2 : 0.0, Q3 : 0.0, Q4 : -0.0610485821962}
2019-04-03 23:45:56.91: SIM {TimeUS : 56934717, Roll : 0.0, Pitch : 0.0, Yaw : 353.0, Alt : 584.090026855, Lat : -35.363261, Lng : 149.1652299, Q1 : 0.998134791851, Q2 : 0.0, Q3 : 0.0, Q4 : -0.0610485821962}
2019-04-03 23:45:57.01: SIM {TimeUS : 57034677, Roll : 0.0, Pitch : 0.0, Yaw : 353.0, Alt : 584.090026855, Lat : -35.363261, Lng : 149.1652299, Q1 : 0.998134791851, Q2 : 0.0, Q3 : 0.0, Q4 : -0.0610485821962}
2019-04-03 23:45:57.11: SIM {TimeUS : 57134637, Roll : 0.0, Pitch : 0.0, Yaw : 353.0, Alt : 584.090026855, Lat : -35.363261, Lng : 149.1652299, Q1 : 0.998134791851, Q2 : 0.0, Q3 : 0.0, Q4 : -0.0610485821962}
2019-04-03 23:45:57.21: SIM {TimeUS : 57234597, Roll : 0.0, Pitch : 0.0, Yaw : 353.0, Alt : 584.090026855, Lat : -35.363261, Lng : 149.1652299, Q1 : 0.998134791851, Q2 : 0.0, Q3 : 0.0, Q4 : -0.0610485821962}
2019-04-03 23:45:57.31: SIM {TimeUS : 57334557, Roll : 0.0, Pitch : 0.0, Yaw : 353.0, Alt : 584.090026855, Lat : -35.363261, Lng : 149.1652299, Q1 : 0.998134791851, Q2 : 0.0, Q3 : 0.0, Q4 : -0.0610485821962}
2019-04-03 23:45:57.41: SIM {TimeUS : 57434517, Roll : 0.0, Pitch : 0.0, Yaw : 353.0, Alt : 584.090026855, Lat : -35.363261, Lng : 149.1652299, Q1 : 0.998134791851, Q2 : 0.0, Q3 : 0.0, Q4 : -0.0610485821962}
2019-04-03 23:45:57.51: SIM {TimeUS : 57534477, Roll : 0.0, Pitch : 0.0, Yaw : 353.0, Alt : 584.090026855, Lat : -35.363261, Lng : 149.1652299, Q1 : 0.998134791851, Q2 : 0.0, Q3 : 0.0, Q4 : -0.0610485821962}
2019-04-03 23:45:57.61: SIM {TimeUS : 57634437, Roll : 0.0, Pitch : 0.0, Yaw : 353.0, Alt : 584.090026855, Lat : -35.363261, Lng : 149.1652299, Q1 : 0.998134791851, Q2 : 0.0, Q3 : 0.0, Q4 : -0.0610485821962}
2019-04-03 23:45:57.71: SIM {TimeUS : 57734397, Roll : 0.0, Pitch : 0.0, Yaw : 353.0, Alt : 584.090026855, Lat : -35.363261, Lng : 149.1652299, Q1 : 0.998134791851, Q2 : 0.0, Q3 : 0.0, Q4 : -0.0610485821962}
2019-04-03 23:45:57.81: SIM {TimeUS : 57834357, Roll : 0.0, Pitch : 0.0, Yaw : 353.0, Alt : 584.090026855, Lat : -35.363261, Lng : 149.1652299, Q1 : 0.998134791851, Q2 : 0.0, Q3 : 0.0, Q4 : -0.0610485821962}
2019-04-03 23:45:57.91: SIM {TimeUS : 57934317, Roll : 0.0, Pitch : 0.0, Yaw : 353.0, Alt : 584.090026855, Lat : -35.363261, Lng : 149.1652299, Q1 : 0.998134791851, Q2 : 0.0, Q3 : 0.0, Q4 : -0.0610485821962}
2019-04-03 23:45:58.01: SIM {TimeUS : 58034277, Roll : 0.0, Pitch : 0.0, Yaw : 353.0, Alt : 584.090026855, Lat : -35.363261, Lng : 149.1652299, Q1 : 0.998134791851, Q2 : 0.0, Q3 : 0.0, Q4 : -0.0610485821962}
2019-04-03 23:45:58.11: SIM {TimeUS : 58134237, Roll : 0.0, Pitch : 0.0, Yaw : 353.0, Alt : 584.090026855, Lat : -35.363261, Lng : 149.1652299, Q1 : 0.998134791851, Q2 : 0.0, Q3 : 0.0, Q4 : -0.0610485821962}
2019-04-03 23:45:58.21: SIM {TimeUS : 58234197, Roll : 0.0, Pitch : 0.0, Yaw : 353.0, Alt : 584.090026855, Lat : -35.363261, Lng : 149.1652299, Q1 : 0.998134791851, Q2 : 0.0, Q3 : 0.0, Q4 : -0.0610485821962}
2019-04-03 23:45:58.31: SIM {TimeUS : 58334157, Roll : 0.0, Pitch : 0.0, Yaw : 353.0, Alt : 584.090026855, Lat : -35.363261, Lng : 149.1652299, Q1 : 0.998134791851, Q2 : 0.0, Q3 : 0.0, Q4 : -0.0610485821962}
2019-04-03 23:45:58.41: SIM {TimeUS : 58434117, Roll : 0.0, Pitch : 0.0, Yaw : 353.0, Alt : 584.090026855, Lat : -35.363261, Lng : 149.1652299, Q1 : 0.998134791851, Q2 : 0.0, Q3 : 0.0, Q4 : -0.0610485821962}
2019-04-03 23:45:58.51: SIM {TimeUS : 58534077, Roll : 0.0, Pitch : 0.0, Yaw : 353.0, Alt : 584.090026855, Lat : -35.363261, Lng : 149.1652299, Q1 : 0.998134791851, Q2 : 0.0, Q3 : 0.0, Q4 : -0.0610485821962}
2019-04-03 23:45:58.61: SIM {TimeUS : 58634037, Roll : 0.0, Pitch : 0.0, Yaw : 353.0, Alt : 584.090026855, Lat : -35.363261, Lng : 149.1652299, Q1 : 0.998134791851, Q2 : 0.0, Q3 : 0.0, Q4 : -0.0610485821962}
2019-04-03 23:45:58.71: SIM {TimeUS : 58733997, Roll : 0.0, Pitch : 0.0, Yaw : 353.0, Alt : 584.090026855, Lat : -35.363261, Lng : 149.1652299, Q1 : 0.998134791851, Q2 : 0.0, Q3 : 0.0, Q4 : -0.0610485821962}
2019-04-03 23:45:58.81: SIM {TimeUS : 58834790, Roll : 0.0, Pitch : 0.0, Yaw : 353.0, Alt : 584.090026855, Lat : -35.363261, Lng : 149.1652299, Q1 : 0.998134791851, Q2 : 0.0, Q3 : 0.0, Q4 : -0.0610485821962}
2019-04-03 23:45:58.91: SIM {TimeUS : 58934750, Roll : 0.0, Pitch : 0.0, Yaw : 353.0, Alt : 584.090026855, Lat : -35.363261, Lng : 149.1652299, Q1 : 0.998134791851, Q2 : 0.0, Q3 : 0.0, Q4 : -0.0610485821962}
2019-04-03 23:45:59.01: SIM {TimeUS : 59034710, Roll : 0.0, Pitch : 0.0, Yaw : 353.0, Alt : 584.090026855, Lat : -35.363261, Lng : 149.1652299, Q1 : 0.998134791851, Q2 : 0.0, Q3 : 0.0, Q4 : -0.0610485821962}
2019-04-03 23:45:59.11: SIM {TimeUS : 59134670, Roll : 0.0, Pitch : 0.0, Yaw : 353.0, Alt : 584.090026855, Lat : -35.363261, Lng : 149.1652299, Q1 : 0.998134791851, Q2 : 0.0, Q3 : 0.0, Q4 : -0.0610485821962}
2019-04-03 23:45:59.21: SIM {TimeUS : 59234630, Roll : 0.0, Pitch : 0.0, Yaw : 353.0, Alt : 584.090026855, Lat : -35.363261, Lng : 149.1652299, Q1 : 0.998134791851, Q2 : 0.0, Q3 : 0.0, Q4 : -0.0610485821962}
2019-04-03 23:45:59.31: SIM {TimeUS : 59334590, Roll : 0.0, Pitch : 0.0, Yaw : 353.0, Alt : 584.090026855, Lat : -35.363261, Lng : 149.1652299, Q1 : 0.998134791851, Q2 : 0.0, Q3 : 0.0, Q4 : -0.0610485821962}
2019-04-03 23:45:59.41: SIM {TimeUS : 59434550, Roll : 0.0, Pitch : 0.0, Yaw : 353.0, Alt : 584.090026855, Lat : -35.363261, Lng : 149.1652299, Q1 : 0.998134791851, Q2 : 0.0, Q3 : 0.0, Q4 : -0.0610485821962}
2019-04-03 23:45:59.51: SIM {TimeUS : 59534510, Roll : 0.0, Pitch : 0.0, Yaw : 353.0, Alt : 584.090026855, Lat : -35.363261, Lng : 149.1652299, Q1 : 0.998134791851, Q2 : 0.0, Q3 : 0.0, Q4 : -0.0610485821962}
2019-04-03 23:45:59.61: SIM {TimeUS : 59634470, Roll : 0.0, Pitch : 0.0, Yaw : 353.0, Alt : 584.090026855, Lat : -35.363261, Lng : 149.1652299, Q1 : 0.998134791851, Q2 : 0.0, Q3 : 0.0, Q4 : -0.0610485821962}
2019-04-03 23:45:59.71: SIM {TimeUS : 59734430, Roll : 0.0, Pitch : 0.0, Yaw : 353.0, Alt : 584.090026855, Lat : -35.363261, Lng : 149.1652299, Q1 : 0.998134791851, Q2 : 0.0, Q3 : 0.0, Q4 : -0.0610485821962}
2019-04-03 23:45:59.81: SIM {TimeUS : 59834390, Roll : 0.0, Pitch : 0.0, Yaw : 353.0, Alt : 584.090026855, Lat : -35.363261, Lng : 149.1652299, Q1 : 0.998134791851, Q2 : 0.0, Q3 : 0.0, Q4 : -0.0610485821962}
2019-04-03 23:45:59.91: SIM {TimeUS : 59934350, Roll : 0.0, Pitch : 0.0, Yaw : 353.0, Alt : 584.090026855, Lat : -35.363261, Lng : 149.1652299, Q1 : 0.998134791851, Q2 : 0.0, Q3 : 0.0, Q4 : -0.0610485821962}
2019-04-03 23:46:00.01: SIM {TimeUS : 60034310, Roll : 0.0, Pitch : 0.0, Yaw : 353.0, Alt : 584.090026855, Lat : -35.363261, Lng : 149.1652299, Q1 : 0.998134791851, Q2 : 0.0, Q3 : 0.0, Q4 : -0.0610485821962}
2019-04-03 23:46:00.11: SIM {TimeUS : 60134270, Roll : 0.0, Pitch : 0.0, Yaw : 353.0, Alt : 584.090026855, Lat : -35.363261, Lng : 149.1652299, Q1 : 0.998134791851, Q2 : 0.0, Q3 : 0.0, Q4 : -0.0610485821962}
2019-04-03 23:46:00.21: SIM {TimeUS : 60234230, Roll : 0.0, Pitch : 0.0, Yaw : 353.0, Alt : 584.090026855, Lat : -35.363261, Lng : 149.1652299, Q1 : 0.998134791851, Q2 : 0.0, Q3 : 0.0, Q4 : -0.0610485821962}
2019-04-03 23:46:01.81: SIM {TimeUS : 61834423, Roll : 0.0, Pitch : 0.0, Yaw : 353.0, Alt : 584.090026855, Lat : -35.363261, Lng : 149.1652299, Q1 : 0.998134791851, Q2 : 0.0, Q3 : 0.0, Q4 : -0.0610485821962}
2019-04-03 23:46:01.91: SIM {TimeUS : 61934383, Roll : 0.0, Pitch : 0.0, Yaw : 353.0, Alt : 584.090026855, Lat : -35.363261, Lng : 149.1652299, Q1 : 0.998134791851, Q2 : 0.0, Q3 : 0.0, Q4 : -0.0610485821962}
2019-04-03 23:46:02.01: SIM {TimeUS : 62034343, Roll : 0.0, Pitch : 0.0, Yaw : 353.0, Alt : 584.090026855, Lat : -35.363261, Lng : 149.1652299, Q1 : 0.998134791851, Q2 : 0.0, Q3 : 0.0, Q4 : -0.0610485821962}
2019-04-03 23:46:02.11: SIM {TimeUS : 62134303, Roll : 0.0, Pitch : 0.0, Yaw : 353.0, Alt : 584.090026855, Lat : -35.363261, Lng : 149.1652299, Q1 : 0.998134791851, Q2 : 0.0, Q3 : 0.0, Q4 : -0.0610485821962}
2019-04-03 23:46:02.21: SIM {TimeUS : 62234263, Roll : 0.0, Pitch : 0.0, Yaw : 353.0, Alt : 584.090026855, Lat : -35.363261, Lng : 149.1652299, Q1 : 0.998134791851, Q2 : 0.0, Q3 : 0.0, Q4 : -0.0610485821962}
2019-04-03 23:46:02.31: SIM {TimeUS : 62334223, Roll : 0.0, Pitch : 0.0, Yaw : 353.0, Alt : 584.090026855, Lat : -35.363261, Lng : 149.1652299, Q1 : 0.998134791851, Q2 : 0.0, Q3 : 0.0, Q4 : -0.0610485821962}
2019-04-03 23:46:02.41: SIM {TimeUS : 62434183, Roll : 0.0, Pitch : 0.0, Yaw : 353.0, Alt : 584.090026855, Lat : -35.363261, Lng : 149.1652299, Q1 : 0.998134791851, Q2 : 0.0, Q3 : 0.0, Q4 : -0.0610485821962}
2019-04-03 23:46:02.51: SIM {TimeUS : 62534143, Roll : 0.0, Pitch : 0.0, Yaw : 353.0, Alt : 584.090026855, Lat : -35.363261, Lng : 149.1652299, Q1 : 0.998134791851, Q2 : 0.0, Q3 : 0.0, Q4 : -0.0610485821962}
2019-04-03 23:46:02.61: SIM {TimeUS : 62634103, Roll : 0.0, Pitch : 0.0, Yaw : 353.0, Alt : 584.090026855, Lat : -35.363261, Lng : 149.1652299, Q1 : 0.998134791851, Q2 : 0.0, Q3 : 0.0, Q4 : -0.0610485821962}
2019-04-03 23:46:02.71: SIM {TimeUS : 62734063, Roll : 0.0, Pitch : 0.0, Yaw : 353.0, Alt : 584.090026855, Lat : -35.363261, Lng : 149.1652299, Q1 : 0.998134791851, Q2 : 0.0, Q3 : 0.0, Q4 : -0.0610485821962}
2019-04-03 23:46:02.81: SIM {TimeUS : 62834023, Roll : 0.0, Pitch : 0.0, Yaw : 353.0, Alt : 584.090026855, Lat : -35.363261, Lng : 149.1652299, Q1 : 0.998134791851, Q2 : 0.0, Q3 : 0.0, Q4 : -0.0610485821962}
2019-04-03 23:46:02.91: SIM {TimeUS : 62934816, Roll : 0.0, Pitch : 0.0, Yaw : 353.0, Alt : 584.090026855, Lat : -35.363261, Lng : 149.1652299, Q1 : 0.998134791851, Q2 : 0.0, Q3 : 0.0, Q4 : -0.0610485821962}
2019-04-03 23:46:03.01: SIM {TimeUS : 63034776, Roll : 0.0, Pitch : 0.0, Yaw : 353.0, Alt : 584.090026855, Lat : -35.363261, Lng : 149.1652299, Q1 : 0.998134791851, Q2 : 0.0, Q3 : 0.0, Q4 : -0.0610485821962}
2019-04-03 23:46:03.11: SIM {TimeUS : 63134736, Roll : 0.0, Pitch : 0.0, Yaw : 353.0, Alt : 584.090026855, Lat : -35.363261, Lng : 149.1652299, Q1 : 0.998134791851, Q2 : 0.0, Q3 : 0.0, Q4 : -0.0610485821962}
2019-04-03 23:46:03.21: SIM {TimeUS : 63234696, Roll : 0.0, Pitch : 0.0, Yaw : 353.0, Alt : 584.090026855, Lat : -35.363261, Lng : 149.1652299, Q1 : 0.998134791851, Q2 : 0.0, Q3 : 0.0, Q4 : -0.0610485821962}
2019-04-03 23:46:03.31: SIM {TimeUS : 63334656, Roll : 0.0, Pitch : 0.0, Yaw : 353.0, Alt : 584.090026855, Lat : -35.363261, Lng : 149.1652299, Q1 : 0.998134791851, Q2 : 0.0, Q3 : 0.0, Q4 : -0.0610485821962}
2019-04-03 23:46:03.41: SIM {TimeUS : 63434616, Roll : 0.0, Pitch : 0.0, Yaw : 353.0, Alt : 584.090026855, Lat : -35.363261, Lng : 149.1652299, Q1 : 0.998134791851, Q2 : 0.0, Q3 : 0.0, Q4 : -0.0610485821962}
2019-04-03 23:46:03.51: SIM {TimeUS : 63534576, Roll : 0.0, Pitch : 0.0, Yaw : 353.0, Alt : 584.090026855, Lat : -35.363261, Lng : 149.1652299, Q1 : 0.998134791851, Q2 : 0.0, Q3 : 0.0, Q4 : -0.0610485821962}
2019-04-03 23:46:03.61: SIM {TimeUS : 63634536, Roll : 0.0, Pitch : 0.0, Yaw : 353.0, Alt : 584.090026855, Lat : -35.363261, Lng : 149.1652299, Q1 : 0.998134791851, Q2 : 0.0, Q3 : 0.0, Q4 : -0.0610485821962}
2019-04-03 23:46:03.71: SIM {TimeUS : 63734496, Roll : 0.0, Pitch : 0.0, Yaw : 353.0, Alt : 584.090026855, Lat : -35.363261, Lng : 149.1652299, Q1 : 0.998134791851, Q2 : 0.0, Q3 : 0.0, Q4 : -0.0610485821962}
2019-04-03 23:46:03.81: SIM {TimeUS : 63834456, Roll : 0.0, Pitch : 0.0, Yaw : 353.0, Alt : 584.090026855, Lat : -35.363261, Lng : 149.1652299, Q1 : 0.998134791851, Q2 : 0.0, Q3 : 0.0, Q4 : -0.0610485821962}
2019-04-03 23:46:03.91: SIM {TimeUS : 63934416, Roll : 0.0, Pitch : 0.0, Yaw : 353.0, Alt : 584.090026855, Lat : -35.363261, Lng : 149.1652299, Q1 : 0.998134791851, Q2 : 0.0, Q3 : 0.0, Q4 : -0.0610485821962}
2019-04-03 23:46:04.01: SIM {TimeUS : 64034376, Roll : 0.0, Pitch : 0.0, Yaw : 353.0, Alt : 584.090026855, Lat : -35.363261, Lng : 149.1652299, Q1 : 0.998134791851, Q2 : 0.0, Q3 : 0.0, Q4 : -0.0610485821962}
2019-04-03 23:46:04.11: SIM {TimeUS : 64134336, Roll : 0.0, Pitch : 0.0, Yaw : 353.0, Alt : 584.090026855, Lat : -35.363261, Lng : 149.1652299, Q1 : 0.998134791851, Q2 : 0.0, Q3 : 0.0, Q4 : -0.0610485821962}
2019-04-03 23:46:04.21: SIM {TimeUS : 64234296, Roll : 0.0, Pitch : 0.0, Yaw : 353.0, Alt : 584.090026855, Lat : -35.363261, Lng : 149.1652299, Q1 : 0.998134791851, Q2 : 0.0, Q3 : 0.0, Q4 : -0.0610485821962}
2019-04-03 23:46:04.31: SIM {TimeUS : 64334256, Roll : 0.0, Pitch : 0.0, Yaw : 353.0, Alt : 584.090026855, Lat : -35.363261, Lng : 149.1652299, Q1 : 0.998134791851, Q2 : 0.0, Q3 : 0.0, Q4 : -0.061048604548}
2019-04-03 23:46:04.41: SIM {TimeUS : 64434216, Roll : 0.0, Pitch : 0.0, Yaw : 353.0, Alt : 584.090026855, Lat : -35.363261, Lng : 149.1652299, Q1 : 0.998134791851, Q2 : 0.0, Q3 : 0.0, Q4 : -0.0610486380756}
2019-04-03 23:46:04.51: SIM {TimeUS : 64534176, Roll : 0.0, Pitch : 0.0, Yaw : 353.0, Alt : 584.090026855, Lat : -35.363261, Lng : 149.1652299, Q1 : 0.998134791851, Q2 : 0.0, Q3 : 0.0, Q4 : -0.0610486753285}
2019-04-03 23:46:04.61: SIM {TimeUS : 64634136, Roll : 0.0, Pitch : 0.0, Yaw : 353.0, Alt : 584.090026855, Lat : -35.363261, Lng : 149.1652299, Q1 : 0.998134791851, Q2 : 0.0, Q3 : 0.0, Q4 : -0.0610486753285}
2019-04-03 23:46:04.71: SIM {TimeUS : 64734096, Roll : 0.0, Pitch : 0.0, Yaw : 353.0, Alt : 584.090026855, Lat : -35.363261, Lng : 149.1652299, Q1 : 0.998134791851, Q2 : 0.0, Q3 : 0.0, Q4 : -0.0610486753285}
2019-04-03 23:46:04.81: SIM {TimeUS : 64834056, Roll : 0.0, Pitch : 0.0, Yaw : 353.0, Alt : 584.099975586, Lat : -35.363261, Lng : 149.1652299, Q1 : 0.998134791851, Q2 : 0.0, Q3 : 0.0, Q4 : -0.0610486753285}
2019-04-03 23:46:04.91: SIM {TimeUS : 64934016, Roll : 0.0, Pitch : 0.0, Yaw : 353.0, Alt : 584.099975586, Lat : -35.363261, Lng : 149.1652299, Q1 : 0.998134791851, Q2 : 0.0, Q3 : 0.0, Q4 : -0.0610486753285}
2019-04-03 23:46:05.01: SIM {TimeUS : 65034809, Roll : 0.0, Pitch : 0.0, Yaw : 353.0, Alt : 584.109985352, Lat : -35.363261, Lng : 149.1652299, Q1 : 0.998134791851, Q2 : 0.0, Q3 : 0.0, Q4 : -0.0610486753285}
2019-04-03 23:46:05.11: SIM {TimeUS : 65134769, Roll : 0.0, Pitch : 0.0, Yaw : 353.0, Alt : 584.130004883, Lat : -35.363261, Lng : 149.1652299, Q1 : 0.998134791851, Q2 : 0.0, Q3 : 0.0, Q4 : -0.0610486753285}
2019-04-03 23:46:05.21: SIM {TimeUS : 65234729, Roll : 0.0, Pitch : 0.0, Yaw : 353.0, Alt : 584.159973145, Lat : -35.363261, Lng : 149.1652299, Q1 : 0.998134791851, Q2 : 0.0, Q3 : 0.0, Q4 : -0.0610486641526}
2019-04-03 23:46:05.31: SIM {TimeUS : 65334689, Roll : 0.0, Pitch : 0.0, Yaw : 353.0, Alt : 584.190002441, Lat : -35.363261, Lng : 149.1652299, Q1 : 0.998134791851, Q2 : 0.0, Q3 : 0.0, Q4 : -0.0610486753285}
2019-04-03 23:46:05.41: SIM {TimeUS : 65434649, Roll : -0.01, Pitch : 0.0, Yaw : 352.99, Alt : 584.229980469, Lat : -35.363261, Lng : 149.1652299, Q1 : 0.998134672642, Q2 : -0.00017589466006, Q3 : -3.36550947395e-05, Q4 : -0.0610505156219}
2019-04-03 23:46:05.51: SIM {TimeUS : 65534609, Roll : -0.1, Pitch : -0.02, Yaw : 352.99, Alt : 584.320007324, Lat : -35.363261, Lng : 149.1652299, Q1 : 0.998133599758, Q2 : -0.000969306332991, Q3 : -0.000159208750119, Q4 : -0.0610602200031}
2019-04-03 23:46:05.61: SIM {TimeUS : 65634569, Roll : -0.18, Pitch : -0.04, Yaw : 352.99, Alt : 584.460021973, Lat : -35.363261, Lng : 149.1652299, Q1 : 0.9981315732, Q2 : -0.00162943918258, Q3 : -0.000268652598606, Q4 : -0.0610791444778}
2019-04-03 23:46:05.71: SIM {TimeUS : 65734529, Roll : -0.21, Pitch : -0.06, Yaw : 352.99, Alt : 584.609985352, Lat : -35.363261, Lng : 149.1652299, Q1 : 0.998129963875, Q2 : -0.00193951267283, Q3 : -0.000465518125566, Q4 : -0.0610959082842}
2019-04-03 23:46:05.81: SIM {TimeUS : 65834489, Roll : -0.22, Pitch : -0.08, Yaw : 352.99, Alt : 584.770019531, Lat : -35.363261, Lng : 149.1652299, Q1 : 0.998128890991, Q2 : -0.00201999233104, Q3 : -0.000633457500953, Q4 : -0.0611091852188}
2019-04-03 23:46:05.91: SIM {TimeUS : 65934449, Roll : -0.2, Pitch : -0.09, Yaw : 352.99, Alt : 584.91998291, Lat : -35.363261, Lng : 149.1652299, Q1 : 0.998128116131, Q2 : -0.00181578972843, Q3 : -0.000708432751708, Q4 : -0.0611273534596}
2019-04-03 23:46:06.01: SIM {TimeUS : 66034409, Roll : -0.16, Pitch : -0.09, Yaw : 352.98, Alt : 585.070007324, Lat : -35.363261, Lng : 149.1652299, Q1 : 0.998127639294, Q2 : -0.00146309752017, Q3 : -0.000730404572096, Q4 : -0.0611441731453}
2019-04-03 23:46:06.11: SIM {TimeUS : 66134369, Roll : -0.11, Pitch : -0.08, Yaw : 352.98, Alt : 585.229980469, Lat : -35.363261, Lng : 149.1652299, Q1 : 0.998127400875, Q2 : -0.00100480718538, Q3 : -0.000679302378558, Q4 : -0.0611581578851}
2019-04-03 23:46:06.21: SIM {TimeUS : 66234329, Roll : -0.05, Pitch : -0.06, Yaw : 352.98, Alt : 585.390014648, Lat : -35.363261, Lng : 149.1652299, Q1 : 0.998127162457, Q2 : -0.000478960078908, Q3 : -0.000510201149154, Q4 : -0.0611694008112}
2019-04-03 23:46:06.31: SIM {TimeUS : 66334289, Roll : 0.02, Pitch : -0.03, Yaw : 352.98, Alt : 585.559997559, Lat : -35.363261, Lng : 149.1652298, Q1 : 0.998126685619, Q2 : 0.000171159859747, Q3 : -0.000325884670019, Q4 : -0.0611804760993}
2019-04-03 23:46:06.41: SIM {TimeUS : 66434249, Roll : 0.08, Pitch : -0.01, Yaw : 352.98, Alt : 585.739990234, Lat : -35.363261, Lng : 149.1652298, Q1 : 0.99812579155, Q2 : 0.000761311734095, Q3 : -0.000208519690204, Q4 : -0.0611906573176}
2019-04-03 23:46:06.51: SIM {TimeUS : 66534209, Roll : 0.1, Pitch : 0.0, Yaw : 352.98, Alt : 585.91998291, Lat : -35.363261, Lng : 149.1652298, Q1 : 0.998125076294, Q2 : 0.000872940407135, Q3 : -8.94666518434e-05, Q4 : -0.0612016133964}
2019-04-03 23:46:06.61: SIM {TimeUS : 66634169, Roll : 0.06, Pitch : -0.02, Yaw : 352.98, Alt : 586.099975586, Lat : -35.363261, Lng : 149.1652298, Q1 : 0.998124778271, Q2 : 0.000553300895263, Q3 : -0.000232493068324, Q4 : -0.0612099021673}
2019-04-03 23:46:06.71: SIM {TimeUS : 66734129, Roll : 0.01, Pitch : -0.05, Yaw : 352.98, Alt : 586.289978027, Lat : -35.363261, Lng : 149.1652298, Q1 : 0.998124599457, Q2 : 8.74112738529e-05, Q3 : -0.000458561669802, Q4 : -0.0612134486437}
2019-04-03 23:46:06.81: SIM {TimeUS : 66834089, Roll : -0.04, Pitch : -0.04, Yaw : 352.98, Alt : 586.479980469, Lat : -35.363261, Lng : 149.1652298, Q1 : 0.998124599457, Q2 : -0.000397621712182, Q3 : -0.000403247453505, Q4 : -0.0612129196525}
2019-04-03 23:46:06.91: SIM {TimeUS : 66934049, Roll : -0.07, Pitch : -0.02, Yaw : 352.98, Alt : 586.679992676, Lat : -35.363261, Lng : 149.1652298, Q1 : 0.998124659061, Q2 : -0.000697406067047, Q3 : -0.000212032158743, Q4 : -0.0612090788782}
2019-04-03 23:46:07.01: SIM {TimeUS : 67034009, Roll : -0.08, Pitch : -0.01, Yaw : 352.98, Alt : 586.869995117, Lat : -35.363261, Lng : 149.1652298, Q1 : 0.998124659061, Q2 : -0.000751154962927, Q3 : -5.53464560653e-05, Q4 : -0.0612093172967}
2019-04-03 23:46:07.11: SIM {TimeUS : 67134802, Roll : -0.08, Pitch : 0.0, Yaw : 352.98, Alt : 587.070007324, Lat : -35.363261, Lng : 149.1652298, Q1 : 0.998124718666, Q2 : -0.000707137980498, Q3 : 0.000115576665848, Q4 : -0.0612092539668}
2019-04-03 23:46:07.21: SIM {TimeUS : 67234762, Roll : -0.07, Pitch : 0.02, Yaw : 352.98, Alt : 587.260009766, Lat : -35.363261, Lng : 149.1652298, Q1 : 0.998124718666, Q2 : -0.000627222994808, Q3 : 0.000286594149657, Q4 : -0.0612094588578}
2019-04-03 23:46:07.31: SIM {TimeUS : 67334722, Roll : -0.06, Pitch : 0.03, Yaw : 352.98, Alt : 587.440002441, Lat : -35.363261, Lng : 149.1652298, Q1 : 0.998124837875, Q2 : -0.000559896638151, Q3 : 0.000302752130665, Q4 : -0.0612089037895}
2019-04-03 23:46:07.41: SIM {TimeUS : 67434682, Roll : -0.04, Pitch : 0.01, Yaw : 352.98, Alt : 587.609985352, Lat : -35.363261, Lng : 149.1652298, Q1 : 0.99812489748, Q2 : -0.000426013342803, Q3 : 0.000171004896401, Q4 : -0.0612088143826}
2019-04-03 23:46:07.51: SIM {TimeUS : 67534642, Roll : -0.05, Pitch : -0.08, Yaw : 352.98, Alt : 587.760009766, Lat : -35.363261, Lng : 149.1652298, Q1 : 0.998124480247, Q2 : -0.000552447920199, Q3 : -0.000673220667522, Q4 : -0.0612103901803}
2019-04-03 23:46:07.61: SIM {TimeUS : 67634602, Roll : -0.17, Pitch : -0.43, Yaw : 352.98, Alt : 587.909973145, Lat : -35.363261, Lng : 149.1652298, Q1 : 0.998116075993, Q2 : -0.00172200787347, Q3 : -0.00373562658206, Q4 : -0.0612163990736}
2019-04-03 23:46:07.71: SIM {TimeUS : 67734562, Roll : -0.4, Pitch : -1.1, Yaw : 352.98, Alt : 588.039978027, Lat : -35.3632609, Lng : 149.1652298, Q1 : 0.998071074486, Q2 : -0.00411288999021, Q3 : -0.00941661931574, Q4 : -0.061225887388}
2019-04-03 23:46:07.81: SIM {TimeUS : 67834522, Roll : -0.73, Pitch : -2.0, Yaw : 352.98, Alt : 588.16998291, Lat : -35.3632609, Lng : 149.1652298, Q1 : 0.997948586941, Q2 : -0.00745868682861, Q3 : -0.017096253112, Q4 : -0.0612436272204}
2019-04-03 23:46:07.91: SIM {TimeUS : 67934482, Roll : -1.11, Pitch : -3.04, Yaw : 353.0, Alt : 588.270019531, Lat : -35.3632609, Lng : 149.1652297, Q1 : 0.997719526291, Q2 : -0.0113437278196, Q3 : -0.0259146746248, Q4 : -0.0612816996872}
2019-04-03 23:46:08.01: SIM {TimeUS : 68034442, Roll : -1.5, Pitch : -4.09, Yaw : 353.01, Alt : 588.369995117, Lat : -35.3632608, Lng : 149.1652297, Q1 : 0.997390151024, Q2 : -0.0153071479872, Q3 : -0.0348429046571, Q4 : -0.0613561905921}
2019-04-03 23:46:08.11: SIM {TimeUS : 68134402, Roll : -1.85, Pitch : -4.99, Yaw : 353.02, Alt : 588.450012207, Lat : -35.3632607, Lng : 149.1652296, Q1 : 0.99702501297, Q2 : -0.0187838934362, Q3 : -0.0425251573324, Q4 : -0.0614806637168}
2019-04-03 23:46:08.21: SIM {TimeUS : 68234362, Roll : -2.13, Pitch : -5.67, Yaw : 353.02, Alt : 588.530029297, Lat : -35.3632604, Lng : 149.1652294, Q1 : 0.996696472168, Q2 : -0.0215889252722, Q3 : -0.0482397377491, Q4 : -0.0616683997214}
2019-04-03 23:46:08.31: SIM {TimeUS : 68334322, Roll : -2.34, Pitch : -6.14, Yaw : 353.01, Alt : 588.599975586, Lat : -35.3632602, Lng : 149.1652293, Q1 : 0.996435463428, Q2 : -0.023650676012, Q3 : -0.0522166155279, Q4 : -0.0618909820914}
2019-04-03 23:46:08.41: SIM {TimeUS : 68434282, Roll : -2.49, Pitch : -6.48, Yaw : 353.0, Alt : 588.650024414, Lat : -35.3632598, Lng : 149.1652291, Q1 : 0.996228933334, Q2 : -0.0251659024507, Q3 : -0.0550913177431, Q4 : -0.0621254593134}
2019-04-03 23:46:08.51: SIM {TimeUS : 68534242, Roll : -2.62, Pitch : -6.78, Yaw : 352.99, Alt : 588.700012207, Lat : -35.3632595, Lng : 149.1652288, Q1 : 0.996038615704, Q2 : -0.0264526456594, Q3 : -0.0576167553663, Q4 : -0.0623511038721}
2019-04-03 23:46:08.61: SIM {TimeUS : 68634202, Roll : -2.74, Pitch : -7.09, Yaw : 352.98, Alt : 588.75, Lat : -35.363259, Lng : 149.1652284, Q1 : 0.99583619833, Q2 : -0.0276523716748, Q3 : -0.0602711103857, Q4 : -0.0625543221831}
2019-04-03 23:46:08.71: SIM {TimeUS : 68734162, Roll : -2.85, Pitch : -7.41, Yaw : 352.97, Alt : 588.789978027, Lat : -35.3632585, Lng : 149.1652282, Q1 : 0.995622873306, Q2 : -0.0287733692676, Q3 : -0.0630167126656, Q4 : -0.0627387017012}
2019-04-03 23:46:08.81: SIM {TimeUS : 68834122, Roll : -2.93, Pitch : -7.7, Yaw : 352.96, Alt : 588.83001709, Lat : -35.3632579, Lng : 149.1652278, Q1 : 0.995431125164, Q2 : -0.0295823235065, Q3 : -0.0654630661011, Q4 : -0.0628998503089}
2019-04-03 23:46:08.91: SIM {TimeUS : 68934082, Roll : -2.98, Pitch : -7.91, Yaw : 352.95, Alt : 588.859985352, Lat : -35.3632572, Lng : 149.1652273, Q1 : 0.99528491497, Q2 : -0.0301844272763, Q3 : -0.0672460868955, Q4 : -0.0630468651652}
2019-04-03 23:46:09.01: SIM {TimeUS : 69034042, Roll : -3.04, Pitch : -8.05, Yaw : 352.94, Alt : 588.890014648, Lat : -35.3632565, Lng : 149.1652268, Q1 : 0.995175600052, Q2 : -0.0307383108884, Q3 : -0.0684799998999, Q4 : -0.0631767436862}
2019-04-03 23:46:09.11: SIM {TimeUS : 69134002, Roll : -3.09, Pitch : -8.14, Yaw : 352.94, Alt : 588.91998291, Lat : -35.3632556, Lng : 149.1652263, Q1 : 0.99510204792, Q2 : -0.0312586426735, Q3 : -0.069209985435, Q4 : -0.0632832795382}
2019-04-03 23:46:09.21: SIM {TimeUS : 69234795, Roll : -3.15, Pitch : -8.23, Yaw : 352.94, Alt : 588.950012207, Lat : -35.3632548, Lng : 149.1652256, Q1 : 0.995029211044, Q2 : -0.0317979119718, Q3 : -0.0699486732483, Q4 : -0.063348248601}
2019-04-03 23:46:09.31: SIM {TimeUS : 69334755, Roll : -3.25, Pitch : -8.35, Yaw : 352.93, Alt : 588.979980469, Lat : -35.3632538, Lng : 149.165225, Q1 : 0.994919478893, Q2 : -0.0327656753361, Q3 : -0.0709378570318, Q4 : -0.0634781345725}
2019-04-03 23:46:09.41: SIM {TimeUS : 69434715, Roll : -3.61, Pitch : -8.52, Yaw : 352.7, Alt : 589.0, Lat : -35.3632529, Lng : 149.1652245, Q1 : 0.994573712349, Q2 : -0.0361397527158, Q3 : -0.0721053183079, Q4 : -0.0657105967402}
2019-04-03 23:46:09.51: SIM {TimeUS : 69534675, Roll : -4.23, Pitch : -8.73, Yaw : 351.62, Alt : 589.030029297, Lat : -35.3632519, Lng : 149.1652238, Q1 : 0.993552625179, Q2 : -0.0423078611493, Q3 : -0.0731723457575, Q4 : -0.0755576193333}
2019-04-03 23:46:09.61: SIM {TimeUS : 69634635, Roll : -4.64, Pitch : -9.1, Yaw : 349.04, Alt : 589.049987793, Lat : -35.3632507, Lng : 149.165223, Q1 : 0.991167187691, Q2 : -0.0478142090142, Q3 : -0.0751106739044, Q4 : -0.0982847288251}
2019-04-03 23:46:09.71: SIM {TimeUS : 69734595, Roll : -4.24, Pitch : -9.69, Yaw : 345.03, Alt : 589.08001709, Lat : -35.3632495, Lng : 149.1652222, Q1 : 0.986856937408, Q2 : -0.0475540235639, Q3 : -0.07894487679, Q4 : -0.132739245892}
2019-04-03 23:46:09.81: SIM {TimeUS : 69834555, Roll : -2.97, Pitch : -10.37, Yaw : 340.26, Alt : 589.109985352, Lat : -35.3632483, Lng : 149.1652212, Q1 : 0.980438888073, Q2 : -0.0409728698432, Q3 : -0.0846481025219, Q4 : -0.172903060913}
2019-04-03 23:46:09.91: SIM {TimeUS : 69934515, Roll : -1.14, Pitch : -11.0, Yaw : 335.42, Alt : 589.130004883, Lat : -35.363247, Lng : 149.1652202, Q1 : 0.972337067127, Q2 : -0.0301504544914, Q3 : -0.0915322080255, Q4 : -0.212775632739}
2019-04-03 23:46:10.01: SIM {TimeUS : 70034475, Roll : 0.8, Pitch : -11.48, Yaw : 331.1, Alt : 589.159973145, Lat : -35.3632458, Lng : 149.1652193, Q1 : 0.963669300079, Q2 : -0.0181667599827, Q3 : -0.0986202508211, Q4 : -0.247559174895}
2019-04-03 23:46:10.11: SIM {TimeUS : 70134435, Roll : 2.48, Pitch : -11.82, Yaw : 327.74, Alt : 589.190002441, Lat : -35.3632444, Lng : 149.1652183, Q1 : 0.955933630466, Q2 : -0.00791798718274, Q3 : -0.104908764362, Q4 : -0.274084746838}
2019-04-03 23:46:10.21: SIM {TimeUS : 70234395, Roll : 3.58, Pitch : -12.07, Yaw : 325.58, Alt : 589.229980469, Lat : -35.3632428, Lng : 149.1652172, Q1 : 0.950449287891, Q2 : -0.00135053973645, Q3 : -0.109639331698, Q4 : -0.290901362896}
2019-04-03 23:46:10.31: SIM {TimeUS : 70334355, Roll : 4.01, Pitch : -12.29, Yaw : 324.65, Alt : 589.260009766, Lat : -35.3632412, Lng : 149.1652162, Q1 : 0.947873532772, Q2 : 0.000710019899998, Q3 : -0.112590424716, Q4 : -0.298091858625}
2019-04-03 23:46:10.41: SIM {TimeUS : 70434315, Roll : 3.79, Pitch : -12.57, Yaw : 324.8, Alt : 589.289978027, Lat : -35.3632396, Lng : 149.165215, Q1 : 0.948043942451, Q2 : -0.00168160768226, Q3 : -0.114293880761, Q4 : -0.296895265579}
2019-04-03 23:46:10.51: SIM {TimeUS : 70534275, Roll : 3.07, Pitch : -12.94, Yaw : 325.8, Alt : 589.33001709, Lat : -35.3632378, Lng : 149.165214, Q1 : 0.950259208679, Q2 : -0.00766616128385, Q3 : -0.115559339523, Q4 : -0.289127528667}
2019-04-03 23:46:10.61: SIM {TimeUS : 70634235, Roll : 2.05, Pitch : -13.4, Yaw : 327.38, Alt : 589.369995117, Lat : -35.3632359, Lng : 149.1652129, Q1 : 0.953650951385, Q2 : -0.015638154, Q3 : -0.116996183991, Q4 : -0.276798039675}
2019-04-03 23:46:10.71: SIM {TimeUS : 70734195, Roll : 0.95, Pitch : -13.87, Yaw : 329.27, Alt : 589.409973145, Lat : -35.363234, Lng : 149.1652117, Q1 : 0.957429885864, Q2 : -0.0240073855966, Q3 : -0.118706256151, Q4 : -0.26203161478}
2019-04-03 23:46:10.81: SIM {TimeUS : 70834155, Roll : -0.07, Pitch : -14.3, Yaw : 331.18, Alt : 589.450012207, Lat : -35.3632318, Lng : 149.1652106, Q1 : 0.960990071297, Q2 : -0.0316415503621, Q3 : -0.120422042906, Q4 : -0.246972516179}
2019-04-03 23:46:10.91: SIM {TimeUS : 70934115, Roll : -0.94, Pitch : -14.59, Yaw : 332.89, Alt : 589.489990234, Lat : -35.3632299, Lng : 149.1652092, Q1 : 0.963989913464, Q2 : -0.0377590917051, Q3 : -0.12159588933, Q4 : -0.233478292823}
2019-04-03 23:46:11.01: SIM {TimeUS : 71034075, Roll : -1.59, Pitch : -14.76, Yaw : 334.22, Alt : 589.539978027, Lat : -35.3632276, Lng : 149.165208, Q1 : 0.96623903513, Q2 : -0.042145434767, Q3 : -0.122124329209, Q4 : -0.222916200757}
2019-04-03 23:46:11.11: SIM {TimeUS : 71134035, Roll : -1.98, Pitch : -14.82, Yaw : 335.08, Alt : 589.58001709, Lat : -35.3632255, Lng : 149.1652066, Q1 : 0.967678010464, Q2 : -0.0446140989661, Q3 : -0.122237555683, Q4 : -0.216025114059}
2019-04-03 23:46:11.21: SIM {TimeUS : 71233995, Roll : -2.09, Pitch : -14.83, Yaw : 335.46, Alt : 589.630004883, Lat : -35.3632232, Lng : 149.1652052, Q1 : 0.968326926231, Q2 : -0.0451607257128, Q3 : -0.122298307717, Q4 : -0.21294747293}
2019-04-03 23:46:11.31: SIM {TimeUS : 71334788, Roll : -1.95, Pitch : -14.87, Yaw : 335.4, Alt : 589.679992676, Lat : -35.3632209, Lng : 149.1652035, Q1 : 0.968219697475, Q2 : -0.0440533980727, Q3 : -0.122842267156, Q4 : -0.213353350759}
2019-04-03 23:46:11.41: SIM {TimeUS : 71434748, Roll : -1.62, Pitch : -14.95, Yaw : 334.97, Alt : 589.719970703, Lat : -35.3632184, Lng : 149.165202, Q1 : 0.967452704906, Q2 : -0.0419289208949, Q3 : -0.123974993825, Q4 : -0.216581240296}
2019-04-03 23:46:11.51: SIM {TimeUS : 71534708, Roll : -1.21, Pitch : -15.07, Yaw : 334.3, Alt : 589.770019531, Lat : -35.363216, Lng : 149.1652004, Q1 : 0.96618437767, Q2 : -0.0394010059536, Q3 : -0.1255197227, Q4 : -0.221765831113}
2019-04-03 23:46:11.61: SIM {TimeUS : 71634668, Roll : -0.76, Pitch : -15.18, Yaw : 333.51, Alt : 589.820007324, Lat : -35.3632135, Lng : 149.1651987, Q1 : 0.964641034603, Q2 : -0.0366917252541, Q3 : -0.127114519477, Q4 : -0.227954551578}
2019-04-03 23:46:11.71: SIM {TimeUS : 71734628, Roll : -0.3, Pitch : -15.28, Yaw : 332.7, Alt : 589.869995117, Lat : -35.363211, Lng : 149.165197, Q1 : 0.963038861752, Q2 : -0.0339654572308, Q3 : -0.128584221005, Q4 : -0.234240487218}
2019-04-03 23:46:11.81: SIM {TimeUS : 71834588, Roll : 0.1, Pitch : -15.36, Yaw : 331.97, Alt : 589.91998291, Lat : -35.3632084, Lng : 149.1651953, Q1 : 0.961556971073, Q2 : -0.0314534679055, Q3 : -0.129918918014, Q4 : -0.239874765277}
2019-04-03 23:46:11.91: SIM {TimeUS : 71934548, Roll : 0.42, Pitch : -15.41, Yaw : 331.39, Alt : 589.969970703, Lat : -35.3632057, Lng : 149.1651934, Q1 : 0.960354685783, Q2 : -0.0295672845095, Q3 : -0.130882933736, Q4 : -0.244365245104}
2019-04-03 23:46:12.01: SIM {TimeUS : 72034508, Roll : 0.61, Pitch : -15.44, Yaw : 330.99, Alt : 590.020019531, Lat : -35.3632031, Lng : 149.1651916, Q1 : 0.959528684616, Q2 : -0.0285050347447, Q3 : -0.131439894438, Q4 : -0.247418284416}
2019-04-03 23:46:12.11: SIM {TimeUS : 72134468, Roll : 0.7, Pitch : -15.47, Yaw : 330.8, Alt : 590.070007324, Lat : -35.3632002, Lng : 149.1651899, Q1 : 0.959096074104, Q2 : -0.0280802827328, Q3 : -0.131854251027, Q4 : -0.248919084668}
2019-04-03 23:46:12.21: SIM {TimeUS : 72234428, Roll : 0.67, Pitch : -15.52, Yaw : 330.79, Alt : 590.119995117, Lat : -35.3631975, Lng : 149.1651881, Q1 : 0.959015905857, Q2 : -0.028378887102, Q3 : -0.132217973471, Q4 : -0.249001294374}
2019-04-03 23:46:12.31: SIM {TimeUS : 72334388, Roll : 0.57, Pitch : -15.59, Yaw : 330.94, Alt : 590.16998291, Lat : -35.3631947, Lng : 149.1651862, Q1 : 0.959225594997, Q2 : -0.0292368531227, Q3 : -0.132570341229, Q4 : -0.247904315591}
2019-04-03 23:46:12.41: SIM {TimeUS : 72434348, Roll : 0.41, Pitch : -15.65, Yaw : 331.19, Alt : 590.229980469, Lat : -35.3631917, Lng : 149.1651843, Q1 : 0.959651827812, Q2 : -0.0304537881166, Q3 : -0.132827937603, Q4 : -0.245962828398}
2019-04-03 23:46:12.51: SIM {TimeUS : 72534308, Roll : 0.21, Pitch : -15.72, Yaw : 331.5, Alt : 590.280029297, Lat : -35.3631889, Lng : 149.1651824, Q1 : 0.960189700127, Q2 : -0.0318811275065, Q3 : -0.133034154773, Q4 : -0.243559464812}
2019-04-03 23:46:12.61: SIM {TimeUS : 72634268, Roll : 0.01, Pitch : -15.8, Yaw : 331.82, Alt : 590.33001709, Lat : -35.3631859, Lng : 149.1651805, Q1 : 0.960726618767, Q2 : -0.0332995988429, Q3 : -0.133404687047, Q4 : -0.241036847234}
2019-04-03 23:46:12.71: SIM {TimeUS : 72734228, Roll : -0.15, Pitch : -15.87, Yaw : 332.12, Alt : 590.380004883, Lat : -35.363183, Lng : 149.1651786, Q1 : 0.961211979389, Q2 : -0.0345606431365, Q3 : -0.133745640516, Q4 : -0.238724261522}
2019-04-03 23:46:12.81: SIM {TimeUS : 72834188, Roll : -0.29, Pitch : -15.91, Yaw : 332.36, Alt : 590.429992676, Lat : -35.36318, Lng : 149.1651766, Q1 : 0.961630702019, Q2 : -0.0355083309114, Q3 : -0.133804187179, Q4 : -0.236858606339}
2019-04-03 23:46:12.91: SIM {TimeUS : 72934148, Roll : -0.37, Pitch : -15.92, Yaw : 332.53, Alt : 590.479980469, Lat : -35.3631769, Lng : 149.1651746, Q1 : 0.961930096149, Q2 : -0.0360342077911, Q3 : -0.13381113112, Q4 : -0.235555931926}
2019-04-03 23:46:13.01: SIM {TimeUS : 73034108, Roll : -0.39, Pitch : -15.94, Yaw : 332.61, Alt : 590.530029297, Lat : -35.3631738, Lng : 149.1651726, Q1 : 0.962079942226, Q2 : -0.0361606068909, Q3 : -0.133915215731, Q4 : -0.234864547849}
2019-04-03 23:46:13.11: SIM {TimeUS : 73134068, Roll : -0.36, Pitch : -15.97, Yaw : 332.62, Alt : 590.590026855, Lat : -35.3631707, Lng : 149.1651704, Q1 : 0.962073266506, Q2 : -0.0359340012074, Q3 : -0.134232908487, Q4 : -0.234745204449}
2019-04-03 23:46:13.21: SIM {TimeUS : 73234028, Roll : -0.3, Pitch : -16.02, Yaw : 332.57, Alt : 590.640014648, Lat : -35.3631676, Lng : 149.1651685, Q1 : 0.96191495657, Q2 : -0.0355964489281, Q3 : -0.134799212217, Q4 : -0.235120609403}
2019-04-03 23:46:13.31: SIM {TimeUS : 73333988, Roll : -0.23, Pitch : -16.07, Yaw : 332.47, Alt : 590.690002441, Lat : -35.3631644, Lng : 149.1651664, Q1 : 0.961663126945, Q2 : -0.0352581366897, Q3 : -0.135359853506, Q4 : -0.235878288746}
2019-04-03 23:46:13.41: SIM {TimeUS : 73434781, Roll : -0.17, Pitch : -16.12, Yaw : 332.34, Alt : 590.739990234, Lat : -35.3631613, Lng : 149.1651642, Q1 : 0.961357116699, Q2 : -0.035008314997, Q3 : -0.135838150978, Q4 : -0.236886054277}
2019-04-03 23:46:13.51: SIM {TimeUS : 73534741, Roll : -0.11, Pitch : -16.15, Yaw : 332.2, Alt : 590.789978027, Lat : -35.3631581, Lng : 149.1651622, Q1 : 0.961053729057, Q2 : -0.03474483639, Q3 : -0.136169597507, Q4 : -0.237963110209}
2019-04-03 23:46:13.61: SIM {TimeUS : 73634701, Roll : -0.06, Pitch : -16.16, Yaw : 332.07, Alt : 590.849975586, Lat : -35.3631547, Lng : 149.16516, Q1 : 0.960787057877, Q2 : -0.0344761125743, Q3 : -0.136343598366, Q4 : -0.238977298141}
2019-04-03 23:46:13.71: SIM {TimeUS : 73734661, Roll : 0.0, Pitch : -16.18, Yaw : 331.96, Alt : 590.900024414, Lat : -35.3631516, Lng : 149.1651579, Q1 : 0.960566878319, Q2 : -0.034021101892, Q3 : -0.136573702097, Q4 : -0.239794567227}
2019-04-03 23:46:13.81: SIM {TimeUS : 73834621, Roll : 0.06, Pitch : -16.21, Yaw : 331.88, Alt : 590.950012207, Lat : -35.3631483, Lng : 149.1651557, Q1 : 0.960375726223, Q2 : -0.0336882136762, Q3 : -0.136970579624, Q4 : -0.240380138159}
2019-04-03 23:46:13.91: SIM {TimeUS : 73934581, Roll : 0.1, Pitch : -16.26, Yaw : 331.83, Alt : 591.0, Lat : -35.3631449, Lng : 149.1651536, Q1 : 0.960224986076, Q2 : -0.0335353761911, Q3 : -0.137461662292, Q4 : -0.240723282099}
2019-04-03 23:46:14.01: SIM {TimeUS : 74034541, Roll : 0.11, Pitch : -16.31, Yaw : 331.81, Alt : 591.059997559, Lat : -35.3631417, Lng : 149.1651513, Q1 : 0.960128724575, Q2 : -0.0335795283318, Q3 : -0.137906685472, Q4 : -0.240846335888}
2019-04-03 23:46:14.11: SIM {TimeUS : 74134501, Roll : 0.1, Pitch : -16.36, Yaw : 331.82, Alt : 591.109985352, Lat : -35.3631383, Lng : 149.1651492, Q1 : 0.960089623928, Q2 : -0.0337749049067, Q3 : -0.138242304325, Q4 : -0.240782514215}
2019-04-03 23:46:14.21: SIM {TimeUS : 74234461, Roll : 0.07, Pitch : -16.39, Yaw : 331.85, Alt : 591.159973145, Lat : -35.3631351, Lng : 149.165147, Q1 : 0.960097432137, Q2 : -0.0340470485389, Q3 : -0.138477787375, Q4 : -0.240577802062}
2019-04-03 23:46:14.31: SIM {TimeUS : 74334421, Roll : 0.04, Pitch : -16.42, Yaw : 331.89, Alt : 591.210021973, Lat : -35.3631316, Lng : 149.1651448, Q1 : 0.960137188435, Q2 : -0.0343076251447, Q3 : -0.138692930341, Q4 : -0.240258067846}
2019-04-03 23:46:14.41: SIM {TimeUS : 74434381, Roll : 0.01, Pitch : -16.44, Yaw : 331.94, Alt : 591.270019531, Lat : -35.3631283, Lng : 149.1651426, Q1 : 0.960209190845, Q2 : -0.0345449708402, Q3 : -0.138746038079, Q4 : -0.239905327559}
2019-04-03 23:46:14.51: SIM {TimeUS : 74534341, Roll : -0.01, Pitch : -16.45, Yaw : 331.98, Alt : 591.320007324, Lat : -35.3631248, Lng : 149.1651403, Q1 : 0.960274159908, Q2 : -0.0347741283476, Q3 : -0.138827905059, Q4 : -0.239564403892}
2019-04-03 23:46:14.61: SIM {TimeUS : 74634301, Roll : -0.02, Pitch : -16.49, Yaw : 332.02, Alt : 591.369995117, Lat : -35.3631215, Lng : 149.1651381, Q1 : 0.960300385952, Q2 : -0.0349225997925, Q3 : -0.139129385352, Q4 : -0.239262580872}
2019-04-03 23:46:14.71: SIM {TimeUS : 74734261, Roll : -0.02, Pitch : -16.55, Yaw : 332.04, Alt : 591.41998291, Lat : -35.3631181, Lng : 149.1651359, Q1 : 0.960278809071, Q2 : -0.0349922813475, Q3 : -0.139656454325, Q4 : -0.239031970501}
2019-04-03 23:46:14.81: SIM {TimeUS : 74834221, Roll : -0.03, Pitch : -16.61, Yaw : 332.06, Alt : 591.479980469, Lat : -35.3631146, Lng : 149.1651336, Q1 : 0.96023786068, Q2 : -0.0351290740073, Q3 : -0.140115529299, Q4 : -0.238907590508}
2019-04-03 23:46:14.91: SIM {TimeUS : 74934181, Roll : -0.04, Pitch : -16.65, Yaw : 332.06, Alt : 591.530029297, Lat : -35.3631112, Lng : 149.1651314, Q1 : 0.960186362267, Q2 : -0.0353617556393, Q3 : -0.140427470207, Q4 : -0.238897189498}
2019-04-03 23:46:15.01: SIM {TimeUS : 75034141, Roll : -0.07, Pitch : -16.67, Yaw : 332.05, Alt : 591.58001709, Lat : -35.3631078, Lng : 149.1651291, Q1 : 0.960126698017, Q2 : -0.035662855953, Q3 : -0.140590906143, Q4 : -0.238995939493}
2019-04-03 23:46:15.11: SIM {TimeUS : 75134101, Roll : -0.08, Pitch : -16.69, Yaw : 332.03, Alt : 591.630004883, Lat : -35.3631042, Lng : 149.1651268, Q1 : 0.960064291954, Q2 : -0.0358246639371, Q3 : -0.140704631805, Q4 : -0.239155381918}
2019-04-03 23:46:15.21: SIM {TimeUS : 75234061, Roll : -0.06, Pitch : -16.72, Yaw : 332.01, Alt : 591.690002441, Lat : -35.3631008, Lng : 149.1651245, Q1 : 0.959989786148, Q2 : -0.035742867738, Q3 : -0.140951827168, Q4 : -0.239321291447}
2019-04-03 23:46:15.31: SIM {TimeUS : 75334021, Roll : -0.04, Pitch : -16.75, Yaw : 331.98, Alt : 591.739990234, Lat : -35.3630973, Lng : 149.1651221, Q1 : 0.959904313087, Q2 : -0.0356364361942, Q3 : -0.141252964735, Q4 : -0.239502206445}
2019-04-03 23:46:15.41: SIM {TimeUS : 75434814, Roll : -0.01, Pitch : -16.78, Yaw : 331.96, Alt : 591.789978027, Lat : -35.3630938, Lng : 149.1651198, Q1 : 0.959821403027, Q2 : -0.0354757644236, Q3 : -0.141551136971, Q4 : -0.239682301879}
2019-04-03 23:46:15.51: SIM {TimeUS : 75534774, Roll : 0.01, Pitch : -16.79, Yaw : 331.93, Alt : 591.840026855, Lat : -35.3630901, Lng : 149.1651176, Q1 : 0.959766507149, Q2 : -0.0352488681674, Q3 : -0.14169588685, Q4 : -0.239849999547}
2019-04-03 23:46:15.61: SIM {TimeUS : 75634734, Roll : 0.03, Pitch : -16.81, Yaw : 331.91, Alt : 591.900024414, Lat : -35.3630866, Lng : 149.1651152, Q1 : 0.959702432156, Q2 : -0.0351520963013, Q3 : -0.141897305846, Q4 : -0.24000158906}
2019-04-03 23:46:15.71: SIM {TimeUS : 75734694, Roll : 0.04, Pitch : -16.83, Yaw : 331.89, Alt : 591.950012207, Lat : -35.3630831, Lng : 149.1651129, Q1 : 0.959640860558, Q2 : -0.0351844355464, Q3 : -0.142079308629, Q4 : -0.240135297179}
2019-04-03 23:46:15.81: SIM {TimeUS : 75834654, Roll : 0.02, Pitch : -16.85, Yaw : 331.88, Alt : 592.0, Lat : -35.3630796, Lng : 149.1651106, Q1 : 0.959573805332, Q2 : -0.0353926718235, Q3 : -0.142261743546, Q4 : -0.240264579654}
2019-04-03 23:46:15.91: SIM {TimeUS : 75934614, Roll : 0.0, Pitch : -16.91, Yaw : 331.87, Alt : 592.049987793, Lat : -35.363076, Lng : 149.1651082, Q1 : 0.959481656551, Q2 : -0.0357696115971, Q3 : -0.142622947693, Q4 : -0.240362733603}
2019-04-03 23:46:16.01: SIM {TimeUS : 76034574, Roll : -0.03, Pitch : -16.94, Yaw : 331.86, Alt : 592.109985352, Lat : -35.3630724, Lng : 149.1651058, Q1 : 0.959418118, Q2 : -0.0361404269934, Q3 : -0.142840355635, Q4 : -0.240431770682}
2019-04-03 23:46:16.11: SIM {TimeUS : 76134534, Roll : -0.05, Pitch : -16.97, Yaw : 331.86, Alt : 592.159973145, Lat : -35.3630688, Lng : 149.1651034, Q1 : 0.959380745888, Q2 : -0.0363147556782, Q3 : -0.143020749092, Q4 : -0.24044713378}
2019-04-03 23:46:16.21: SIM {TimeUS : 76234494, Roll : -0.06, Pitch : -16.99, Yaw : 331.87, Alt : 592.210021973, Lat : -35.3630652, Lng : 149.1651011, Q1 : 0.959360063076, Q2 : -0.0364312976599, Q3 : -0.143175303936, Q4 : -0.240420162678}
2019-04-03 23:46:16.31: SIM {TimeUS : 76334454, Roll : -0.05, Pitch : -16.99, Yaw : 331.87, Alt : 592.270019531, Lat : -35.3630616, Lng : 149.1650987, Q1 : 0.959360837936, Q2 : -0.0363968573511, Q3 : -0.143246233463, Q4 : -0.240380048752}
2019-04-03 23:46:16.41: SIM {TimeUS : 76434414, Roll : -0.04, Pitch : -17.0, Yaw : 331.87, Alt : 592.320007324, Lat : -35.3630579, Lng : 149.1650963, Q1 : 0.959363460541, Q2 : -0.0362868085504, Q3 : -0.143324062228, Q4 : -0.240339994431}
2019-04-03 23:46:16.51: SIM {TimeUS : 76534374, Roll : -0.03, Pitch : -17.01, Yaw : 331.87, Alt : 592.369995117, Lat : -35.3630543, Lng : 149.1650939, Q1 : 0.95935189724, Q2 : -0.0362507849932, Q3 : -0.143422886729, Q4 : -0.240332394838}
2019-04-03 23:46:16.61: SIM {TimeUS : 76634334, Roll : -0.03, Pitch : -17.03, Yaw : 331.87, Alt : 592.41998291, Lat : -35.3630506, Lng : 149.1650915, Q1 : 0.959318101406, Q2 : -0.0363235101104, Q3 : -0.143590435386, Q4 : -0.240356400609}
2019-04-03 23:46:16.71: SIM {TimeUS : 76734294, Roll : -0.05, Pitch : -17.04, Yaw : 331.86, Alt : 592.479980469, Lat : -35.363047, Lng : 149.1650891, Q1 : 0.959285080433, Q2 : -0.0364730395377, Q3 : -0.143678128719, Q4 : -0.240413054824}
2019-04-03 23:46:16.81: SIM {TimeUS : 76834254, Roll : -0.05, Pitch : -17.06, Yaw : 331.86, Alt : 592.530029297, Lat : -35.3630433, Lng : 149.1650867, Q1 : 0.959248065948, Q2 : -0.0365195162594, Q3 : -0.143809735775, Q4 : -0.240475058556}
2019-04-03 23:46:16.91: SIM {TimeUS : 76934214, Roll : -0.04, Pitch : -17.1, Yaw : 331.85, Alt : 592.58001709, Lat : -35.3630397, Lng : 149.1650843, Q1 : 0.959186017513, Q2 : -0.0365125723183, Q3 : -0.144126772881, Q4 : -0.240533694625}
2019-04-03 23:46:17.01: SIM {TimeUS : 77034174, Roll : 0.0, Pitch : -17.14, Yaw : 331.83, Alt : 592.630004883, Lat : -35.363036, Lng : 149.1650819, Q1 : 0.959120571613, Q2 : -0.0362723916769, Q3 : -0.144568681717, Q4 : -0.240566074848}
2019-04-03 23:46:17.11: SIM {TimeUS : 77134134, Roll : 0.04, Pitch : -17.15, Yaw : 331.82, Alt : 592.690002441, Lat : -35.3630324, Lng : 149.1650795, Q1 : 0.959093511105, Q2 : -0.0359388291836, Q3 : -0.144760251045, Q4 : -0.240608692169}
2019-04-03 23:46:17.21: SIM {TimeUS : 77234094, Roll : 0.07, Pitch : -17.13, Yaw : 331.81, Alt : 592.739990234, Lat : -35.3630287, Lng : 149.1650771, Q1 : 0.959101259708, Q2 : -0.0356761068106, Q3 : -0.144654348493, Q4 : -0.240680396557}
2019-04-03 23:46:17.31: SIM {TimeUS : 77334054, Roll : 0.08, Pitch : -17.12, Yaw : 331.8, Alt : 592.789978027, Lat : -35.3630251, Lng : 149.1650747, Q1 : 0.959101617336, Q2 : -0.0355507768691, Q3 : -0.144543841481, Q4 : -0.24076423049}
2019-04-03 23:46:17.41: SIM {TimeUS : 77434014, Roll : 0.06, Pitch : -17.14, Yaw : 331.79, Alt : 592.840026855, Lat : -35.3630214, Lng : 149.1650723, Q1 : 0.959045827389, Q2 : -0.0358076505363, Q3 : -0.144668906927, Q4 : -0.240873023868}
2019-04-03 23:46:17.51: SIM {TimeUS : 77534807, Roll : 0.03, Pitch : -17.19, Yaw : 331.78, Alt : 592.900024414, Lat : -35.3630177, Lng : 149.1650698, Q1 : 0.95894742012, Q2 : -0.0361652113497, Q3 : -0.145085379481, Q4 : -0.240961194038}
2019-04-03 23:46:17.61: SIM {TimeUS : 77634767, Roll : 0.01, Pitch : -17.25, Yaw : 331.77, Alt : 592.950012207, Lat : -35.363014, Lng : 149.1650674, Q1 : 0.958859026432, Q2 : -0.0364378392696, Q3 : -0.14551474154, Q4 : -0.241012692451}
2019-04-03 23:46:17.71: SIM {TimeUS : 77734727, Roll : 0.01, Pitch : -17.27, Yaw : 331.77, Alt : 593.0, Lat : -35.3630102, Lng : 149.165065, Q1 : 0.958820164204, Q2 : -0.0365287438035, Q3 : -0.145710647106, Q4 : -0.241035312414}
2019-04-03 23:46:17.81: SIM {TimeUS : 77834687, Roll : 0.01, Pitch : -17.27, Yaw : 331.77, Alt : 593.049987793, Lat : -35.3630065, Lng : 149.1650625, Q1 : 0.958821475506, Q2 : -0.0365373305976, Q3 : -0.145683541894, Q4 : -0.241044998169}
2019-04-03 23:46:17.91: SIM {TimeUS : 77934647, Roll : 0.0, Pitch : -17.26, Yaw : 331.77, Alt : 593.109985352, Lat : -35.3630027, Lng : 149.1650601, Q1 : 0.958835482597, Q2 : -0.0365828275681, Q3 : -0.145547091961, Q4 : -0.241064921021}
2019-04-03 23:46:18.01: SIM {TimeUS : 78034607, Roll : 0.0, Pitch : -17.24, Yaw : 331.77, Alt : 593.159973145, Lat : -35.362999, Lng : 149.1650575, Q1 : 0.958848774433, Q2 : -0.0366121158004, Q3 : -0.145415067673, Q4 : -0.241087347269}
2019-04-03 23:46:18.11: SIM {TimeUS : 78134567, Roll : 0.0, Pitch : -17.23, Yaw : 331.77, Alt : 593.210021973, Lat : -35.3629953, Lng : 149.1650551, Q1 : 0.958869099617, Q2 : -0.0364877544343, Q3 : -0.145290926099, Q4 : -0.241100132465}
2019-04-03 23:46:18.21: SIM {TimeUS : 78234527, Roll : 0.02, Pitch : -17.22, Yaw : 331.76, Alt : 593.270019531, Lat : -35.3629916, Lng : 149.1650527, Q1 : 0.958865582943, Q2 : -0.0363483317196, Q3 : -0.145316168666, Q4 : -0.241119921207}
2019-04-03 23:46:18.31: SIM {TimeUS : 78334487, Roll : 0.01, Pitch : -17.25, Yaw : 331.76, Alt : 593.320007324, Lat : -35.3629878, Lng : 149.1650503, Q1 : 0.958825170994, Q2 : -0.0364440791309, Q3 : -0.145472496748, Q4 : -0.24117206037}
2019-04-03 23:46:18.41: SIM {TimeUS : 78434447, Roll : 0.0, Pitch : -17.27, Yaw : 331.75, Alt : 593.369995117, Lat : -35.3629841, Lng : 149.1650478, Q1 : 0.95877122879, Q2 : -0.0366025194526, Q3 : -0.145680576563, Q4 : -0.241236716509}
2019-04-03 23:46:18.51: SIM {TimeUS : 78534407, Roll : 0.0, Pitch : -17.29, Yaw : 331.74, Alt : 593.41998291, Lat : -35.3629802, Lng : 149.1650453, Q1 : 0.958730220795, Q2 : -0.0367496795952, Q3 : -0.145799145103, Q4 : -0.241305842996}
2019-04-03 23:46:18.61: SIM {TimeUS : 78634367, Roll : -0.01, Pitch : -17.3, Yaw : 331.73, Alt : 593.479980469, Lat : -35.3629765, Lng : 149.1650429, Q1 : 0.958704829216, Q2 : -0.0368733033538, Q3 : -0.145818829536, Q4 : -0.241375803947}
2019-04-03 23:46:18.71: SIM {TimeUS : 78734327, Roll : -0.04, Pitch : -17.3, Yaw : 331.73, Alt : 593.530029297, Lat : -35.3629728, Lng : 149.1650403, Q1 : 0.95867806673, Q2 : -0.0371186621487, Q3 : -0.145789861679, Q4 : -0.241461992264}
