2019-04-03 23:17:30.90: SIM {TimeUS : 610515696, Roll : 0.0, Pitch : 0.0, Yaw : 353.0, Alt : 584.090026855, Lat : -35.363261, Lng : 149.1652299, Q1 : 0.998134791851, Q2 : 0.0, Q3 : 0.0, Q4 : -0.0610485821962}
2019-04-03 23:17:31.01: SIM {TimeUS : 610634815, Roll : 0.0, Pitch : 0.0, Yaw : 353.0, Alt : 584.090026855, Lat : -35.363261, Lng : 149.1652299, Q1 : 0.998134791851, Q2 : 0.0, Q3 : 0.0, Q4 : -0.0610485821962}
2019-04-03 23:17:31.11: SIM {TimeUS : 610734775, Roll : 0.0, Pitch : 0.0, Yaw : 353.0, Alt : 584.090026855, Lat : -35.363261, Lng : 149.1652299, Q1 : 0.998134791851, Q2 : 0.0, Q3 : 0.0, Q4 : -0.0610485821962}
2019-04-03 23:17:31.21: SIM {TimeUS : 610834735, Roll : 0.0, Pitch : 0.0, Yaw : 353.0, Alt : 584.090026855, Lat : -35.363261, Lng : 149.1652299, Q1 : 0.998134791851, Q2 : 0.0, Q3 : 0.0, Q4 : -0.0610485821962}
2019-04-03 23:17:31.31: SIM {TimeUS : 610934695, Roll : 0.0, Pitch : 0.0, Yaw : 353.0, Alt : 584.090026855, Lat : -35.363261, Lng : 149.1652299, Q1 : 0.998134791851, Q2 : 0.0, Q3 : 0.0, Q4 : -0.0610485821962}
2019-04-03 23:17:31.41: SIM {TimeUS : 611034655, Roll : 0.0, Pitch : 0.0, Yaw : 353.0, Alt : 584.090026855, Lat : -35.363261, Lng : 149.1652299, Q1 : 0.998134791851, Q2 : 0.0, Q3 : 0.0, Q4 : -0.0610485821962}
2019-04-03 23:17:31.51: SIM {TimeUS : 611134615, Roll : 0.0, Pitch : 0.0, Yaw : 353.0, Alt : 584.090026855, Lat : -35.363261, Lng : 149.1652299, Q1 : 0.998134791851, Q2 : 0.0, Q3 : 0.0, Q4 : -0.0610485821962}
2019-04-03 23:17:31.61: SIM {TimeUS : 611234575, Roll : 0.0, Pitch : 0.0, Yaw : 353.0, Alt : 584.090026855, Lat : -35.363261, Lng : 149.1652299, Q1 : 0.998134791851, Q2 : 0.0, Q3 : 0.0, Q4 : -0.0610485821962}
2019-04-03 23:17:31.71: SIM {TimeUS : 611334535, Roll : 0.0, Pitch : 0.0, Yaw : 353.0, Alt : 584.090026855, Lat : -35.363261, Lng : 149.1652299, Q1 : 0.998134791851, Q2 : 0.0, Q3 : 0.0, Q4 : -0.0610485821962}
2019-04-03 23:17:31.81: SIM {TimeUS : 611434495, Roll : 0.0, Pitch : 0.0, Yaw : 353.0, Alt : 584.090026855, Lat : -35.363261, Lng : 149.1652299, Q1 : 0.998134791851, Q2 : 0.0, Q3 : 0.0, Q4 : -0.0610485821962}
2019-04-03 23:17:31.91: SIM {TimeUS : 611534455, Roll : 0.0, Pitch : 0.0, Yaw : 353.0, Alt : 584.090026855, Lat : -35.363261, Lng : 149.1652299, Q1 : 0.998134791851, Q2 : 0.0, Q3 : 0.0, Q4 : -0.0610485821962}
2019-04-03 23:17:32.01: SIM {TimeUS : 611634415, Roll : 0.0, Pitch : 0.0, Yaw : 353.0, Alt : 584.090026855, Lat : -35.363261, Lng : 149.1652299, Q1 : 0.998134791851, Q2 : 0.0, Q3 : 0.0, Q4 : -0.0610485821962}
2019-04-03 23:17:32.11: SIM {TimeUS : 611734375, Roll : 0.0, Pitch : 0.0, Yaw : 353.0, Alt : 584.090026855, Lat : -35.363261, Lng : 149.1652299, Q1 : 0.998134791851, Q2 : 0.0, Q3 : 0.0, Q4 : -0.0610485821962}
2019-04-03 23:17:32.21: SIM {TimeUS : 611834335, Roll : 0.0, Pitch : 0.0, Yaw : 353.0, Alt : 584.090026855, Lat : -35.363261, Lng : 149.1652299, Q1 : 0.998134791851, Q2 : 0.0, Q3 : 0.0, Q4 : -0.0610485821962}
2019-04-03 23:17:32.31: SIM {TimeUS : 611934295, Roll : 0.0, Pitch : 0.0, Yaw : 353.0, Alt : 584.090026855, Lat : -35.363261, Lng : 149.1652299, Q1 : 0.998134791851, Q2 : 0.0, Q3 : 0.0, Q4 : -0.0610485821962}
2019-04-03 23:17:32.41: SIM {TimeUS : 612034255, Roll : 0.0, Pitch : 0.0, Yaw : 353.0, Alt : 584.090026855, Lat : -35.363261, Lng : 149.1652299, Q1 : 0.998134791851, Q2 : 0.0, Q3 : 0.0, Q4 : -0.0610485821962}
2019-04-03 23:17:32.51: SIM {TimeUS : 612134215, Roll : 0.0, Pitch : 0.0, Yaw : 353.0, Alt : 584.090026855, Lat : -35.363261, Lng : 149.1652299, Q1 : 0.998134791851, Q2 : 0.0, Q3 : 0.0, Q4 : -0.0610485821962}
2019-04-03 23:17:32.61: SIM {TimeUS : 612234175, Roll : 0.0, Pitch : 0.0, Yaw : 353.0, Alt : 584.090026855, Lat : -35.363261, Lng : 149.1652299, Q1 : 0.998134791851, Q2 : 0.0, Q3 : 0.0, Q4 : -0.0610485821962}
2019-04-03 23:17:32.71: SIM {TimeUS : 612334135, Roll : 0.0, Pitch : 0.0, Yaw : 353.0, Alt : 584.090026855, Lat : -35.363261, Lng : 149.1652299, Q1 : 0.998134791851, Q2 : 0.0, Q3 : 0.0, Q4 : -0.0610485821962}
2019-04-03 23:17:32.81: SIM {TimeUS : 612434095, Roll : 0.0, Pitch : 0.0, Yaw : 353.0, Alt : 584.090026855, Lat : -35.363261, Lng : 149.1652299, Q1 : 0.998134791851, Q2 : 0.0, Q3 : 0.0, Q4 : -0.0610485821962}
2019-04-03 23:17:32.91: SIM {TimeUS : 612534055, Roll : 0.0, Pitch : 0.0, Yaw : 353.0, Alt : 584.090026855, Lat : -35.363261, Lng : 149.1652299, Q1 : 0.998134791851, Q2 : 0.0, Q3 : 0.0, Q4 : -0.0610485821962}
2019-04-03 23:17:33.02: SIM {TimeUS : 612634848, Roll : 0.0, Pitch : 0.0, Yaw : 353.0, Alt : 584.090026855, Lat : -35.363261, Lng : 149.1652299, Q1 : 0.998134791851, Q2 : 0.0, Q3 : 0.0, Q4 : -0.0610485821962}
2019-04-03 23:17:33.11: SIM {TimeUS : 612734808, Roll : 0.0, Pitch : 0.0, Yaw : 353.0, Alt : 584.090026855, Lat : -35.363261, Lng : 149.1652299, Q1 : 0.998134791851, Q2 : 0.0, Q3 : 0.0, Q4 : -0.0610485821962}
2019-04-03 23:17:33.21: SIM {TimeUS : 612834768, Roll : 0.0, Pitch : 0.0, Yaw : 353.0, Alt : 584.090026855, Lat : -35.363261, Lng : 149.1652299, Q1 : 0.998134791851, Q2 : 0.0, Q3 : 0.0, Q4 : -0.0610485821962}
2019-04-03 23:17:33.31: SIM {TimeUS : 612934728, Roll : 0.0, Pitch : 0.0, Yaw : 353.0, Alt : 584.090026855, Lat : -35.363261, Lng : 149.1652299, Q1 : 0.998134791851, Q2 : 0.0, Q3 : 0.0, Q4 : -0.0610485821962}
2019-04-03 23:17:33.41: SIM {TimeUS : 613034688, Roll : 0.0, Pitch : 0.0, Yaw : 353.0, Alt : 584.090026855, Lat : -35.363261, Lng : 149.1652299, Q1 : 0.998134791851, Q2 : 0.0, Q3 : 0.0, Q4 : -0.0610485821962}
2019-04-03 23:17:33.51: SIM {TimeUS : 613134648, Roll : 0.0, Pitch : 0.0, Yaw : 353.0, Alt : 584.090026855, Lat : -35.363261, Lng : 149.1652299, Q1 : 0.998134791851, Q2 : 0.0, Q3 : 0.0, Q4 : -0.0610485821962}
2019-04-03 23:17:33.61: SIM {TimeUS : 613234608, Roll : 0.0, Pitch : 0.0, Yaw : 353.0, Alt : 584.090026855, Lat : -35.363261, Lng : 149.1652299, Q1 : 0.998134791851, Q2 : 0.0, Q3 : 0.0, Q4 : -0.0610485821962}
2019-04-03 23:17:33.71: SIM {TimeUS : 613334568, Roll : 0.0, Pitch : 0.0, Yaw : 353.0, Alt : 584.090026855, Lat : -35.363261, Lng : 149.1652299, Q1 : 0.998134791851, Q2 : 0.0, Q3 : 0.0, Q4 : -0.0610485821962}
2019-04-03 23:17:33.81: SIM {TimeUS : 613434528, Roll : 0.0, Pitch : 0.0, Yaw : 353.0, Alt : 584.090026855, Lat : -35.363261, Lng : 149.1652299, Q1 : 0.998134791851, Q2 : 0.0, Q3 : 0.0, Q4 : -0.0610485821962}
2019-04-03 23:17:33.91: SIM {TimeUS : 613534488, Roll : 0.0, Pitch : 0.0, Yaw : 353.0, Alt : 584.090026855, Lat : -35.363261, Lng : 149.1652299, Q1 : 0.998134791851, Q2 : 0.0, Q3 : 0.0, Q4 : -0.0610485821962}
2019-04-03 23:17:34.01: SIM {TimeUS : 613634448, Roll : 0.0, Pitch : 0.0, Yaw : 353.0, Alt : 584.090026855, Lat : -35.363261, Lng : 149.1652299, Q1 : 0.998134791851, Q2 : 0.0, Q3 : 0.0, Q4 : -0.0610485821962}
2019-04-03 23:17:34.11: SIM {TimeUS : 613734408, Roll : 0.0, Pitch : 0.0, Yaw : 353.0, Alt : 584.090026855, Lat : -35.363261, Lng : 149.1652299, Q1 : 0.998134791851, Q2 : 0.0, Q3 : 0.0, Q4 : -0.0610485821962}
2019-04-03 23:17:34.21: SIM {TimeUS : 613834368, Roll : 0.0, Pitch : 0.0, Yaw : 353.0, Alt : 584.090026855, Lat : -35.363261, Lng : 149.1652299, Q1 : 0.998134791851, Q2 : 0.0, Q3 : 0.0, Q4 : -0.0610485821962}
2019-04-03 23:17:34.31: SIM {TimeUS : 613934328, Roll : 0.0, Pitch : 0.0, Yaw : 353.0, Alt : 584.090026855, Lat : -35.363261, Lng : 149.1652299, Q1 : 0.998134791851, Q2 : 0.0, Q3 : 0.0, Q4 : -0.0610485821962}
2019-04-03 23:17:34.41: SIM {TimeUS : 614034288, Roll : 0.0, Pitch : 0.0, Yaw : 353.0, Alt : 584.090026855, Lat : -35.363261, Lng : 149.1652299, Q1 : 0.998134791851, Q2 : 0.0, Q3 : 0.0, Q4 : -0.0610485821962}
2019-04-03 23:17:34.51: SIM {TimeUS : 614134248, Roll : 0.0, Pitch : 0.0, Yaw : 353.0, Alt : 584.090026855, Lat : -35.363261, Lng : 149.1652299, Q1 : 0.998134791851, Q2 : 0.0, Q3 : 0.0, Q4 : -0.0610485821962}
2019-04-03 23:17:34.61: SIM {TimeUS : 614234208, Roll : 0.0, Pitch : 0.0, Yaw : 353.0, Alt : 584.090026855, Lat : -35.363261, Lng : 149.1652299, Q1 : 0.998134791851, Q2 : 0.0, Q3 : 0.0, Q4 : -0.0610485821962}
2019-04-03 23:17:34.71: SIM {TimeUS : 614334168, Roll : 0.0, Pitch : 0.0, Yaw : 353.0, Alt : 584.090026855, Lat : -35.363261, Lng : 149.1652299, Q1 : 0.998134791851, Q2 : 0.0, Q3 : 0.0, Q4 : -0.0610485821962}
2019-04-03 23:17:34.81: SIM {TimeUS : 614434128, Roll : 0.0, Pitch : 0.0, Yaw : 353.0, Alt : 584.090026855, Lat : -35.363261, Lng : 149.1652299, Q1 : 0.998134791851, Q2 : 0.0, Q3 : 0.0, Q4 : -0.0610485821962}
2019-04-03 23:17:34.91: SIM {TimeUS : 614534088, Roll : 0.0, Pitch : 0.0, Yaw : 353.0, Alt : 584.090026855, Lat : -35.363261, Lng : 149.1652299, Q1 : 0.998134791851, Q2 : 0.0, Q3 : 0.0, Q4 : -0.0610485821962}
2019-04-03 23:17:35.01: SIM {TimeUS : 614634048, Roll : 0.0, Pitch : 0.0, Yaw : 353.0, Alt : 584.090026855, Lat : -35.363261, Lng : 149.1652299, Q1 : 0.998134791851, Q2 : 0.0, Q3 : 0.0, Q4 : -0.0610485821962}
2019-04-03 23:17:35.12: SIM {TimeUS : 614734841, Roll : 0.0, Pitch : 0.0, Yaw : 353.0, Alt : 584.090026855, Lat : -35.363261, Lng : 149.1652299, Q1 : 0.998134791851, Q2 : 0.0, Q3 : 0.0, Q4 : -0.0610485821962}
2019-04-03 23:17:35.21: SIM {TimeUS : 614834801, Roll : 0.0, Pitch : 0.0, Yaw : 353.0, Alt : 584.090026855, Lat : -35.363261, Lng : 149.1652299, Q1 : 0.998134791851, Q2 : 0.0, Q3 : 0.0, Q4 : -0.0610485821962}
2019-04-03 23:17:35.31: SIM {TimeUS : 614934761, Roll : 0.0, Pitch : 0.0, Yaw : 353.0, Alt : 584.090026855, Lat : -35.363261, Lng : 149.1652299, Q1 : 0.998134791851, Q2 : 0.0, Q3 : 0.0, Q4 : -0.0610485821962}
2019-04-03 23:17:35.41: SIM {TimeUS : 615034721, Roll : 0.0, Pitch : 0.0, Yaw : 353.0, Alt : 584.090026855, Lat : -35.363261, Lng : 149.1652299, Q1 : 0.998134791851, Q2 : 0.0, Q3 : 0.0, Q4 : -0.0610485821962}
2019-04-03 23:17:35.51: SIM {TimeUS : 615134681, Roll : 0.0, Pitch : 0.0, Yaw : 353.0, Alt : 584.090026855, Lat : -35.363261, Lng : 149.1652299, Q1 : 0.998134791851, Q2 : 0.0, Q3 : 0.0, Q4 : -0.0610485821962}
2019-04-03 23:17:35.61: SIM {TimeUS : 615234641, Roll : 0.0, Pitch : 0.0, Yaw : 353.0, Alt : 584.090026855, Lat : -35.363261, Lng : 149.1652299, Q1 : 0.998134791851, Q2 : 0.0, Q3 : 0.0, Q4 : -0.0610485821962}
2019-04-03 23:17:35.71: SIM {TimeUS : 615334601, Roll : 0.0, Pitch : 0.0, Yaw : 353.0, Alt : 584.090026855, Lat : -35.363261, Lng : 149.1652299, Q1 : 0.998134791851, Q2 : 0.0, Q3 : 0.0, Q4 : -0.0610485821962}
2019-04-03 23:17:35.81: SIM {TimeUS : 615434561, Roll : 0.0, Pitch : 0.0, Yaw : 353.0, Alt : 584.090026855, Lat : -35.363261, Lng : 149.1652299, Q1 : 0.998134791851, Q2 : 0.0, Q3 : 0.0, Q4 : -0.0610485821962}
2019-04-03 23:17:35.91: SIM {TimeUS : 615534521, Roll : 0.0, Pitch : 0.0, Yaw : 353.0, Alt : 584.090026855, Lat : -35.363261, Lng : 149.1652299, Q1 : 0.998134791851, Q2 : 0.0, Q3 : 0.0, Q4 : -0.0610485821962}
2019-04-03 23:17:36.01: SIM {TimeUS : 615634481, Roll : 0.0, Pitch : 0.0, Yaw : 353.0, Alt : 584.090026855, Lat : -35.363261, Lng : 149.1652299, Q1 : 0.998134791851, Q2 : 0.0, Q3 : 0.0, Q4 : -0.0610485821962}
2019-04-03 23:17:36.11: SIM {TimeUS : 615734441, Roll : 0.0, Pitch : 0.0, Yaw : 353.0, Alt : 584.090026855, Lat : -35.363261, Lng : 149.1652299, Q1 : 0.998134791851, Q2 : 0.0, Q3 : 0.0, Q4 : -0.0610485821962}
2019-04-03 23:17:36.21: SIM {TimeUS : 615834401, Roll : 0.0, Pitch : 0.0, Yaw : 353.0, Alt : 584.090026855, Lat : -35.363261, Lng : 149.1652299, Q1 : 0.998134791851, Q2 : 0.0, Q3 : 0.0, Q4 : -0.0610485821962}
2019-04-03 23:17:36.31: SIM {TimeUS : 615934361, Roll : 0.0, Pitch : 0.0, Yaw : 353.0, Alt : 584.090026855, Lat : -35.363261, Lng : 149.1652299, Q1 : 0.998134791851, Q2 : 0.0, Q3 : 0.0, Q4 : -0.0610485821962}
2019-04-03 23:17:36.41: SIM {TimeUS : 616034321, Roll : 0.0, Pitch : 0.0, Yaw : 353.0, Alt : 584.090026855, Lat : -35.363261, Lng : 149.1652299, Q1 : 0.998134791851, Q2 : 0.0, Q3 : 0.0, Q4 : -0.0610485821962}
2019-04-03 23:17:36.51: SIM {TimeUS : 616134281, Roll : 0.0, Pitch : 0.0, Yaw : 353.0, Alt : 584.090026855, Lat : -35.363261, Lng : 149.1652299, Q1 : 0.998134791851, Q2 : 0.0, Q3 : 0.0, Q4 : -0.0610485821962}
2019-04-03 23:17:36.61: SIM {TimeUS : 616234241, Roll : 0.0, Pitch : 0.0, Yaw : 353.0, Alt : 584.090026855, Lat : -35.363261, Lng : 149.1652299, Q1 : 0.998134791851, Q2 : 0.0, Q3 : 0.0, Q4 : -0.0610485821962}
2019-04-03 23:17:36.71: SIM {TimeUS : 616334201, Roll : 0.0, Pitch : 0.0, Yaw : 353.0, Alt : 584.090026855, Lat : -35.363261, Lng : 149.1652299, Q1 : 0.998134791851, Q2 : 0.0, Q3 : 0.0, Q4 : -0.0610485821962}
2019-04-03 23:17:36.81: SIM {TimeUS : 616434161, Roll : 0.0, Pitch : 0.0, Yaw : 353.0, Alt : 584.090026855, Lat : -35.363261, Lng : 149.1652299, Q1 : 0.998134791851, Q2 : 0.0, Q3 : 0.0, Q4 : -0.0610485821962}
2019-04-03 23:17:36.91: SIM {TimeUS : 616534121, Roll : 0.0, Pitch : 0.0, Yaw : 353.0, Alt : 584.090026855, Lat : -35.363261, Lng : 149.1652299, Q1 : 0.998134791851, Q2 : 0.0, Q3 : 0.0, Q4 : -0.0610485821962}
2019-04-03 23:17:37.01: SIM {TimeUS : 616634081, Roll : 0.0, Pitch : 0.0, Yaw : 353.0, Alt : 584.090026855, Lat : -35.363261, Lng : 149.1652299, Q1 : 0.998134791851, Q2 : 0.0, Q3 : 0.0, Q4 : -0.0610485821962}
2019-04-03 23:17:37.11: SIM {TimeUS : 616734041, Roll : 0.0, Pitch : 0.0, Yaw : 353.0, Alt : 584.090026855, Lat : -35.363261, Lng : 149.1652299, Q1 : 0.998134791851, Q2 : 0.0, Q3 : 0.0, Q4 : -0.0610485821962}
2019-04-03 23:17:37.22: SIM {TimeUS : 616834834, Roll : 0.0, Pitch : 0.0, Yaw : 353.0, Alt : 584.090026855, Lat : -35.363261, Lng : 149.1652299, Q1 : 0.998134791851, Q2 : 0.0, Q3 : 0.0, Q4 : -0.0610485821962}
2019-04-03 23:17:37.31: SIM {TimeUS : 616934794, Roll : 0.0, Pitch : 0.0, Yaw : 353.0, Alt : 584.090026855, Lat : -35.363261, Lng : 149.1652299, Q1 : 0.998134791851, Q2 : 0.0, Q3 : 0.0, Q4 : -0.0610485821962}
2019-04-03 23:17:37.41: SIM {TimeUS : 617034754, Roll : 0.0, Pitch : 0.0, Yaw : 353.0, Alt : 584.090026855, Lat : -35.363261, Lng : 149.1652299, Q1 : 0.998134791851, Q2 : 0.0, Q3 : 0.0, Q4 : -0.0610485821962}
2019-04-03 23:17:37.51: SIM {TimeUS : 617134714, Roll : 0.0, Pitch : 0.0, Yaw : 353.0, Alt : 584.090026855, Lat : -35.363261, Lng : 149.1652299, Q1 : 0.998134791851, Q2 : 0.0, Q3 : 0.0, Q4 : -0.0610485821962}
2019-04-03 23:17:37.61: SIM {TimeUS : 617234674, Roll : 0.0, Pitch : 0.0, Yaw : 353.0, Alt : 584.090026855, Lat : -35.363261, Lng : 149.1652299, Q1 : 0.998134791851, Q2 : 0.0, Q3 : 0.0, Q4 : -0.0610485821962}
2019-04-03 23:17:37.71: SIM {TimeUS : 617334634, Roll : 0.0, Pitch : 0.0, Yaw : 353.0, Alt : 584.090026855, Lat : -35.363261, Lng : 149.1652299, Q1 : 0.998134791851, Q2 : 0.0, Q3 : 0.0, Q4 : -0.0610485821962}
2019-04-03 23:17:37.81: SIM {TimeUS : 617434594, Roll : 0.0, Pitch : 0.0, Yaw : 353.0, Alt : 584.090026855, Lat : -35.363261, Lng : 149.1652299, Q1 : 0.998134791851, Q2 : 0.0, Q3 : 0.0, Q4 : -0.0610485821962}
2019-04-03 23:17:37.91: SIM {TimeUS : 617534554, Roll : 0.0, Pitch : 0.0, Yaw : 353.0, Alt : 584.090026855, Lat : -35.363261, Lng : 149.1652299, Q1 : 0.998134791851, Q2 : 0.0, Q3 : 0.0, Q4 : -0.0610485821962}
2019-04-03 23:17:38.01: SIM {TimeUS : 617634514, Roll : 0.0, Pitch : 0.0, Yaw : 353.0, Alt : 584.090026855, Lat : -35.363261, Lng : 149.1652299, Q1 : 0.998134791851, Q2 : 0.0, Q3 : 0.0, Q4 : -0.0610485821962}
2019-04-03 23:17:38.11: SIM {TimeUS : 617734474, Roll : 0.0, Pitch : 0.0, Yaw : 353.0, Alt : 584.090026855, Lat : -35.363261, Lng : 149.1652299, Q1 : 0.998134791851, Q2 : 0.0, Q3 : 0.0, Q4 : -0.0610485821962}
2019-04-03 23:17:38.21: SIM {TimeUS : 617834434, Roll : 0.0, Pitch : 0.0, Yaw : 353.0, Alt : 584.090026855, Lat : -35.363261, Lng : 149.1652299, Q1 : 0.998134791851, Q2 : 0.0, Q3 : 0.0, Q4 : -0.0610485821962}
2019-04-03 23:17:38.31: SIM {TimeUS : 617934394, Roll : 0.0, Pitch : 0.0, Yaw : 353.0, Alt : 584.090026855, Lat : -35.363261, Lng : 149.1652299, Q1 : 0.998134791851, Q2 : 0.0, Q3 : 0.0, Q4 : -0.0610485821962}
2019-04-03 23:17:38.41: SIM {TimeUS : 618034354, Roll : 0.0, Pitch : 0.0, Yaw : 353.0, Alt : 584.090026855, Lat : -35.363261, Lng : 149.1652299, Q1 : 0.998134791851, Q2 : 0.0, Q3 : 0.0, Q4 : -0.0610485821962}
2019-04-03 23:17:38.51: SIM {TimeUS : 618134314, Roll : 0.0, Pitch : 0.0, Yaw : 353.0, Alt : 584.090026855, Lat : -35.363261, Lng : 149.1652299, Q1 : 0.998134791851, Q2 : 0.0, Q3 : 0.0, Q4 : -0.0610485821962}
2019-04-03 23:17:38.61: SIM {TimeUS : 618234274, Roll : 0.0, Pitch : 0.0, Yaw : 353.0, Alt : 584.090026855, Lat : -35.363261, Lng : 149.1652299, Q1 : 0.998134791851, Q2 : 0.0, Q3 : 0.0, Q4 : -0.0610485821962}
2019-04-03 23:17:38.71: SIM {TimeUS : 618334234, Roll : 0.0, Pitch : 0.0, Yaw : 353.0, Alt : 584.090026855, Lat : -35.363261, Lng : 149.1652299, Q1 : 0.998134791851, Q2 : 0.0, Q3 : 0.0, Q4 : -0.0610485821962}
2019-04-03 23:17:38.81: SIM {TimeUS : 618434194, Roll : 0.0, Pitch : 0.0, Yaw : 353.0, Alt : 584.090026855, Lat : -35.363261, Lng : 149.1652299, Q1 : 0.998134791851, Q2 : 0.0, Q3 : 0.0, Q4 : -0.0610485821962}
2019-04-03 23:17:38.91: SIM {TimeUS : 618534154, Roll : 0.0, Pitch : 0.0, Yaw : 353.0, Alt : 584.090026855, Lat : -35.363261, Lng : 149.1652299, Q1 : 0.998134791851, Q2 : 0.0, Q3 : 0.0, Q4 : -0.0610485821962}
2019-04-03 23:17:39.01: SIM {TimeUS : 618634114, Roll : 0.0, Pitch : 0.0, Yaw : 353.0, Alt : 584.090026855, Lat : -35.363261, Lng : 149.1652299, Q1 : 0.998134791851, Q2 : 0.0, Q3 : 0.0, Q4 : -0.0610485821962}
2019-04-03 23:17:39.11: SIM {TimeUS : 618734074, Roll : 0.0, Pitch : 0.0, Yaw : 353.0, Alt : 584.090026855, Lat : -35.363261, Lng : 149.1652299, Q1 : 0.998134791851, Q2 : 0.0, Q3 : 0.0, Q4 : -0.0610485821962}
2019-04-03 23:17:39.21: SIM {TimeUS : 618834034, Roll : 0.0, Pitch : 0.0, Yaw : 353.0, Alt : 584.090026855, Lat : -35.363261, Lng : 149.1652299, Q1 : 0.998134791851, Q2 : 0.0, Q3 : 0.0, Q4 : -0.0610485821962}
2019-04-03 23:17:39.32: SIM {TimeUS : 618934827, Roll : 0.0, Pitch : 0.0, Yaw : 353.0, Alt : 584.090026855, Lat : -35.363261, Lng : 149.1652299, Q1 : 0.998134791851, Q2 : 0.0, Q3 : 0.0, Q4 : -0.0610485821962}
2019-04-03 23:17:39.41: SIM {TimeUS : 619034787, Roll : 0.0, Pitch : 0.0, Yaw : 353.0, Alt : 584.090026855, Lat : -35.363261, Lng : 149.1652299, Q1 : 0.998134791851, Q2 : 0.0, Q3 : 0.0, Q4 : -0.0610485821962}
2019-04-03 23:17:39.51: SIM {TimeUS : 619134747, Roll : 0.0, Pitch : 0.0, Yaw : 353.0, Alt : 584.090026855, Lat : -35.363261, Lng : 149.1652299, Q1 : 0.998134791851, Q2 : 0.0, Q3 : 0.0, Q4 : -0.0610485821962}
2019-04-03 23:17:39.61: SIM {TimeUS : 619234707, Roll : 0.0, Pitch : 0.0, Yaw : 353.0, Alt : 584.090026855, Lat : -35.363261, Lng : 149.1652299, Q1 : 0.998134791851, Q2 : 0.0, Q3 : 0.0, Q4 : -0.0610485821962}
2019-04-03 23:17:39.71: SIM {TimeUS : 619334667, Roll : 0.0, Pitch : 0.0, Yaw : 353.0, Alt : 584.090026855, Lat : -35.363261, Lng : 149.1652299, Q1 : 0.998134791851, Q2 : 0.0, Q3 : 0.0, Q4 : -0.0610485821962}
2019-04-03 23:17:39.81: SIM {TimeUS : 619434627, Roll : 0.0, Pitch : 0.0, Yaw : 353.0, Alt : 584.090026855, Lat : -35.363261, Lng : 149.1652299, Q1 : 0.998134791851, Q2 : 0.0, Q3 : 0.0, Q4 : -0.0610485821962}
2019-04-03 23:17:39.91: SIM {TimeUS : 619534587, Roll : 0.0, Pitch : 0.0, Yaw : 353.0, Alt : 584.090026855, Lat : -35.363261, Lng : 149.1652299, Q1 : 0.998134791851, Q2 : 0.0, Q3 : 0.0, Q4 : -0.0610485821962}
2019-04-03 23:17:40.01: SIM {TimeUS : 619634547, Roll : 0.0, Pitch : 0.0, Yaw : 353.0, Alt : 584.090026855, Lat : -35.363261, Lng : 149.1652299, Q1 : 0.998134791851, Q2 : 0.0, Q3 : 0.0, Q4 : -0.0610485821962}
2019-04-03 23:17:40.11: SIM {TimeUS : 619734507, Roll : 0.0, Pitch : 0.0, Yaw : 353.0, Alt : 584.090026855, Lat : -35.363261, Lng : 149.1652299, Q1 : 0.998134791851, Q2 : 0.0, Q3 : 0.0, Q4 : -0.0610485821962}
2019-04-03 23:17:40.21: SIM {TimeUS : 619834467, Roll : 0.0, Pitch : 0.0, Yaw : 353.0, Alt : 584.090026855, Lat : -35.363261, Lng : 149.1652299, Q1 : 0.998134791851, Q2 : 0.0, Q3 : 0.0, Q4 : -0.0610485821962}
2019-04-03 23:17:40.31: SIM {TimeUS : 619934427, Roll : 0.0, Pitch : 0.0, Yaw : 353.0, Alt : 584.090026855, Lat : -35.363261, Lng : 149.1652299, Q1 : 0.998134791851, Q2 : 0.0, Q3 : 0.0, Q4 : -0.0610485821962}
2019-04-03 23:17:40.41: SIM {TimeUS : 620034387, Roll : 0.0, Pitch : 0.0, Yaw : 353.0, Alt : 584.090026855, Lat : -35.363261, Lng : 149.1652299, Q1 : 0.998134791851, Q2 : 0.0, Q3 : 0.0, Q4 : -0.0610485821962}
2019-04-03 23:17:40.51: SIM {TimeUS : 620134347, Roll : 0.0, Pitch : 0.0, Yaw : 353.0, Alt : 584.090026855, Lat : -35.363261, Lng : 149.1652299, Q1 : 0.998134791851, Q2 : 0.0, Q3 : 0.0, Q4 : -0.0610485821962}
2019-04-03 23:17:40.61: SIM {TimeUS : 620234307, Roll : 0.0, Pitch : 0.0, Yaw : 353.0, Alt : 584.090026855, Lat : -35.363261, Lng : 149.1652299, Q1 : 0.998134791851, Q2 : 0.0, Q3 : 0.0, Q4 : -0.0610485821962}
2019-04-03 23:17:40.71: SIM {TimeUS : 620334267, Roll : 0.0, Pitch : 0.0, Yaw : 353.0, Alt : 584.090026855, Lat : -35.363261, Lng : 149.1652299, Q1 : 0.998134791851, Q2 : 0.0, Q3 : 0.0, Q4 : -0.0610485821962}
2019-04-03 23:17:42.11: SIM {TimeUS : 621734540, Roll : 0.0, Pitch : 0.0, Yaw : 353.0, Alt : 584.090026855, Lat : -35.363261, Lng : 149.1652299, Q1 : 0.998134791851, Q2 : 0.0, Q3 : 0.0, Q4 : -0.0610485821962}
2019-04-03 23:17:42.21: SIM {TimeUS : 621834500, Roll : 0.0, Pitch : 0.0, Yaw : 353.0, Alt : 584.090026855, Lat : -35.363261, Lng : 149.1652299, Q1 : 0.998134791851, Q2 : 0.0, Q3 : 0.0, Q4 : -0.0610485821962}
2019-04-03 23:17:42.31: SIM {TimeUS : 621934460, Roll : 0.0, Pitch : 0.0, Yaw : 353.0, Alt : 584.090026855, Lat : -35.363261, Lng : 149.1652299, Q1 : 0.998134791851, Q2 : 0.0, Q3 : 0.0, Q4 : -0.0610485821962}
2019-04-03 23:17:42.41: SIM {TimeUS : 622034420, Roll : 0.0, Pitch : 0.0, Yaw : 353.0, Alt : 584.090026855, Lat : -35.363261, Lng : 149.1652299, Q1 : 0.998134791851, Q2 : 0.0, Q3 : 0.0, Q4 : -0.0610485821962}
2019-04-03 23:17:42.51: SIM {TimeUS : 622134380, Roll : 0.0, Pitch : 0.0, Yaw : 353.0, Alt : 584.090026855, Lat : -35.363261, Lng : 149.1652299, Q1 : 0.998134791851, Q2 : 0.0, Q3 : 0.0, Q4 : -0.0610485821962}
2019-04-03 23:17:42.61: SIM {TimeUS : 622234340, Roll : 0.0, Pitch : 0.0, Yaw : 353.0, Alt : 584.090026855, Lat : -35.363261, Lng : 149.1652299, Q1 : 0.998134791851, Q2 : 0.0, Q3 : 0.0, Q4 : -0.0610485821962}
2019-04-03 23:17:42.71: SIM {TimeUS : 622334300, Roll : 0.0, Pitch : 0.0, Yaw : 353.0, Alt : 584.090026855, Lat : -35.363261, Lng : 149.1652299, Q1 : 0.998134791851, Q2 : 0.0, Q3 : 0.0, Q4 : -0.0610485821962}
2019-04-03 23:17:42.81: SIM {TimeUS : 622434260, Roll : 0.0, Pitch : 0.0, Yaw : 353.0, Alt : 584.090026855, Lat : -35.363261, Lng : 149.1652299, Q1 : 0.998134791851, Q2 : 0.0, Q3 : 0.0, Q4 : -0.0610485821962}
2019-04-03 23:17:42.91: SIM {TimeUS : 622534220, Roll : 0.0, Pitch : 0.0, Yaw : 353.0, Alt : 584.090026855, Lat : -35.363261, Lng : 149.1652299, Q1 : 0.998134791851, Q2 : 0.0, Q3 : 0.0, Q4 : -0.0610485821962}
2019-04-03 23:17:43.01: SIM {TimeUS : 622634180, Roll : 0.0, Pitch : 0.0, Yaw : 353.0, Alt : 584.090026855, Lat : -35.363261, Lng : 149.1652299, Q1 : 0.998134791851, Q2 : 0.0, Q3 : 0.0, Q4 : -0.0610485821962}
2019-04-03 23:17:43.11: SIM {TimeUS : 622734140, Roll : 0.0, Pitch : 0.0, Yaw : 353.0, Alt : 584.090026855, Lat : -35.363261, Lng : 149.1652299, Q1 : 0.998134791851, Q2 : 0.0, Q3 : 0.0, Q4 : -0.0610485821962}
2019-04-03 23:17:43.21: SIM {TimeUS : 622834100, Roll : 0.0, Pitch : 0.0, Yaw : 353.0, Alt : 584.090026855, Lat : -35.363261, Lng : 149.1652299, Q1 : 0.998134791851, Q2 : 0.0, Q3 : 0.0, Q4 : -0.0610485821962}
2019-04-03 23:17:43.31: SIM {TimeUS : 622934060, Roll : 0.0, Pitch : 0.0, Yaw : 353.0, Alt : 584.090026855, Lat : -35.363261, Lng : 149.1652299, Q1 : 0.998134791851, Q2 : 0.0, Q3 : 0.0, Q4 : -0.0610485821962}
2019-04-03 23:17:43.42: SIM {TimeUS : 623034853, Roll : 0.0, Pitch : 0.0, Yaw : 353.0, Alt : 584.090026855, Lat : -35.363261, Lng : 149.1652299, Q1 : 0.998134791851, Q2 : 0.0, Q3 : 0.0, Q4 : -0.0610485821962}
2019-04-03 23:17:43.51: SIM {TimeUS : 623134813, Roll : 0.0, Pitch : 0.0, Yaw : 353.0, Alt : 584.090026855, Lat : -35.363261, Lng : 149.1652299, Q1 : 0.998134791851, Q2 : 0.0, Q3 : 0.0, Q4 : -0.0610485821962}
2019-04-03 23:17:43.61: SIM {TimeUS : 623234773, Roll : 0.0, Pitch : 0.0, Yaw : 353.0, Alt : 584.090026855, Lat : -35.363261, Lng : 149.1652299, Q1 : 0.998134791851, Q2 : 0.0, Q3 : 0.0, Q4 : -0.0610485821962}
2019-04-03 23:17:43.71: SIM {TimeUS : 623334733, Roll : 0.0, Pitch : 0.0, Yaw : 353.0, Alt : 584.090026855, Lat : -35.363261, Lng : 149.1652299, Q1 : 0.998134791851, Q2 : 0.0, Q3 : 0.0, Q4 : -0.0610485821962}
2019-04-03 23:17:43.81: SIM {TimeUS : 623434693, Roll : 0.0, Pitch : 0.0, Yaw : 353.0, Alt : 584.090026855, Lat : -35.363261, Lng : 149.1652299, Q1 : 0.998134791851, Q2 : 0.0, Q3 : 0.0, Q4 : -0.0610485821962}
2019-04-03 23:17:43.91: SIM {TimeUS : 623534653, Roll : 0.0, Pitch : 0.0, Yaw : 353.0, Alt : 584.090026855, Lat : -35.363261, Lng : 149.1652299, Q1 : 0.998134791851, Q2 : 0.0, Q3 : 0.0, Q4 : -0.0610485821962}
2019-04-03 23:17:44.01: SIM {TimeUS : 623634613, Roll : 0.0, Pitch : 0.0, Yaw : 353.0, Alt : 584.090026855, Lat : -35.363261, Lng : 149.1652299, Q1 : 0.998134791851, Q2 : 0.0, Q3 : 0.0, Q4 : -0.0610485821962}
2019-04-03 23:17:44.11: SIM {TimeUS : 623734573, Roll : 0.0, Pitch : 0.0, Yaw : 353.0, Alt : 584.090026855, Lat : -35.363261, Lng : 149.1652299, Q1 : 0.998134791851, Q2 : 0.0, Q3 : 0.0, Q4 : -0.0610485821962}
2019-04-03 23:17:44.21: SIM {TimeUS : 623834533, Roll : 0.0, Pitch : 0.0, Yaw : 353.0, Alt : 584.090026855, Lat : -35.363261, Lng : 149.1652299, Q1 : 0.998134791851, Q2 : 0.0, Q3 : 0.0, Q4 : -0.0610485821962}
2019-04-03 23:17:44.31: SIM {TimeUS : 623934493, Roll : 0.0, Pitch : 0.0, Yaw : 353.0, Alt : 584.090026855, Lat : -35.363261, Lng : 149.1652299, Q1 : 0.998134791851, Q2 : 0.0, Q3 : 0.0, Q4 : -0.0610485821962}
2019-04-03 23:17:44.41: SIM {TimeUS : 624034453, Roll : 0.0, Pitch : 0.0, Yaw : 353.0, Alt : 584.090026855, Lat : -35.363261, Lng : 149.1652299, Q1 : 0.998134791851, Q2 : 0.0, Q3 : 0.0, Q4 : -0.0610485821962}
2019-04-03 23:17:44.51: SIM {TimeUS : 624134413, Roll : 0.0, Pitch : 0.0, Yaw : 353.0, Alt : 584.090026855, Lat : -35.363261, Lng : 149.1652299, Q1 : 0.998134791851, Q2 : 0.0, Q3 : 0.0, Q4 : -0.0610485821962}
2019-04-03 23:17:44.61: SIM {TimeUS : 624234373, Roll : 0.0, Pitch : 0.0, Yaw : 353.0, Alt : 584.090026855, Lat : -35.363261, Lng : 149.1652299, Q1 : 0.998134791851, Q2 : 0.0, Q3 : 0.0, Q4 : -0.0610485486686}
2019-04-03 23:17:44.71: SIM {TimeUS : 624334333, Roll : 0.0, Pitch : 0.0, Yaw : 353.0, Alt : 584.090026855, Lat : -35.363261, Lng : 149.1652299, Q1 : 0.998134791851, Q2 : 0.0, Q3 : 0.0, Q4 : -0.061048541218}
2019-04-03 23:17:44.81: SIM {TimeUS : 624434293, Roll : 0.0, Pitch : 0.0, Yaw : 353.0, Alt : 584.090026855, Lat : -35.363261, Lng : 149.1652299, Q1 : 0.998134791851, Q2 : 0.0, Q3 : 0.0, Q4 : -0.061048541218}
2019-04-03 23:17:44.91: SIM {TimeUS : 624534253, Roll : 0.0, Pitch : 0.0, Yaw : 353.0, Alt : 584.090026855, Lat : -35.363261, Lng : 149.1652299, Q1 : 0.998134791851, Q2 : 0.0, Q3 : 0.0, Q4 : -0.061048541218}
2019-04-03 23:17:45.01: SIM {TimeUS : 624634213, Roll : 0.0, Pitch : 0.0, Yaw : 353.0, Alt : 584.090026855, Lat : -35.363261, Lng : 149.1652299, Q1 : 0.998134791851, Q2 : 0.0, Q3 : 0.0, Q4 : -0.061048541218}
2019-04-03 23:17:45.11: SIM {TimeUS : 624734173, Roll : 0.0, Pitch : 0.0, Yaw : 353.0, Alt : 584.090026855, Lat : -35.363261, Lng : 149.1652299, Q1 : 0.998134791851, Q2 : 0.0, Q3 : 0.0, Q4 : -0.061048541218}
2019-04-03 23:17:45.21: SIM {TimeUS : 624834133, Roll : 0.0, Pitch : 0.0, Yaw : 353.0, Alt : 584.090026855, Lat : -35.363261, Lng : 149.1652299, Q1 : 0.998134791851, Q2 : 0.0, Q3 : 0.0, Q4 : -0.0610485374928}
2019-04-03 23:17:45.31: SIM {TimeUS : 624934093, Roll : 0.0, Pitch : 0.0, Yaw : 353.0, Alt : 584.099975586, Lat : -35.363261, Lng : 149.1652299, Q1 : 0.998134791851, Q2 : 0.0, Q3 : 0.0, Q4 : -0.061048541218}
2019-04-03 23:17:45.41: SIM {TimeUS : 625034053, Roll : 0.0, Pitch : 0.0, Yaw : 353.0, Alt : 584.099975586, Lat : -35.363261, Lng : 149.1652299, Q1 : 0.998134791851, Q2 : 0.0, Q3 : 0.0, Q4 : -0.061048541218}
2019-04-03 23:17:45.52: SIM {TimeUS : 625134846, Roll : 0.0, Pitch : 0.0, Yaw : 353.0, Alt : 584.119995117, Lat : -35.363261, Lng : 149.1652299, Q1 : 0.998134791851, Q2 : 0.0, Q3 : 0.0, Q4 : -0.061048541218}
2019-04-03 23:17:45.61: SIM {TimeUS : 625234806, Roll : 0.0, Pitch : 0.0, Yaw : 353.0, Alt : 584.140014648, Lat : -35.363261, Lng : 149.1652299, Q1 : 0.998134791851, Q2 : 0.0, Q3 : 0.0, Q4 : -0.061048541218}
2019-04-03 23:17:45.71: SIM {TimeUS : 625334766, Roll : 0.0, Pitch : 0.0, Yaw : 353.0, Alt : 584.16998291, Lat : -35.363261, Lng : 149.1652299, Q1 : 0.998134791851, Q2 : 0.0, Q3 : 0.0, Q4 : -0.061048541218}
2019-04-03 23:17:45.81: SIM {TimeUS : 625434726, Roll : 0.0, Pitch : 0.0, Yaw : 353.0, Alt : 584.200012207, Lat : -35.363261, Lng : 149.1652299, Q1 : 0.998134791851, Q2 : 0.0, Q3 : 0.0, Q4 : -0.061048541218}
2019-04-03 23:17:45.91: SIM {TimeUS : 625534686, Roll : 0.0, Pitch : 0.01, Yaw : 353.0, Alt : 584.25, Lat : -35.363261, Lng : 149.1652299, Q1 : 0.99813491106, Q2 : 7.793270197e-05, Q3 : 9.03953186935e-05, Q4 : -0.0610466860235}
2019-04-03 23:17:46.01: SIM {TimeUS : 625634646, Roll : 0.05, Pitch : 0.04, Yaw : 353.0, Alt : 584.349975586, Lat : -35.363261, Lng : 149.1652299, Q1 : 0.998135447502, Q2 : 0.000473907712149, Q3 : 0.00039710503188, Q4 : -0.0610354505479}
2019-04-03 23:17:46.11: SIM {TimeUS : 625734606, Roll : 0.12, Pitch : 0.11, Yaw : 353.0, Alt : 584.489990234, Lat : -35.363261, Lng : 149.1652299, Q1 : 0.998135983944, Q2 : 0.00118246988859, Q3 : 0.000895781733561, Q4 : -0.0610118433833}
2019-04-03 23:17:46.21: SIM {TimeUS : 625834566, Roll : 0.2, Pitch : 0.18, Yaw : 353.0, Alt : 584.650024414, Lat : -35.363261, Lng : 149.1652299, Q1 : 0.998136103153, Q2 : 0.00187882513274, Q3 : 0.00148798851296, Q4 : -0.0609805248678}
2019-04-03 23:17:46.31: SIM {TimeUS : 625934526, Roll : 0.23, Pitch : 0.22, Yaw : 353.01, Alt : 584.809997559, Lat : -35.363261, Lng : 149.1652299, Q1 : 0.998136937618, Q2 : 0.00220574112609, Q3 : 0.00180693657603, Q4 : -0.0609466768801}
2019-04-03 23:17:46.41: SIM {TimeUS : 626034486, Roll : 0.23, Pitch : 0.21, Yaw : 353.01, Alt : 584.960021973, Lat : -35.363261, Lng : 149.1652299, Q1 : 0.99813914299, Q2 : 0.00214939354919, Q3 : 0.00177341187373, Q4 : -0.0609136670828}
2019-04-03 23:17:46.51: SIM {TimeUS : 626134446, Roll : 0.18, Pitch : 0.17, Yaw : 353.01, Alt : 585.109985352, Lat : -35.363261, Lng : 149.1652299, Q1 : 0.998142361641, Q2 : 0.00167473591864, Q3 : 0.00138565490488, Q4 : -0.0608862899244}
2019-04-03 23:17:46.61: SIM {TimeUS : 626234406, Roll : 0.12, Pitch : 0.11, Yaw : 353.02, Alt : 585.270019531, Lat : -35.363261, Lng : 149.1652299, Q1 : 0.998144805431, Q2 : 0.00116870109923, Q3 : 0.000971837900579, Q4 : -0.060866497457}
2019-04-03 23:17:46.71: SIM {TimeUS : 626334366, Roll : 0.09, Pitch : 0.08, Yaw : 353.02, Alt : 585.429992676, Lat : -35.363261, Lng : 149.1652299, Q1 : 0.998145639896, Q2 : 0.000852829543874, Q3 : 0.000663664250169, Q4 : -0.0608618557453}
2019-04-03 23:17:46.81: SIM {TimeUS : 626434326, Roll : 0.09, Pitch : 0.08, Yaw : 353.02, Alt : 585.599975586, Lat : -35.363261, Lng : 149.1652299, Q1 : 0.998145520687, Q2 : 0.000830647419207, Q3 : 0.000661847239826, Q4 : -0.0608640834689}
2019-04-03 23:17:46.91: SIM {TimeUS : 626534286, Roll : 0.12, Pitch : 0.1, Yaw : 353.01, Alt : 585.770019531, Lat : -35.363261, Lng : 149.1652299, Q1 : 0.998144090176, Q2 : 0.0011322646169, Q3 : 0.000877405225765, Q4 : -0.0608795657754}
2019-04-03 23:17:47.01: SIM {TimeUS : 626634246, Roll : 0.13, Pitch : 0.09, Yaw : 353.01, Alt : 585.940002441, Lat : -35.363261, Lng : 149.1652299, Q1 : 0.998142540455, Q2 : 0.00126590067521, Q3 : 0.000774768996052, Q4 : -0.0609042532742}
2019-04-03 23:17:47.11: SIM {TimeUS : 626734206, Roll : 0.02, Pitch : 0.02, Yaw : 353.01, Alt : 586.099975586, Lat : -35.363261, Lng : 149.1652301, Q1 : 0.998141944408, Q2 : 0.0002531260252, Q3 : 0.000242881651502, Q4 : -0.0609303377569}
2019-04-03 23:17:47.21: SIM {TimeUS : 626834166, Roll : -0.39, Pitch : -0.15, Yaw : 353.01, Alt : 586.25, Lat : -35.363261, Lng : 149.1652301, Q1 : 0.99813324213, Q2 : -0.00354204908945, Q3 : -0.00114759290591, Q4 : -0.0609603412449}
2019-04-03 23:17:47.31: SIM {TimeUS : 626934126, Roll : -1.15, Pitch : -0.47, Yaw : 353.01, Alt : 586.390014648, Lat : -35.363261, Lng : 149.1652301, Q1 : 0.998078227043, Q2 : -0.0103382421657, Q3 : -0.00350417313166, Q4 : -0.0609984025359}
2019-04-03 23:17:47.41: SIM {TimeUS : 627034086, Roll : -2.14, Pitch : -0.86, Yaw : 353.01, Alt : 586.510009766, Lat : -35.363261, Lng : 149.1652301, Q1 : 0.997929632664, Q2 : -0.0191821344197, Q3 : -0.00640559010208, Q4 : -0.0610532425344}
2019-04-03 23:17:47.51: SIM {TimeUS : 627134046, Roll : -3.24, Pitch : -1.28, Yaw : 353.02, Alt : 586.630004883, Lat : -35.363261, Lng : 149.1652299, Q1 : 0.997663140297, Q2 : -0.0289837289602, Q3 : -0.00948886945844, Q4 : -0.0611411891878}
2019-04-03 23:17:47.62: SIM {TimeUS : 627234839, Roll : -4.36, Pitch : -1.7, Yaw : 353.03, Alt : 586.729980469, Lat : -35.363261, Lng : 149.1652299, Q1 : 0.997281610966, Q2 : -0.0389492511749, Q3 : -0.0125600481406, Q4 : -0.0612753555179}
2019-04-03 23:17:47.71: SIM {TimeUS : 627334799, Roll : -5.37, Pitch : -2.09, Yaw : 353.04, Alt : 586.820007324, Lat : -35.363261, Lng : 149.1652298, Q1 : 0.99684125185, Q2 : -0.047871787101, Q3 : -0.0154253384098, Q4 : -0.0614644475281}
2019-04-03 23:17:47.81: SIM {TimeUS : 627434759, Roll : -6.23, Pitch : -2.29, Yaw : 353.03, Alt : 586.900024414, Lat : -35.363261, Lng : 149.1652296, Q1 : 0.99640917778, Q2 : -0.055460292846, Q3 : -0.0166614484042, Q4 : -0.0617678016424}
2019-04-03 23:17:47.91: SIM {TimeUS : 627534719, Roll : -6.91, Pitch : -2.38, Yaw : 353.0, Alt : 586.969970703, Lat : -35.363261, Lng : 149.1652292, Q1 : 0.996028959751, Q2 : -0.0614789053798, Q3 : -0.0170320831239, Q4 : -0.0621020235121}
2019-04-03 23:17:48.01: SIM {TimeUS : 627634679, Roll : -7.45, Pitch : -2.41, Yaw : 352.98, Alt : 587.030029297, Lat : -35.3632609, Lng : 149.1652288, Q1 : 0.995708346367, Q2 : -0.0661899670959, Q3 : -0.0169732067734, Q4 : -0.0624148547649}
2019-04-03 23:17:48.11: SIM {TimeUS : 627734639, Roll : -7.84, Pitch : -2.38, Yaw : 352.95, Alt : 587.090026855, Lat : -35.3632608, Lng : 149.1652282, Q1 : 0.995471835136, Q2 : -0.0695253163576, Q3 : -0.0165376625955, Q4 : -0.0626783445477}
2019-04-03 23:17:48.21: SIM {TimeUS : 627834599, Roll : -8.06, Pitch : -2.31, Yaw : 352.93, Alt : 587.130004883, Lat : -35.3632607, Lng : 149.1652274, Q1 : 0.995339214802, Q2 : -0.0714156553149, Q3 : -0.0157383363694, Q4 : -0.0628651976585}
2019-04-03 23:17:48.31: SIM {TimeUS : 627934559, Roll : -8.18, Pitch : -2.22, Yaw : 352.92, Alt : 587.16998291, Lat : -35.3632605, Lng : 149.1652267, Q1 : 0.995273530483, Q2 : -0.0724321827292, Q3 : -0.0149509180337, Q4 : -0.0629343092442}
2019-04-03 23:17:48.41: SIM {TimeUS : 628034519, Roll : -8.25, Pitch : -2.15, Yaw : 352.92, Alt : 587.210021973, Lat : -35.3632604, Lng : 149.1652258, Q1 : 0.995248258114, Q2 : -0.0729590654373, Q3 : -0.0142647884786, Q4 : -0.0628847777843}
2019-04-03 23:17:48.51: SIM {TimeUS : 628134479, Roll : -8.34, Pitch : -2.07, Yaw : 352.93, Alt : 587.239990234, Lat : -35.3632603, Lng : 149.1652249, Q1 : 0.995209813118, Q2 : -0.0737202391028, Q3 : -0.0135700535029, Q4 : -0.0627585873008}
2019-04-03 23:17:48.61: SIM {TimeUS : 628234439, Roll : -8.55, Pitch : -1.85, Yaw : 352.8, Alt : 587.270019531, Lat : -35.3632602, Lng : 149.1652238, Q1 : 0.995042085648, Q2 : -0.075460664928, Q3 : -0.0114434873685, Q4 : -0.0637651830912}
2019-04-03 23:17:48.71: SIM {TimeUS : 628334399, Roll : -8.95, Pitch : -1.45, Yaw : 351.97, Alt : 587.299987793, Lat : -35.3632599, Lng : 149.1652226, Q1 : 0.994359374046, Q2 : -0.0787308439612, Q3 : -0.00713418470696, Q4 : -0.070710837841}
2019-04-03 23:17:48.81: SIM {TimeUS : 628434359, Roll : -9.46, Pitch : -1.15, Yaw : 349.76, Alt : 587.33001709, Lat : -35.3632598, Lng : 149.1652214, Q1 : 0.992495000362, Q2 : -0.0830411463976, Q3 : -0.00265251891688, Q4 : -0.0897264257073}
2019-04-03 23:17:48.91: SIM {TimeUS : 628534319, Roll : -9.91, Pitch : -1.33, Yaw : 345.89, Alt : 587.349975586, Lat : -35.3632597, Lng : 149.16522, Q1 : 0.988532960415, Q2 : -0.0872165039182, Q3 : -0.000890208233614, Q4 : -0.123268321157}
2019-04-03 23:17:49.01: SIM {TimeUS : 628634279, Roll : -10.13, Pitch : -2.15, Yaw : 340.52, Alt : 587.369995117, Lat : -35.3632596, Lng : 149.1652186, Q1 : 0.981291234493, Q2 : -0.0902028977871, Q3 : -0.00353826209903, Q4 : -0.170054361224}
2019-04-03 23:17:49.11: SIM {TimeUS : 628734239, Roll : -9.94, Pitch : -3.6, Yaw : 333.92, Alt : 587.390014648, Lat : -35.3632596, Lng : 149.1652169, Q1 : 0.969457685947, Q2 : -0.0914817601442, Q3 : -0.0109601970762, Q4 : -0.227294504642}
2019-04-03 23:17:49.21: SIM {TimeUS : 628834199, Roll : -9.27, Pitch : -5.47, Yaw : 326.36, Alt : 587.41998291, Lat : -35.3632595, Lng : 149.1652154, Q1 : 0.951894044876, Q2 : -0.0910650417209, Q3 : -0.0221942104399, Q4 : -0.29174003005}
2019-04-03 23:17:49.31: SIM {TimeUS : 628934159, Roll : -8.1, Pitch : -7.52, Yaw : 318.12, Alt : 587.440002441, Lat : -35.3632595, Lng : 149.1652135, Q1 : 0.927958667278, Q2 : -0.0892543196678, Q3 : -0.0359712094069, Q4 : -0.360045105219}
2019-04-03 23:17:49.41: SIM {TimeUS : 629034119, Roll : -6.47, Pitch : -9.49, Yaw : 309.45, Alt : 587.460021973, Lat : -35.3632593, Lng : 149.1652117, Q1 : 0.897739648819, Q2 : -0.0861612558365, Q3 : -0.0506965890527, Q4 : -0.429033309221}
2019-04-03 23:17:49.51: SIM {TimeUS : 629134079, Roll : -4.5, Pitch : -11.12, Yaw : 300.63, Alt : 587.489990234, Lat : -35.3632593, Lng : 149.1652097, Q1 : 0.862130224705, Q2 : -0.0819175466895, Q3 : -0.0647962167859, Q4 : -0.495804876089}
2019-04-03 23:17:49.61: SIM {TimeUS : 629234039, Roll : -2.33, Pitch : -12.3, Yaw : 291.98, Alt : 587.510009766, Lat : -35.3632592, Lng : 149.1652078, Q1 : 0.822780966759, Q2 : -0.0767375677824, Q3 : -0.0774411931634, Q4 : -0.557804346085}
2019-04-03 23:17:49.72: SIM {TimeUS : 629334832, Roll : 0.0, Pitch : -12.98, Yaw : 283.75, Alt : 587.539978027, Lat : -35.3632592, Lng : 149.1652056, Q1 : 0.781666755676, Q2 : -0.0698329433799, Q3 : -0.0888827517629, Q4 : -0.613368034363}
2019-04-03 23:17:49.81: SIM {TimeUS : 629434792, Roll : 2.48, Pitch : -13.17, Yaw : 276.66, Alt : 587.559997559, Lat : -35.363259, Lng : 149.1652034, Q1 : 0.743563115597, Q2 : -0.0601388216019, Q3 : -0.100018814206, Q4 : -0.658402204514}
2019-04-03 23:17:49.91: SIM {TimeUS : 629534752, Roll : 4.76, Pitch : -13.01, Yaw : 271.28, Alt : 587.590026855, Lat : -35.3632587, Lng : 149.165201, Q1 : 0.713040113449, Q2 : -0.0496465265751, Q3 : -0.109828710556, Q4 : -0.690685689449}
2019-04-03 23:17:50.01: SIM {TimeUS : 629634712, Roll : 6.4, Pitch : -12.74, Yaw : 267.9, Alt : 587.619995117, Lat : -35.3632586, Lng : 149.1651986, Q1 : 0.69315046072, Q2 : -0.0412247404456, Q3 : -0.11689402163, Q4 : -0.710055470467}
2019-04-03 23:17:50.11: SIM {TimeUS : 629734672, Roll : 7.18, Pitch : -12.58, Yaw : 266.44, Alt : 587.640014648, Lat : -35.3632582, Lng : 149.1651959, Q1 : 0.684355795383, Q2 : -0.0370602346957, Q3 : -0.120343394578, Q4 : -0.718192994595}
2019-04-03 23:17:50.21: SIM {TimeUS : 629834632, Roll : 7.07, Pitch : -12.63, Yaw : 266.6, Alt : 587.66998291, Lat : -35.3632578, Lng : 149.1651934, Q1 : 0.68534630537, Q2 : -0.0379149205983, Q3 : -0.119947470725, Q4 : -0.717269539833}
2019-04-03 23:17:50.31: SIM {TimeUS : 629934592, Roll : 6.15, Pitch : -12.92, Yaw : 268.04, Alt : 587.700012207, Lat : -35.3632573, Lng : 149.1651906, Q1 : 0.693849027157, Q2 : -0.043760702014, Q3 : -0.11647567153, Q4 : -0.709289848804}
2019-04-03 23:17:50.41: SIM {TimeUS : 630034552, Roll : 4.64, Pitch : -13.41, Yaw : 270.37, Alt : 587.729980469, Lat : -35.3632567, Lng : 149.1651879, Q1 : 0.707342624664, Q2 : -0.0537205040455, Q3 : -0.111163251102, Q4 : -0.696005225182}
2019-04-03 23:17:50.51: SIM {TimeUS : 630134512, Roll : 2.79, Pitch : -14.0, Yaw : 273.28, Alt : 587.760009766, Lat : -35.3632561, Lng : 149.1651849, Q1 : 0.723487317562, Q2 : -0.0660961568356, Q3 : -0.105268754065, Q4 : -0.679055154324}
2019-04-03 23:17:50.61: SIM {TimeUS : 630234472, Roll : 0.88, Pitch : -14.56, Yaw : 276.43, Alt : 587.789978027, Lat : -35.3632555, Lng : 149.165182, Q1 : 0.740268826485, Q2 : -0.0787950158119, Q3 : -0.0996157974005, Q4 : -0.660204648972}
2019-04-03 23:17:50.71: SIM {TimeUS : 630334432, Roll : -0.86, Pitch : -14.99, Yaw : 279.47, Alt : 587.820007324, Lat : -35.3632549, Lng : 149.1651791, Q1 : 0.75591814518, Q2 : -0.0900545492768, Q3 : -0.0946932733059, Q4 : -0.641491293907}
2019-04-03 23:17:50.81: SIM {TimeUS : 630434392, Roll : -2.27, Pitch : -15.22, Yaw : 282.09, Alt : 587.849975586, Lat : -35.3632543, Lng : 149.1651758, Q1 : 0.769003689289, Q2 : -0.0985885560513, Q3 : -0.0906458869576, Q4 : -0.625057578087}
2019-04-03 23:17:50.91: SIM {TimeUS : 630534352, Roll : -3.2, Pitch : -15.32, Yaw : 284.04, Alt : 587.880004883, Lat : -35.3632537, Lng : 149.1651727, Q1 : 0.77863663435, Q2 : -0.103862963617, Q3 : -0.0880385264754, Q4 : -0.612524867058}
2019-04-03 23:17:51.01: SIM {TimeUS : 630634312, Roll : -3.63, Pitch : -15.34, Yaw : 285.22, Alt : 587.909973145, Lat : -35.3632531, Lng : 149.1651694, Q1 : 0.784473240376, Q2 : -0.10601361841, Q3 : -0.0869692414999, Q4 : -0.604813337326}
2019-04-03 23:17:51.11: SIM {TimeUS : 630734272, Roll : -3.61, Pitch : -15.33, Yaw : 285.62, Alt : 587.940002441, Lat : -35.3632526, Lng : 149.165166, Q1 : 0.786630034447, Q2 : -0.105495058, Q3 : -0.0873426273465, Q4 : -0.602042555809}
2019-04-03 23:17:51.21: SIM {TimeUS : 630834232, Roll : -3.24, Pitch : -15.34, Yaw : 285.35, Alt : 587.969970703, Lat : -35.363252, Lng : 149.1651624, Q1 : 0.785512149334, Q2 : -0.103181764483, Q3 : -0.0891133621335, Q4 : -0.603641450405}
2019-04-03 23:17:51.31: SIM {TimeUS : 630934192, Roll : -2.61, Pitch : -15.42, Yaw : 284.55, Alt : 588.0, Lat : -35.3632517, Lng : 149.1651589, Q1 : 0.781771361828, Q2 : -0.0999274328351, Q3 : -0.0922888964415, Q4 : -0.608548104763}
2019-04-03 23:17:51.41: SIM {TimeUS : 631034152, Roll : -1.81, Pitch : -15.56, Yaw : 283.42, Alt : 588.039978027, Lat : -35.3632512, Lng : 149.1651552, Q1 : 0.776254296303, Q2 : -0.0962270572782, Q3 : -0.0965272188187, Q4 : -0.61550962925}
2019-04-03 23:17:51.51: SIM {TimeUS : 631134112, Roll : -0.97, Pitch : -15.73, Yaw : 282.14, Alt : 588.070007324, Lat : -35.3632507, Lng : 149.1651516, Q1 : 0.769871115685, Q2 : -0.0925447717309, Q3 : -0.101165339351, Q4 : -0.623297274113}
2019-04-03 23:17:51.61: SIM {TimeUS : 631234072, Roll : -0.18, Pitch : -15.88, Yaw : 280.89, Alt : 588.099975586, Lat : -35.3632501, Lng : 149.1651478, Q1 : 0.763504087925, Q2 : -0.0892601981759, Q3 : -0.105527192354, Q4 : -0.630839288235}
2019-04-03 23:17:51.71: SIM {TimeUS : 631334032, Roll : 0.46, Pitch : -16.01, Yaw : 279.81, Alt : 588.130004883, Lat : -35.3632497, Lng : 149.1651439, Q1 : 0.757908165455, Q2 : -0.0866304114461, Q3 : -0.109128154814, Q4 : -0.637307941914}
2019-04-03 23:17:51.82: SIM {TimeUS : 631434825, Roll : 0.94, Pitch : -16.11, Yaw : 278.99, Alt : 588.159973145, Lat : -35.3632492, Lng : 149.1651399, Q1 : 0.75358825922, Q2 : -0.0848326385021, Q3 : -0.111882321537, Q4 : -0.642176389694}
2019-04-03 23:17:51.91: SIM {TimeUS : 631534785, Roll : 1.24, Pitch : -16.2, Yaw : 278.49, Alt : 588.190002441, Lat : -35.3632487, Lng : 149.165136, Q1 : 0.750929355621, Q2 : -0.0838391110301, Q3 : -0.113775514066, Q4 : -0.64508241415}
2019-04-03 23:17:52.01: SIM {TimeUS : 631634745, Roll : 1.35, Pitch : -16.27, Yaw : 278.31, Alt : 588.219970703, Lat : -35.3632481, Lng : 149.1651321, Q1 : 0.749919116497, Q2 : -0.0836854726076, Q3 : -0.114696919918, Q4 : -0.6461135149}
2019-04-03 23:17:52.11: SIM {TimeUS : 631734705, Roll : 1.28, Pitch : -16.31, Yaw : 278.4, Alt : 588.25, Lat : -35.3632475, Lng : 149.1651279, Q1 : 0.750379800797, Q2 : -0.08432405442, Q3 : -0.114652648568, Q4 : -0.645503282547}
2019-04-03 23:17:52.21: SIM {TimeUS : 631834665, Roll : 1.06, Pitch : -16.35, Yaw : 278.72, Alt : 588.280029297, Lat : -35.3632469, Lng : 149.1651239, Q1 : 0.75198251009, Q2 : -0.0856272950768, Q3 : -0.113940633833, Q4 : -0.643589794636}
2019-04-03 23:17:52.31: SIM {TimeUS : 631934625, Roll : 0.76, Pitch : -16.4, Yaw : 279.19, Alt : 588.309997559, Lat : -35.3632463, Lng : 149.1651197, Q1 : 0.754321455956, Q2 : -0.0874348804355, Q3 : -0.112887330353, Q4 : -0.640789151192}
2019-04-03 23:17:52.41: SIM {TimeUS : 632034585, Roll : 0.43, Pitch : -16.46, Yaw : 279.72, Alt : 588.340026855, Lat : -35.3632456, Lng : 149.1651156, Q1 : 0.756987631321, Q2 : -0.089453548193, Q3 : -0.111873909831, Q4 : -0.63753592968}
2019-04-03 23:17:52.51: SIM {TimeUS : 632134545, Roll : 0.09, Pitch : -16.52, Yaw : 280.25, Alt : 588.369995117, Lat : -35.363245, Lng : 149.1651114, Q1 : 0.759607791901, Q2 : -0.0915163233876, Q3 : -0.110793411732, Q4 : -0.634307205677}
2019-04-03 23:17:52.61: SIM {TimeUS : 632234505, Roll : -0.21, Pitch : -16.56, Yaw : 280.72, Alt : 588.400024414, Lat : -35.3632443, Lng : 149.1651071, Q1 : 0.761907219887, Q2 : -0.0933094993234, Q3 : -0.109789282084, Q4 : -0.631456315517}
2019-04-03 23:17:52.71: SIM {TimeUS : 632334465, Roll : -0.41, Pitch : -16.59, Yaw : 281.09, Alt : 588.429992676, Lat : -35.3632437, Lng : 149.1651028, Q1 : 0.763711988926, Q2 : -0.0944774225354, Q3 : -0.10915196687, Q4 : -0.629208981991}
2019-04-03 23:17:52.81: SIM {TimeUS : 632434425, Roll : -0.51, Pitch : -16.62, Yaw : 281.32, Alt : 588.460021973, Lat : -35.363243, Lng : 149.1650984, Q1 : 0.764898717403, Q2 : -0.0950578898191, Q3 : -0.109010502696, Q4 : -0.627702713013}
2019-04-03 23:17:52.91: SIM {TimeUS : 632534385, Roll : -0.51, Pitch : -16.66, Yaw : 281.43, Alt : 588.489990234, Lat : -35.3632424, Lng : 149.1650941, Q1 : 0.765440225601, Q2 : -0.0952055603266, Q3 : -0.10931161046, Q4 : -0.626967430115}
2019-04-03 23:17:53.01: SIM {TimeUS : 632634345, Roll : -0.47, Pitch : -16.7, Yaw : 281.42, Alt : 588.520019531, Lat : -35.3632416, Lng : 149.1650895, Q1 : 0.765368759632, Q2 : -0.0951654240489, Q3 : -0.10984519124, Q4 : -0.626967489719}
2019-04-03 23:17:53.11: SIM {TimeUS : 632734305, Roll : -0.37, Pitch : -16.75, Yaw : 281.31, Alt : 588.549987793, Lat : -35.3632409, Lng : 149.1650852, Q1 : 0.764817297459, Q2 : -0.0948747247458, Q3 : -0.110593028367, Q4 : -0.627552807331}
2019-04-03 23:17:53.21: SIM {TimeUS : 632834265, Roll : -0.22, Pitch : -16.78, Yaw : 281.14, Alt : 588.58001709, Lat : -35.3632403, Lng : 149.1650807, Q1 : 0.763969063759, Q2 : -0.0942094400525, Q3 : -0.11148263514, Q4 : -0.628528058529}
2019-04-03 23:17:53.31: SIM {TimeUS : 632934225, Roll : -0.06, Pitch : -16.81, Yaw : 280.94, Alt : 588.609985352, Lat : -35.3632397, Lng : 149.1650761, Q1 : 0.762960970402, Q2 : -0.0934486761689, Q3 : -0.112414635718, Q4 : -0.62969905138}
2019-04-03 23:17:53.41: SIM {TimeUS : 633034185, Roll : 0.1, Pitch : -16.81, Yaw : 280.73, Alt : 588.640014648, Lat : -35.363239, Lng : 149.1650716, Q1 : 0.76194870472, Q2 : -0.0925998166203, Q3 : -0.113192461431, Q4 : -0.630909621716}
2019-04-03 23:17:53.51: SIM {TimeUS : 633134145, Roll : 0.25, Pitch : -16.84, Yaw : 280.54, Alt : 588.66998291, Lat : -35.3632383, Lng : 149.165067, Q1 : 0.76102399826, Q2 : -0.0918983370066, Q3 : -0.114023506641, Q4 : -0.63197773695}
2019-04-03 23:17:53.61: SIM {TimeUS : 633234105, Roll : 0.36, Pitch : -16.86, Yaw : 280.4, Alt : 588.700012207, Lat : -35.3632376, Lng : 149.1650623, Q1 : 0.760274529457, Q2 : -0.0914583578706, Q3 : -0.114636927843, Q4 : -0.632832050323}
2019-04-03 23:17:53.71: SIM {TimeUS : 633334065, Roll : 0.4, Pitch : -16.88, Yaw : 280.3, Alt : 588.729980469, Lat : -35.3632368, Lng : 149.1650577, Q1 : 0.759733438492, Q2 : -0.0914235711098, Q3 : -0.114964097738, Q4 : -0.633427321911}
2019-04-03 23:17:53.81: SIM {TimeUS : 633434025, Roll : 0.4, Pitch : -16.93, Yaw : 280.25, Alt : 588.760009766, Lat : -35.3632361, Lng : 149.1650531, Q1 : 0.759420931339, Q2 : -0.0917406603694, Q3 : -0.115233160555, Q4 : -0.633707225323}
2019-04-03 23:17:53.91: SIM {TimeUS : 633534818, Roll : 0.38, Pitch : -16.98, Yaw : 280.25, Alt : 588.789978027, Lat : -35.3632354, Lng : 149.1650483, Q1 : 0.759365200996, Q2 : -0.0921045020223, Q3 : -0.115438751876, Q4 : -0.633683800697}
2019-04-03 23:17:54.01: SIM {TimeUS : 633634778, Roll : 0.35, Pitch : -17.0, Yaw : 280.29, Alt : 588.820007324, Lat : -35.3632347, Lng : 149.1650436, Q1 : 0.759525001049, Q2 : -0.0923840627074, Q3 : -0.115484654903, Q4 : -0.633443176746}
2019-04-03 23:17:54.11: SIM {TimeUS : 633734738, Roll : 0.31, Pitch : -17.0, Yaw : 280.35, Alt : 588.849975586, Lat : -35.3632339, Lng : 149.1650388, Q1 : 0.759833574295, Q2 : -0.0926219895482, Q3 : -0.115322671831, Q4 : -0.633067786694}
2019-04-03 23:17:54.21: SIM {TimeUS : 633834698, Roll : 0.25, Pitch : -17.0, Yaw : 280.42, Alt : 588.880004883, Lat : -35.3632331, Lng : 149.165034, Q1 : 0.760211229324, Q2 : -0.0929012522101, Q3 : -0.115015976131, Q4 : -0.632629096508}
2019-04-03 23:17:54.31: SIM {TimeUS : 633934658, Roll : 0.19, Pitch : -16.99, Yaw : 280.5, Alt : 588.909973145, Lat : -35.3632324, Lng : 149.1650293, Q1 : 0.760581016541, Q2 : -0.0932263955474, Q3 : -0.114677876234, Q4 : -0.632198035717}
2019-04-03 23:17:54.41: SIM {TimeUS : 634034618, Roll : 0.13, Pitch : -17.0, Yaw : 280.57, Alt : 588.940002441, Lat : -35.3632317, Lng : 149.1650245, Q1 : 0.760889828205, Q2 : -0.0935786068439, Q3 : -0.114526696503, Q4 : -0.631801724434}
2019-04-03 23:17:54.51: SIM {TimeUS : 634134578, Roll : 0.1, Pitch : -17.03, Yaw : 280.62, Alt : 588.969970703, Lat : -35.3632309, Lng : 149.1650197, Q1 : 0.761117994785, Q2 : -0.0938696935773, Q3 : -0.114526890218, Q4 : -0.63148355484}
2019-04-03 23:17:54.61: SIM {TimeUS : 634234538, Roll : 0.09, Pitch : -17.06, Yaw : 280.65, Alt : 589.0, Lat : -35.3632301, Lng : 149.1650149, Q1 : 0.761246681213, Q2 : -0.09409314394, Q3 : -0.114666983485, Q4 : -0.631269752979}
2019-04-03 23:17:54.71: SIM {TimeUS : 634334498, Roll : 0.09, Pitch : -17.09, Yaw : 280.66, Alt : 589.030029297, Lat : -35.3632294, Lng : 149.1650101, Q1 : 0.761275649071, Q2 : -0.094230376184, Q3 : -0.114938311279, Q4 : -0.631164968014}
2019-04-03 23:17:54.81: SIM {TimeUS : 634434458, Roll : 0.1, Pitch : -17.12, Yaw : 280.65, Alt : 589.059997559, Lat : -35.3632286, Lng : 149.1650052, Q1 : 0.761208236217, Q2 : -0.0943234562874, Q3 : -0.115179330111, Q4 : -0.631188452244}
2019-04-03 23:17:54.91: SIM {TimeUS : 634534418, Roll : 0.1, Pitch : -17.12, Yaw : 280.62, Alt : 589.090026855, Lat : -35.3632278, Lng : 149.1650004, Q1 : 0.76106107235, Q2 : -0.0943813920021, Q3 : -0.115156941116, Q4 : -0.631361305714}
2019-04-03 23:17:55.01: SIM {TimeUS : 634634378, Roll : 0.08, Pitch : -17.12, Yaw : 280.58, Alt : 589.119995117, Lat : -35.363227, Lng : 149.1649955, Q1 : 0.760838508606, Q2 : -0.0945009738207, Q3 : -0.115010648966, Q4 : -0.631638288498}
2019-04-03 23:17:55.11: SIM {TimeUS : 634734338, Roll : 0.09, Pitch : -17.11, Yaw : 280.54, Alt : 589.150024414, Lat : -35.3632263, Lng : 149.1649904, Q1 : 0.760592460632, Q2 : -0.0945078209043, Q3 : -0.114986620843, Q4 : -0.631937801838}
2019-04-03 23:17:55.21: SIM {TimeUS : 634834298, Roll : 0.12, Pitch : -17.11, Yaw : 280.49, Alt : 589.190002441, Lat : -35.3632255, Lng : 149.1649856, Q1 : 0.760362744331, Q2 : -0.0943065434694, Q3 : -0.115074463189, Q4 : -0.632228374481}
2019-04-03 23:17:55.31: SIM {TimeUS : 634934258, Roll : 0.16, Pitch : -17.11, Yaw : 280.44, Alt : 589.219970703, Lat : -35.3632246, Lng : 149.1649807, Q1 : 0.760135889053, Q2 : -0.0941270813346, Q3 : -0.115276023746, Q4 : -0.632491111755}
2019-04-03 23:17:55.41: SIM {TimeUS : 635034218, Roll : 0.18, Pitch : -17.14, Yaw : 280.4, Alt : 589.25, Lat : -35.3632239, Lng : 149.1649756, Q1 : 0.759889662266, Q2 : -0.0941868722439, Q3 : -0.115565814078, Q4 : -0.632725119591}
2019-04-03 23:17:55.51: SIM {TimeUS : 635134178, Roll : 0.19, Pitch : -17.2, Yaw : 280.37, Alt : 589.280029297, Lat : -35.3632232, Lng : 149.1649708, Q1 : 0.759644150734, Q2 : -0.0944542065263, Q3 : -0.115950375795, Q4 : -0.632909715176}
2019-04-03 23:17:55.61: SIM {TimeUS : 635234138, Roll : 0.19, Pitch : -17.24, Yaw : 280.34, Alt : 589.309997559, Lat : -35.3632224, Lng : 149.1649658, Q1 : 0.75945019722, Q2 : -0.0946814864874, Q3 : -0.116207107902, Q4 : -0.633061468601}
2019-04-03 23:17:55.71: SIM {TimeUS : 635334098, Roll : 0.19, Pitch : -17.28, Yaw : 280.32, Alt : 589.340026855, Lat : -35.3632215, Lng : 149.1649608, Q1 : 0.759290754795, Q2 : -0.0949668884277, Q3 : -0.116493396461, Q4 : -0.633157253265}
2019-04-03 23:17:55.81: SIM {TimeUS : 635434058, Roll : 0.19, Pitch : -17.31, Yaw : 280.3, Alt : 589.369995117, Lat : -35.3632208, Lng : 149.1649558, Q1 : 0.759194672108, Q2 : -0.0951453968883, Q3 : -0.116627663374, Q4 : -0.633220970631}
2019-04-03 23:17:55.92: SIM {TimeUS : 635534851, Roll : 0.18, Pitch : -17.31, Yaw : 280.3, Alt : 589.400024414, Lat : -35.36322, Lng : 149.1649507, Q1 : 0.759148180485, Q2 : -0.095209017396, Q3 : -0.116632603109, Q4 : -0.633266270161}
2019-04-03 23:17:56.01: SIM {TimeUS : 635634811, Roll : 0.19, Pitch : -17.32, Yaw : 280.29, Alt : 589.429992676, Lat : -35.3632191, Lng : 149.1649458, Q1 : 0.75911706686, Q2 : -0.0952335521579, Q3 : -0.116681337357, Q4 : -0.633290886879}
2019-04-03 23:17:56.11: SIM {TimeUS : 635734771, Roll : 0.18, Pitch : -17.33, Yaw : 280.29, Alt : 589.460021973, Lat : -35.3632184, Lng : 149.1649407, Q1 : 0.759079635143, Q2 : -0.0953321456909, Q3 : -0.116747803986, Q4 : -0.633308708668}
2019-04-03 23:17:56.21: SIM {TimeUS : 635834731, Roll : 0.17, Pitch : -17.36, Yaw : 280.29, Alt : 589.489990234, Lat : -35.3632176, Lng : 149.1649357, Q1 : 0.759026110172, Q2 : -0.0955823734403, Q3 : -0.116878412664, Q4 : -0.633311033249}
2019-04-03 23:17:56.31: SIM {TimeUS : 635934691, Roll : 0.15, Pitch : -17.4, Yaw : 280.28, Alt : 589.520019531, Lat : -35.3632169, Lng : 149.1649306, Q1 : 0.758956730366, Q2 : -0.0959593057632, Q3 : -0.117032162845, Q4 : -0.633308768272}
2019-04-03 23:17:56.41: SIM {TimeUS : 636034651, Roll : 0.14, Pitch : -17.43, Yaw : 280.28, Alt : 589.549987793, Lat : -35.363216, Lng : 149.1649256, Q1 : 0.758905231953, Q2 : -0.0961772873998, Q3 : -0.11713000387, Q4 : -0.633319318295}
2019-04-03 23:17:56.51: SIM {TimeUS : 636134611, Roll : 0.15, Pitch : -17.43, Yaw : 280.28, Alt : 589.58001709, Lat : -35.3632153, Lng : 149.1649205, Q1 : 0.758892774582, Q2 : -0.0960730910301, Q3 : -0.117189526558, Q4 : -0.633339047432}
2019-04-03 23:17:56.61: SIM {TimeUS : 636234571, Roll : 0.16, Pitch : -17.4, Yaw : 280.27, Alt : 589.609985352, Lat : -35.3632145, Lng : 149.1649155, Q1 : 0.758886992931, Q2 : -0.0958725139499, Q3 : -0.117102265358, Q4 : -0.633392453194}
2019-04-03 23:17:56.71: SIM {TimeUS : 636334531, Roll : 0.15, Pitch : -17.39, Yaw : 280.26, Alt : 589.640014648, Lat : -35.3632136, Lng : 149.1649104, Q1 : 0.758827328682, Q2 : -0.095933996141, Q3 : -0.116942226887, Q4 : -0.633484244347}
2019-04-03 23:17:56.81: SIM {TimeUS : 636434491, Roll : 0.11, Pitch : -17.41, Yaw : 280.25, Alt : 589.66998291, Lat : -35.3632129, Lng : 149.1649052, Q1 : 0.758707821369, Q2 : -0.0962728634477, Q3 : -0.116830587387, Q4 : -0.633596599102}
2019-04-03 23:17:56.91: SIM {TimeUS : 636534451, Roll : 0.09, Pitch : -17.44, Yaw : 280.23, Alt : 589.700012207, Lat : -35.3632121, Lng : 149.1649002, Q1 : 0.758578419685, Q2 : -0.0965915098786, Q3 : -0.116863921285, Q4 : -0.633696854115}
2019-04-03 23:17:57.01: SIM {TimeUS : 636634411, Roll : 0.1, Pitch : -17.46, Yaw : 280.22, Alt : 589.729980469, Lat : -35.3632112, Lng : 149.1648951, Q1 : 0.75847452879, Q2 : -0.0966977626085, Q3 : -0.117095723748, Q4 : -0.63376224041}
2019-04-03 23:17:57.11: SIM {TimeUS : 636734371, Roll : 0.12, Pitch : -17.49, Yaw : 280.2, Alt : 589.760009766, Lat : -35.3632105, Lng : 149.1648899, Q1 : 0.758385539055, Q2 : -0.0966914072633, Q3 : -0.117374680936, Q4 : -0.633818030357}
2019-04-03 23:17:57.21: SIM {TimeUS : 636834331, Roll : 0.13, Pitch : -17.52, Yaw : 280.19, Alt : 589.789978027, Lat : -35.3632097, Lng : 149.1648849, Q1 : 0.758283019066, Q2 : -0.096804395318, Q3 : -0.117595136166, Q4 : -0.633882641792}
2019-04-03 23:17:57.31: SIM {TimeUS : 636934291, Roll : 0.11, Pitch : -17.56, Yaw : 280.17, Alt : 589.83001709, Lat : -35.3632088, Lng : 149.1648798, Q1 : 0.758140623569, Q2 : -0.0971850752831, Q3 : -0.117723874748, Q4 : -0.633970737457}
2019-04-03 23:17:57.41: SIM {TimeUS : 637034251, Roll : 0.08, Pitch : -17.59, Yaw : 280.16, Alt : 589.859985352, Lat : -35.3632081, Lng : 149.1648746, Q1 : 0.758001804352, Q2 : -0.0975940153003, Q3 : -0.117733776569, Q4 : -0.634072124958}
2019-04-03 23:17:57.51: SIM {TimeUS : 637134211, Roll : 0.06, Pitch : -17.61, Yaw : 280.14, Alt : 589.890014648, Lat : -35.3632073, Lng : 149.1648694, Q1 : 0.757887482643, Q2 : -0.0978640466928, Q3 : -0.117801815271, Q4 : -0.634154558182}
2019-04-03 23:17:57.61: SIM {TimeUS : 637234171, Roll : 0.06, Pitch : -17.62, Yaw : 280.13, Alt : 589.91998291, Lat : -35.3632064, Lng : 149.1648644, Q1 : 0.757805168629, Q2 : -0.0979146957397, Q3 : -0.117850854993, Q4 : -0.634235978127}
2019-04-03 23:17:57.71: SIM {TimeUS : 637334131, Roll : 0.08, Pitch : -17.63, Yaw : 280.12, Alt : 589.950012207, Lat : -35.3632057, Lng : 149.1648592, Q1 : 0.757737636566, Q2 : -0.0978512614965, Q3 : -0.118039228022, Q4 : -0.634291410446}
2019-04-03 23:17:57.81: SIM {TimeUS : 637434091, Roll : 0.1, Pitch : -17.64, Yaw : 280.1, Alt : 589.979980469, Lat : -35.3632049, Lng : 149.164854, Q1 : 0.757678687572, Q2 : -0.0977741107345, Q3 : -0.118207745254, Q4 : -0.634342372417}
2019-04-03 23:17:57.91: SIM {TimeUS : 637534051, Roll : 0.11, Pitch : -17.63, Yaw : 280.09, Alt : 590.010009766, Lat : -35.3632041, Lng : 149.1648488, Q1 : 0.757634699345, Q2 : -0.0977141931653, Q3 : -0.118157178164, Q4 : -0.634413540363}
2019-04-03 23:17:58.02: SIM {TimeUS : 637634844, Roll : 0.11, Pitch : -17.61, Yaw : 280.09, Alt : 590.039978027, Lat : -35.3632032, Lng : 149.1648437, Q1 : 0.75761783123, Q2 : -0.0975903347135, Q3 : -0.117981545627, Q4 : -0.634485423565}
2019-04-03 23:17:58.11: SIM {TimeUS : 637734804, Roll : 0.11, Pitch : -17.58, Yaw : 280.08, Alt : 590.070007324, Lat : -35.3632025, Lng : 149.1648385, Q1 : 0.757618606091, Q2 : -0.0974128693342, Q3 : -0.117825835943, Q4 : -0.634540677071}
2019-04-03 23:17:58.21: SIM {TimeUS : 637834764, Roll : 0.12, Pitch : -17.56, Yaw : 280.08, Alt : 590.099975586, Lat : -35.3632017, Lng : 149.1648333, Q1 : 0.757620573044, Q2 : -0.0972487106919, Q3 : -0.117682509124, Q4 : -0.634590089321}
2019-04-03 23:17:58.31: SIM {TimeUS : 637934724, Roll : 0.1, Pitch : -17.56, Yaw : 280.07, Alt : 590.130004883, Lat : -35.3632008, Lng : 149.1648281, Q1 : 0.757589161396, Q2 : -0.0973422452807, Q3 : -0.117600671947, Q4 : -0.634628474712}
2019-04-03 23:17:58.41: SIM {TimeUS : 638034684, Roll : 0.09, Pitch : -17.58, Yaw : 280.07, Alt : 590.159973145, Lat : -35.3632001, Lng : 149.1648229, Q1 : 0.757542252541, Q2 : -0.0975556895137, Q3 : -0.117708198726, Q4 : -0.634631693363}
2019-04-03 23:17:58.51: SIM {TimeUS : 638134644, Roll : 0.08, Pitch : -17.62, Yaw : 280.07, Alt : 590.190002441, Lat : -35.3631993, Lng : 149.1648176, Q1 : 0.757477343082, Q2 : -0.0978900119662, Q3 : -0.117891833186, Q4 : -0.634623587132}
2019-04-03 23:17:58.61: SIM {TimeUS : 638234604, Roll : 0.06, Pitch : -17.67, Yaw : 280.07, Alt : 590.219970703, Lat : -35.3631984, Lng : 149.1648124, Q1 : 0.757409632206, Q2 : -0.0982461050153, Q3 : -0.118160538375, Q4 : -0.63459944725}
2019-04-03 23:17:58.71: SIM {TimeUS : 638334564, Roll : 0.06, Pitch : -17.72, Yaw : 280.07, Alt : 590.25, Lat : -35.3631977, Lng : 149.1648073, Q1 : 0.757351517677, Q2 : -0.0985658839345, Q3 : -0.118441700935, Q4 : -0.63456684351}
2019-04-03 23:17:58.81: SIM {TimeUS : 638434524, Roll : 0.05, Pitch : -17.74, Yaw : 280.07, Alt : 590.280029297, Lat : -35.3631969, Lng : 149.1648021, Q1 : 0.757329702377, Q2 : -0.0986909717321, Q3 : -0.118523210287, Q4 : -0.634558200836}
2019-04-03 23:17:58.91: SIM {TimeUS : 638534484, Roll : 0.04, Pitch : -17.72, Yaw : 280.07, Alt : 590.309997559, Lat : -35.363196, Lng : 149.1647969, Q1 : 0.757333576679, Q2 : -0.098697848618, Q3 : -0.118325449526, Q4 : -0.634589374065}
