2019-04-03 21:42:34.40: SIM {TimeUS : 41415927, Roll : 0.0, Pitch : 0.0, Yaw : 353.0, Alt : 584.090026855, Lat : -35.363261, Lng : 149.1652299, Q1 : 0.998134791851, Q2 : 0.0, Q3 : 0.0, Q4 : -0.0610485821962}
2019-04-03 21:42:34.51: SIM {TimeUS : 41535046, Roll : 0.0, Pitch : 0.0, Yaw : 353.0, Alt : 584.090026855, Lat : -35.363261, Lng : 149.1652299, Q1 : 0.998134791851, Q2 : 0.0, Q3 : 0.0, Q4 : -0.0610485821962}
2019-04-03 21:42:34.61: SIM {TimeUS : 41635006, Roll : 0.0, Pitch : 0.0, Yaw : 353.0, Alt : 584.090026855, Lat : -35.363261, Lng : 149.1652299, Q1 : 0.998134791851, Q2 : 0.0, Q3 : 0.0, Q4 : -0.0610485821962}
2019-04-03 21:42:34.71: SIM {TimeUS : 41734966, Roll : 0.0, Pitch : 0.0, Yaw : 353.0, Alt : 584.090026855, Lat : -35.363261, Lng : 149.1652299, Q1 : 0.998134791851, Q2 : 0.0, Q3 : 0.0, Q4 : -0.0610485821962}
2019-04-03 21:42:34.81: SIM {TimeUS : 41834926, Roll : 0.0, Pitch : 0.0, Yaw : 353.0, Alt : 584.090026855, Lat : -35.363261, Lng : 149.1652299, Q1 : 0.998134791851, Q2 : 0.0, Q3 : 0.0, Q4 : -0.0610485821962}
2019-04-03 21:42:34.91: SIM {TimeUS : 41934886, Roll : 0.0, Pitch : 0.0, Yaw : 353.0, Alt : 584.090026855, Lat : -35.363261, Lng : 149.1652299, Q1 : 0.998134791851, Q2 : 0.0, Q3 : 0.0, Q4 : -0.0610485821962}
2019-04-03 21:42:35.01: SIM {TimeUS : 42034846, Roll : 0.0, Pitch : 0.0, Yaw : 353.0, Alt : 584.090026855, Lat : -35.363261, Lng : 149.1652299, Q1 : 0.998134791851, Q2 : 0.0, Q3 : 0.0, Q4 : -0.0610485821962}
2019-04-03 21:42:35.11: SIM {TimeUS : 42134806, Roll : 0.0, Pitch : 0.0, Yaw : 353.0, Alt : 584.090026855, Lat : -35.363261, Lng : 149.1652299, Q1 : 0.998134791851, Q2 : 0.0, Q3 : 0.0, Q4 : -0.0610485821962}
2019-04-03 21:42:35.21: SIM {TimeUS : 42234766, Roll : 0.0, Pitch : 0.0, Yaw : 353.0, Alt : 584.090026855, Lat : -35.363261, Lng : 149.1652299, Q1 : 0.998134791851, Q2 : 0.0, Q3 : 0.0, Q4 : -0.0610485821962}
2019-04-03 21:42:35.31: SIM {TimeUS : 42334726, Roll : 0.0, Pitch : 0.0, Yaw : 353.0, Alt : 584.090026855, Lat : -35.363261, Lng : 149.1652299, Q1 : 0.998134791851, Q2 : 0.0, Q3 : 0.0, Q4 : -0.0610485821962}
2019-04-03 21:42:35.41: SIM {TimeUS : 42434686, Roll : 0.0, Pitch : 0.0, Yaw : 353.0, Alt : 584.090026855, Lat : -35.363261, Lng : 149.1652299, Q1 : 0.998134791851, Q2 : 0.0, Q3 : 0.0, Q4 : -0.0610485821962}
2019-04-03 21:42:35.51: SIM {TimeUS : 42534646, Roll : 0.0, Pitch : 0.0, Yaw : 353.0, Alt : 584.090026855, Lat : -35.363261, Lng : 149.1652299, Q1 : 0.998134791851, Q2 : 0.0, Q3 : 0.0, Q4 : -0.0610485821962}
2019-04-03 21:42:35.61: SIM {TimeUS : 42634606, Roll : 0.0, Pitch : 0.0, Yaw : 353.0, Alt : 584.090026855, Lat : -35.363261, Lng : 149.1652299, Q1 : 0.998134791851, Q2 : 0.0, Q3 : 0.0, Q4 : -0.0610485821962}
2019-04-03 21:42:35.71: SIM {TimeUS : 42734566, Roll : 0.0, Pitch : 0.0, Yaw : 353.0, Alt : 584.090026855, Lat : -35.363261, Lng : 149.1652299, Q1 : 0.998134791851, Q2 : 0.0, Q3 : 0.0, Q4 : -0.0610485821962}
2019-04-03 21:42:35.81: SIM {TimeUS : 42834526, Roll : 0.0, Pitch : 0.0, Yaw : 353.0, Alt : 584.090026855, Lat : -35.363261, Lng : 149.1652299, Q1 : 0.998134791851, Q2 : 0.0, Q3 : 0.0, Q4 : -0.0610485821962}
2019-04-03 21:42:35.91: SIM {TimeUS : 42934486, Roll : 0.0, Pitch : 0.0, Yaw : 353.0, Alt : 584.090026855, Lat : -35.363261, Lng : 149.1652299, Q1 : 0.998134791851, Q2 : 0.0, Q3 : 0.0, Q4 : -0.0610485821962}
2019-04-03 21:42:36.01: SIM {TimeUS : 43034446, Roll : 0.0, Pitch : 0.0, Yaw : 353.0, Alt : 584.090026855, Lat : -35.363261, Lng : 149.1652299, Q1 : 0.998134791851, Q2 : 0.0, Q3 : 0.0, Q4 : -0.0610485821962}
2019-04-03 21:42:36.11: SIM {TimeUS : 43134406, Roll : 0.0, Pitch : 0.0, Yaw : 353.0, Alt : 584.090026855, Lat : -35.363261, Lng : 149.1652299, Q1 : 0.998134791851, Q2 : 0.0, Q3 : 0.0, Q4 : -0.0610485821962}
2019-04-03 21:42:36.21: SIM {TimeUS : 43234366, Roll : 0.0, Pitch : 0.0, Yaw : 353.0, Alt : 584.090026855, Lat : -35.363261, Lng : 149.1652299, Q1 : 0.998134791851, Q2 : 0.0, Q3 : 0.0, Q4 : -0.0610485821962}
2019-04-03 21:42:36.31: SIM {TimeUS : 43334326, Roll : 0.0, Pitch : 0.0, Yaw : 353.0, Alt : 584.090026855, Lat : -35.363261, Lng : 149.1652299, Q1 : 0.998134791851, Q2 : 0.0, Q3 : 0.0, Q4 : -0.0610485821962}
2019-04-03 21:42:36.41: SIM {TimeUS : 43434286, Roll : 0.0, Pitch : 0.0, Yaw : 353.0, Alt : 584.090026855, Lat : -35.363261, Lng : 149.1652299, Q1 : 0.998134791851, Q2 : 0.0, Q3 : 0.0, Q4 : -0.0610485821962}
2019-04-03 21:42:36.51: SIM {TimeUS : 43535079, Roll : 0.0, Pitch : 0.0, Yaw : 353.0, Alt : 584.090026855, Lat : -35.363261, Lng : 149.1652299, Q1 : 0.998134791851, Q2 : 0.0, Q3 : 0.0, Q4 : -0.0610485821962}
2019-04-03 21:42:36.61: SIM {TimeUS : 43635039, Roll : 0.0, Pitch : 0.0, Yaw : 353.0, Alt : 584.090026855, Lat : -35.363261, Lng : 149.1652299, Q1 : 0.998134791851, Q2 : 0.0, Q3 : 0.0, Q4 : -0.0610485821962}
2019-04-03 21:42:36.71: SIM {TimeUS : 43734999, Roll : 0.0, Pitch : 0.0, Yaw : 353.0, Alt : 584.090026855, Lat : -35.363261, Lng : 149.1652299, Q1 : 0.998134791851, Q2 : 0.0, Q3 : 0.0, Q4 : -0.0610485821962}
2019-04-03 21:42:36.81: SIM {TimeUS : 43834959, Roll : 0.0, Pitch : 0.0, Yaw : 353.0, Alt : 584.090026855, Lat : -35.363261, Lng : 149.1652299, Q1 : 0.998134791851, Q2 : 0.0, Q3 : 0.0, Q4 : -0.0610485821962}
2019-04-03 21:42:36.91: SIM {TimeUS : 43934919, Roll : 0.0, Pitch : 0.0, Yaw : 353.0, Alt : 584.090026855, Lat : -35.363261, Lng : 149.1652299, Q1 : 0.998134791851, Q2 : 0.0, Q3 : 0.0, Q4 : -0.0610485821962}
2019-04-03 21:42:37.01: SIM {TimeUS : 44034879, Roll : 0.0, Pitch : 0.0, Yaw : 353.0, Alt : 584.090026855, Lat : -35.363261, Lng : 149.1652299, Q1 : 0.998134791851, Q2 : 0.0, Q3 : 0.0, Q4 : -0.0610485821962}
2019-04-03 21:42:37.11: SIM {TimeUS : 44134839, Roll : 0.0, Pitch : 0.0, Yaw : 353.0, Alt : 584.090026855, Lat : -35.363261, Lng : 149.1652299, Q1 : 0.998134791851, Q2 : 0.0, Q3 : 0.0, Q4 : -0.0610485821962}
2019-04-03 21:42:37.21: SIM {TimeUS : 44234799, Roll : 0.0, Pitch : 0.0, Yaw : 353.0, Alt : 584.090026855, Lat : -35.363261, Lng : 149.1652299, Q1 : 0.998134791851, Q2 : 0.0, Q3 : 0.0, Q4 : -0.0610485821962}
2019-04-03 21:42:37.31: SIM {TimeUS : 44334759, Roll : 0.0, Pitch : 0.0, Yaw : 353.0, Alt : 584.090026855, Lat : -35.363261, Lng : 149.1652299, Q1 : 0.998134791851, Q2 : 0.0, Q3 : 0.0, Q4 : -0.0610485821962}
2019-04-03 21:42:37.41: SIM {TimeUS : 44434719, Roll : 0.0, Pitch : 0.0, Yaw : 353.0, Alt : 584.090026855, Lat : -35.363261, Lng : 149.1652299, Q1 : 0.998134791851, Q2 : 0.0, Q3 : 0.0, Q4 : -0.0610485821962}
2019-04-03 21:42:37.51: SIM {TimeUS : 44534679, Roll : 0.0, Pitch : 0.0, Yaw : 353.0, Alt : 584.090026855, Lat : -35.363261, Lng : 149.1652299, Q1 : 0.998134791851, Q2 : 0.0, Q3 : 0.0, Q4 : -0.0610485821962}
2019-04-03 21:42:37.61: SIM {TimeUS : 44634639, Roll : 0.0, Pitch : 0.0, Yaw : 353.0, Alt : 584.090026855, Lat : -35.363261, Lng : 149.1652299, Q1 : 0.998134791851, Q2 : 0.0, Q3 : 0.0, Q4 : -0.0610485821962}
2019-04-03 21:42:37.71: SIM {TimeUS : 44734599, Roll : 0.0, Pitch : 0.0, Yaw : 353.0, Alt : 584.090026855, Lat : -35.363261, Lng : 149.1652299, Q1 : 0.998134791851, Q2 : 0.0, Q3 : 0.0, Q4 : -0.0610485821962}
2019-04-03 21:42:37.81: SIM {TimeUS : 44834559, Roll : 0.0, Pitch : 0.0, Yaw : 353.0, Alt : 584.090026855, Lat : -35.363261, Lng : 149.1652299, Q1 : 0.998134791851, Q2 : 0.0, Q3 : 0.0, Q4 : -0.0610485821962}
2019-04-03 21:42:37.91: SIM {TimeUS : 44934519, Roll : 0.0, Pitch : 0.0, Yaw : 353.0, Alt : 584.090026855, Lat : -35.363261, Lng : 149.1652299, Q1 : 0.998134791851, Q2 : 0.0, Q3 : 0.0, Q4 : -0.0610485821962}
2019-04-03 21:42:38.01: SIM {TimeUS : 45034479, Roll : 0.0, Pitch : 0.0, Yaw : 353.0, Alt : 584.090026855, Lat : -35.363261, Lng : 149.1652299, Q1 : 0.998134791851, Q2 : 0.0, Q3 : 0.0, Q4 : -0.0610485821962}
2019-04-03 21:42:38.11: SIM {TimeUS : 45134439, Roll : 0.0, Pitch : 0.0, Yaw : 353.0, Alt : 584.090026855, Lat : -35.363261, Lng : 149.1652299, Q1 : 0.998134791851, Q2 : 0.0, Q3 : 0.0, Q4 : -0.0610485821962}
2019-04-03 21:42:38.21: SIM {TimeUS : 45234399, Roll : 0.0, Pitch : 0.0, Yaw : 353.0, Alt : 584.090026855, Lat : -35.363261, Lng : 149.1652299, Q1 : 0.998134791851, Q2 : 0.0, Q3 : 0.0, Q4 : -0.0610485821962}
2019-04-03 21:42:38.31: SIM {TimeUS : 45334359, Roll : 0.0, Pitch : 0.0, Yaw : 353.0, Alt : 584.090026855, Lat : -35.363261, Lng : 149.1652299, Q1 : 0.998134791851, Q2 : 0.0, Q3 : 0.0, Q4 : -0.0610485821962}
2019-04-03 21:42:38.41: SIM {TimeUS : 45434319, Roll : 0.0, Pitch : 0.0, Yaw : 353.0, Alt : 584.090026855, Lat : -35.363261, Lng : 149.1652299, Q1 : 0.998134791851, Q2 : 0.0, Q3 : 0.0, Q4 : -0.0610485821962}
2019-04-03 21:42:38.51: SIM {TimeUS : 45534279, Roll : 0.0, Pitch : 0.0, Yaw : 353.0, Alt : 584.090026855, Lat : -35.363261, Lng : 149.1652299, Q1 : 0.998134791851, Q2 : 0.0, Q3 : 0.0, Q4 : -0.0610485821962}
2019-04-03 21:42:38.61: SIM {TimeUS : 45635072, Roll : 0.0, Pitch : 0.0, Yaw : 353.0, Alt : 584.090026855, Lat : -35.363261, Lng : 149.1652299, Q1 : 0.998134791851, Q2 : 0.0, Q3 : 0.0, Q4 : -0.0610485821962}
2019-04-03 21:42:38.71: SIM {TimeUS : 45735032, Roll : 0.0, Pitch : 0.0, Yaw : 353.0, Alt : 584.090026855, Lat : -35.363261, Lng : 149.1652299, Q1 : 0.998134791851, Q2 : 0.0, Q3 : 0.0, Q4 : -0.0610485821962}
2019-04-03 21:42:38.81: SIM {TimeUS : 45834992, Roll : 0.0, Pitch : 0.0, Yaw : 353.0, Alt : 584.090026855, Lat : -35.363261, Lng : 149.1652299, Q1 : 0.998134791851, Q2 : 0.0, Q3 : 0.0, Q4 : -0.0610485821962}
2019-04-03 21:42:38.91: SIM {TimeUS : 45934952, Roll : 0.0, Pitch : 0.0, Yaw : 353.0, Alt : 584.090026855, Lat : -35.363261, Lng : 149.1652299, Q1 : 0.998134791851, Q2 : 0.0, Q3 : 0.0, Q4 : -0.0610485821962}
2019-04-03 21:42:39.01: SIM {TimeUS : 46034912, Roll : 0.0, Pitch : 0.0, Yaw : 353.0, Alt : 584.090026855, Lat : -35.363261, Lng : 149.1652299, Q1 : 0.998134791851, Q2 : 0.0, Q3 : 0.0, Q4 : -0.0610485821962}
2019-04-03 21:42:39.11: SIM {TimeUS : 46134872, Roll : 0.0, Pitch : 0.0, Yaw : 353.0, Alt : 584.090026855, Lat : -35.363261, Lng : 149.1652299, Q1 : 0.998134791851, Q2 : 0.0, Q3 : 0.0, Q4 : -0.0610485821962}
2019-04-03 21:42:39.21: SIM {TimeUS : 46234832, Roll : 0.0, Pitch : 0.0, Yaw : 353.0, Alt : 584.090026855, Lat : -35.363261, Lng : 149.1652299, Q1 : 0.998134791851, Q2 : 0.0, Q3 : 0.0, Q4 : -0.0610485821962}
2019-04-03 21:42:39.31: SIM {TimeUS : 46334792, Roll : 0.0, Pitch : 0.0, Yaw : 353.0, Alt : 584.090026855, Lat : -35.363261, Lng : 149.1652299, Q1 : 0.998134791851, Q2 : 0.0, Q3 : 0.0, Q4 : -0.0610485821962}
2019-04-03 21:42:39.41: SIM {TimeUS : 46434752, Roll : 0.0, Pitch : 0.0, Yaw : 353.0, Alt : 584.090026855, Lat : -35.363261, Lng : 149.1652299, Q1 : 0.998134791851, Q2 : 0.0, Q3 : 0.0, Q4 : -0.0610485821962}
2019-04-03 21:42:39.51: SIM {TimeUS : 46534712, Roll : 0.0, Pitch : 0.0, Yaw : 353.0, Alt : 584.090026855, Lat : -35.363261, Lng : 149.1652299, Q1 : 0.998134791851, Q2 : 0.0, Q3 : 0.0, Q4 : -0.0610485821962}
2019-04-03 21:42:39.61: SIM {TimeUS : 46634672, Roll : 0.0, Pitch : 0.0, Yaw : 353.0, Alt : 584.090026855, Lat : -35.363261, Lng : 149.1652299, Q1 : 0.998134791851, Q2 : 0.0, Q3 : 0.0, Q4 : -0.0610485821962}
2019-04-03 21:42:39.71: SIM {TimeUS : 46734632, Roll : 0.0, Pitch : 0.0, Yaw : 353.0, Alt : 584.090026855, Lat : -35.363261, Lng : 149.1652299, Q1 : 0.998134791851, Q2 : 0.0, Q3 : 0.0, Q4 : -0.0610485821962}
2019-04-03 21:42:39.81: SIM {TimeUS : 46834592, Roll : 0.0, Pitch : 0.0, Yaw : 353.0, Alt : 584.090026855, Lat : -35.363261, Lng : 149.1652299, Q1 : 0.998134791851, Q2 : 0.0, Q3 : 0.0, Q4 : -0.0610485821962}
2019-04-03 21:42:39.91: SIM {TimeUS : 46934552, Roll : 0.0, Pitch : 0.0, Yaw : 353.0, Alt : 584.090026855, Lat : -35.363261, Lng : 149.1652299, Q1 : 0.998134791851, Q2 : 0.0, Q3 : 0.0, Q4 : -0.0610485821962}
2019-04-03 21:42:40.01: SIM {TimeUS : 47034512, Roll : 0.0, Pitch : 0.0, Yaw : 353.0, Alt : 584.090026855, Lat : -35.363261, Lng : 149.1652299, Q1 : 0.998134791851, Q2 : 0.0, Q3 : 0.0, Q4 : -0.0610485821962}
2019-04-03 21:42:40.11: SIM {TimeUS : 47134472, Roll : 0.0, Pitch : 0.0, Yaw : 353.0, Alt : 584.090026855, Lat : -35.363261, Lng : 149.1652299, Q1 : 0.998134791851, Q2 : 0.0, Q3 : 0.0, Q4 : -0.0610485821962}
2019-04-03 21:42:40.21: SIM {TimeUS : 47234432, Roll : 0.0, Pitch : 0.0, Yaw : 353.0, Alt : 584.090026855, Lat : -35.363261, Lng : 149.1652299, Q1 : 0.998134791851, Q2 : 0.0, Q3 : 0.0, Q4 : -0.0610485821962}
2019-04-03 21:42:40.31: SIM {TimeUS : 47334392, Roll : 0.0, Pitch : 0.0, Yaw : 353.0, Alt : 584.090026855, Lat : -35.363261, Lng : 149.1652299, Q1 : 0.998134791851, Q2 : 0.0, Q3 : 0.0, Q4 : -0.0610485821962}
2019-04-03 21:42:40.41: SIM {TimeUS : 47434352, Roll : 0.0, Pitch : 0.0, Yaw : 353.0, Alt : 584.090026855, Lat : -35.363261, Lng : 149.1652299, Q1 : 0.998134791851, Q2 : 0.0, Q3 : 0.0, Q4 : -0.0610485821962}
2019-04-03 21:42:40.51: SIM {TimeUS : 47534312, Roll : 0.0, Pitch : 0.0, Yaw : 353.0, Alt : 584.090026855, Lat : -35.363261, Lng : 149.1652299, Q1 : 0.998134791851, Q2 : 0.0, Q3 : 0.0, Q4 : -0.0610485821962}
2019-04-03 21:42:40.61: SIM {TimeUS : 47634272, Roll : 0.0, Pitch : 0.0, Yaw : 353.0, Alt : 584.090026855, Lat : -35.363261, Lng : 149.1652299, Q1 : 0.998134791851, Q2 : 0.0, Q3 : 0.0, Q4 : -0.0610485821962}
2019-04-03 21:42:40.71: SIM {TimeUS : 47735065, Roll : 0.0, Pitch : 0.0, Yaw : 353.0, Alt : 584.090026855, Lat : -35.363261, Lng : 149.1652299, Q1 : 0.998134791851, Q2 : 0.0, Q3 : 0.0, Q4 : -0.0610485821962}
2019-04-03 21:42:40.81: SIM {TimeUS : 47835025, Roll : 0.0, Pitch : 0.0, Yaw : 353.0, Alt : 584.090026855, Lat : -35.363261, Lng : 149.1652299, Q1 : 0.998134791851, Q2 : 0.0, Q3 : 0.0, Q4 : -0.0610485821962}
2019-04-03 21:42:40.91: SIM {TimeUS : 47934985, Roll : 0.0, Pitch : 0.0, Yaw : 353.0, Alt : 584.090026855, Lat : -35.363261, Lng : 149.1652299, Q1 : 0.998134791851, Q2 : 0.0, Q3 : 0.0, Q4 : -0.0610485821962}
2019-04-03 21:42:41.01: SIM {TimeUS : 48034945, Roll : 0.0, Pitch : 0.0, Yaw : 353.0, Alt : 584.090026855, Lat : -35.363261, Lng : 149.1652299, Q1 : 0.998134791851, Q2 : 0.0, Q3 : 0.0, Q4 : -0.0610485821962}
2019-04-03 21:42:41.11: SIM {TimeUS : 48134905, Roll : 0.0, Pitch : 0.0, Yaw : 353.0, Alt : 584.090026855, Lat : -35.363261, Lng : 149.1652299, Q1 : 0.998134791851, Q2 : 0.0, Q3 : 0.0, Q4 : -0.0610485821962}
2019-04-03 21:42:41.21: SIM {TimeUS : 48234865, Roll : 0.0, Pitch : 0.0, Yaw : 353.0, Alt : 584.090026855, Lat : -35.363261, Lng : 149.1652299, Q1 : 0.998134791851, Q2 : 0.0, Q3 : 0.0, Q4 : -0.0610485821962}
2019-04-03 21:42:41.31: SIM {TimeUS : 48334825, Roll : 0.0, Pitch : 0.0, Yaw : 353.0, Alt : 584.090026855, Lat : -35.363261, Lng : 149.1652299, Q1 : 0.998134791851, Q2 : 0.0, Q3 : 0.0, Q4 : -0.0610485821962}
2019-04-03 21:42:41.41: SIM {TimeUS : 48434785, Roll : 0.0, Pitch : 0.0, Yaw : 353.0, Alt : 584.090026855, Lat : -35.363261, Lng : 149.1652299, Q1 : 0.998134791851, Q2 : 0.0, Q3 : 0.0, Q4 : -0.0610485821962}
2019-04-03 21:42:41.51: SIM {TimeUS : 48534745, Roll : 0.0, Pitch : 0.0, Yaw : 353.0, Alt : 584.090026855, Lat : -35.363261, Lng : 149.1652299, Q1 : 0.998134791851, Q2 : 0.0, Q3 : 0.0, Q4 : -0.0610485821962}
2019-04-03 21:42:41.61: SIM {TimeUS : 48634705, Roll : 0.0, Pitch : 0.0, Yaw : 353.0, Alt : 584.090026855, Lat : -35.363261, Lng : 149.1652299, Q1 : 0.998134791851, Q2 : 0.0, Q3 : 0.0, Q4 : -0.0610485821962}
2019-04-03 21:42:41.71: SIM {TimeUS : 48734665, Roll : 0.0, Pitch : 0.0, Yaw : 353.0, Alt : 584.090026855, Lat : -35.363261, Lng : 149.1652299, Q1 : 0.998134791851, Q2 : 0.0, Q3 : 0.0, Q4 : -0.0610485821962}
2019-04-03 21:42:41.81: SIM {TimeUS : 48834625, Roll : 0.0, Pitch : 0.0, Yaw : 353.0, Alt : 584.090026855, Lat : -35.363261, Lng : 149.1652299, Q1 : 0.998134791851, Q2 : 0.0, Q3 : 0.0, Q4 : -0.0610485821962}
2019-04-03 21:42:41.91: SIM {TimeUS : 48934585, Roll : 0.0, Pitch : 0.0, Yaw : 353.0, Alt : 584.090026855, Lat : -35.363261, Lng : 149.1652299, Q1 : 0.998134791851, Q2 : 0.0, Q3 : 0.0, Q4 : -0.0610485821962}
2019-04-03 21:42:42.01: SIM {TimeUS : 49034545, Roll : 0.0, Pitch : 0.0, Yaw : 353.0, Alt : 584.090026855, Lat : -35.363261, Lng : 149.1652299, Q1 : 0.998134791851, Q2 : 0.0, Q3 : 0.0, Q4 : -0.0610485821962}
2019-04-03 21:42:42.11: SIM {TimeUS : 49134505, Roll : 0.0, Pitch : 0.0, Yaw : 353.0, Alt : 584.090026855, Lat : -35.363261, Lng : 149.1652299, Q1 : 0.998134791851, Q2 : 0.0, Q3 : 0.0, Q4 : -0.0610485821962}
2019-04-03 21:42:42.21: SIM {TimeUS : 49234465, Roll : 0.0, Pitch : 0.0, Yaw : 353.0, Alt : 584.090026855, Lat : -35.363261, Lng : 149.1652299, Q1 : 0.998134791851, Q2 : 0.0, Q3 : 0.0, Q4 : -0.0610485821962}
2019-04-03 21:42:42.31: SIM {TimeUS : 49334425, Roll : 0.0, Pitch : 0.0, Yaw : 353.0, Alt : 584.090026855, Lat : -35.363261, Lng : 149.1652299, Q1 : 0.998134791851, Q2 : 0.0, Q3 : 0.0, Q4 : -0.0610485821962}
2019-04-03 21:42:42.41: SIM {TimeUS : 49434385, Roll : 0.0, Pitch : 0.0, Yaw : 353.0, Alt : 584.090026855, Lat : -35.363261, Lng : 149.1652299, Q1 : 0.998134791851, Q2 : 0.0, Q3 : 0.0, Q4 : -0.0610485821962}
2019-04-03 21:42:42.51: SIM {TimeUS : 49534345, Roll : 0.0, Pitch : 0.0, Yaw : 353.0, Alt : 584.090026855, Lat : -35.363261, Lng : 149.1652299, Q1 : 0.998134791851, Q2 : 0.0, Q3 : 0.0, Q4 : -0.0610485821962}
2019-04-03 21:42:42.61: SIM {TimeUS : 49634305, Roll : 0.0, Pitch : 0.0, Yaw : 353.0, Alt : 584.090026855, Lat : -35.363261, Lng : 149.1652299, Q1 : 0.998134791851, Q2 : 0.0, Q3 : 0.0, Q4 : -0.0610485821962}
2019-04-03 21:42:42.71: SIM {TimeUS : 49734265, Roll : 0.0, Pitch : 0.0, Yaw : 353.0, Alt : 584.090026855, Lat : -35.363261, Lng : 149.1652299, Q1 : 0.998134791851, Q2 : 0.0, Q3 : 0.0, Q4 : -0.0610485821962}
2019-04-03 21:42:42.81: SIM {TimeUS : 49835058, Roll : 0.0, Pitch : 0.0, Yaw : 353.0, Alt : 584.090026855, Lat : -35.363261, Lng : 149.1652299, Q1 : 0.998134791851, Q2 : 0.0, Q3 : 0.0, Q4 : -0.0610485821962}
2019-04-03 21:42:42.91: SIM {TimeUS : 49935018, Roll : 0.0, Pitch : 0.0, Yaw : 353.0, Alt : 584.090026855, Lat : -35.363261, Lng : 149.1652299, Q1 : 0.998134791851, Q2 : 0.0, Q3 : 0.0, Q4 : -0.0610485821962}
2019-04-03 21:42:43.01: SIM {TimeUS : 50034978, Roll : 0.0, Pitch : 0.0, Yaw : 353.0, Alt : 584.090026855, Lat : -35.363261, Lng : 149.1652299, Q1 : 0.998134791851, Q2 : 0.0, Q3 : 0.0, Q4 : -0.0610485821962}
2019-04-03 21:42:43.11: SIM {TimeUS : 50134938, Roll : 0.0, Pitch : 0.0, Yaw : 353.0, Alt : 584.090026855, Lat : -35.363261, Lng : 149.1652299, Q1 : 0.998134791851, Q2 : 0.0, Q3 : 0.0, Q4 : -0.0610485821962}
2019-04-03 21:42:43.21: SIM {TimeUS : 50234898, Roll : 0.0, Pitch : 0.0, Yaw : 353.0, Alt : 584.090026855, Lat : -35.363261, Lng : 149.1652299, Q1 : 0.998134791851, Q2 : 0.0, Q3 : 0.0, Q4 : -0.0610485821962}
2019-04-03 21:42:43.31: SIM {TimeUS : 50334858, Roll : 0.0, Pitch : 0.0, Yaw : 353.0, Alt : 584.090026855, Lat : -35.363261, Lng : 149.1652299, Q1 : 0.998134791851, Q2 : 0.0, Q3 : 0.0, Q4 : -0.0610485821962}
2019-04-03 21:42:43.41: SIM {TimeUS : 50434818, Roll : 0.0, Pitch : 0.0, Yaw : 353.0, Alt : 584.090026855, Lat : -35.363261, Lng : 149.1652299, Q1 : 0.998134791851, Q2 : 0.0, Q3 : 0.0, Q4 : -0.0610485821962}
2019-04-03 21:42:43.51: SIM {TimeUS : 50534778, Roll : 0.0, Pitch : 0.0, Yaw : 353.0, Alt : 584.090026855, Lat : -35.363261, Lng : 149.1652299, Q1 : 0.998134791851, Q2 : 0.0, Q3 : 0.0, Q4 : -0.0610485821962}
2019-04-03 21:42:43.61: SIM {TimeUS : 50634738, Roll : 0.0, Pitch : 0.0, Yaw : 353.0, Alt : 584.090026855, Lat : -35.363261, Lng : 149.1652299, Q1 : 0.998134791851, Q2 : 0.0, Q3 : 0.0, Q4 : -0.0610485821962}
2019-04-03 21:42:43.71: SIM {TimeUS : 50734698, Roll : 0.0, Pitch : 0.0, Yaw : 353.0, Alt : 584.090026855, Lat : -35.363261, Lng : 149.1652299, Q1 : 0.998134791851, Q2 : 0.0, Q3 : 0.0, Q4 : -0.0610485821962}
2019-04-03 21:42:43.81: SIM {TimeUS : 50834658, Roll : 0.0, Pitch : 0.0, Yaw : 353.0, Alt : 584.090026855, Lat : -35.363261, Lng : 149.1652299, Q1 : 0.998134791851, Q2 : 0.0, Q3 : 0.0, Q4 : -0.0610485821962}
2019-04-03 21:42:43.91: SIM {TimeUS : 50934618, Roll : 0.0, Pitch : 0.0, Yaw : 353.0, Alt : 584.090026855, Lat : -35.363261, Lng : 149.1652299, Q1 : 0.998134791851, Q2 : 0.0, Q3 : 0.0, Q4 : -0.0610485821962}
2019-04-03 21:42:44.01: SIM {TimeUS : 51034578, Roll : 0.0, Pitch : 0.0, Yaw : 353.0, Alt : 584.090026855, Lat : -35.363261, Lng : 149.1652299, Q1 : 0.998134791851, Q2 : 0.0, Q3 : 0.0, Q4 : -0.0610485821962}
2019-04-03 21:42:44.11: SIM {TimeUS : 51134538, Roll : 0.0, Pitch : 0.0, Yaw : 353.0, Alt : 584.090026855, Lat : -35.363261, Lng : 149.1652299, Q1 : 0.998134791851, Q2 : 0.0, Q3 : 0.0, Q4 : -0.0610485821962}
2019-04-03 21:42:44.21: SIM {TimeUS : 51234498, Roll : 0.0, Pitch : 0.0, Yaw : 353.0, Alt : 584.090026855, Lat : -35.363261, Lng : 149.1652299, Q1 : 0.998134791851, Q2 : 0.0, Q3 : 0.0, Q4 : -0.0610485821962}
2019-04-03 21:42:45.81: SIM {TimeUS : 52834691, Roll : 0.0, Pitch : 0.0, Yaw : 353.0, Alt : 584.090026855, Lat : -35.363261, Lng : 149.1652299, Q1 : 0.998134791851, Q2 : 0.0, Q3 : 0.0, Q4 : -0.0610485821962}
2019-04-03 21:42:45.91: SIM {TimeUS : 52934651, Roll : 0.0, Pitch : 0.0, Yaw : 353.0, Alt : 584.090026855, Lat : -35.363261, Lng : 149.1652299, Q1 : 0.998134791851, Q2 : 0.0, Q3 : 0.0, Q4 : -0.0610485821962}
2019-04-03 21:42:46.01: SIM {TimeUS : 53034611, Roll : 0.0, Pitch : 0.0, Yaw : 353.0, Alt : 584.090026855, Lat : -35.363261, Lng : 149.1652299, Q1 : 0.998134791851, Q2 : 0.0, Q3 : 0.0, Q4 : -0.0610485821962}
2019-04-03 21:42:46.11: SIM {TimeUS : 53134571, Roll : 0.0, Pitch : 0.0, Yaw : 353.0, Alt : 584.090026855, Lat : -35.363261, Lng : 149.1652299, Q1 : 0.998134791851, Q2 : 0.0, Q3 : 0.0, Q4 : -0.0610485821962}
2019-04-03 21:42:46.21: SIM {TimeUS : 53234531, Roll : 0.0, Pitch : 0.0, Yaw : 353.0, Alt : 584.090026855, Lat : -35.363261, Lng : 149.1652299, Q1 : 0.998134791851, Q2 : 0.0, Q3 : 0.0, Q4 : -0.0610485821962}
2019-04-03 21:42:46.31: SIM {TimeUS : 53334491, Roll : 0.0, Pitch : 0.0, Yaw : 353.0, Alt : 584.090026855, Lat : -35.363261, Lng : 149.1652299, Q1 : 0.998134791851, Q2 : 0.0, Q3 : 0.0, Q4 : -0.0610485821962}
2019-04-03 21:42:46.41: SIM {TimeUS : 53434451, Roll : 0.0, Pitch : 0.0, Yaw : 353.0, Alt : 584.090026855, Lat : -35.363261, Lng : 149.1652299, Q1 : 0.998134791851, Q2 : 0.0, Q3 : 0.0, Q4 : -0.0610485821962}
2019-04-03 21:42:46.51: SIM {TimeUS : 53534411, Roll : 0.0, Pitch : 0.0, Yaw : 353.0, Alt : 584.090026855, Lat : -35.363261, Lng : 149.1652299, Q1 : 0.998134791851, Q2 : 0.0, Q3 : 0.0, Q4 : -0.0610485821962}
2019-04-03 21:42:46.61: SIM {TimeUS : 53634371, Roll : 0.0, Pitch : 0.0, Yaw : 353.0, Alt : 584.090026855, Lat : -35.363261, Lng : 149.1652299, Q1 : 0.998134791851, Q2 : 0.0, Q3 : 0.0, Q4 : -0.0610485821962}
2019-04-03 21:42:46.71: SIM {TimeUS : 53734331, Roll : 0.0, Pitch : 0.0, Yaw : 353.0, Alt : 584.090026855, Lat : -35.363261, Lng : 149.1652299, Q1 : 0.998134791851, Q2 : 0.0, Q3 : 0.0, Q4 : -0.0610485821962}
2019-04-03 21:42:46.81: SIM {TimeUS : 53834291, Roll : 0.0, Pitch : 0.0, Yaw : 353.0, Alt : 584.090026855, Lat : -35.363261, Lng : 149.1652299, Q1 : 0.998134791851, Q2 : 0.0, Q3 : 0.0, Q4 : -0.0610485821962}
2019-04-03 21:42:46.91: SIM {TimeUS : 53935084, Roll : 0.0, Pitch : 0.0, Yaw : 353.0, Alt : 584.090026855, Lat : -35.363261, Lng : 149.1652299, Q1 : 0.998134791851, Q2 : 0.0, Q3 : 0.0, Q4 : -0.0610485821962}
2019-04-03 21:42:47.01: SIM {TimeUS : 54035044, Roll : 0.0, Pitch : 0.0, Yaw : 353.0, Alt : 584.090026855, Lat : -35.363261, Lng : 149.1652299, Q1 : 0.998134791851, Q2 : 0.0, Q3 : 0.0, Q4 : -0.0610485821962}
2019-04-03 21:42:47.11: SIM {TimeUS : 54135004, Roll : 0.0, Pitch : 0.0, Yaw : 353.0, Alt : 584.090026855, Lat : -35.363261, Lng : 149.1652299, Q1 : 0.998134791851, Q2 : 0.0, Q3 : 0.0, Q4 : -0.0610485821962}
2019-04-03 21:42:47.21: SIM {TimeUS : 54234964, Roll : 0.0, Pitch : 0.0, Yaw : 353.0, Alt : 584.090026855, Lat : -35.363261, Lng : 149.1652299, Q1 : 0.998134791851, Q2 : 0.0, Q3 : 0.0, Q4 : -0.0610485821962}
2019-04-03 21:42:47.31: SIM {TimeUS : 54334924, Roll : 0.0, Pitch : 0.0, Yaw : 353.0, Alt : 584.090026855, Lat : -35.363261, Lng : 149.1652299, Q1 : 0.998134791851, Q2 : 0.0, Q3 : 0.0, Q4 : -0.0610485821962}
2019-04-03 21:42:47.41: SIM {TimeUS : 54434884, Roll : 0.0, Pitch : 0.0, Yaw : 353.0, Alt : 584.090026855, Lat : -35.363261, Lng : 149.1652299, Q1 : 0.998134791851, Q2 : 0.0, Q3 : 0.0, Q4 : -0.0610485821962}
2019-04-03 21:42:47.51: SIM {TimeUS : 54534844, Roll : 0.0, Pitch : 0.0, Yaw : 353.0, Alt : 584.090026855, Lat : -35.363261, Lng : 149.1652299, Q1 : 0.998134791851, Q2 : 0.0, Q3 : 0.0, Q4 : -0.0610485821962}
2019-04-03 21:42:47.61: SIM {TimeUS : 54634804, Roll : 0.0, Pitch : 0.0, Yaw : 353.0, Alt : 584.090026855, Lat : -35.363261, Lng : 149.1652299, Q1 : 0.998134791851, Q2 : 0.0, Q3 : 0.0, Q4 : -0.0610485821962}
2019-04-03 21:42:47.71: SIM {TimeUS : 54734764, Roll : 0.0, Pitch : 0.0, Yaw : 353.0, Alt : 584.090026855, Lat : -35.363261, Lng : 149.1652299, Q1 : 0.998134791851, Q2 : 0.0, Q3 : 0.0, Q4 : -0.0610485821962}
2019-04-03 21:42:47.81: SIM {TimeUS : 54834724, Roll : 0.0, Pitch : 0.0, Yaw : 353.0, Alt : 584.090026855, Lat : -35.363261, Lng : 149.1652299, Q1 : 0.998134791851, Q2 : 0.0, Q3 : 0.0, Q4 : -0.0610485821962}
2019-04-03 21:42:47.91: SIM {TimeUS : 54934684, Roll : 0.0, Pitch : 0.0, Yaw : 353.0, Alt : 584.090026855, Lat : -35.363261, Lng : 149.1652299, Q1 : 0.998134791851, Q2 : 0.0, Q3 : 0.0, Q4 : -0.0610485821962}
2019-04-03 21:42:48.01: SIM {TimeUS : 55034644, Roll : 0.0, Pitch : 0.0, Yaw : 353.0, Alt : 584.090026855, Lat : -35.363261, Lng : 149.1652299, Q1 : 0.998134791851, Q2 : 0.0, Q3 : 0.0, Q4 : -0.0610485821962}
2019-04-03 21:42:48.11: SIM {TimeUS : 55134604, Roll : 0.0, Pitch : 0.0, Yaw : 353.0, Alt : 584.090026855, Lat : -35.363261, Lng : 149.1652299, Q1 : 0.998134791851, Q2 : 0.0, Q3 : 0.0, Q4 : -0.0610485821962}
2019-04-03 21:42:48.21: SIM {TimeUS : 55234564, Roll : 0.0, Pitch : 0.0, Yaw : 353.0, Alt : 584.090026855, Lat : -35.363261, Lng : 149.1652299, Q1 : 0.998134791851, Q2 : 0.0, Q3 : 0.0, Q4 : -0.0610485821962}
2019-04-03 21:42:48.31: SIM {TimeUS : 55334524, Roll : 0.0, Pitch : 0.0, Yaw : 353.0, Alt : 584.090026855, Lat : -35.363261, Lng : 149.1652299, Q1 : 0.998134791851, Q2 : 0.0, Q3 : 0.0, Q4 : -0.0610485821962}
2019-04-03 21:42:48.41: SIM {TimeUS : 55434484, Roll : 0.0, Pitch : 0.0, Yaw : 353.0, Alt : 584.090026855, Lat : -35.363261, Lng : 149.1652299, Q1 : 0.998134791851, Q2 : 0.0, Q3 : 0.0, Q4 : -0.0610485821962}
2019-04-03 21:42:48.51: SIM {TimeUS : 55534444, Roll : 0.0, Pitch : 0.0, Yaw : 353.0, Alt : 584.090026855, Lat : -35.363261, Lng : 149.1652299, Q1 : 0.998134791851, Q2 : 0.0, Q3 : 0.0, Q4 : -0.0610485821962}
2019-04-03 21:42:48.61: SIM {TimeUS : 55634404, Roll : 0.0, Pitch : 0.0, Yaw : 353.0, Alt : 584.090026855, Lat : -35.363261, Lng : 149.1652299, Q1 : 0.998134791851, Q2 : 0.0, Q3 : 0.0, Q4 : -0.0610485821962}
2019-04-03 21:42:48.71: SIM {TimeUS : 55734364, Roll : 0.0, Pitch : 0.0, Yaw : 353.0, Alt : 584.090026855, Lat : -35.363261, Lng : 149.1652299, Q1 : 0.998134791851, Q2 : 0.0, Q3 : 0.0, Q4 : -0.0610485821962}
2019-04-03 21:42:48.81: SIM {TimeUS : 55834324, Roll : 0.0, Pitch : 0.0, Yaw : 353.0, Alt : 584.090026855, Lat : -35.363261, Lng : 149.1652299, Q1 : 0.998134791851, Q2 : 0.0, Q3 : 0.0, Q4 : -0.0610485821962}
2019-04-03 21:42:48.91: SIM {TimeUS : 55934284, Roll : 0.0, Pitch : 0.0, Yaw : 353.0, Alt : 584.090026855, Lat : -35.363261, Lng : 149.1652299, Q1 : 0.998134791851, Q2 : 0.0, Q3 : 0.0, Q4 : -0.0610485821962}
2019-04-03 21:42:49.01: SIM {TimeUS : 56035077, Roll : 0.0, Pitch : 0.0, Yaw : 353.0, Alt : 584.090026855, Lat : -35.363261, Lng : 149.1652299, Q1 : 0.998134791851, Q2 : 0.0, Q3 : 0.0, Q4 : -0.0610485821962}
2019-04-03 21:42:49.11: SIM {TimeUS : 56135037, Roll : 0.0, Pitch : 0.0, Yaw : 353.0, Alt : 584.090026855, Lat : -35.363261, Lng : 149.1652299, Q1 : 0.998134791851, Q2 : 0.0, Q3 : 0.0, Q4 : -0.0610485821962}
2019-04-03 21:42:49.21: SIM {TimeUS : 56234997, Roll : 0.0, Pitch : 0.0, Yaw : 353.0, Alt : 584.090026855, Lat : -35.363261, Lng : 149.1652299, Q1 : 0.998134791851, Q2 : 0.0, Q3 : 0.0, Q4 : -0.0610485821962}
2019-04-03 21:42:49.31: SIM {TimeUS : 56334957, Roll : 0.0, Pitch : 0.0, Yaw : 353.0, Alt : 584.090026855, Lat : -35.363261, Lng : 149.1652299, Q1 : 0.998134791851, Q2 : 0.0, Q3 : 0.0, Q4 : -0.0610485821962}
2019-04-03 21:42:49.41: SIM {TimeUS : 56434917, Roll : 0.0, Pitch : 0.0, Yaw : 353.0, Alt : 584.090026855, Lat : -35.363261, Lng : 149.1652299, Q1 : 0.998134791851, Q2 : 0.0, Q3 : 0.0, Q4 : -0.0610485821962}
2019-04-03 21:42:49.51: SIM {TimeUS : 56534877, Roll : 0.0, Pitch : 0.0, Yaw : 353.0, Alt : 584.090026855, Lat : -35.363261, Lng : 149.1652299, Q1 : 0.998134791851, Q2 : 0.0, Q3 : 0.0, Q4 : -0.0610485821962}
2019-04-03 21:42:49.61: SIM {TimeUS : 56634837, Roll : 0.0, Pitch : 0.0, Yaw : 353.0, Alt : 584.090026855, Lat : -35.363261, Lng : 149.1652299, Q1 : 0.998134791851, Q2 : 0.0, Q3 : 0.0, Q4 : -0.0610485821962}
2019-04-03 21:42:49.71: SIM {TimeUS : 56734797, Roll : 0.0, Pitch : 0.0, Yaw : 353.0, Alt : 584.090026855, Lat : -35.363261, Lng : 149.1652299, Q1 : 0.998134791851, Q2 : 0.0, Q3 : 0.0, Q4 : -0.0610485821962}
2019-04-03 21:42:49.81: SIM {TimeUS : 56834757, Roll : 0.0, Pitch : 0.0, Yaw : 353.0, Alt : 584.090026855, Lat : -35.363261, Lng : 149.1652299, Q1 : 0.998134791851, Q2 : 0.0, Q3 : 0.0, Q4 : -0.0610485821962}
2019-04-03 21:42:49.91: SIM {TimeUS : 56934717, Roll : 0.0, Pitch : 0.0, Yaw : 353.0, Alt : 584.090026855, Lat : -35.363261, Lng : 149.1652299, Q1 : 0.998134791851, Q2 : 0.0, Q3 : 0.0, Q4 : -0.0610485821962}
2019-04-03 21:42:50.01: SIM {TimeUS : 57034677, Roll : 0.0, Pitch : 0.0, Yaw : 353.0, Alt : 584.090026855, Lat : -35.363261, Lng : 149.1652299, Q1 : 0.998134791851, Q2 : 0.0, Q3 : 0.0, Q4 : -0.0610485821962}
2019-04-03 21:42:50.11: SIM {TimeUS : 57134637, Roll : 0.0, Pitch : 0.0, Yaw : 353.0, Alt : 584.090026855, Lat : -35.363261, Lng : 149.1652299, Q1 : 0.998134791851, Q2 : 0.0, Q3 : 0.0, Q4 : -0.0610485821962}
2019-04-03 21:42:50.21: SIM {TimeUS : 57234597, Roll : 0.0, Pitch : 0.0, Yaw : 353.0, Alt : 584.090026855, Lat : -35.363261, Lng : 149.1652299, Q1 : 0.998134791851, Q2 : 0.0, Q3 : 0.0, Q4 : -0.0610485821962}
2019-04-03 21:42:50.31: SIM {TimeUS : 57334557, Roll : 0.0, Pitch : 0.0, Yaw : 353.0, Alt : 584.090026855, Lat : -35.363261, Lng : 149.1652299, Q1 : 0.998134791851, Q2 : 0.0, Q3 : 0.0, Q4 : -0.0610485821962}
2019-04-03 21:42:50.41: SIM {TimeUS : 57434517, Roll : 0.0, Pitch : 0.0, Yaw : 353.0, Alt : 584.090026855, Lat : -35.363261, Lng : 149.1652299, Q1 : 0.998134791851, Q2 : 0.0, Q3 : 0.0, Q4 : -0.0610485821962}
2019-04-03 21:42:50.51: SIM {TimeUS : 57534477, Roll : 0.0, Pitch : 0.0, Yaw : 353.0, Alt : 584.090026855, Lat : -35.363261, Lng : 149.1652299, Q1 : 0.998134791851, Q2 : 0.0, Q3 : 0.0, Q4 : -0.0610486492515}
2019-04-03 21:42:50.61: SIM {TimeUS : 57634437, Roll : 0.0, Pitch : 0.0, Yaw : 353.0, Alt : 584.090026855, Lat : -35.363261, Lng : 149.1652299, Q1 : 0.998134791851, Q2 : 0.0, Q3 : 0.0, Q4 : -0.0610486753285}
2019-04-03 21:42:50.71: SIM {TimeUS : 57734397, Roll : 0.0, Pitch : 0.0, Yaw : 353.0, Alt : 584.090026855, Lat : -35.363261, Lng : 149.1652299, Q1 : 0.998134791851, Q2 : 0.0, Q3 : 0.0, Q4 : -0.0610486753285}
2019-04-03 21:42:50.81: SIM {TimeUS : 57834357, Roll : 0.0, Pitch : 0.0, Yaw : 353.0, Alt : 584.090026855, Lat : -35.363261, Lng : 149.1652299, Q1 : 0.998134791851, Q2 : 0.0, Q3 : 0.0, Q4 : -0.0610486753285}
2019-04-03 21:42:50.91: SIM {TimeUS : 57934317, Roll : 0.0, Pitch : 0.0, Yaw : 353.0, Alt : 584.090026855, Lat : -35.363261, Lng : 149.1652299, Q1 : 0.998134791851, Q2 : 0.0, Q3 : 0.0, Q4 : -0.0610486753285}
2019-04-03 21:42:51.01: SIM {TimeUS : 58034277, Roll : 0.0, Pitch : 0.0, Yaw : 353.0, Alt : 584.090026855, Lat : -35.363261, Lng : 149.1652299, Q1 : 0.998134791851, Q2 : 0.0, Q3 : 0.0, Q4 : -0.0610486753285}
2019-04-03 21:42:51.11: SIM {TimeUS : 58135070, Roll : 0.0, Pitch : 0.0, Yaw : 353.0, Alt : 584.090026855, Lat : -35.363261, Lng : 149.1652299, Q1 : 0.998134791851, Q2 : 0.0, Q3 : 0.0, Q4 : -0.0610486641526}
2019-04-03 21:42:51.21: SIM {TimeUS : 58235030, Roll : 0.0, Pitch : 0.0, Yaw : 353.0, Alt : 584.090026855, Lat : -35.363261, Lng : 149.1652299, Q1 : 0.998134791851, Q2 : 0.0, Q3 : 0.0, Q4 : -0.0610486753285}
2019-04-03 21:42:51.31: SIM {TimeUS : 58334990, Roll : 0.0, Pitch : 0.0, Yaw : 353.0, Alt : 584.099975586, Lat : -35.363261, Lng : 149.1652299, Q1 : 0.998134791851, Q2 : 0.0, Q3 : 0.0, Q4 : -0.0610485747457}
2019-04-03 21:42:51.41: SIM {TimeUS : 58434950, Roll : 0.0, Pitch : 0.0, Yaw : 353.0, Alt : 584.099975586, Lat : -35.363261, Lng : 149.1652299, Q1 : 0.998134791851, Q2 : 0.0, Q3 : 0.0, Q4 : -0.0610486641526}
2019-04-03 21:42:51.51: SIM {TimeUS : 58534910, Roll : 0.0, Pitch : 0.0, Yaw : 353.0, Alt : 584.119995117, Lat : -35.363261, Lng : 149.1652299, Q1 : 0.998134791851, Q2 : 0.0, Q3 : 0.0, Q4 : -0.0610486753285}
2019-04-03 21:42:51.61: SIM {TimeUS : 58634870, Roll : 0.0, Pitch : 0.0, Yaw : 353.0, Alt : 584.140014648, Lat : -35.363261, Lng : 149.1652299, Q1 : 0.998134791851, Q2 : 0.0, Q3 : 0.0, Q4 : -0.0610486753285}
2019-04-03 21:42:51.71: SIM {TimeUS : 58734830, Roll : 0.0, Pitch : 0.0, Yaw : 353.0, Alt : 584.16998291, Lat : -35.363261, Lng : 149.1652299, Q1 : 0.998134791851, Q2 : 0.0, Q3 : 0.0, Q4 : -0.0610486753285}
2019-04-03 21:42:51.81: SIM {TimeUS : 58834790, Roll : 0.0, Pitch : 0.0, Yaw : 353.0, Alt : 584.200012207, Lat : -35.363261, Lng : 149.1652299, Q1 : 0.998134791851, Q2 : 0.0, Q3 : 0.0, Q4 : -0.0610486753285}
2019-04-03 21:42:51.91: SIM {TimeUS : 58934750, Roll : -0.02, Pitch : -0.03, Yaw : 352.99, Alt : 584.260009766, Lat : -35.363261, Lng : 149.1652299, Q1 : 0.998134493828, Q2 : -0.000217215914745, Q3 : -0.000285157060716, Q4 : -0.0610527209938}
2019-04-03 21:42:52.01: SIM {TimeUS : 59034710, Roll : -0.08, Pitch : -0.11, Yaw : 352.99, Alt : 584.359985352, Lat : -35.363261, Lng : 149.1652299, Q1 : 0.998132884502, Q2 : -0.000785023963545, Q3 : -0.000947252498008, Q4 : -0.0610678941011}
2019-04-03 21:42:52.11: SIM {TimeUS : 59134670, Roll : -0.15, Pitch : -0.16, Yaw : 352.99, Alt : 584.510009766, Lat : -35.363261, Lng : 149.1652299, Q1 : 0.998130261898, Q2 : -0.00146852049511, Q3 : -0.00136843754444, Q4 : -0.0610898584127}
2019-04-03 21:42:52.21: SIM {TimeUS : 59234630, Roll : -0.2, Pitch : -0.18, Yaw : 352.99, Alt : 584.66998291, Lat : -35.363261, Lng : 149.1652299, Q1 : 0.998127758503, Q2 : -0.00190587772522, Q3 : -0.00150777795352, Q4 : -0.0611160360277}
2019-04-03 21:42:52.31: SIM {TimeUS : 59334590, Roll : -0.21, Pitch : -0.17, Yaw : 352.98, Alt : 584.820007324, Lat : -35.363261, Lng : 149.1652299, Q1 : 0.998126327991, Q2 : -0.00199022842571, Q3 : -0.00140713632572, Q4 : -0.0611385926604}
2019-04-03 21:42:52.41: SIM {TimeUS : 59434550, Roll : -0.19, Pitch : -0.14, Yaw : 352.98, Alt : 584.969970703, Lat : -35.363261, Lng : 149.1652299, Q1 : 0.998126089573, Q2 : -0.00177198636811, Q3 : -0.00113634450827, Q4 : -0.0611547008157}
2019-04-03 21:42:52.51: SIM {TimeUS : 59534510, Roll : -0.13, Pitch : -0.09, Yaw : 352.98, Alt : 585.119995117, Lat : -35.363261, Lng : 149.1652299, Q1 : 0.998126626015, Q2 : -0.0012459543068, Q3 : -0.000739739916753, Q4 : -0.0611651651561}
2019-04-03 21:42:52.61: SIM {TimeUS : 59634470, Roll : -0.07, Pitch : -0.04, Yaw : 352.98, Alt : 585.280029297, Lat : -35.363261, Lng : 149.1652299, Q1 : 0.998126924038, Q2 : -0.000649291498121, Q3 : -0.000388029235182, Q4 : -0.0611725822091}
2019-04-03 21:42:52.71: SIM {TimeUS : 59734430, Roll : -0.02, Pitch : -0.01, Yaw : 352.98, Alt : 585.440002441, Lat : -35.363261, Lng : 149.1652299, Q1 : 0.998126864433, Q2 : -0.00018198446196, Q3 : -8.95359116839e-05, Q4 : -0.0611782856286}
2019-04-03 21:42:52.81: SIM {TimeUS : 59834390, Roll : 0.01, Pitch : 0.01, Yaw : 352.98, Alt : 585.619995117, Lat : -35.363261, Lng : 149.1652299, Q1 : 0.998126685619, Q2 : 0.000106009341835, Q3 : 0.00011010414164, Q4 : -0.0611814893782}
2019-04-03 21:42:52.91: SIM {TimeUS : 59934350, Roll : 0.02, Pitch : 0.02, Yaw : 352.98, Alt : 585.789978027, Lat : -35.363261, Lng : 149.1652298, Q1 : 0.998126447201, Q2 : 0.000238103995798, Q3 : 0.000177065681783, Q4 : -0.0611844845116}
2019-04-03 21:42:53.01: SIM {TimeUS : 60034310, Roll : 0.01, Pitch : 0.01, Yaw : 352.98, Alt : 585.969970703, Lat : -35.363261, Lng : 149.1652298, Q1 : 0.998126506805, Q2 : 0.000172913598362, Q3 : 0.00011029446614, Q4 : -0.0611847601831}
2019-04-03 21:42:53.11: SIM {TimeUS : 60134270, Roll : -0.02, Pitch : 0.0, Yaw : 352.98, Alt : 586.159973145, Lat : -35.363261, Lng : 149.1652298, Q1 : 0.998126447201, Q2 : -0.000203995266929, Q3 : 2.43830800173e-05, Q4 : -0.0611850321293}
2019-04-03 21:42:53.21: SIM {TimeUS : 60235063, Roll : -0.07, Pitch : 0.01, Yaw : 352.98, Alt : 586.349975586, Lat : -35.363261, Lng : 149.1652298, Q1 : 0.998126089573, Q2 : -0.000648003420793, Q3 : 0.000134909103508, Q4 : -0.0611874572933}
2019-04-03 21:42:53.31: SIM {TimeUS : 60335023, Roll : -0.11, Pitch : 0.01, Yaw : 352.98, Alt : 586.539978027, Lat : -35.363261, Lng : 149.1652298, Q1 : 0.998125731945, Q2 : -0.00101076357532, Q3 : 0.000201116548851, Q4 : -0.0611883997917}
2019-04-03 21:42:53.41: SIM {TimeUS : 60434983, Roll : -0.13, Pitch : 0.01, Yaw : 352.98, Alt : 586.729980469, Lat : -35.3632609, Lng : 149.1652298, Q1 : 0.998124957085, Q2 : -0.00114060298074, Q3 : 0.000178610687726, Q4 : -0.0611987374723}
2019-04-03 21:42:53.51: SIM {TimeUS : 60534943, Roll : -0.11, Pitch : 0.0, Yaw : 352.98, Alt : 586.929992676, Lat : -35.3632609, Lng : 149.1652298, Q1 : 0.998124301434, Q2 : -0.00101392017677, Q3 : 8.30947901704e-05, Q4 : -0.061211720109}
2019-04-03 21:42:53.61: SIM {TimeUS : 60634903, Roll : -0.07, Pitch : -0.01, Yaw : 352.97, Alt : 587.130004883, Lat : -35.3632609, Lng : 149.1652298, Q1 : 0.998123705387, Q2 : -0.000675186223816, Q3 : -7.71346749389e-05, Q4 : -0.0612262785435}
2019-04-03 21:42:53.71: SIM {TimeUS : 60734863, Roll : -0.02, Pitch : -0.04, Yaw : 352.97, Alt : 587.33001709, Lat : -35.3632609, Lng : 149.1652298, Q1 : 0.998123049736, Q2 : -0.000211972699617, Q3 : -0.000371192028979, Q4 : -0.0612392090261}
2019-04-03 21:42:53.81: SIM {TimeUS : 60834823, Roll : 0.01, Pitch : -0.05, Yaw : 352.97, Alt : 587.539978027, Lat : -35.3632609, Lng : 149.1652298, Q1 : 0.998122692108, Q2 : 7.65434888308e-05, Q3 : -0.000496407505125, Q4 : -0.0612436532974}
2019-04-03 21:42:53.91: SIM {TimeUS : 60934783, Roll : 0.01, Pitch : -0.03, Yaw : 352.97, Alt : 587.739990234, Lat : -35.3632609, Lng : 149.1652298, Q1 : 0.998122870922, Q2 : 7.75036023697e-05, Q3 : -0.000308435643092, Q4 : -0.0612426437438}
2019-04-03 21:42:54.01: SIM {TimeUS : 61034743, Roll : -0.02, Pitch : 0.0, Yaw : 352.97, Alt : 587.950012207, Lat : -35.3632609, Lng : 149.1652298, Q1 : 0.99812322855, Q2 : -0.0001803420746, Q3 : -7.93044273451e-06, Q4 : -0.0612373463809}
2019-04-03 21:42:54.11: SIM {TimeUS : 61134703, Roll : -0.03, Pitch : 0.02, Yaw : 352.97, Alt : 588.159973145, Lat : -35.3632609, Lng : 149.1652298, Q1 : 0.998123347759, Q2 : -0.000324528198689, Q3 : 0.000224239309318, Q4 : -0.0612346529961}
2019-04-03 21:42:54.21: SIM {TimeUS : 61234663, Roll : -0.03, Pitch : 0.03, Yaw : 352.97, Alt : 588.369995117, Lat : -35.3632609, Lng : 149.1652298, Q1 : 0.998123288155, Q2 : -0.000327546178596, Q3 : 0.000305392168229, Q4 : -0.0612346194685}
2019-04-03 21:42:54.31: SIM {TimeUS : 61334623, Roll : -0.01, Pitch : 0.01, Yaw : 352.97, Alt : 588.58001709, Lat : -35.3632609, Lng : 149.1652298, Q1 : 0.998123764992, Q2 : -0.000165987279615, Q3 : 0.000130388332764, Q4 : -0.0612286180258}
2019-04-03 21:42:54.41: SIM {TimeUS : 61434583, Roll : 0.0, Pitch : -0.03, Yaw : 352.97, Alt : 588.799987793, Lat : -35.3632609, Lng : 149.1652298, Q1 : 0.998124063015, Q2 : 1.22179590107e-05, Q3 : -0.000316078279866, Q4 : -0.0612231455743}
2019-04-03 21:42:54.51: SIM {TimeUS : 61534543, Roll : 0.01, Pitch : -0.06, Yaw : 352.97, Alt : 589.010009766, Lat : -35.3632609, Lng : 149.1652298, Q1 : 0.998123645782, Q2 : 0.000127771825646, Q3 : -0.000551456469111, Q4 : -0.0612279474735}
2019-04-03 21:42:54.61: SIM {TimeUS : 61634503, Roll : 0.01, Pitch : -0.04, Yaw : 352.97, Alt : 589.229980469, Lat : -35.3632609, Lng : 149.1652298, Q1 : 0.998122513294, Q2 : 0.000102615653304, Q3 : -0.000404405815061, Q4 : -0.0612481683493}
2019-04-03 21:42:54.71: SIM {TimeUS : 61734463, Roll : 0.0, Pitch : -0.02, Yaw : 352.97, Alt : 589.440002441, Lat : -35.3632609, Lng : 149.1652298, Q1 : 0.998121678829, Q2 : -5.22104710399e-05, Q3 : -0.000246592186159, Q4 : -0.0612622536719}
2019-04-03 21:42:54.81: SIM {TimeUS : 61834423, Roll : -0.04, Pitch : -0.02, Yaw : 352.97, Alt : 589.659973145, Lat : -35.3632609, Lng : 149.1652297, Q1 : 0.998120427132, Q2 : -0.000426148675615, Q3 : -0.000181084833457, Q4 : -0.0612815469503}
2019-04-03 21:42:54.91: SIM {TimeUS : 61934383, Roll : -0.07, Pitch : -0.02, Yaw : 352.96, Alt : 589.880004883, Lat : -35.3632609, Lng : 149.1652297, Q1 : 0.998118519783, Q2 : -0.000693219830282, Q3 : -0.000179457871127, Q4 : -0.0613104142249}
2019-04-03 21:42:55.01: SIM {TimeUS : 62034343, Roll : -0.1, Pitch : -0.03, Yaw : 352.96, Alt : 590.099975586, Lat : -35.3632609, Lng : 149.1652297, Q1 : 0.998115777969, Q2 : -0.000927090353798, Q3 : -0.000292358046863, Q4 : -0.061351146549}
2019-04-03 21:42:55.11: SIM {TimeUS : 62134303, Roll : -0.11, Pitch : -0.04, Yaw : 352.96, Alt : 590.320007324, Lat : -35.3632609, Lng : 149.1652297, Q1 : 0.998113274574, Q2 : -0.00101940357126, Q3 : -0.00035264910548, Q4 : -0.0613901019096}
2019-04-03 21:42:55.21: SIM {TimeUS : 62234263, Roll : -0.11, Pitch : -0.05, Yaw : 352.95, Alt : 590.539978027, Lat : -35.3632609, Lng : 149.1652297, Q1 : 0.998111069202, Q2 : -0.00100687460508, Q3 : -0.000423344492447, Q4 : -0.0614255182445}
2019-04-03 21:42:55.31: SIM {TimeUS : 62335056, Roll : -0.09, Pitch : -0.05, Yaw : 352.95, Alt : 590.760009766, Lat : -35.3632609, Lng : 149.1652297, Q1 : 0.998109519482, Q2 : -0.000884239154402, Q3 : -0.000428877217928, Q4 : -0.0614530816674}
2019-04-03 21:42:55.41: SIM {TimeUS : 62435016, Roll : -0.09, Pitch : -0.06, Yaw : 352.95, Alt : 590.979980469, Lat : -35.3632609, Lng : 149.1652296, Q1 : 0.998108208179, Q2 : -0.000825419963803, Q3 : -0.000517998822033, Q4 : -0.0614742934704}
2019-04-03 21:42:55.51: SIM {TimeUS : 62534976, Roll : -0.07, Pitch : -0.06, Yaw : 352.94, Alt : 591.190002441, Lat : -35.3632609, Lng : 149.1652296, Q1 : 0.998107254505, Q2 : -0.000682046171278, Q3 : -0.000558388011996, Q4 : -0.0614905618131}
2019-04-03 21:42:55.61: SIM {TimeUS : 62634936, Roll : -0.06, Pitch : -0.07, Yaw : 352.94, Alt : 591.400024414, Lat : -35.3632608, Lng : 149.1652296, Q1 : 0.998106718063, Q2 : -0.000601657782681, Q3 : -0.000655627867673, Q4 : -0.0614998564124}
2019-04-03 21:42:55.71: SIM {TimeUS : 62734896, Roll : -0.06, Pitch : -0.09, Yaw : 352.94, Alt : 591.599975586, Lat : -35.3632608, Lng : 149.1652296, Q1 : 0.998106122017, Q2 : -0.00065161002567, Q3 : -0.000776693748776, Q4 : -0.0615076236427}
2019-04-03 21:42:55.81: SIM {TimeUS : 62834856, Roll : -0.07, Pitch : -0.1, Yaw : 352.94, Alt : 591.780029297, Lat : -35.3632608, Lng : 149.1652296, Q1 : 0.99810564518, Q2 : -0.000670797890052, Q3 : -0.000885351444595, Q4 : -0.0615136958659}
2019-04-03 21:42:55.91: SIM {TimeUS : 62934816, Roll : -0.04, Pitch : -0.1, Yaw : 352.94, Alt : 591.960021973, Lat : -35.3632608, Lng : 149.1652294, Q1 : 0.998105287552, Q2 : -0.000458767375676, Q3 : -0.000883019121829, Q4 : -0.0615209490061}
2019-04-03 21:42:56.01: SIM {TimeUS : 63034776, Roll : -0.01, Pitch : -0.08, Yaw : 352.94, Alt : 592.119995117, Lat : -35.3632608, Lng : 149.1652294, Q1 : 0.998104870319, Q2 : -0.000161048796144, Q3 : -0.000709865125827, Q4 : -0.0615312904119}
2019-04-03 21:42:56.11: SIM {TimeUS : 63134736, Roll : -0.02, Pitch : -0.09, Yaw : 352.94, Alt : 592.270019531, Lat : -35.3632608, Lng : 149.1652294, Q1 : 0.998104155064, Q2 : -0.000293273711577, Q3 : -0.000833897676785, Q4 : -0.0615415684879}
2019-04-03 21:42:56.21: SIM {TimeUS : 63234696, Roll : -0.19, Pitch : -0.29, Yaw : 352.94, Alt : 592.409973145, Lat : -35.3632608, Lng : 149.1652294, Q1 : 0.998099148273, Q2 : -0.00181826052722, Q3 : -0.00242714979686, Q4 : -0.0615537539124}
2019-04-03 21:42:56.31: SIM {TimeUS : 63334656, Roll : -0.52, Pitch : -0.71, Yaw : 352.94, Alt : 592.530029297, Lat : -35.3632608, Lng : 149.1652293, Q1 : 0.998072445393, Q2 : -0.00495255552232, Q3 : -0.00597940571606, Q4 : -0.0615726970136}
2019-04-03 21:42:56.41: SIM {TimeUS : 63434616, Roll : -0.99, Pitch : -1.36, Yaw : 352.94, Alt : 592.640014648, Lat : -35.3632607, Lng : 149.1652293, Q1 : 0.997991919518, Q2 : -0.00943365134299, Q3 : -0.0113620515913, Q4 : -0.0615959726274}
2019-04-03 21:42:56.51: SIM {TimeUS : 63534576, Roll : -1.57, Pitch : -2.18, Yaw : 352.95, Alt : 592.739990234, Lat : -35.3632607, Lng : 149.1652293, Q1 : 0.997822165489, Q2 : -0.0148554574698, Q3 : -0.0181809384376, Q4 : -0.0616420209408}
2019-04-03 21:42:56.61: SIM {TimeUS : 63634536, Roll : -2.16, Pitch : -3.06, Yaw : 352.97, Alt : 592.83001709, Lat : -35.3632605, Lng : 149.1652293, Q1 : 0.997557222843, Q2 : -0.0204770043492, Q3 : -0.0254969317466, Q4 : -0.0617270171642}
2019-04-03 21:42:56.71: SIM {TimeUS : 63734496, Roll : -2.69, Pitch : -3.84, Yaw : 352.99, Alt : 592.900024414, Lat : -35.3632604, Lng : 149.1652292, Q1 : 0.997242748737, Q2 : -0.0255058072507, Q3 : -0.0320696085691, Q4 : -0.0618701092899}
2019-04-03 21:42:56.81: SIM {TimeUS : 63834456, Roll : -3.1, Pitch : -4.47, Yaw : 352.99, Alt : 592.969970703, Lat : -35.3632604, Lng : 149.1652289, Q1 : 0.996941208839, Q2 : -0.0293987095356, Q3 : -0.0372945070267, Q4 : -0.0620736628771}
2019-04-03 21:42:56.91: SIM {TimeUS : 63934416, Roll : -3.39, Pitch : -4.91, Yaw : 352.98, Alt : 593.030029297, Lat : -35.3632602, Lng : 149.1652288, Q1 : 0.996696293354, Q2 : -0.0321433991194, Q3 : -0.0409651808441, Q4 : -0.0623315647244}
2019-04-03 21:42:57.01: SIM {TimeUS : 64034376, Roll : -3.61, Pitch : -5.23, Yaw : 352.97, Alt : 593.08001709, Lat : -35.3632598, Lng : 149.1652284, Q1 : 0.996492683887, Q2 : -0.0342906787992, Q3 : -0.0436385348439, Q4 : -0.0626279711723}
2019-04-03 21:42:57.11: SIM {TimeUS : 64134336, Roll : -3.82, Pitch : -5.5, Yaw : 352.95, Alt : 593.119995117, Lat : -35.3632596, Lng : 149.1652282, Q1 : 0.996305286884, Q2 : -0.0362068042159, Q3 : -0.0458654910326, Q4 : -0.0629379972816}
2019-04-03 21:42:57.21: SIM {TimeUS : 64234296, Roll : -4.01, Pitch : -5.75, Yaw : 352.93, Alt : 593.159973145, Lat : -35.3632592, Lng : 149.1652278, Q1 : 0.996120750904, Q2 : -0.0380095429718, Q3 : -0.0479565933347, Q4 : -0.0632368773222}
2019-04-03 21:42:57.31: SIM {TimeUS : 64334256, Roll : -4.21, Pitch : -6.06, Yaw : 352.92, Alt : 593.190002441, Lat : -35.3632589, Lng : 149.1652273, Q1 : 0.995905041695, Q2 : -0.039875395596, Q3 : -0.0505129769444, Q4 : -0.0634946748614}
2019-04-03 21:42:57.41: SIM {TimeUS : 64435049, Roll : -4.41, Pitch : -6.39, Yaw : 352.92, Alt : 593.219970703, Lat : -35.3632584, Lng : 149.1652268, Q1 : 0.995666384697, Q2 : -0.0418386124074, Q3 : -0.0532656237483, Q4 : -0.0637243837118}
2019-04-03 21:42:57.51: SIM {TimeUS : 64535009, Roll : -4.58, Pitch : -6.66, Yaw : 352.91, Alt : 593.25, Lat : -35.3632579, Lng : 149.1652262, Q1 : 0.995462715626, Q2 : -0.043454375118, Q3 : -0.0554719008505, Q4 : -0.0639417767525}
2019-04-03 21:42:57.61: SIM {TimeUS : 64634969, Roll : -4.71, Pitch : -6.83, Yaw : 352.9, Alt : 593.270019531, Lat : -35.3632573, Lng : 149.1652255, Q1 : 0.995315074921, Q2 : -0.0446685925126, Q3 : -0.0569057129323, Q4 : -0.064143396914}
2019-04-03 21:42:57.71: SIM {TimeUS : 64734929, Roll : -4.81, Pitch : -6.94, Yaw : 352.89, Alt : 593.289978027, Lat : -35.3632567, Lng : 149.1652249, Q1 : 0.995207488537, Q2 : -0.0456095188856, Q3 : -0.0578435659409, Q4 : -0.0643108710647}
2019-04-03 21:42:57.81: SIM {TimeUS : 64834889, Roll : -4.91, Pitch : -7.04, Yaw : 352.89, Alt : 593.309997559, Lat : -35.363256, Lng : 149.1652241, Q1 : 0.9951146245, Q2 : -0.0465036965907, Q3 : -0.0585834793746, Q4 : -0.0644383579493}
2019-04-03 21:42:57.91: SIM {TimeUS : 64934849, Roll : -5.0, Pitch : -7.14, Yaw : 352.89, Alt : 593.33001709, Lat : -35.3632552, Lng : 149.1652232, Q1 : 0.99501812458, Q2 : -0.0473937653005, Q3 : -0.0594069883227, Q4 : -0.0645258575678}
2019-04-03 21:42:58.01: SIM {TimeUS : 65034809, Roll : -5.12, Pitch : -7.24, Yaw : 352.89, Alt : 593.340026855, Lat : -35.3632544, Lng : 149.1652225, Q1 : 0.994907915592, Q2 : -0.0484803766012, Q3 : -0.0602652803063, Q4 : -0.0646216571331}
2019-04-03 21:42:58.11: SIM {TimeUS : 65134769, Roll : -5.44, Pitch : -7.29, Yaw : 352.72, Alt : 593.359985352, Lat : -35.3632536, Lng : 149.1652215, Q1 : 0.994644284248, Q2 : -0.051352430135, Q3 : -0.0604437217116, Q4 : -0.0662739127874}
2019-04-03 21:42:58.21: SIM {TimeUS : 65234729, Roll : -6.02, Pitch : -7.32, Yaw : 351.79, Alt : 593.369995117, Lat : -35.3632526, Lng : 149.1652206, Q1 : 0.993783593178, Q2 : -0.0569171607494, Q3 : -0.0598623007536, Q4 : -0.0746404081583}
2019-04-03 21:42:58.31: SIM {TimeUS : 65334689, Roll : -6.6, Pitch : -7.51, Yaw : 349.42, Alt : 593.380004883, Lat : -35.3632518, Lng : 149.1652195, Q1 : 0.991604268551, Q2 : -0.0632418766618, Q3 : -0.0598808601499, Q4 : -0.0955813154578}
2019-04-03 21:42:58.41: SIM {TimeUS : 65434649, Roll : -6.77, Pitch : -8.04, Yaw : 345.36, Alt : 593.400024414, Lat : -35.3632509, Lng : 149.1652183, Q1 : 0.987155377865, Q2 : -0.0674161016941, Q3 : -0.0619442723691, Q4 : -0.130928680301}
2019-04-03 21:42:58.51: SIM {TimeUS : 65534609, Roll : -6.33, Pitch : -8.89, Yaw : 339.76, Alt : 593.409973145, Lat : -35.3632499, Lng : 149.1652172, Q1 : 0.979239583015, Q2 : -0.0678366646171, Q3 : -0.0665499791503, Q4 : -0.179050803185}
2019-04-03 21:42:58.61: SIM {TimeUS : 65634569, Roll : -4.97, Pitch : -9.94, Yaw : 332.98, Alt : 593.41998291, Lat : -35.3632488, Lng : 149.1652159, Q1 : 0.966893255711, Q2 : -0.0622387975454, Q3 : -0.0741254165769, Q4 : -0.236112833023}
2019-04-03 21:42:58.71: SIM {TimeUS : 65734529, Roll : -2.65, Pitch : -10.98, Yaw : 325.74, Alt : 593.429992676, Lat : -35.3632477, Lng : 149.1652145, Q1 : 0.950358748436, Q2 : -0.0501940436661, Q3 : -0.0846336781979, Q4 : -0.29518789053}
2019-04-03 21:42:58.81: SIM {TimeUS : 65834489, Roll : 0.16, Pitch : -11.76, Yaw : 318.89, Alt : 593.450012207, Lat : -35.3632467, Lng : 149.165213, Q1 : 0.931480944157, Q2 : -0.0346357114613, Q3 : -0.0964462012053, Q4 : -0.349058508873}
2019-04-03 21:42:58.91: SIM {TimeUS : 65934449, Roll : 2.87, Pitch : -12.19, Yaw : 313.2, Alt : 593.460021973, Lat : -35.3632455, Lng : 149.1652115, Q1 : 0.913340270519, Q2 : -0.0192829910666, Q3 : -0.10740467906, Q4 : -0.39230337739}
2019-04-03 21:42:59.01: SIM {TimeUS : 66034409, Roll : 4.95, Pitch : -12.37, Yaw : 309.16, Alt : 593.469970703, Lat : -35.3632443, Lng : 149.16521, Q1 : 0.899116516113, Q2 : -0.00741817383096, Q3 : -0.115681156516, Q4 : -0.42208096385}
2019-04-03 21:42:59.11: SIM {TimeUS : 66134369, Roll : 6.09, Pitch : -12.45, Yaw : 306.94, Alt : 593.489990234, Lat : -35.3632428, Lng : 149.1652083, Q1 : 0.890768051147, Q2 : -0.00104218814522, Q3 : -0.120513029397, Q4 : -0.438186943531}
2019-04-03 21:42:59.21: SIM {TimeUS : 66234329, Roll : 6.28, Pitch : -12.58, Yaw : 306.37, Alt : 593.5, Lat : -35.3632414, Lng : 149.1652068, Q1 : 0.888491094112, Q2 : -0.000739577109925, Q3 : -0.122291482985, Q4 : -0.442298382521}
2019-04-03 21:42:59.31: SIM {TimeUS : 66334289, Roll : 5.67, Pitch : -12.89, Yaw : 307.14, Alt : 593.510009766, Lat : -35.3632398, Lng : 149.1652052, Q1 : 0.891209602356, Q2 : -0.00588714517653, Q3 : -0.122271738946, Q4 : -0.436761379242}
2019-04-03 21:42:59.41: SIM {TimeUS : 66435082, Roll : 4.46, Pitch : -13.38, Yaw : 308.9, Alt : 593.530029297, Lat : -35.3632382, Lng : 149.1652035, Q1 : 0.897369265556, Q2 : -0.0153296506032, Q3 : -0.121730133891, Q4 : -0.423881083727}
2019-04-03 21:42:59.51: SIM {TimeUS : 66535042, Roll : 2.9, Pitch : -13.94, Yaw : 311.3, Alt : 593.549987793, Lat : -35.3632365, Lng : 149.1652019, Q1 : 0.905305564404, Q2 : -0.027111152187, Q3 : -0.120953842998, Q4 : -0.406272113323}
2019-04-03 21:42:59.61: SIM {TimeUS : 66635002, Roll : 1.23, Pitch : -14.49, Yaw : 314.01, Alt : 593.559997559, Lat : -35.3632347, Lng : 149.1652001, Q1 : 0.913683533669, Q2 : -0.039417412132, Q3 : -0.120309211314, Q4 : -0.386205136776}
2019-04-03 21:42:59.71: SIM {TimeUS : 66734962, Roll : -0.3, Pitch : -14.93, Yaw : 316.7, Alt : 593.58001709, Lat : -35.3632328, Lng : 149.1651983, Q1 : 0.921441495419, Q2 : -0.0504246242344, Q3 : -0.119844801724, Q4 : -0.366114914417}
2019-04-03 21:42:59.81: SIM {TimeUS : 66834922, Roll : -1.57, Pitch : -15.2, Yaw : 319.05, Alt : 593.599975586, Lat : -35.3632309, Lng : 149.1651964, Q1 : 0.927872300148, Q2 : -0.0590662844479, Q3 : -0.119182862341, Q4 : -0.348367154598}
2019-04-03 21:42:59.91: SIM {TimeUS : 66934882, Roll : -2.46, Pitch : -15.32, Yaw : 320.84, Alt : 593.609985352, Lat : -35.3632289, Lng : 149.1651944, Q1 : 0.932605147362, Q2 : -0.0647190883756, Q3 : -0.118468403816, Q4 : -0.334700405598}
2019-04-03 21:43:00.01: SIM {TimeUS : 67034842, Roll : -2.91, Pitch : -15.34, Yaw : 321.96, Alt : 593.630004883, Lat : -35.3632269, Lng : 149.1651924, Q1 : 0.935544133186, Q2 : -0.0673115551472, Q3 : -0.117948412895, Q4 : -0.326059013605}
2019-04-03 21:43:00.11: SIM {TimeUS : 67134802, Roll : -2.96, Pitch : -15.32, Yaw : 322.39, Alt : 593.650024414, Lat : -35.363225, Lng : 149.1651903, Q1 : 0.936751663685, Q2 : -0.067245438695, Q3 : -0.11793474853, Q4 : -0.322592228651}
2019-04-03 21:43:00.21: SIM {TimeUS : 67234762, Roll : -2.7, Pitch : -15.34, Yaw : 322.21, Alt : 593.66998291, Lat : -35.363223, Lng : 149.165188, Q1 : 0.936378777027, Q2 : -0.0653119832277, Q3 : -0.118716076016, Q4 : -0.323783278465}
2019-04-03 21:43:00.31: SIM {TimeUS : 67334722, Roll : -2.2, Pitch : -15.42, Yaw : 321.55, Alt : 593.690002441, Lat : -35.3632209, Lng : 149.1651857, Q1 : 0.934684455395, Q2 : -0.0622129924595, Q3 : -0.120422594249, Q4 : -0.328622758389}
2019-04-03 21:43:00.41: SIM {TimeUS : 67434682, Roll : -1.56, Pitch : -15.55, Yaw : 320.58, Alt : 593.710021973, Lat : -35.3632188, Lng : 149.1651833, Q1 : 0.932044565678, Q2 : -0.0583843104541, Q3 : -0.122832901776, Q4 : -0.335851639509}
2019-04-03 21:43:00.51: SIM {TimeUS : 67534642, Roll : -0.85, Pitch : -15.68, Yaw : 319.45, Alt : 593.719970703, Lat : -35.3632166, Lng : 149.1651809, Q1 : 0.928909063339, Q2 : -0.0542274340987, Q3 : -0.125392228365, Q4 : -0.34418618679}
2019-04-03 21:43:00.61: SIM {TimeUS : 67634602, Roll : -0.18, Pitch : -15.78, Yaw : 318.33, Alt : 593.739990234, Lat : -35.3632143, Lng : 149.1651784, Q1 : 0.925691127777, Q2 : -0.0503448098898, Q3 : -0.127804413438, Q4 : -0.352459102869}
2019-04-03 21:43:00.71: SIM {TimeUS : 67734562, Roll : 0.38, Pitch : -15.88, Yaw : 317.35, Alt : 593.760009766, Lat : -35.3632122, Lng : 149.1651758, Q1 : 0.922761201859, Q2 : -0.047171972692, Q3 : -0.129955306649, Q4 : -0.359719663858}
2019-04-03 21:43:00.81: SIM {TimeUS : 67834522, Roll : 0.8, Pitch : -15.97, Yaw : 316.59, Alt : 593.780029297, Lat : -35.3632099, Lng : 149.1651733, Q1 : 0.92042952776, Q2 : -0.0449199676514, Q3 : -0.131653666496, Q4 : -0.365320414305}
2019-04-03 21:43:00.91: SIM {TimeUS : 67934482, Roll : 1.04, Pitch : -16.03, Yaw : 316.1, Alt : 593.799987793, Lat : -35.3632075, Lng : 149.1651707, Q1 : 0.918882191181, Q2 : -0.0437398850918, Q3 : -0.132773086429, Q4 : -0.368935972452}
2019-04-03 21:43:01.01: SIM {TimeUS : 68034442, Roll : 1.11, Pitch : -16.09, Yaw : 315.88, Alt : 593.820007324, Lat : -35.3632051, Lng : 149.165168, Q1 : 0.918164730072, Q2 : -0.0436271429062, Q3 : -0.13332106173, Q4 : -0.370534420013}
2019-04-03 21:43:01.11: SIM {TimeUS : 68134402, Roll : 1.03, Pitch : -16.14, Yaw : 315.92, Alt : 593.840026855, Lat : -35.3632027, Lng : 149.1651654, Q1 : 0.918194115162, Q2 : -0.0444273017347, Q3 : -0.133507162333, Q4 : -0.370299369097}
2019-04-03 21:43:01.21: SIM {TimeUS : 68234362, Roll : 0.82, Pitch : -16.19, Yaw : 316.16, Alt : 593.859985352, Lat : -35.3632003, Lng : 149.1651627, Q1 : 0.918823540211, Q2 : -0.0459864474833, Q3 : -0.133309587836, Q4 : -0.368615150452}
2019-04-03 21:43:01.31: SIM {TimeUS : 68334322, Roll : 0.53, Pitch : -16.23, Yaw : 316.53, Alt : 593.880004883, Lat : -35.3631978, Lng : 149.1651599, Q1 : 0.919851064682, Q2 : -0.0479707717896, Q3 : -0.132901966572, Q4 : -0.36593696475}
2019-04-03 21:43:01.41: SIM {TimeUS : 68434282, Roll : 0.23, Pitch : -16.27, Yaw : 316.97, Alt : 593.900024414, Lat : -35.3631953, Lng : 149.1651571, Q1 : 0.921074867249, Q2 : -0.0499866493046, Q3 : -0.132420033216, Q4 : -0.362749785185}
2019-04-03 21:43:01.51: SIM {TimeUS : 68535075, Roll : -0.04, Pitch : -16.3, Yaw : 317.41, Alt : 593.91998291, Lat : -35.3631929, Lng : 149.1651542, Q1 : 0.922316730022, Q2 : -0.0518293380737, Q3 : -0.131952986121, Q4 : -0.359491318464}
2019-04-03 21:43:01.61: SIM {TimeUS : 68635035, Roll : -0.26, Pitch : -16.32, Yaw : 317.8, Alt : 593.929992676, Lat : -35.3631903, Lng : 149.1651515, Q1 : 0.923409163952, Q2 : -0.0532546266913, Q3 : -0.13162638247, Q4 : -0.356586575508}
2019-04-03 21:43:01.71: SIM {TimeUS : 68734995, Roll : -0.41, Pitch : -16.36, Yaw : 318.11, Alt : 593.950012207, Lat : -35.3631877, Lng : 149.1651487, Q1 : 0.924238026142, Q2 : -0.0542211681604, Q3 : -0.131603971124, Q4 : -0.354294449091}
2019-04-03 21:43:01.81: SIM {TimeUS : 68834955, Roll : -0.47, Pitch : -16.4, Yaw : 318.3, Alt : 593.969970703, Lat : -35.363185, Lng : 149.1651458, Q1 : 0.924758374691, Q2 : -0.0546498335898, Q3 : -0.131871849298, Q4 : -0.352768033743}
2019-04-03 21:43:01.91: SIM {TimeUS : 68934915, Roll : -0.47, Pitch : -16.45, Yaw : 318.39, Alt : 593.989990234, Lat : -35.3631825, Lng : 149.1651427, Q1 : 0.924968004227, Q2 : -0.0546826459467, Q3 : -0.132273584604, Q4 : -0.35206207633}
2019-04-03 21:43:02.01: SIM {TimeUS : 69034875, Roll : -0.43, Pitch : -16.49, Yaw : 318.38, Alt : 594.010009766, Lat : -35.3631799, Lng : 149.1651398, Q1 : 0.924892544746, Q2 : -0.0544880144298, Q3 : -0.132792383432, Q4 : -0.352095246315}
2019-04-03 21:43:02.11: SIM {TimeUS : 69134835, Roll : -0.36, Pitch : -16.53, Yaw : 318.28, Alt : 594.030029297, Lat : -35.3631771, Lng : 149.1651369, Q1 : 0.924603819847, Q2 : -0.054116923362, Q3 : -0.133242428303, Q4 : -0.352740198374}
2019-04-03 21:43:02.21: SIM {TimeUS : 69234795, Roll : -0.26, Pitch : -16.57, Yaw : 318.14, Alt : 594.049987793, Lat : -35.3631745, Lng : 149.1651339, Q1 : 0.924151659012, Q2 : -0.0536129847169, Q3 : -0.133777350187, Q4 : -0.353798002005}
2019-04-03 21:43:02.31: SIM {TimeUS : 69334755, Roll : -0.15, Pitch : -16.6, Yaw : 317.96, Alt : 594.070007324, Lat : -35.3631717, Lng : 149.1651307, Q1 : 0.923613131046, Q2 : -0.0530562698841, Q3 : -0.134312659502, Q4 : -0.355083018541}
2019-04-03 21:43:02.41: SIM {TimeUS : 69434715, Roll : -0.05, Pitch : -16.66, Yaw : 317.78, Alt : 594.090026855, Lat : -35.3631691, Lng : 149.1651278, Q1 : 0.923038601875, Q2 : -0.0526170320809, Q3 : -0.134987026453, Q4 : -0.356384217739}
2019-04-03 21:43:02.51: SIM {TimeUS : 69534675, Roll : 0.03, Pitch : -16.71, Yaw : 317.62, Alt : 594.109985352, Lat : -35.3631664, Lng : 149.1651247, Q1 : 0.92252188921, Q2 : -0.0522285476327, Q3 : -0.135613515973, Q4 : -0.357539445162}
2019-04-03 21:43:02.61: SIM {TimeUS : 69634635, Roll : 0.1, Pitch : -16.75, Yaw : 317.49, Alt : 594.130004883, Lat : -35.3631636, Lng : 149.1651216, Q1 : 0.922110974789, Q2 : -0.0519291497767, Q3 : -0.136131033301, Q4 : -0.358445435762}
2019-04-03 21:43:02.71: SIM {TimeUS : 69734595, Roll : 0.16, Pitch : -16.79, Yaw : 317.41, Alt : 594.150024414, Lat : -35.3631608, Lng : 149.1651185, Q1 : 0.921828627586, Q2 : -0.0516719147563, Q3 : -0.13656462729, Q4 : -0.35904327035}
2019-04-03 21:43:02.81: SIM {TimeUS : 69834555, Roll : 0.2, Pitch : -16.81, Yaw : 317.37, Alt : 594.16998291, Lat : -35.3631581, Lng : 149.1651154, Q1 : 0.921688020229, Q2 : -0.0515095219016, Q3 : -0.136827096343, Q4 : -0.359327554703}
2019-04-03 21:43:02.91: SIM {TimeUS : 69934515, Roll : 0.19, Pitch : -16.81, Yaw : 317.37, Alt : 594.190002441, Lat : -35.3631552, Lng : 149.1651123, Q1 : 0.921677649021, Q2 : -0.0515613816679, Q3 : -0.136870384216, Q4 : -0.359330236912}
