2019-04-14 17:11:34.70: SIM {TimeUS : 40716207, Roll : 0.0, Pitch : 0.0, Yaw : 0.0, Alt : 30.1000003815, Lat : 49.28357, Lng : -123.11502, Q1 : 1.0, Q2 : 0.0, Q3 : 0.0, Q4 : 0.0}
2019-04-14 17:11:34.81: SIM {TimeUS : 40835326, Roll : 0.0, Pitch : 0.0, Yaw : 0.0, Alt : 30.1000003815, Lat : 49.28357, Lng : -123.11502, Q1 : 1.0, Q2 : 0.0, Q3 : 0.0, Q4 : 0.0}
2019-04-14 17:11:34.91: SIM {TimeUS : 40935286, Roll : 0.0, Pitch : 0.0, Yaw : 0.0, Alt : 30.1000003815, Lat : 49.28357, Lng : -123.11502, Q1 : 1.0, Q2 : 0.0, Q3 : 0.0, Q4 : 0.0}
2019-04-14 17:11:35.01: SIM {TimeUS : 41035246, Roll : 0.0, Pitch : 0.0, Yaw : 0.0, Alt : 30.1000003815, Lat : 49.28357, Lng : -123.11502, Q1 : 1.0, Q2 : 0.0, Q3 : 0.0, Q4 : 0.0}
2019-04-14 17:11:35.11: SIM {TimeUS : 41135206, Roll : 0.0, Pitch : 0.0, Yaw : 0.0, Alt : 30.1000003815, Lat : 49.28357, Lng : -123.11502, Q1 : 1.0, Q2 : 0.0, Q3 : 0.0, Q4 : 0.0}
2019-04-14 17:11:35.21: SIM {TimeUS : 41235166, Roll : 0.0, Pitch : 0.0, Yaw : 0.0, Alt : 30.1000003815, Lat : 49.28357, Lng : -123.11502, Q1 : 1.0, Q2 : 0.0, Q3 : 0.0, Q4 : 0.0}
2019-04-14 17:11:35.31: SIM {TimeUS : 41335126, Roll : 0.0, Pitch : 0.0, Yaw : 0.0, Alt : 30.1000003815, Lat : 49.28357, Lng : -123.11502, Q1 : 1.0, Q2 : 0.0, Q3 : 0.0, Q4 : 0.0}
2019-04-14 17:11:35.41: SIM {TimeUS : 41435086, Roll : 0.0, Pitch : 0.0, Yaw : 0.0, Alt : 30.1000003815, Lat : 49.28357, Lng : -123.11502, Q1 : 1.0, Q2 : 0.0, Q3 : 0.0, Q4 : 0.0}
2019-04-14 17:11:35.51: SIM {TimeUS : 41535046, Roll : 0.0, Pitch : 0.0, Yaw : 0.0, Alt : 30.1000003815, Lat : 49.28357, Lng : -123.11502, Q1 : 1.0, Q2 : 0.0, Q3 : 0.0, Q4 : 0.0}
2019-04-14 17:11:35.61: SIM {TimeUS : 41635006, Roll : 0.0, Pitch : 0.0, Yaw : 0.0, Alt : 30.1000003815, Lat : 49.28357, Lng : -123.11502, Q1 : 1.0, Q2 : 0.0, Q3 : 0.0, Q4 : 0.0}
2019-04-14 17:11:35.71: SIM {TimeUS : 41734966, Roll : 0.0, Pitch : 0.0, Yaw : 0.0, Alt : 30.1000003815, Lat : 49.28357, Lng : -123.11502, Q1 : 1.0, Q2 : 0.0, Q3 : 0.0, Q4 : 0.0}
2019-04-14 17:11:35.81: SIM {TimeUS : 41834926, Roll : 0.0, Pitch : 0.0, Yaw : 0.0, Alt : 30.1000003815, Lat : 49.28357, Lng : -123.11502, Q1 : 1.0, Q2 : 0.0, Q3 : 0.0, Q4 : 0.0}
2019-04-14 17:11:35.91: SIM {TimeUS : 41934886, Roll : 0.0, Pitch : 0.0, Yaw : 0.0, Alt : 30.1000003815, Lat : 49.28357, Lng : -123.11502, Q1 : 1.0, Q2 : 0.0, Q3 : 0.0, Q4 : 0.0}
2019-04-14 17:11:36.01: SIM {TimeUS : 42034846, Roll : 0.0, Pitch : 0.0, Yaw : 0.0, Alt : 30.1000003815, Lat : 49.28357, Lng : -123.11502, Q1 : 1.0, Q2 : 0.0, Q3 : 0.0, Q4 : 0.0}
2019-04-14 17:11:36.11: SIM {TimeUS : 42134806, Roll : 0.0, Pitch : 0.0, Yaw : 0.0, Alt : 30.1000003815, Lat : 49.28357, Lng : -123.11502, Q1 : 1.0, Q2 : 0.0, Q3 : 0.0, Q4 : 0.0}
2019-04-14 17:11:36.21: SIM {TimeUS : 42234766, Roll : 0.0, Pitch : 0.0, Yaw : 0.0, Alt : 30.1000003815, Lat : 49.28357, Lng : -123.11502, Q1 : 1.0, Q2 : 0.0, Q3 : 0.0, Q4 : 0.0}
2019-04-14 17:11:36.31: SIM {TimeUS : 42334726, Roll : 0.0, Pitch : 0.0, Yaw : 0.0, Alt : 30.1000003815, Lat : 49.28357, Lng : -123.11502, Q1 : 1.0, Q2 : 0.0, Q3 : 0.0, Q4 : 0.0}
2019-04-14 17:11:36.41: SIM {TimeUS : 42434686, Roll : 0.0, Pitch : 0.0, Yaw : 0.0, Alt : 30.1000003815, Lat : 49.28357, Lng : -123.11502, Q1 : 1.0, Q2 : 0.0, Q3 : 0.0, Q4 : 0.0}
2019-04-14 17:11:36.51: SIM {TimeUS : 42534646, Roll : 0.0, Pitch : 0.0, Yaw : 0.0, Alt : 30.1000003815, Lat : 49.28357, Lng : -123.11502, Q1 : 1.0, Q2 : 0.0, Q3 : 0.0, Q4 : 0.0}
2019-04-14 17:11:36.61: SIM {TimeUS : 42634606, Roll : 0.0, Pitch : 0.0, Yaw : 0.0, Alt : 30.1000003815, Lat : 49.28357, Lng : -123.11502, Q1 : 1.0, Q2 : 0.0, Q3 : 0.0, Q4 : 0.0}
2019-04-14 17:11:36.71: SIM {TimeUS : 42734566, Roll : 0.0, Pitch : 0.0, Yaw : 0.0, Alt : 30.1000003815, Lat : 49.28357, Lng : -123.11502, Q1 : 1.0, Q2 : 0.0, Q3 : 0.0, Q4 : 0.0}
2019-04-14 17:11:36.82: SIM {TimeUS : 42835359, Roll : 0.0, Pitch : 0.0, Yaw : 0.0, Alt : 30.1000003815, Lat : 49.28357, Lng : -123.11502, Q1 : 1.0, Q2 : 0.0, Q3 : 0.0, Q4 : 0.0}
2019-04-14 17:11:36.91: SIM {TimeUS : 42935319, Roll : 0.0, Pitch : 0.0, Yaw : 0.0, Alt : 30.1000003815, Lat : 49.28357, Lng : -123.11502, Q1 : 1.0, Q2 : 0.0, Q3 : 0.0, Q4 : 0.0}
2019-04-14 17:11:37.01: SIM {TimeUS : 43035279, Roll : 0.0, Pitch : 0.0, Yaw : 0.0, Alt : 30.1000003815, Lat : 49.28357, Lng : -123.11502, Q1 : 1.0, Q2 : 0.0, Q3 : 0.0, Q4 : 6.45378759115e-12}
2019-04-14 17:11:37.11: SIM {TimeUS : 43135239, Roll : 0.0, Pitch : 0.0, Yaw : 0.0, Alt : 30.1000003815, Lat : 49.28357, Lng : -123.11502, Q1 : 1.0, Q2 : 0.0, Q3 : 0.0, Q4 : 1.04344363011e-11}
2019-04-14 17:11:37.21: SIM {TimeUS : 43235199, Roll : 0.0, Pitch : 0.0, Yaw : 360.0, Alt : 30.1000003815, Lat : 49.28357, Lng : -123.11502, Q1 : 1.0, Q2 : 0.0, Q3 : 0.0, Q4 : -1.04980429683e-07}
2019-04-14 17:11:37.31: SIM {TimeUS : 43335159, Roll : 0.0, Pitch : 0.0, Yaw : 359.99, Alt : 30.1000003815, Lat : 49.28357, Lng : -123.11502, Q1 : 1.0, Q2 : 0.0, Q3 : 0.0, Q4 : -2.41490198505e-07}
2019-04-14 17:11:37.41: SIM {TimeUS : 43435119, Roll : 0.0, Pitch : 0.0, Yaw : 359.99, Alt : 30.1000003815, Lat : 49.28357, Lng : -123.11502, Q1 : 1.0, Q2 : 0.0, Q3 : 0.0, Q4 : -4.15924745312e-07}
2019-04-14 17:11:37.51: SIM {TimeUS : 43535079, Roll : 0.0, Pitch : 0.0, Yaw : 359.99, Alt : 30.1000003815, Lat : 49.28357, Lng : -123.11502, Q1 : 1.0, Q2 : 0.0, Q3 : 0.0, Q4 : -6.20562275344e-07}
2019-04-14 17:11:37.61: SIM {TimeUS : 43635039, Roll : 0.0, Pitch : 0.0, Yaw : 359.99, Alt : 30.1000003815, Lat : 49.28357, Lng : -123.11502, Q1 : 1.0, Q2 : 0.0, Q3 : 0.0, Q4 : -7.74205034304e-07}
2019-04-14 17:11:37.71: SIM {TimeUS : 43734999, Roll : 0.0, Pitch : 0.0, Yaw : 359.99, Alt : 30.1000003815, Lat : 49.28357, Lng : -123.11502, Q1 : 1.0, Q2 : 0.0, Q3 : 0.0, Q4 : -9.3046156735e-07}
2019-04-14 17:11:37.81: SIM {TimeUS : 43834959, Roll : 0.0, Pitch : 0.0, Yaw : 359.99, Alt : 30.1000003815, Lat : 49.28357, Lng : -123.11502, Q1 : 1.0, Q2 : 0.0, Q3 : 0.0, Q4 : -1.10659391339e-06}
2019-04-14 17:11:37.91: SIM {TimeUS : 43934919, Roll : 0.0, Pitch : 0.0, Yaw : 359.99, Alt : 30.1100006104, Lat : 49.28357, Lng : -123.11502, Q1 : 1.0, Q2 : 0.0, Q3 : 0.0, Q4 : -1.2910602436e-06}
2019-04-14 17:11:38.01: SIM {TimeUS : 44034879, Roll : 0.0, Pitch : 0.0, Yaw : 359.99, Alt : 30.1299991608, Lat : 49.28357, Lng : -123.11502, Q1 : 1.0, Q2 : 0.0, Q3 : 0.0, Q4 : -1.51519327574e-06}
2019-04-14 17:11:38.11: SIM {TimeUS : 44134839, Roll : 0.0, Pitch : 0.0, Yaw : 359.99, Alt : 30.1599998474, Lat : 49.28357, Lng : -123.11502, Q1 : 1.0, Q2 : 0.0, Q3 : 0.0, Q4 : -1.7778122583e-06}
2019-04-14 17:11:38.21: SIM {TimeUS : 44234799, Roll : 0.0, Pitch : 0.0, Yaw : 359.99, Alt : 30.1900005341, Lat : 49.28357, Lng : -123.11502, Q1 : 1.0, Q2 : 0.0, Q3 : 0.0, Q4 : -2.02086357604e-06}
2019-04-14 17:11:38.31: SIM {TimeUS : 44334759, Roll : -0.03, Pitch : -0.03, Yaw : 359.99, Alt : 30.2299995422, Lat : 49.28357, Lng : -123.11502, Q1 : 0.999999940395, Q2 : -0.000283010827843, Q3 : -0.000264990929281, Q4 : -3.54800408786e-06}
2019-04-14 17:11:38.41: SIM {TimeUS : 44434719, Roll : -0.25, Pitch : -0.26, Yaw : 359.99, Alt : 30.2999992371, Lat : 49.28357, Lng : -123.11502, Q1 : 0.999994874001, Q2 : -0.00224749534391, Q3 : -0.00227951956913, Q4 : -2.5365188776e-05}
2019-04-14 17:11:38.51: SIM {TimeUS : 44534679, Roll : -0.54, Pitch : -0.53, Yaw : 359.99, Alt : 30.4400005341, Lat : 49.28357, Lng : -123.11502, Q1 : 0.999977707863, Q2 : -0.00479947496206, Q3 : -0.0046453573741, Q4 : -7.83992145443e-05}
2019-04-14 17:11:38.61: SIM {TimeUS : 44634639, Roll : -0.77, Pitch : -0.7, Yaw : 359.98, Alt : 30.5900001526, Lat : 49.28357, Lng : -123.11502, Q1 : 0.999958395958, Q2 : -0.00674693146721, Q3 : -0.00613401364535, Q4 : -0.000151308966451}
2019-04-14 17:11:38.71: SIM {TimeUS : 44734599, Roll : -0.83, Pitch : -0.73, Yaw : 359.97, Alt : 30.75, Lat : 49.28357, Lng : -123.11502, Q1 : 0.999952495098, Q2 : -0.00731339771301, Q3 : -0.00643496774137, Q4 : -0.000228808334214}
2019-04-14 17:11:38.81: SIM {TimeUS : 44834559, Roll : -0.74, Pitch : -0.65, Yaw : 359.96, Alt : 30.9099998474, Lat : 49.28357, Lng : -123.1150201, Q1 : 0.999962329865, Q2 : -0.00653988635167, Q3 : -0.00569655513391, Q4 : -0.000308827235131}
2019-04-14 17:11:38.92: SIM {TimeUS : 44935352, Roll : -0.55, Pitch : -0.48, Yaw : 359.95, Alt : 31.0599994659, Lat : 49.2835701, Lng : -123.1150201, Q1 : 0.999979197979, Q2 : -0.00484100636095, Q3 : -0.00424443650991, Q4 : -0.000382537662517}
2019-04-14 17:11:39.01: SIM {TimeUS : 45035312, Roll : -0.31, Pitch : -0.29, Yaw : 359.94, Alt : 31.2199993134, Lat : 49.2835701, Lng : -123.1150202, Q1 : 0.999992847443, Q2 : -0.00276008411311, Q3 : -0.00255050789565, Q4 : -0.000447385187726}
2019-04-14 17:11:39.11: SIM {TimeUS : 45135272, Roll : -0.1, Pitch : -0.12, Yaw : 359.94, Alt : 31.3799991608, Lat : 49.2835702, Lng : -123.1150203, Q1 : 0.999998927116, Q2 : -0.000875981058925, Q3 : -0.00109691533726, Q4 : -0.000494664243888}
2019-04-14 17:11:39.21: SIM {TimeUS : 45235232, Roll : 0.03, Pitch : 0.0, Yaw : 359.93, Alt : 31.5599994659, Lat : 49.2835702, Lng : -123.1150204, Q1 : 0.999999821186, Q2 : 0.000338307174388, Q3 : -5.42979796592e-06, Q4 : -0.000526163261384}
2019-04-14 17:11:39.31: SIM {TimeUS : 45335192, Roll : 0.08, Pitch : 0.07, Yaw : 359.93, Alt : 31.7299995422, Lat : 49.2835702, Lng : -123.1150204, Q1 : 0.999999344349, Q2 : 0.000778231711593, Q3 : 0.000617230776697, Q4 : -0.000546384602785}
2019-04-14 17:11:39.41: SIM {TimeUS : 45435152, Roll : 0.07, Pitch : 0.09, Yaw : 359.93, Alt : 31.9099998474, Lat : 49.2835703, Lng : -123.1150205, Q1 : 0.99999922514, Q2 : 0.000652629707474, Q3 : 0.000871390337124, Q4 : -0.000555966224056}
2019-04-14 17:11:39.51: SIM {TimeUS : 45535112, Roll : 0.06, Pitch : 0.11, Yaw : 359.93, Alt : 32.0999984741, Lat : 49.2835703, Lng : -123.1150206, Q1 : 0.999999165535, Q2 : 0.00052451423835, Q3 : 0.00100854970515, Q4 : -0.000546930474229}
2019-04-14 17:11:39.61: SIM {TimeUS : 45635072, Roll : 0.05, Pitch : 0.12, Yaw : 359.93, Alt : 32.2900009155, Lat : 49.2835703, Lng : -123.1150206, Q1 : 0.999999165535, Q2 : 0.000463693548227, Q3 : 0.00107914861292, Q4 : -0.000537563522812}
2019-04-14 17:11:39.71: SIM {TimeUS : 45735032, Roll : 0.05, Pitch : 0.13, Yaw : 359.93, Alt : 32.4799995422, Lat : 49.2835703, Lng : -123.1150207, Q1 : 0.99999910593, Q2 : 0.000445191399194, Q3 : 0.00114298670087, Q4 : -0.000531316094566}
2019-04-14 17:11:39.81: SIM {TimeUS : 45834992, Roll : 0.06, Pitch : 0.14, Yaw : 359.93, Alt : 32.6800003052, Lat : 49.2835703, Lng : -123.1150207, Q1 : 0.999998867512, Q2 : 0.000543603731785, Q3 : 0.00130296859425, Q4 : -0.000527833821252}
2019-04-14 17:11:39.91: SIM {TimeUS : 45934952, Roll : 0.08, Pitch : 0.14, Yaw : 359.94, Alt : 32.8699989319, Lat : 49.2835703, Lng : -123.1150207, Q1 : 0.999998748302, Q2 : 0.000782409275416, Q3 : 0.00129291042686, Q4 : -0.000521890353411}
2019-04-14 17:11:40.01: SIM {TimeUS : 46034912, Roll : 0.12, Pitch : 0.13, Yaw : 359.94, Alt : 33.0699996948, Lat : 49.2835704, Lng : -123.1150208, Q1 : 0.999998629093, Q2 : 0.00107945234049, Q3 : 0.00114889605902, Q4 : -0.000516995438375}
2019-04-14 17:11:40.11: SIM {TimeUS : 46134872, Roll : 0.15, Pitch : 0.11, Yaw : 359.94, Alt : 33.2799987793, Lat : 49.2835704, Lng : -123.1150208, Q1 : 0.999998450279, Q2 : 0.00136328791268, Q3 : 0.00101516954601, Q4 : -0.000509724952281}
2019-04-14 17:11:40.21: SIM {TimeUS : 46234832, Roll : 0.17, Pitch : 0.11, Yaw : 359.94, Alt : 33.4799995422, Lat : 49.2835704, Lng : -123.1150208, Q1 : 0.999998152256, Q2 : 0.0015491709346, Q3 : 0.00104078056756, Q4 : -0.000497662229463}
2019-04-14 17:11:40.31: SIM {TimeUS : 46334792, Roll : 0.19, Pitch : 0.13, Yaw : 359.94, Alt : 33.6899986267, Lat : 49.2835704, Lng : -123.1150208, Q1 : 0.999997854233, Q2 : 0.00166545587126, Q3 : 0.00115607387852, Q4 : -0.00048493972281}
2019-04-14 17:11:40.41: SIM {TimeUS : 46434752, Roll : 0.18, Pitch : 0.13, Yaw : 359.94, Alt : 33.9000015259, Lat : 49.2835704, Lng : -123.1150208, Q1 : 0.999997973442, Q2 : 0.00161225674674, Q3 : 0.00113575509749, Q4 : -0.000474207889056}
2019-04-14 17:11:40.51: SIM {TimeUS : 46534712, Roll : 0.15, Pitch : 0.12, Yaw : 359.94, Alt : 34.1100006104, Lat : 49.2835704, Lng : -123.1150208, Q1 : 0.999998390675, Q2 : 0.00137539743446, Q3 : 0.0010747165652, Q4 : -0.000460741022835}
2019-04-14 17:11:40.61: SIM {TimeUS : 46634672, Roll : 0.12, Pitch : 0.11, Yaw : 359.94, Alt : 34.3199996948, Lat : 49.2835704, Lng : -123.1150208, Q1 : 0.999998807907, Q2 : 0.00107632821891, Q3 : 0.00101567409001, Q4 : -0.000455656729173}
2019-04-14 17:11:40.71: SIM {TimeUS : 46734632, Roll : 0.09, Pitch : 0.1, Yaw : 359.94, Alt : 34.5299987793, Lat : 49.2835704, Lng : -123.1150208, Q1 : 0.99999910593, Q2 : 0.00079344084952, Q3 : 0.00095231301384, Q4 : -0.000458123395219}
2019-04-14 17:11:40.81: SIM {TimeUS : 46834592, Roll : 0.07, Pitch : 0.07, Yaw : 359.94, Alt : 34.7400016785, Lat : 49.2835704, Lng : -123.1150208, Q1 : 0.999999463558, Q2 : 0.00065879302565, Q3 : 0.000637266668491, Q4 : -0.00048676689039}
2019-04-14 17:11:40.91: SIM {TimeUS : 46934552, Roll : 0.06, Pitch : 0.03, Yaw : 359.93, Alt : 34.9599990845, Lat : 49.2835704, Lng : -123.1150208, Q1 : 0.999999642372, Q2 : 0.000572312739678, Q3 : 0.000339586578775, Q4 : -0.000528376025613}
2019-04-14 17:11:41.02: SIM {TimeUS : 47035345, Roll : 0.04, Pitch : 0.02, Yaw : 359.93, Alt : 35.1800003052, Lat : 49.2835704, Lng : -123.1150208, Q1 : 0.999999701977, Q2 : 0.000435170863057, Q3 : 0.000196392196813, Q4 : -0.00057496217778}
2019-04-14 17:11:41.11: SIM {TimeUS : 47135305, Roll : 0.03, Pitch : 0.01, Yaw : 359.92, Alt : 35.3899993896, Lat : 49.2835704, Lng : -123.1150208, Q1 : 0.999999761581, Q2 : 0.000328875205014, Q3 : 0.000160220588441, Q4 : -0.000618981721345}
2019-04-14 17:11:41.21: SIM {TimeUS : 47235265, Roll : 0.03, Pitch : 0.01, Yaw : 359.92, Alt : 35.6100006104, Lat : 49.2835704, Lng : -123.1150207, Q1 : 0.999999701977, Q2 : 0.000312292278977, Q3 : 0.000164350800333, Q4 : -0.000659398559947}
2019-04-14 17:11:41.31: SIM {TimeUS : 47335225, Roll : 0.01, Pitch : 0.0, Yaw : 359.92, Alt : 35.8300018311, Lat : 49.2835704, Lng : -123.1150207, Q1 : 0.999999761581, Q2 : 0.000135724068969, Q3 : -2.82078763121e-05, Q4 : -0.000692430126946}
2019-04-14 17:11:41.41: SIM {TimeUS : 47435185, Roll : -0.02, Pitch : -0.03, Yaw : 359.91, Alt : 36.0499992371, Lat : 49.2835704, Lng : -123.1150207, Q1 : 0.999999642372, Q2 : -0.000176012079464, Q3 : -0.000348131754436, Q4 : -0.000721402815543}
2019-04-14 17:11:41.51: SIM {TimeUS : 47535145, Roll : -0.05, Pitch : -0.06, Yaw : 359.91, Alt : 36.2700004578, Lat : 49.2835704, Lng : -123.1150207, Q1 : 0.999999403954, Q2 : -0.000482735602418, Q3 : -0.000562771689147, Q4 : -0.000753226107918}
2019-04-14 17:11:41.61: SIM {TimeUS : 47635105, Roll : -0.08, Pitch : -0.07, Yaw : 359.91, Alt : 36.4900016785, Lat : 49.2835704, Lng : -123.1150207, Q1 : 0.999999165535, Q2 : -0.000733672117349, Q3 : -0.000674957816955, Q4 : -0.000782643735874}
2019-04-14 17:11:41.71: SIM {TimeUS : 47735065, Roll : -0.08, Pitch : -0.07, Yaw : 359.9, Alt : 36.7200012207, Lat : 49.2835704, Lng : -123.1150207, Q1 : 0.999999165535, Q2 : -0.000735543377232, Q3 : -0.000674170674756, Q4 : -0.000800722511485}
2019-04-14 17:11:41.81: SIM {TimeUS : 47835025, Roll : -0.07, Pitch : -0.07, Yaw : 359.9, Alt : 36.9399986267, Lat : 49.2835704, Lng : -123.1150207, Q1 : 0.99999922514, Q2 : -0.000652500835713, Q3 : -0.000616512843408, Q4 : -0.000812623766251}
2019-04-14 17:11:41.91: SIM {TimeUS : 47934985, Roll : -0.06, Pitch : -0.05, Yaw : 359.9, Alt : 37.1599998474, Lat : 49.2835704, Lng : -123.1150207, Q1 : 0.999999403954, Q2 : -0.000569397292566, Q3 : -0.000469397491543, Q4 : -0.000825615250506}
2019-04-14 17:11:42.01: SIM {TimeUS : 48034945, Roll : -0.05, Pitch : -0.04, Yaw : 359.9, Alt : 37.3899993896, Lat : 49.2835704, Lng : -123.1150207, Q1 : 0.999999463558, Q2 : -0.000491510203574, Q3 : -0.000369336135918, Q4 : -0.000836281571537}
2019-04-14 17:11:42.11: SIM {TimeUS : 48134905, Roll : -0.06, Pitch : -0.04, Yaw : 359.9, Alt : 37.6199989319, Lat : 49.2835704, Lng : -123.1150206, Q1 : 0.999999403954, Q2 : -0.000569739961065, Q3 : -0.000385258783353, Q4 : -0.000844060501549}
2019-04-14 17:11:42.21: SIM {TimeUS : 48234865, Roll : -0.07, Pitch : -0.03, Yaw : 359.9, Alt : 37.8400001526, Lat : 49.2835704, Lng : -123.1150206, Q1 : 0.999999344349, Q2 : -0.000694704707712, Q3 : -0.000275551748928, Q4 : -0.000858232495375}
2019-04-14 17:11:42.31: SIM {TimeUS : 48334825, Roll : -0.1, Pitch : -0.01, Yaw : 359.89, Alt : 38.0699996948, Lat : 49.2835704, Lng : -123.1150206, Q1 : 0.999999165535, Q2 : -0.000903166888747, Q3 : -0.000104272796307, Q4 : -0.000877030368429}
2019-04-14 17:11:42.41: SIM {TimeUS : 48434785, Roll : -0.1, Pitch : 0.0, Yaw : 359.89, Alt : 38.2999992371, Lat : 49.2835704, Lng : -123.1150206, Q1 : 0.99999922514, Q2 : -0.000898276397493, Q3 : 5.73260149395e-05, Q4 : -0.000890007417183}
2019-04-14 17:11:42.51: SIM {TimeUS : 48534745, Roll : -0.07, Pitch : 0.03, Yaw : 359.89, Alt : 38.5200004578, Lat : 49.2835704, Lng : -123.1150206, Q1 : 0.999999344349, Q2 : -0.000646923843306, Q3 : 0.000318503793096, Q4 : -0.000905623019207}
2019-04-14 17:11:42.61: SIM {TimeUS : 48634705, Roll : -0.04, Pitch : 0.03, Yaw : 359.89, Alt : 38.75, Lat : 49.2835704, Lng : -123.1150206, Q1 : 0.999999463558, Q2 : -0.000403151236242, Q3 : 0.00027868579491, Q4 : -0.000921316328458}
2019-04-14 17:11:42.71: SIM {TimeUS : 48734665, Roll : -0.01, Pitch : 0.01, Yaw : 359.89, Alt : 38.9799995422, Lat : 49.2835704, Lng : -123.1150207, Q1 : 0.999999523163, Q2 : -0.000130536602228, Q3 : 0.000167599268025, Q4 : -0.000932516413741}
2019-04-14 17:11:42.81: SIM {TimeUS : 48834625, Roll : 0.01, Pitch : 0.03, Yaw : 359.89, Alt : 39.2099990845, Lat : 49.2835706, Lng : -123.1150207, Q1 : 0.999999463558, Q2 : 0.000172908592504, Q3 : 0.000264950824203, Q4 : -0.000943326565903}
2019-04-14 17:11:42.91: SIM {TimeUS : 48934585, Roll : 0.05, Pitch : 0.05, Yaw : 359.88, Alt : 39.4399986267, Lat : 49.2835706, Lng : -123.1150207, Q1 : 0.999999284744, Q2 : 0.000464882032247, Q3 : 0.000496132881381, Q4 : -0.000960333331022}
2019-04-14 17:11:43.01: SIM {TimeUS : 49034545, Roll : 0.07, Pitch : 0.08, Yaw : 359.88, Alt : 39.6699981689, Lat : 49.2835706, Lng : -123.1150207, Q1 : 0.999999046326, Q2 : 0.000677738047671, Q3 : 0.00074933108408, Q4 : -0.000983205623925}
2019-04-14 17:11:43.12: SIM {TimeUS : 49135338, Roll : 0.06, Pitch : 0.11, Yaw : 359.88, Alt : 39.9000015259, Lat : 49.2835706, Lng : -123.1150207, Q1 : 0.999998867512, Q2 : 0.000558886618819, Q3 : 0.000986997620203, Q4 : -0.00100302579813}
2019-04-14 17:11:43.21: SIM {TimeUS : 49235298, Roll : 0.01, Pitch : 0.13, Yaw : 359.88, Alt : 40.1300010681, Lat : 49.2835706, Lng : -123.1150207, Q1 : 0.999998748302, Q2 : 0.000121928300359, Q3 : 0.00120818812866, Q4 : -0.00104050489608}
2019-04-14 17:11:43.31: SIM {TimeUS : 49335258, Roll : -0.02, Pitch : 0.14, Yaw : 359.87, Alt : 40.3699989319, Lat : 49.2835706, Lng : -123.1150207, Q1 : 0.999998629093, Q2 : -0.00022947989055, Q3 : 0.00122521771118, Q4 : -0.00106817192864}
2019-04-14 17:11:43.41: SIM {TimeUS : 49435218, Roll : -0.04, Pitch : 0.11, Yaw : 359.87, Alt : 40.5999984741, Lat : 49.2835706, Lng : -123.1150207, Q1 : 0.999998807907, Q2 : -0.000426296173828, Q3 : 0.00102473376319, Q4 : -0.00108933390584}
2019-04-14 17:11:43.51: SIM {TimeUS : 49535178, Roll : -0.05, Pitch : 0.09, Yaw : 359.87, Alt : 40.8300018311, Lat : 49.2835706, Lng : -123.1150207, Q1 : 0.999998867512, Q2 : -0.000459346745629, Q3 : 0.000863470777404, Q4 : -0.00111449963879}
2019-04-14 17:11:43.61: SIM {TimeUS : 49635138, Roll : -0.03, Pitch : 0.1, Yaw : 359.86, Alt : 41.0600013733, Lat : 49.2835706, Lng : -123.1150207, Q1 : 0.999998867512, Q2 : -0.00029775936855, Q3 : 0.000944416038692, Q4 : -0.00114804285113}
2019-04-14 17:11:43.71: SIM {TimeUS : 49735098, Roll : 0.01, Pitch : 0.13, Yaw : 359.86, Alt : 41.2999992371, Lat : 49.2835706, Lng : -123.1150207, Q1 : 0.999998629093, Q2 : 0.000115288741654, Q3 : 0.00118210585788, Q4 : -0.00118867389392}
2019-04-14 17:11:43.81: SIM {TimeUS : 49835058, Roll : 0.06, Pitch : 0.15, Yaw : 359.85, Alt : 41.5299987793, Lat : 49.2835706, Lng : -123.1150207, Q1 : 0.999998211861, Q2 : 0.000586858252063, Q3 : 0.00132290646434, Q4 : -0.00122870935593}
2019-04-14 17:11:43.91: SIM {TimeUS : 49935018, Roll : 0.1, Pitch : 0.12, Yaw : 359.85, Alt : 41.7599983215, Lat : 49.2835706, Lng : -123.1150207, Q1 : 0.999998211861, Q2 : 0.000893801567145, Q3 : 0.00109326525126, Q4 : -0.00126437679864}
2019-04-14 17:11:44.01: SIM {TimeUS : 50034978, Roll : 0.1, Pitch : 0.08, Yaw : 359.85, Alt : 42.0, Lat : 49.2835706, Lng : -123.1150207, Q1 : 0.999998509884, Q2 : 0.000889863295015, Q3 : 0.000709051906597, Q4 : -0.00129475106951}
2019-04-14 17:11:44.11: SIM {TimeUS : 50134938, Roll : 0.06, Pitch : 0.04, Yaw : 359.84, Alt : 42.2299995422, Lat : 49.2835706, Lng : -123.1150207, Q1 : 0.999998867512, Q2 : 0.000542965484783, Q3 : 0.000419700751081, Q4 : -0.00131597241852}
2019-04-14 17:11:44.21: SIM {TimeUS : 50234898, Roll : 0.0, Pitch : 0.04, Yaw : 359.84, Alt : 42.4599990845, Lat : 49.2835706, Lng : -123.1150207, Q1 : 0.999999046326, Q2 : 5.29371391167e-05, Q3 : 0.000364646548405, Q4 : -0.00133286998607}
2019-04-14 17:11:44.31: SIM {TimeUS : 50334858, Roll : -0.03, Pitch : 0.06, Yaw : 359.84, Alt : 42.7000007629, Lat : 49.2835706, Lng : -123.1150207, Q1 : 0.999998867512, Q2 : -0.000280124339042, Q3 : 0.000609224895015, Q4 : -0.0013412052067}
2019-04-14 17:11:44.41: SIM {TimeUS : 50434818, Roll : -0.04, Pitch : 0.09, Yaw : 359.84, Alt : 42.9300003052, Lat : 49.2835704, Lng : -123.1150207, Q1 : 0.999998688698, Q2 : -0.000434781482909, Q3 : 0.000797579181381, Q4 : -0.00134905509185}
2019-04-14 17:11:44.51: SIM {TimeUS : 50534778, Roll : -0.04, Pitch : 0.08, Yaw : 359.84, Alt : 43.1699981689, Lat : 49.2835704, Lng : -123.1150207, Q1 : 0.999998688698, Q2 : -0.000402965553803, Q3 : 0.000764102034736, Q4 : -0.001359097776}
2019-04-14 17:11:44.61: SIM {TimeUS : 50634738, Roll : -0.05, Pitch : 0.07, Yaw : 359.84, Alt : 43.4000015259, Lat : 49.2835704, Lng : -123.1150207, Q1 : 0.999998748302, Q2 : -0.000446769030532, Q3 : 0.000658439821564, Q4 : -0.00137458427344}
2019-04-14 17:11:44.71: SIM {TimeUS : 50734698, Roll : -0.04, Pitch : 0.05, Yaw : 359.84, Alt : 43.6399993896, Lat : 49.2835704, Lng : -123.1150207, Q1 : 0.999998807907, Q2 : -0.000418763927883, Q3 : 0.000519191671629, Q4 : -0.00139281060547}
2019-04-14 17:11:44.81: SIM {TimeUS : 50834658, Roll : -0.03, Pitch : 0.04, Yaw : 359.83, Alt : 43.8699989319, Lat : 49.2835704, Lng : -123.1150207, Q1 : 0.999998867512, Q2 : -0.000285350397462, Q3 : 0.000406473467592, Q4 : -0.00141508295201}
2019-04-14 17:11:44.91: SIM {TimeUS : 50934618, Roll : -0.02, Pitch : 0.03, Yaw : 359.83, Alt : 44.1100006104, Lat : 49.2835704, Lng : -123.1150206, Q1 : 0.999998927116, Q2 : -0.000175817665877, Q3 : 0.000348460220266, Q4 : -0.00143899186514}
2019-04-14 17:11:45.01: SIM {TimeUS : 51034578, Roll : -0.02, Pitch : 0.01, Yaw : 359.83, Alt : 44.3499984741, Lat : 49.2835704, Lng : -123.1150206, Q1 : 0.999998867512, Q2 : -0.000217003194848, Q3 : 0.000160107185366, Q4 : -0.00146310660057}
2019-04-14 17:11:45.11: SIM {TimeUS : 51134538, Roll : -0.03, Pitch : -0.01, Yaw : 359.82, Alt : 44.5800018311, Lat : 49.2835704, Lng : -123.1150206, Q1 : 0.999998807907, Q2 : -0.00030576667632, Q3 : -0.000142869292176, Q4 : -0.00149139086716}
2019-04-14 17:11:45.21: SIM {TimeUS : 51235331, Roll : -0.03, Pitch : -0.03, Yaw : 359.82, Alt : 44.8199996948, Lat : 49.2835704, Lng : -123.1150206, Q1 : 0.999998688698, Q2 : -0.000329316535499, Q3 : -0.000344016239978, Q4 : -0.00152305047959}
2019-04-14 17:11:45.31: SIM {TimeUS : 51335291, Roll : -0.02, Pitch : -0.05, Yaw : 359.82, Alt : 45.0600013733, Lat : 49.2835704, Lng : -123.1150206, Q1 : 0.999998629093, Q2 : -0.00023983187566, Q3 : -0.000436696078395, Q4 : -0.00155994843226}
2019-04-14 17:11:45.41: SIM {TimeUS : 51435251, Roll : -0.02, Pitch : -0.05, Yaw : 359.81, Alt : 45.2900009155, Lat : 49.2835703, Lng : -123.1150206, Q1 : 0.999998569489, Q2 : -0.000200928829145, Q3 : -0.000440897303633, Q4 : -0.00159608270042}
2019-04-14 17:11:45.51: SIM {TimeUS : 51535211, Roll : -0.04, Pitch : -0.04, Yaw : 359.81, Alt : 45.5299987793, Lat : 49.2835703, Lng : -123.1150206, Q1 : 0.999998569489, Q2 : -0.00039078030386, Q3 : -0.000349327252479, Q4 : -0.00163290568162}
2019-04-14 17:11:45.61: SIM {TimeUS : 51635171, Roll : -0.08, Pitch : -0.03, Yaw : 359.8, Alt : 45.7599983215, Lat : 49.2835703, Lng : -123.1150206, Q1 : 0.99999833107, Q2 : -0.000710185500793, Q3 : -0.000264912698185, Q4 : -0.00166178564541}
2019-04-14 17:11:45.71: SIM {TimeUS : 51735131, Roll : -0.1, Pitch : -0.02, Yaw : 359.8, Alt : 45.9900016785, Lat : 49.2835703, Lng : -123.1150206, Q1 : 0.999998092651, Q2 : -0.00094921287382, Q3 : -0.000242369918851, Q4 : -0.00168576883152}
2019-04-14 17:11:45.81: SIM {TimeUS : 51835091, Roll : -0.11, Pitch : -0.01, Yaw : 359.8, Alt : 46.2200012207, Lat : 49.2835703, Lng : -123.1150206, Q1 : 0.999998033047, Q2 : -0.00100842292886, Q3 : -0.000146479782416, Q4 : -0.00170774001162}
2019-04-14 17:11:45.91: SIM {TimeUS : 51935051, Roll : -0.1, Pitch : 0.0, Yaw : 359.8, Alt : 46.4500007629, Lat : 49.2835703, Lng : -123.1150206, Q1 : 0.999998092651, Q2 : -0.000905439839698, Q3 : 4.17557894252e-05, Q4 : -0.00172526447568}
2019-04-14 17:11:46.01: SIM {TimeUS : 52035011, Roll : -0.07, Pitch : 0.01, Yaw : 359.8, Alt : 46.6699981689, Lat : 49.2835703, Lng : -123.1150206, Q1 : 0.999998211861, Q2 : -0.000691197405104, Q3 : 0.000142430872074, Q4 : -0.00174363690894}
2019-04-14 17:11:46.11: SIM {TimeUS : 52134971, Roll : -0.05, Pitch : 0.01, Yaw : 359.79, Alt : 46.8800010681, Lat : 49.2835703, Lng : -123.1150206, Q1 : 0.99999833107, Q2 : -0.000503969495185, Q3 : 0.000111289780762, Q4 : -0.00176325521898}
2019-04-14 17:11:46.21: SIM {TimeUS : 52234931, Roll : -0.04, Pitch : 0.0, Yaw : 359.79, Alt : 47.0900001526, Lat : 49.2835703, Lng : -123.1150206, Q1 : 0.99999833107, Q2 : -0.000423740973929, Q3 : -3.0784343835e-05, Q4 : -0.00178320682608}
2019-04-14 17:11:46.31: SIM {TimeUS : 52334891, Roll : -0.03, Pitch : -0.03, Yaw : 359.79, Alt : 47.2900009155, Lat : 49.2835703, Lng : -123.1150206, Q1 : 0.999998271465, Q2 : -0.000291131262202, Q3 : -0.000289536983473, Q4 : -0.00180006131995}
2019-04-14 17:11:46.41: SIM {TimeUS : 52434851, Roll : -0.01, Pitch : -0.05, Yaw : 359.79, Alt : 47.4799995422, Lat : 49.2835703, Lng : -123.1150206, Q1 : 0.999998211861, Q2 : -9.39068631851e-05, Q3 : -0.000523105554748, Q4 : -0.00181970244739}
2019-04-14 17:11:46.51: SIM {TimeUS : 52534811, Roll : 0.0, Pitch : -0.09, Yaw : 359.78, Alt : 47.6599998474, Lat : 49.2835703, Lng : -123.1150206, Q1 : 0.999997973442, Q2 : 3.53109908247e-06, Q3 : -0.000812511891127, Q4 : -0.00184060190804}
2019-04-14 17:11:46.61: SIM {TimeUS : 52634771, Roll : 0.0, Pitch : -0.12, Yaw : 359.78, Alt : 47.8400001526, Lat : 49.2835703, Lng : -123.1150206, Q1 : 0.999997675419, Q2 : 3.52654606104e-05, Q3 : -0.00113033747766, Q4 : -0.00186277797911}
2019-04-14 17:11:46.71: SIM {TimeUS : 52734731, Roll : 0.02, Pitch : -0.14, Yaw : 359.78, Alt : 48.0, Lat : 49.2835703, Lng : -123.1150207, Q1 : 0.999997437, Q2 : 0.000226896561799, Q3 : -0.001244977233, Q4 : -0.00188658270054}
2019-04-14 17:11:46.81: SIM {TimeUS : 52834691, Roll : 0.05, Pitch : -0.13, Yaw : 359.78, Alt : 48.1399993896, Lat : 49.2835703, Lng : -123.1150207, Q1 : 0.999997377396, Q2 : 0.000445725338068, Q3 : -0.00117106060497, Q4 : -0.00191206415184}
2019-04-14 17:11:46.91: SIM {TimeUS : 52934651, Roll : 0.06, Pitch : -0.11, Yaw : 359.77, Alt : 48.2799987793, Lat : 49.2835703, Lng : -123.1150207, Q1 : 0.999997437, Q2 : 0.000596074387431, Q3 : -0.000966572726611, Q4 : -0.0019396704156}
2019-04-14 17:11:47.01: SIM {TimeUS : 53034611, Roll : 0.06, Pitch : -0.07, Yaw : 359.77, Alt : 48.4099998474, Lat : 49.2835703, Lng : -123.1150207, Q1 : 0.999997615814, Q2 : 0.000596862868406, Q3 : -0.000695476890542, Q4 : -0.00196862895973}
2019-04-14 17:11:47.11: SIM {TimeUS : 53134571, Roll : 0.06, Pitch : -0.05, Yaw : 359.77, Alt : 48.5200004578, Lat : 49.2835704, Lng : -123.1150207, Q1 : 0.999997675419, Q2 : 0.00059111288283, Q3 : -0.000496617984027, Q4 : -0.00199895212427}
2019-04-14 17:11:47.22: SIM {TimeUS : 53235364, Roll : 0.05, Pitch : -0.05, Yaw : 359.76, Alt : 48.6199989319, Lat : 49.2835704, Lng : -123.1150207, Q1 : 0.999997675419, Q2 : 0.00048193836119, Q3 : -0.00049463583855, Q4 : -0.00203143619001}
2019-04-14 17:11:47.31: SIM {TimeUS : 53335324, Roll : 0.02, Pitch : -0.05, Yaw : 359.76, Alt : 48.7099990845, Lat : 49.2835704, Lng : -123.1150207, Q1 : 0.999997735023, Q2 : 0.000248090858804, Q3 : -0.000492462015245, Q4 : -0.00206817523576}
2019-04-14 17:11:47.41: SIM {TimeUS : 53435284, Roll : 0.01, Pitch : -0.04, Yaw : 359.75, Alt : 48.7799987793, Lat : 49.2835704, Lng : -123.1150207, Q1 : 0.999997735023, Q2 : 0.000118587639008, Q3 : -0.000387687177863, Q4 : -0.00209912005812}
2019-04-14 17:11:47.51: SIM {TimeUS : 53535244, Roll : 0.0, Pitch : -0.03, Yaw : 359.75, Alt : 48.8499984741, Lat : 49.2835704, Lng : -123.1150207, Q1 : 0.999997675419, Q2 : 3.24476168316e-05, Q3 : -0.000293844670523, Q4 : -0.00212934124283}
2019-04-14 17:11:47.61: SIM {TimeUS : 53635204, Roll : 0.0, Pitch : -0.01, Yaw : 359.75, Alt : 48.9099998474, Lat : 49.2835704, Lng : -123.1150207, Q1 : 0.999997675419, Q2 : 3.18370507557e-06, Q3 : -9.38818993745e-05, Q4 : -0.00215990142897}
2019-04-14 17:11:47.71: SIM {TimeUS : 53735164, Roll : 0.02, Pitch : 0.02, Yaw : 359.74, Alt : 48.9599990845, Lat : 49.2835704, Lng : -123.1150207, Q1 : 0.99999755621, Q2 : 0.000197034343728, Q3 : 0.000196339024114, Q4 : -0.00218781107105}
2019-04-14 17:11:47.81: SIM {TimeUS : 53835124, Roll : 0.11, Pitch : 0.0, Yaw : 359.74, Alt : 49.0, Lat : 49.2835704, Lng : -123.1150207, Q1 : 0.999997079372, Q2 : 0.000965287385043, Q3 : 5.44374997844e-05, Q4 : -0.00221364898607}
2019-04-14 17:11:47.91: SIM {TimeUS : 53935084, Roll : 0.35, Pitch : -0.15, Yaw : 359.74, Alt : 49.0299987793, Lat : 49.2835704, Lng : -123.1150207, Q1 : 0.999991774559, Q2 : 0.00310629745945, Q3 : -0.00136156682856, Q4 : -0.00224090763368}
2019-04-14 17:11:48.01: SIM {TimeUS : 54035044, Roll : 0.8, Pitch : -0.48, Yaw : 359.73, Alt : 49.0600013733, Lat : 49.2835704, Lng : -123.1150207, Q1 : 0.999963998795, Q2 : 0.00700290407985, Q3 : -0.00422175507993, Q4 : -0.0022670167964}
2019-04-14 17:11:48.11: SIM {TimeUS : 54135004, Roll : 1.44, Pitch : -0.96, Yaw : 359.72, Alt : 49.0900001526, Lat : 49.2835704, Lng : -123.1150207, Q1 : 0.999882102013, Q2 : 0.0125974593684, Q3 : -0.00848087575287, Q4 : -0.00227358308621}
2019-04-14 17:11:48.21: SIM {TimeUS : 54234964, Roll : 2.23, Pitch : -1.56, Yaw : 359.71, Alt : 49.1100006104, Lat : 49.2835706, Lng : -123.1150206, Q1 : 0.999713778496, Q2 : 0.0194917749614, Q3 : -0.0136900069192, Q4 : -0.00224708905444}
2019-04-14 17:11:48.31: SIM {TimeUS : 54334924, Roll : 3.09, Pitch : -2.17, Yaw : 359.69, Alt : 49.1300010681, Lat : 49.2835706, Lng : -123.1150205, Q1 : 0.999453246593, Q2 : 0.026930147782, Q3 : -0.019059414044, Q4 : -0.00216693826951}
2019-04-14 17:11:48.41: SIM {TimeUS : 54434884, Roll : 3.86, Pitch : -2.72, Yaw : 359.67, Alt : 49.1500015259, Lat : 49.2835707, Lng : -123.1150203, Q1 : 0.999148368835, Q2 : 0.0336098074913, Q3 : -0.0238504242152, Q4 : -0.00203023664653}
2019-04-14 17:11:48.51: SIM {TimeUS : 54534844, Roll : 4.46, Pitch : -3.14, Yaw : 359.66, Alt : 49.1699981689, Lat : 49.2835708, Lng : -123.1150201, Q1 : 0.998864173889, Q2 : 0.0388220436871, Q3 : -0.0275661796331, Q4 : -0.00184309482574}
2019-04-14 17:11:48.61: SIM {TimeUS : 54634804, Roll : 4.88, Pitch : -3.44, Yaw : 359.66, Alt : 49.1800003052, Lat : 49.2835709, Lng : -123.1150199, Q1 : 0.998640716076, Q2 : 0.0425002798438, Q3 : -0.0301323533058, Q4 : -0.00161439902149}
2019-04-14 17:11:48.71: SIM {TimeUS : 54734764, Roll : 5.19, Pitch : -3.66, Yaw : 359.67, Alt : 49.1899986267, Lat : 49.2835712, Lng : -123.1150195, Q1 : 0.998462915421, Q2 : 0.0451683700085, Q3 : -0.032089471817, Q4 : -0.00136739946902}
2019-04-14 17:11:48.81: SIM {TimeUS : 54834724, Roll : 5.47, Pitch : -3.87, Yaw : 359.68, Alt : 49.2000007629, Lat : 49.2835714, Lng : -123.1150189, Q1 : 0.998289644718, Q2 : 0.0476092100143, Q3 : -0.0339112356305, Q4 : -0.00110942963511}
2019-04-14 17:11:48.91: SIM {TimeUS : 54934684, Roll : 5.78, Pitch : -4.08, Yaw : 359.69, Alt : 49.2099990845, Lat : 49.2835716, Lng : -123.1150183, Q1 : 0.998094320297, Q2 : 0.0503171682358, Q3 : -0.0357101857662, Q4 : -0.000841091445182}
2019-04-14 17:11:49.01: SIM {TimeUS : 55034644, Roll : 6.1, Pitch : -4.28, Yaw : 359.7, Alt : 49.2200012207, Lat : 49.283572, Lng : -123.1150175, Q1 : 0.997886538506, Q2 : 0.0530828125775, Q3 : -0.0374759994447, Q4 : -0.000573809316847}
2019-04-14 17:11:49.11: SIM {TimeUS : 55134604, Roll : 6.38, Pitch : -4.48, Yaw : 359.71, Alt : 49.2200012207, Lat : 49.2835724, Lng : -123.1150168, Q1 : 0.997684836388, Q2 : 0.0555850230157, Q3 : -0.0391811579466, Q4 : -0.000324166641803}
2019-04-14 17:11:49.21: SIM {TimeUS : 55234564, Roll : 6.6, Pitch : -4.64, Yaw : 359.72, Alt : 49.2299995422, Lat : 49.2835727, Lng : -123.115016, Q1 : 0.997523486614, Q2 : 0.0574532262981, Q3 : -0.0405720621347, Q4 : -9.99440817395e-05}
2019-04-14 17:11:49.32: SIM {TimeUS : 55335357, Roll : 6.76, Pitch : -4.75, Yaw : 359.72, Alt : 49.2400016785, Lat : 49.2835732, Lng : -123.115015, Q1 : 0.997403025627, Q2 : 0.0588510148227, Q3 : -0.0415184907615, Q4 : 9.02449464775e-05}
2019-04-14 17:11:49.41: SIM {TimeUS : 55435317, Roll : 6.87, Pitch : -4.81, Yaw : 359.73, Alt : 49.2400016785, Lat : 49.2835737, Lng : -123.1150139, Q1 : 0.997322201729, Q2 : 0.0598101243377, Q3 : -0.0420846529305, Q4 : 0.000238145454205}
2019-04-14 17:11:49.51: SIM {TimeUS : 55535277, Roll : 6.96, Pitch : -4.87, Yaw : 359.74, Alt : 49.25, Lat : 49.2835743, Lng : -123.1150127, Q1 : 0.99725073576, Q2 : 0.0606264211237, Q3 : -0.0426073744893, Q4 : 0.000342594430549}
2019-04-14 17:11:49.61: SIM {TimeUS : 55635237, Roll : 7.11, Pitch : -4.94, Yaw : 359.74, Alt : 49.25, Lat : 49.2835747, Lng : -123.1150115, Q1 : 0.99714589119, Q2 : 0.0618988238275, Q3 : -0.0432252250612, Q4 : 0.000441569340182}
2019-04-14 17:11:49.71: SIM {TimeUS : 55735197, Roll : 7.46, Pitch : -4.9, Yaw : 359.91, Alt : 49.25, Lat : 49.2835753, Lng : -123.1150101, Q1 : 0.996968984604, Q2 : 0.0649992153049, Q3 : -0.0427069887519, Q4 : 0.00201506586745}
2019-04-14 17:11:49.81: SIM {TimeUS : 55835157, Roll : 8.04, Pitch : -4.7, Yaw : 0.81, Alt : 49.2599983215, Lat : 49.2835761, Lng : -123.1150087, Q1 : 0.996651172638, Q2 : 0.0703791305423, Q3 : -0.0404213815928, Q4 : 0.00996503420174}
2019-04-14 17:11:49.91: SIM {TimeUS : 55935117, Roll : 8.67, Pitch : -4.64, Yaw : 3.09, Alt : 49.2599983215, Lat : 49.2835768, Lng : -123.1150072, Q1 : 0.995873868465, Q2 : 0.0766170173883, Q3 : -0.0383286885917, Q4 : 0.029932577163}
2019-04-14 17:11:50.01: SIM {TimeUS : 56035077, Roll : 9.08, Pitch : -5.02, Yaw : 6.95, Alt : 49.2599983215, Lat : 49.2835775, Lng : -123.1150055, Q1 : 0.993859708309, Q2 : 0.081593349576, Q3 : -0.0388102456927, Q4 : 0.0638688951731}
2019-04-14 17:11:50.11: SIM {TimeUS : 56135037, Roll : 9.05, Pitch : -5.94, Yaw : 12.28, Alt : 49.2599983215, Lat : 49.2835782, Lng : -123.1150038, Q1 : 0.98939037323, Q2 : 0.0839032530785, Q3 : -0.042949218303, Q4 : 0.110554635525}
2019-04-14 17:11:50.21: SIM {TimeUS : 56234997, Roll : 8.45, Pitch : -7.31, Yaw : 18.83, Alt : 49.2599983215, Lat : 49.2835788, Lng : -123.1150019, Q1 : 0.981064021587, Q2 : 0.0830013900995, Q3 : -0.0506918691099, Q4 : 0.167494818568}
2019-04-14 17:11:50.31: SIM {TimeUS : 56334957, Roll : 7.23, Pitch : -8.92, Yaw : 26.37, Alt : 49.2700004578, Lat : 49.2835795, Lng : -123.1149999, Q1 : 0.96762919426, Q2 : 0.0789950042963, Q3 : -0.061220638454, Q4 : 0.231744647026}
2019-04-14 17:11:50.41: SIM {TimeUS : 56434917, Roll : 5.44, Pitch : -10.52, Yaw : 34.63, Alt : 49.2700004578, Lat : 49.2835804, Lng : -123.1149978, Q1 : 0.948270857334, Q2 : 0.0724575072527, Q3 : -0.0733446478844, Q4 : 0.300254672766}
2019-04-14 17:11:50.51: SIM {TimeUS : 56534877, Roll : 3.12, Pitch : -11.89, Yaw : 43.34, Alt : 49.2700004578, Lat : 49.2835812, Lng : -123.1149956, Q1 : 0.922901034355, Q2 : 0.0635002180934, Q3 : -0.0862333923578, Q4 : 0.36984488368}
2019-04-14 17:11:50.61: SIM {TimeUS : 56634837, Roll : 0.17, Pitch : -12.82, Yaw : 51.95, Alt : 49.2700004578, Lat : 49.2835819, Lng : -123.1149933, Q1 : 0.893265902996, Q2 : 0.050307162106, Q3 : -0.0997680649161, Q4 : 0.435421168804}
2019-04-14 17:11:50.71: SIM {TimeUS : 56734797, Roll : -3.01, Pitch : -13.19, Yaw : 59.55, Alt : 49.2700004578, Lat : 49.283583, Lng : -123.1149908, Q1 : 0.863416790962, Q2 : 0.0343768298626, Q3 : -0.112650588155, Q4 : 0.490550220013}
2019-04-14 17:11:50.81: SIM {TimeUS : 56834757, Roll : -5.78, Pitch : -13.1, Yaw : 65.38, Alt : 49.2700004578, Lat : 49.2835838, Lng : -123.1149884, Q1 : 0.838106036186, Q2 : 0.0193965733051, Q3 : -0.122968897223, Q4 : 0.531112730503}
2019-04-14 17:11:50.91: SIM {TimeUS : 56934717, Roll : -7.63, Pitch : -12.8, Yaw : 69.12, Alt : 49.2700004578, Lat : 49.2835849, Lng : -123.1149858, Q1 : 0.820759296417, Q2 : 0.00863532256335, Q3 : -0.129209369421, Q4 : 0.5564032197}
2019-04-14 17:11:51.01: SIM {TimeUS : 57034677, Roll : -8.4, Pitch : -12.57, Yaw : 70.85, Alt : 49.2700004578, Lat : 49.2835861, Lng : -123.1149832, Q1 : 0.812402784824, Q2 : 0.0039568557404, Q3 : -0.131253629923, Q4 : 0.568118453026}
2019-04-14 17:11:51.11: SIM {TimeUS : 57134637, Roll : -8.18, Pitch : -12.58, Yaw : 70.89, Alt : 49.2700004578, Lat : 49.2835874, Lng : -123.1149806, Q1 : 0.812195301056, Q2 : 0.00566151086241, Q3 : -0.130191639066, Q4 : 0.568644821644}
2019-04-14 17:11:51.21: SIM {TimeUS : 57234597, Roll : -7.18, Pitch : -12.88, Yaw : 69.61, Alt : 49.2700004578, Lat : 49.283589, Lng : -123.1149779, Q1 : 0.818315923214, Q2 : 0.0128103513271, Q3 : -0.127479344606, Q4 : 0.560307085514}
2019-04-14 17:11:51.31: SIM {TimeUS : 57334557, Roll : -5.65, Pitch : -13.43, Yaw : 67.35, Alt : 49.2700004578, Lat : 49.2835903, Lng : -123.1149751, Q1 : 0.828647792339, Q2 : 0.0240594707429, Q3 : -0.124380670488, Q4 : 0.545246183872}
2019-04-14 17:11:51.42: SIM {TimeUS : 57435350, Roll : -3.81, Pitch : -14.15, Yaw : 64.43, Alt : 49.2799987793, Lat : 49.283592, Lng : -123.1149723, Q1 : 0.841315805912, Q2 : 0.0377447679639, Q3 : -0.121794879436, Q4 : 0.525289535522}
2019-04-14 17:11:51.51: SIM {TimeUS : 57535310, Roll : -1.88, Pitch : -14.86, Yaw : 61.19, Alt : 49.2799987793, Lat : 49.2835935, Lng : -123.1149694, Q1 : 0.854486584663, Q2 : 0.0517842657864, Q3 : -0.119675047696, Q4 : 0.502840816975}
2019-04-14 17:11:51.61: SIM {TimeUS : 57635270, Roll : -0.05, Pitch : -15.43, Yaw : 57.95, Alt : 49.2799987793, Lat : 49.2835952, Lng : -123.1149664, Q1 : 0.866938531399, Q2 : 0.0646270364523, Q3 : -0.117711380124, Q4 : 0.47998431325}
2019-04-14 17:11:51.71: SIM {TimeUS : 57735230, Roll : 1.52, Pitch : -15.77, Yaw : 55.02, Alt : 49.2799987793, Lat : 49.2835969, Lng : -123.1149633, Q1 : 0.877602398396, Q2 : 0.0750862360001, Q3 : -0.115598201752, Q4 : 0.459143936634}
2019-04-14 17:11:51.81: SIM {TimeUS : 57835190, Roll : 2.73, Pitch : -15.89, Yaw : 52.69, Alt : 49.2799987793, Lat : 49.2835986, Lng : -123.11496, Q1 : 0.885790765285, Q2 : 0.0825438722968, Q3 : -0.113370150328, Q4 : 0.442389428616}
2019-04-14 17:11:51.91: SIM {TimeUS : 57935150, Roll : 3.48, Pitch : -15.88, Yaw : 51.12, Alt : 49.2799987793, Lat : 49.2836001, Lng : -123.1149567, Q1 : 0.891218662262, Q2 : 0.0868043676019, Q3 : -0.111587628722, Q4 : 0.430978566408}
2019-04-14 17:11:52.01: SIM {TimeUS : 58035110, Roll : 3.75, Pitch : -15.83, Yaw : 50.36, Alt : 49.2799987793, Lat : 49.2836019, Lng : -123.1149531, Q1 : 0.893926382065, Q2 : 0.0879389494658, Q3 : -0.110765792429, Q4 : 0.425315588713}
2019-04-14 17:11:52.11: SIM {TimeUS : 58135070, Roll : 3.56, Pitch : -15.81, Yaw : 50.35, Alt : 49.2799987793, Lat : 49.2836036, Lng : -123.1149496, Q1 : 0.894149541855, Q2 : 0.0863499641418, Q3 : -0.111336454749, Q4 : 0.425022900105}
2019-04-14 17:11:52.21: SIM {TimeUS : 58235030, Roll : 3.01, Pitch : -15.83, Yaw : 50.95, Alt : 49.2799987793, Lat : 49.2836053, Lng : -123.1149458, Q1 : 0.89227026701, Q2 : 0.0827355906367, Q3 : -0.113113850355, Q4 : 0.429201334715}
2019-04-14 17:11:52.31: SIM {TimeUS : 58334990, Roll : 2.23, Pitch : -15.9, Yaw : 52.01, Alt : 49.2799987793, Lat : 49.2836069, Lng : -123.114942, Q1 : 0.88874655962, Q2 : 0.078064315021, Q3 : -0.115871332586, Q4 : 0.436588346958}
2019-04-14 17:11:52.41: SIM {TimeUS : 58434950, Roll : 1.34, Pitch : -16.02, Yaw : 53.32, Alt : 49.2799987793, Lat : 49.2836086, Lng : -123.1149381, Q1 : 0.884162843227, Q2 : 0.0729065164924, Q3 : -0.119376577437, Q4 : 0.445746541023}
2019-04-14 17:11:52.51: SIM {TimeUS : 58534910, Roll : 0.46, Pitch : -16.16, Yaw : 54.7, Alt : 49.2799987793, Lat : 49.2836104, Lng : -123.1149341, Q1 : 0.879120647907, Q2 : 0.0681283473969, Q3 : -0.12304341048, Q4 : 0.455374330282}
2019-04-14 17:11:52.61: SIM {TimeUS : 58634870, Roll : -0.29, Pitch : -16.27, Yaw : 55.99, Alt : 49.2799987793, Lat : 49.2836122, Lng : -123.1149301, Q1 : 0.874261677265, Q2 : 0.0641784518957, Q3 : -0.126140445471, Q4 : 0.464366525412}
2019-04-14 17:11:52.71: SIM {TimeUS : 58734830, Roll : -0.88, Pitch : -16.33, Yaw : 57.06, Alt : 49.2900009155, Lat : 49.283614, Lng : -123.114926, Q1 : 0.870125830173, Q2 : 0.0611672215164, Q3 : -0.128459066153, Q4 : 0.471845149994}
2019-04-14 17:11:52.81: SIM {TimeUS : 58834790, Roll : -1.28, Pitch : -16.38, Yaw : 57.84, Alt : 49.2900009155, Lat : 49.2836158, Lng : -123.1149218, Q1 : 0.867068529129, Q2 : 0.0591872148216, Q3 : -0.13010276854, Q4 : 0.477244526148}
2019-04-14 17:11:52.91: SIM {TimeUS : 58934750, Roll : -1.49, Pitch : -16.42, Yaw : 58.28, Alt : 49.2900009155, Lat : 49.2836177, Lng : -123.1149176, Q1 : 0.865273058414, Q2 : 0.0583328492939, Q3 : -0.131051331758, Q4 : 0.480338811874}
2019-04-14 17:11:53.01: SIM {TimeUS : 59034710, Roll : -1.5, Pitch : -16.48, Yaw : 58.4, Alt : 49.2900009155, Lat : 49.2836195, Lng : -123.1149133, Q1 : 0.864717185497, Q2 : 0.0586001984775, Q3 : -0.131456136703, Q4 : 0.481195956469}
2019-04-14 17:11:53.11: SIM {TimeUS : 59134670, Roll : -1.35, Pitch : -16.52, Yaw : 58.24, Alt : 49.2900009155, Lat : 49.2836214, Lng : -123.114909, Q1 : 0.865268945694, Q2 : 0.0597266592085, Q3 : -0.131252661347, Q4 : 0.480119943619}
2019-04-14 17:11:53.21: SIM {TimeUS : 59234630, Roll : -1.07, Pitch : -16.57, Yaw : 57.86, Alt : 49.2900009155, Lat : 49.2836235, Lng : -123.1149047, Q1 : 0.866649508476, Q2 : 0.0616171061993, Q3 : -0.130596026778, Q4 : 0.477563232183}
2019-04-14 17:11:53.31: SIM {TimeUS : 59334590, Roll : -0.71, Pitch : -16.61, Yaw : 57.35, Alt : 49.2900009155, Lat : 49.2836255, Lng : -123.1149002, Q1 : 0.868549644947, Q2 : 0.0639429017901, Q3 : -0.129697144032, Q4 : 0.474037408829}
2019-04-14 17:11:53.41: SIM {TimeUS : 59434550, Roll : -0.32, Pitch : -16.65, Yaw : 56.77, Alt : 49.2900009155, Lat : 49.2836274, Lng : -123.1148959, Q1 : 0.870662629604, Q2 : 0.06636210531, Q3 : -0.128755196929, Q4 : 0.470068871975}
2019-04-14 17:11:53.52: SIM {TimeUS : 59535343, Roll : 0.03, Pitch : -16.69, Yaw : 56.2, Alt : 49.2900009155, Lat : 49.2836294, Lng : -123.1148914, Q1 : 0.87272721529, Q2 : 0.0686693713069, Q3 : -0.127907574177, Q4 : 0.466123849154}
2019-04-14 17:11:53.61: SIM {TimeUS : 59635303, Roll : 0.33, Pitch : -16.72, Yaw : 55.71, Alt : 49.2900009155, Lat : 49.2836315, Lng : -123.1148868, Q1 : 0.87450915575, Q2 : 0.0705607011914, Q3 : -0.127249076962, Q4 : 0.462669044733}
2019-04-14 17:11:53.71: SIM {TimeUS : 59735263, Roll : 0.54, Pitch : -16.75, Yaw : 55.32, Alt : 49.2900009155, Lat : 49.2836335, Lng : -123.1148824, Q1 : 0.875891089439, Q2 : 0.071856379509, Q3 : -0.126866519451, Q4 : 0.459952563047}
2019-04-14 17:11:53.81: SIM {TimeUS : 59835223, Roll : 0.66, Pitch : -16.78, Yaw : 55.07, Alt : 49.2900009155, Lat : 49.2836355, Lng : -123.1148777, Q1 : 0.876802921295, Q2 : 0.0725547000766, Q3 : -0.126782044768, Q4 : 0.458125352859}
2019-04-14 17:11:53.91: SIM {TimeUS : 59935183, Roll : 0.68, Pitch : -16.82, Yaw : 54.95, Alt : 49.2900009155, Lat : 49.2836377, Lng : -123.1148732, Q1 : 0.877220451832, Q2 : 0.0727428942919, Q3 : -0.127062022686, Q4 : 0.457217633724}
2019-04-14 17:11:54.01: SIM {TimeUS : 60035143, Roll : 0.63, Pitch : -16.86, Yaw : 54.95, Alt : 49.2900009155, Lat : 49.2836397, Lng : -123.1148685, Q1 : 0.877196311951, Q2 : 0.0725222453475, Q3 : -0.127593666315, Q4 : 0.457150995731}
2019-04-14 17:11:54.11: SIM {TimeUS : 60135103, Roll : 0.5, Pitch : -16.9, Yaw : 55.05, Alt : 49.2900009155, Lat : 49.2836419, Lng : -123.1148638, Q1 : 0.876831114292, Q2 : 0.0718301683664, Q3 : -0.128345295787, Q4 : 0.457750082016}
2019-04-14 17:11:54.21: SIM {TimeUS : 60235063, Roll : 0.33, Pitch : -16.93, Yaw : 55.22, Alt : 49.2999992371, Lat : 49.2836439, Lng : -123.114859, Q1 : 0.876226663589, Q2 : 0.0708396881819, Q3 : -0.129146695137, Q4 : 0.458835124969}
2019-04-14 17:11:54.31: SIM {TimeUS : 60335023, Roll : 0.15, Pitch : -16.96, Yaw : 55.43, Alt : 49.2999992371, Lat : 49.283646, Lng : -123.1148542, Q1 : 0.875486791134, Q2 : 0.069766715169, Q3 : -0.129990845919, Q4 : 0.460171610117}
2019-04-14 17:11:54.41: SIM {TimeUS : 60434983, Roll : 0.0, Pitch : -17.0, Yaw : 55.64, Alt : 49.2999992371, Lat : 49.2836481, Lng : -123.1148494, Q1 : 0.87469047308, Q2 : 0.0690081939101, Q3 : -0.130765616894, Q4 : 0.461578637362}
2019-04-14 17:11:54.51: SIM {TimeUS : 60534943, Roll : -0.11, Pitch : -17.05, Yaw : 55.82, Alt : 49.2999992371, Lat : 49.2836503, Lng : -123.1148446, Q1 : 0.873950302601, Q2 : 0.0684967339039, Q3 : -0.131493255496, Q4 : 0.462848395109}
2019-04-14 17:11:54.61: SIM {TimeUS : 60634903, Roll : -0.19, Pitch : -17.09, Yaw : 55.97, Alt : 49.2999992371, Lat : 49.2836524, Lng : -123.1148397, Q1 : 0.873346924782, Q2 : 0.0682743489742, Q3 : -0.132065072656, Q4 : 0.463856220245}
2019-04-14 17:11:54.71: SIM {TimeUS : 60734863, Roll : -0.22, Pitch : -17.14, Yaw : 56.07, Alt : 49.2999992371, Lat : 49.2836546, Lng : -123.1148348, Q1 : 0.872933149338, Q2 : 0.0683640316129, Q3 : -0.132448017597, Q4 : 0.464512318373}
2019-04-14 17:11:54.81: SIM {TimeUS : 60834823, Roll : -0.22, Pitch : -17.17, Yaw : 56.11, Alt : 49.2999992371, Lat : 49.2836566, Lng : -123.1148299, Q1 : 0.872736871243, Q2 : 0.0685168132186, Q3 : -0.132684662938, Q4 : 0.464790940285}
2019-04-14 17:11:54.91: SIM {TimeUS : 60934783, Roll : -0.21, Pitch : -17.18, Yaw : 56.09, Alt : 49.2999992371, Lat : 49.2836589, Lng : -123.114825, Q1 : 0.872768104076, Q2 : 0.0686160475016, Q3 : -0.132768601179, Q4 : 0.464693635702}
2019-04-14 17:11:55.01: SIM {TimeUS : 61034743, Roll : -0.19, Pitch : -17.2, Yaw : 56.03, Alt : 49.2999992371, Lat : 49.283661, Lng : -123.1148201, Q1 : 0.872973561287, Q2 : 0.068783223629, Q3 : -0.132824927568, Q4 : 0.464266717434}
2019-04-14 17:11:55.11: SIM {TimeUS : 61134703, Roll : -0.13, Pitch : -17.21, Yaw : 55.94, Alt : 49.3100013733, Lat : 49.2836633, Lng : -123.1148151, Q1 : 0.873293876648, Q2 : 0.0691419020295, Q3 : -0.132745087147, Q4 : 0.463633418083}
2019-04-14 17:11:55.21: SIM {TimeUS : 61234663, Roll : -0.06, Pitch : -17.23, Yaw : 55.83, Alt : 49.3100013733, Lat : 49.2836655, Lng : -123.1148101, Q1 : 0.873673081398, Q2 : 0.0696512833238, Q3 : -0.13265556097, Q4 : 0.462867766619}
2019-04-14 17:11:55.31: SIM {TimeUS : 61334623, Roll : 0.02, Pitch : -17.26, Yaw : 55.72, Alt : 49.3100013733, Lat : 49.2836677, Lng : -123.1148051, Q1 : 0.874043464661, Q2 : 0.070380397141, Q3 : -0.132609635592, Q4 : 0.462070703506}
2019-04-14 17:11:55.41: SIM {TimeUS : 61434583, Roll : 0.11, Pitch : -17.32, Yaw : 55.61, Alt : 49.3100013733, Lat : 49.28367, Lng : -123.1148001, Q1 : 0.874375343323, Q2 : 0.0711088404059, Q3 : -0.132727205753, Q4 : 0.461296856403}
2019-04-14 17:11:55.51: SIM {TimeUS : 61534543, Roll : 0.16, Pitch : -17.35, Yaw : 55.51, Alt : 49.3100013733, Lat : 49.2836722, Lng : -123.114795, Q1 : 0.874683201313, Q2 : 0.0715305060148, Q3 : -0.132809862494, Q4 : 0.460623711348}
2019-04-14 17:11:55.62: SIM {TimeUS : 61635336, Roll : 0.19, Pitch : -17.35, Yaw : 55.44, Alt : 49.3100013733, Lat : 49.2836744, Lng : -123.1147899, Q1 : 0.874950349331, Q2 : 0.0717032551765, Q3 : -0.132748827338, Q4 : 0.460106819868}
2019-04-14 17:11:55.71: SIM {TimeUS : 61735296, Roll : 0.2, Pitch : -17.36, Yaw : 55.39, Alt : 49.3100013733, Lat : 49.2836767, Lng : -123.1147848, Q1 : 0.875131607056, Q2 : 0.0717333257198, Q3 : -0.132806628942, Q4 : 0.459740549326}
2019-04-14 17:11:55.81: SIM {TimeUS : 61835256, Roll : 0.19, Pitch : -17.38, Yaw : 55.37, Alt : 49.3100013733, Lat : 49.283679, Lng : -123.1147797, Q1 : 0.87521225214, Q2 : 0.0717387497425, Q3 : -0.133070737123, Q4 : 0.459509909153}
2019-04-14 17:11:55.91: SIM {TimeUS : 61935216, Roll : 0.19, Pitch : -17.41, Yaw : 55.36, Alt : 49.3100013733, Lat : 49.2836813, Lng : -123.1147746, Q1 : 0.875210642815, Q2 : 0.0717983618379, Q3 : -0.133320391178, Q4 : 0.459431171417}
2019-04-14 17:11:56.01: SIM {TimeUS : 62035176, Roll : 0.17, Pitch : -17.45, Yaw : 55.37, Alt : 49.3100013733, Lat : 49.2836835, Lng : -123.1147695, Q1 : 0.875146627426, Q2 : 0.0718604698777, Q3 : -0.133658930659, Q4 : 0.459445118904}
2019-04-14 17:11:56.11: SIM {TimeUS : 62135136, Roll : 0.15, Pitch : -17.48, Yaw : 55.38, Alt : 49.3100013733, Lat : 49.2836858, Lng : -123.1147643, Q1 : 0.875066816807, Q2 : 0.0717926472425, Q3 : -0.133963301778, Q4 : 0.459518998861}
2019-04-14 17:11:56.21: SIM {TimeUS : 62235096, Roll : 0.13, Pitch : -17.51, Yaw : 55.4, Alt : 49.3100013733, Lat : 49.2836881, Lng : -123.1147592, Q1 : 0.874971866608, Q2 : 0.0717752948403, Q3 : -0.134234905243, Q4 : 0.459623277187}
2019-04-14 17:11:56.31: SIM {TimeUS : 62335056, Roll : 0.11, Pitch : -17.52, Yaw : 55.42, Alt : 49.3199996948, Lat : 49.2836904, Lng : -123.114754, Q1 : 0.874894022942, Q2 : 0.0717018693686, Q3 : -0.134420067072, Q4 : 0.459728807211}
2019-04-14 17:11:56.41: SIM {TimeUS : 62435016, Roll : 0.1, Pitch : -17.53, Yaw : 55.43, Alt : 49.3199996948, Lat : 49.2836926, Lng : -123.1147488, Q1 : 0.874823570251, Q2 : 0.0717327669263, Q3 : -0.134535074234, Q4 : 0.459824383259}
2019-04-14 17:11:56.51: SIM {TimeUS : 62534976, Roll : 0.11, Pitch : -17.55, Yaw : 55.44, Alt : 49.3199996948, Lat : 49.2836949, Lng : -123.1147436, Q1 : 0.874767482281, Q2 : 0.0718566328287, Q3 : -0.134623646736, Q4 : 0.459885805845}
2019-04-14 17:11:56.61: SIM {TimeUS : 62634936, Roll : 0.11, Pitch : -17.58, Yaw : 55.44, Alt : 49.3199996948, Lat : 49.2836973, Lng : -123.1147384, Q1 : 0.874735176563, Q2 : 0.0719576328993, Q3 : -0.134860992432, Q4 : 0.459861904383}
2019-04-14 17:11:56.71: SIM {TimeUS : 62734896, Roll : 0.08, Pitch : -17.62, Yaw : 55.43, Alt : 49.3199996948, Lat : 49.2836997, Lng : -123.1147332, Q1 : 0.874733030796, Q2 : 0.0719110965729, Q3 : -0.135291039944, Q4 : 0.459746986628}
2019-04-14 17:11:56.81: SIM {TimeUS : 62834856, Roll : 0.06, Pitch : -17.67, Yaw : 55.42, Alt : 49.3199996948, Lat : 49.283702, Lng : -123.1147279, Q1 : 0.874751031399, Q2 : 0.0719105675817, Q3 : -0.135738790035, Q4 : 0.459580808878}
2019-04-14 17:11:56.91: SIM {TimeUS : 62934816, Roll : 0.07, Pitch : -17.7, Yaw : 55.4, Alt : 49.3199996948, Lat : 49.2837042, Lng : -123.1147227, Q1 : 0.874788761139, Q2 : 0.0720983073115, Q3 : -0.135970965028, Q4 : 0.459410995245}
2019-04-14 17:11:57.01: SIM {TimeUS : 63034776, Roll : 0.1, Pitch : -17.71, Yaw : 55.37, Alt : 49.3199996948, Lat : 49.2837065, Lng : -123.1147174, Q1 : 0.874869942665, Q2 : 0.072323590517, Q3 : -0.135894075036, Q4 : 0.459243714809}
2019-04-14 17:11:57.11: SIM {TimeUS : 63134736, Roll : 0.13, Pitch : -17.68, Yaw : 55.34, Alt : 49.3199996948, Lat : 49.2837089, Lng : -123.1147121, Q1 : 0.874990582466, Q2 : 0.0724666118622, Q3 : -0.13561168313, Q4 : 0.459074676037}
2019-04-14 17:11:57.21: SIM {TimeUS : 63234696, Roll : 0.15, Pitch : -17.67, Yaw : 55.31, Alt : 49.3199996948, Lat : 49.2837113, Lng : -123.1147068, Q1 : 0.875118434429, Q2 : 0.0724550932646, Q3 : -0.135434448719, Q4 : 0.458885073662}
2019-04-14 17:11:57.31: SIM {TimeUS : 63334656, Roll : 0.15, Pitch : -17.65, Yaw : 55.29, Alt : 49.3199996948, Lat : 49.2837137, Lng : -123.1147015, Q1 : 0.875244796276, Q2 : 0.0723888725042, Q3 : -0.135315716267, Q4 : 0.458689510822}
2019-04-14 17:11:57.41: SIM {TimeUS : 63434616, Roll : 0.15, Pitch : -17.64, Yaw : 55.26, Alt : 49.3199996948, Lat : 49.283716, Lng : -123.1146962, Q1 : 0.8753657341, Q2 : 0.072291649878, Q3 : -0.135238036513, Q4 : 0.458496958017}
2019-04-14 17:11:57.51: SIM {TimeUS : 63534576, Roll : 0.14, Pitch : -17.65, Yaw : 55.24, Alt : 49.3199996948, Lat : 49.2837184, Lng : -123.1146909, Q1 : 0.875448405743, Q2 : 0.0722549557686, Q3 : -0.135396957397, Q4 : 0.458297938108}
2019-04-14 17:11:57.61: SIM {TimeUS : 63634536, Roll : 0.13, Pitch : -17.68, Yaw : 55.22, Alt : 49.3199996948, Lat : 49.2837208, Lng : -123.1146856, Q1 : 0.875496864319, Q2 : 0.0723109990358, Q3 : -0.135693356395, Q4 : 0.458108782768}
2019-04-14 17:11:57.71: SIM {TimeUS : 63735329, Roll : 0.12, Pitch : -17.74, Yaw : 55.2, Alt : 49.3199996948, Lat : 49.2837232, Lng : -123.1146802, Q1 : 0.875505924225, Q2 : 0.0724279806018, Q3 : -0.136135563254, Q4 : 0.457941830158}
2019-04-14 17:11:57.81: SIM {TimeUS : 63835289, Roll : 0.12, Pitch : -17.79, Yaw : 55.19, Alt : 49.3300018311, Lat : 49.2837254, Lng : -123.1146748, Q1 : 0.875494778156, Q2 : 0.0726187899709, Q3 : -0.136576205492, Q4 : 0.457801640034}
2019-04-14 17:11:57.91: SIM {TimeUS : 63935249, Roll : 0.13, Pitch : -17.82, Yaw : 55.18, Alt : 49.3300018311, Lat : 49.2837278, Lng : -123.1146695, Q1 : 0.875496327877, Q2 : 0.0727923735976, Q3 : -0.136777505279, Q4 : 0.457710981369}
2019-04-14 17:11:58.01: SIM {TimeUS : 64035209, Roll : 0.13, Pitch : -17.85, Yaw : 55.17, Alt : 49.3300018311, Lat : 49.2837302, Lng : -123.1146641, Q1 : 0.875505208969, Q2 : 0.0728633627295, Q3 : -0.137002259493, Q4 : 0.457615494728}
2019-04-14 17:11:58.11: SIM {TimeUS : 64135169, Roll : 0.12, Pitch : -17.87, Yaw : 55.16, Alt : 49.3300018311, Lat : 49.2837326, Lng : -123.1146587, Q1 : 0.875525712967, Q2 : 0.0728668048978, Q3 : -0.137174472213, Q4 : 0.45752415061}
2019-04-14 17:11:58.21: SIM {TimeUS : 64235129, Roll : 0.13, Pitch : -17.86, Yaw : 55.15, Alt : 49.3300018311, Lat : 49.2837351, Lng : -123.1146534, Q1 : 0.875564277172, Q2 : 0.0729260966182, Q3 : -0.137051194906, Q4 : 0.457477837801}
2019-04-14 17:11:58.31: SIM {TimeUS : 64335089, Roll : 0.16, Pitch : -17.86, Yaw : 55.14, Alt : 49.3300018311, Lat : 49.2837375, Lng : -123.114648, Q1 : 0.875582158566, Q2 : 0.0730999112129, Q3 : -0.136994808912, Q4 : 0.45743277669}
2019-04-14 17:11:58.41: SIM {TimeUS : 64435049, Roll : 0.17, Pitch : -17.88, Yaw : 55.13, Alt : 49.3300018311, Lat : 49.2837399, Lng : -123.1146426, Q1 : 0.875590622425, Q2 : 0.0732437074184, Q3 : -0.137092426419, Q4 : 0.457364350557}
2019-04-14 17:11:58.51: SIM {TimeUS : 64535009, Roll : 0.18, Pitch : -17.89, Yaw : 55.12, Alt : 49.3300018311, Lat : 49.2837423, Lng : -123.1146372, Q1 : 0.875601708889, Q2 : 0.0733779445291, Q3 : -0.137163951993, Q4 : 0.45730009675}
2019-04-14 17:11:58.61: SIM {TimeUS : 64634969, Roll : 0.19, Pitch : -17.89, Yaw : 55.11, Alt : 49.3300018311, Lat : 49.2837447, Lng : -123.1146318, Q1 : 0.875635206699, Q2 : 0.0734496712685, Q3 : -0.137120813131, Q4 : 0.457237392664}
2019-04-14 17:11:58.71: SIM {TimeUS : 64734929, Roll : 0.19, Pitch : -17.9, Yaw : 55.1, Alt : 49.3300018311, Lat : 49.2837471, Lng : -123.1146264, Q1 : 0.875673472881, Q2 : 0.0734640136361, Q3 : -0.137154996395, Q4 : 0.457151561975}
2019-04-14 17:11:58.81: SIM {TimeUS : 64834889, Roll : 0.17, Pitch : -17.92, Yaw : 55.09, Alt : 49.3300018311, Lat : 49.2837495, Lng : -123.114621, Q1 : 0.875709414482, Q2 : 0.0733647048473, Q3 : -0.137399494648, Q4 : 0.457025140524}
2019-04-14 17:11:58.91: SIM {TimeUS : 64934849, Roll : 0.14, Pitch : -17.95, Yaw : 55.07, Alt : 49.3300018311, Lat : 49.2837519, Lng : -123.1146155, Q1 : 0.875732600689, Q2 : 0.0732431560755, Q3 : -0.137840256095, Q4 : 0.456867545843}
2019-04-14 17:11:59.01: SIM {TimeUS : 65034809, Roll : 0.12, Pitch : -17.96, Yaw : 55.06, Alt : 49.3300018311, Lat : 49.2837543, Lng : -123.1146101, Q1 : 0.875780820847, Q2 : 0.0731399133801, Q3 : -0.13797929883, Q4 : 0.456749618053}
2019-04-14 17:11:59.11: SIM {TimeUS : 65134769, Roll : 0.13, Pitch : -17.95, Yaw : 55.05, Alt : 49.3300018311, Lat : 49.2837568, Lng : -123.1146046, Q1 : 0.875836491585, Q2 : 0.07313606143, Q3 : -0.137873008847, Q4 : 0.456675589085}
2019-04-14 17:11:59.21: SIM {TimeUS : 65234729, Roll : 0.15, Pitch : -17.94, Yaw : 55.04, Alt : 49.3300018311, Lat : 49.2837592, Lng : -123.1145992, Q1 : 0.875884890556, Q2 : 0.0732241123915, Q3 : -0.137711286545, Q4 : 0.456617504358}
2019-04-14 17:11:59.31: SIM {TimeUS : 65334689, Roll : 0.16, Pitch : -17.95, Yaw : 55.03, Alt : 49.3300018311, Lat : 49.2837616, Lng : -123.1145937, Q1 : 0.875911295414, Q2 : 0.0733643621206, Q3 : -0.137740820646, Q4 : 0.45653539896}
2019-04-14 17:11:59.41: SIM {TimeUS : 65434649, Roll : 0.15, Pitch : -17.97, Yaw : 55.02, Alt : 49.3400001526, Lat : 49.283764, Lng : -123.1145883, Q1 : 0.875931441784, Q2 : 0.0733854025602, Q3 : -0.137962386012, Q4 : 0.456426441669}
2019-04-14 17:11:59.51: SIM {TimeUS : 65534609, Roll : 0.13, Pitch : -18.0, Yaw : 55.01, Alt : 49.3400001526, Lat : 49.2837665, Lng : -123.1145828, Q1 : 0.8759573102, Q2 : 0.0732932090759, Q3 : -0.138253301382, Q4 : 0.456303536892}
2019-04-14 17:11:59.61: SIM {TimeUS : 65634569, Roll : 0.12, Pitch : -18.02, Yaw : 54.99, Alt : 49.3400001526, Lat : 49.2837689, Lng : -123.1145773, Q1 : 0.875986158848, Q2 : 0.0732607915998, Q3 : -0.138458460569, Q4 : 0.456191211939}
2019-04-14 17:11:59.72: SIM {TimeUS : 65735362, Roll : 0.12, Pitch : -18.04, Yaw : 54.98, Alt : 49.3400001526, Lat : 49.2837714, Lng : -123.1145718, Q1 : 0.876010596752, Q2 : 0.0733463987708, Q3 : -0.138584300876, Q4 : 0.456092298031}
2019-04-14 17:11:59.81: SIM {TimeUS : 65835322, Roll : 0.13, Pitch : -18.05, Yaw : 54.97, Alt : 49.3400001526, Lat : 49.2837738, Lng : -123.1145664, Q1 : 0.876034557819, Q2 : 0.0734645053744, Q3 : -0.13864518702, Q4 : 0.456008732319}
2019-04-14 17:11:59.91: SIM {TimeUS : 65935282, Roll : 0.16, Pitch : -18.05, Yaw : 54.96, Alt : 49.3400001526, Lat : 49.2837763, Lng : -123.1145609, Q1 : 0.876055121422, Q2 : 0.0736650526524, Q3 : -0.138596400619, Q4 : 0.455951631069}
2019-04-14 17:12:00.01: SIM {TimeUS : 66035242, Roll : 0.17, Pitch : -18.07, Yaw : 54.95, Alt : 49.3400001526, Lat : 49.2837787, Lng : -123.1145554, Q1 : 0.87607383728, Q2 : 0.0737826377153, Q3 : -0.138661831617, Q4 : 0.455876767635}
2019-04-14 17:12:00.11: SIM {TimeUS : 66135202, Roll : 0.18, Pitch : -18.09, Yaw : 54.94, Alt : 49.3400001526, Lat : 49.2837812, Lng : -123.1145499, Q1 : 0.876085400581, Q2 : 0.0739138647914, Q3 : -0.13875991106, Q4 : 0.455803394318}
2019-04-14 17:12:00.21: SIM {TimeUS : 66235162, Roll : 0.19, Pitch : -18.1, Yaw : 54.93, Alt : 49.3400001526, Lat : 49.2837836, Lng : -123.1145444, Q1 : 0.876095235348, Q2 : 0.0740669891238, Q3 : -0.138829633594, Q4 : 0.455738544464}
2019-04-14 17:12:00.31: SIM {TimeUS : 66335122, Roll : 0.22, Pitch : -18.11, Yaw : 54.92, Alt : 49.3400001526, Lat : 49.2837861, Lng : -123.1145389, Q1 : 0.876094818115, Q2 : 0.0743230953813, Q3 : -0.138811051846, Q4 : 0.455703258514}
2019-04-14 17:12:00.41: SIM {TimeUS : 66435082, Roll : 0.25, Pitch : -18.13, Yaw : 54.92, Alt : 49.3400001526, Lat : 49.2837885, Lng : -123.1145334, Q1 : 0.876084566116, Q2 : 0.0746124684811, Q3 : -0.138794198632, Q4 : 0.455680847168}
2019-04-14 17:12:00.51: SIM {TimeUS : 66535042, Roll : 0.25, Pitch : -18.12, Yaw : 54.91, Alt : 49.3400001526, Lat : 49.283791, Lng : -123.1145279, Q1 : 0.876113414764, Q2 : 0.0745596066117, Q3 : -0.138799160719, Q4 : 0.455632537603}
2019-04-14 17:12:00.61: SIM {TimeUS : 66635002, Roll : 0.22, Pitch : -18.13, Yaw : 54.9, Alt : 49.3499984741, Lat : 49.2837934, Lng : -123.1145224, Q1 : 0.876142263412, Q2 : 0.0743757933378, Q3 : -0.138965532184, Q4 : 0.455556333065}
