2019-04-14 16:56:48.00: SIM {TimeUS : 40016487, Roll : 0.0, Pitch : 0.0, Yaw : 0.0, Alt : 30.1000003815, Lat : 49.28357, Lng : -123.11502, Q1 : 1.0, Q2 : 0.0, Q3 : 0.0, Q4 : 0.0}
2019-04-14 16:56:48.11: SIM {TimeUS : 40135606, Roll : 0.0, Pitch : 0.0, Yaw : 0.0, Alt : 30.1000003815, Lat : 49.28357, Lng : -123.11502, Q1 : 1.0, Q2 : 0.0, Q3 : 0.0, Q4 : 0.0}
2019-04-14 16:56:48.21: SIM {TimeUS : 40235566, Roll : 0.0, Pitch : 0.0, Yaw : 0.0, Alt : 30.1000003815, Lat : 49.28357, Lng : -123.11502, Q1 : 1.0, Q2 : 0.0, Q3 : 0.0, Q4 : 0.0}
2019-04-14 16:56:48.31: SIM {TimeUS : 40335526, Roll : 0.0, Pitch : 0.0, Yaw : 0.0, Alt : 30.1000003815, Lat : 49.28357, Lng : -123.11502, Q1 : 1.0, Q2 : 0.0, Q3 : 0.0, Q4 : 0.0}
2019-04-14 16:56:48.41: SIM {TimeUS : 40435486, Roll : 0.0, Pitch : 0.0, Yaw : 0.0, Alt : 30.1000003815, Lat : 49.28357, Lng : -123.11502, Q1 : 1.0, Q2 : 0.0, Q3 : 0.0, Q4 : 0.0}
2019-04-14 16:56:48.51: SIM {TimeUS : 40535446, Roll : 0.0, Pitch : 0.0, Yaw : 0.0, Alt : 30.1000003815, Lat : 49.28357, Lng : -123.11502, Q1 : 1.0, Q2 : 0.0, Q3 : 0.0, Q4 : 0.0}
2019-04-14 16:56:48.61: SIM {TimeUS : 40635406, Roll : 0.0, Pitch : 0.0, Yaw : 0.0, Alt : 30.1000003815, Lat : 49.28357, Lng : -123.11502, Q1 : 1.0, Q2 : 0.0, Q3 : 0.0, Q4 : 0.0}
2019-04-14 16:56:48.71: SIM {TimeUS : 40735366, Roll : 0.0, Pitch : 0.0, Yaw : 0.0, Alt : 30.1000003815, Lat : 49.28357, Lng : -123.11502, Q1 : 1.0, Q2 : 0.0, Q3 : 0.0, Q4 : 0.0}
2019-04-14 16:56:48.81: SIM {TimeUS : 40835326, Roll : 0.0, Pitch : 0.0, Yaw : 0.0, Alt : 30.1000003815, Lat : 49.28357, Lng : -123.11502, Q1 : 1.0, Q2 : 0.0, Q3 : 0.0, Q4 : 0.0}
2019-04-14 16:56:48.91: SIM {TimeUS : 40935286, Roll : 0.0, Pitch : 0.0, Yaw : 0.0, Alt : 30.1000003815, Lat : 49.28357, Lng : -123.11502, Q1 : 1.0, Q2 : 0.0, Q3 : 0.0, Q4 : 0.0}
2019-04-14 16:56:49.01: SIM {TimeUS : 41035246, Roll : 0.0, Pitch : 0.0, Yaw : 0.0, Alt : 30.1000003815, Lat : 49.28357, Lng : -123.11502, Q1 : 1.0, Q2 : 0.0, Q3 : 0.0, Q4 : 0.0}
2019-04-14 16:56:49.11: SIM {TimeUS : 41135206, Roll : 0.0, Pitch : 0.0, Yaw : 0.0, Alt : 30.1000003815, Lat : 49.28357, Lng : -123.11502, Q1 : 1.0, Q2 : 0.0, Q3 : 0.0, Q4 : 0.0}
2019-04-14 16:56:49.21: SIM {TimeUS : 41235166, Roll : 0.0, Pitch : 0.0, Yaw : 0.0, Alt : 30.1000003815, Lat : 49.28357, Lng : -123.11502, Q1 : 1.0, Q2 : 0.0, Q3 : 0.0, Q4 : 0.0}
2019-04-14 16:56:49.31: SIM {TimeUS : 41335126, Roll : 0.0, Pitch : 0.0, Yaw : 0.0, Alt : 30.1000003815, Lat : 49.28357, Lng : -123.11502, Q1 : 1.0, Q2 : 0.0, Q3 : 0.0, Q4 : 0.0}
2019-04-14 16:56:49.41: SIM {TimeUS : 41435086, Roll : 0.0, Pitch : 0.0, Yaw : 0.0, Alt : 30.1000003815, Lat : 49.28357, Lng : -123.11502, Q1 : 1.0, Q2 : 0.0, Q3 : 0.0, Q4 : 0.0}
2019-04-14 16:56:49.51: SIM {TimeUS : 41535046, Roll : 0.0, Pitch : 0.0, Yaw : 0.0, Alt : 30.1000003815, Lat : 49.28357, Lng : -123.11502, Q1 : 1.0, Q2 : 0.0, Q3 : 0.0, Q4 : 0.0}
2019-04-14 16:56:49.61: SIM {TimeUS : 41635006, Roll : 0.0, Pitch : 0.0, Yaw : 0.0, Alt : 30.1000003815, Lat : 49.28357, Lng : -123.11502, Q1 : 1.0, Q2 : 0.0, Q3 : 0.0, Q4 : 0.0}
2019-04-14 16:56:49.71: SIM {TimeUS : 41734966, Roll : 0.0, Pitch : 0.0, Yaw : 0.0, Alt : 30.1000003815, Lat : 49.28357, Lng : -123.11502, Q1 : 1.0, Q2 : 0.0, Q3 : 0.0, Q4 : 0.0}
2019-04-14 16:56:49.81: SIM {TimeUS : 41834926, Roll : 0.0, Pitch : 0.0, Yaw : 0.0, Alt : 30.1000003815, Lat : 49.28357, Lng : -123.11502, Q1 : 1.0, Q2 : 0.0, Q3 : 0.0, Q4 : 0.0}
2019-04-14 16:56:49.91: SIM {TimeUS : 41934886, Roll : 0.0, Pitch : 0.0, Yaw : 0.0, Alt : 30.1000003815, Lat : 49.28357, Lng : -123.11502, Q1 : 1.0, Q2 : 0.0, Q3 : 0.0, Q4 : 0.0}
2019-04-14 16:56:50.01: SIM {TimeUS : 42034846, Roll : 0.0, Pitch : 0.0, Yaw : 0.0, Alt : 30.1000003815, Lat : 49.28357, Lng : -123.11502, Q1 : 1.0, Q2 : 0.0, Q3 : 0.0, Q4 : 0.0}
2019-04-14 16:56:50.11: SIM {TimeUS : 42135639, Roll : 0.0, Pitch : 0.0, Yaw : 0.0, Alt : 30.1000003815, Lat : 49.28357, Lng : -123.11502, Q1 : 1.0, Q2 : 0.0, Q3 : 0.0, Q4 : 0.0}
2019-04-14 16:56:50.21: SIM {TimeUS : 42235599, Roll : 0.0, Pitch : 0.0, Yaw : 0.0, Alt : 30.1000003815, Lat : 49.28357, Lng : -123.11502, Q1 : 1.0, Q2 : 0.0, Q3 : 0.0, Q4 : 0.0}
2019-04-14 16:56:50.31: SIM {TimeUS : 42335559, Roll : 0.0, Pitch : 0.0, Yaw : 360.0, Alt : 30.1000003815, Lat : 49.28357, Lng : -123.11502, Q1 : 1.0, Q2 : 0.0, Q3 : 0.0, Q4 : -7.07429687746e-12}
2019-04-14 16:56:50.41: SIM {TimeUS : 42435519, Roll : 0.0, Pitch : 0.0, Yaw : 0.0, Alt : 30.1000003815, Lat : 49.28357, Lng : -123.11502, Q1 : 1.0, Q2 : 0.0, Q3 : 0.0, Q4 : 1.12069374614e-10}
2019-04-14 16:56:50.51: SIM {TimeUS : 42535479, Roll : 0.0, Pitch : 0.0, Yaw : 360.0, Alt : 30.1000003815, Lat : 49.28357, Lng : -123.11502, Q1 : 1.0, Q2 : 0.0, Q3 : 0.0, Q4 : -1.04528304234e-07}
2019-04-14 16:56:50.61: SIM {TimeUS : 42635439, Roll : 0.0, Pitch : 0.0, Yaw : 359.99, Alt : 30.1000003815, Lat : 49.28357, Lng : -123.11502, Q1 : 1.0, Q2 : 0.0, Q3 : 0.0, Q4 : -2.65947051048e-07}
2019-04-14 16:56:50.71: SIM {TimeUS : 42735399, Roll : 0.0, Pitch : 0.0, Yaw : 359.99, Alt : 30.1000003815, Lat : 49.28357, Lng : -123.11502, Q1 : 1.0, Q2 : 0.0, Q3 : 0.0, Q4 : -4.57936408793e-07}
2019-04-14 16:56:50.81: SIM {TimeUS : 42835359, Roll : 0.0, Pitch : 0.0, Yaw : 359.99, Alt : 30.1000003815, Lat : 49.28357, Lng : -123.11502, Q1 : 1.0, Q2 : 0.0, Q3 : 0.0, Q4 : -6.49223977689e-07}
2019-04-14 16:56:50.91: SIM {TimeUS : 42935319, Roll : 0.0, Pitch : 0.0, Yaw : 359.99, Alt : 30.1000003815, Lat : 49.28357, Lng : -123.11502, Q1 : 1.0, Q2 : 0.0, Q3 : 0.0, Q4 : -8.52282994401e-07}
2019-04-14 16:56:51.01: SIM {TimeUS : 43035279, Roll : 0.0, Pitch : 0.0, Yaw : 359.99, Alt : 30.1000003815, Lat : 49.28357, Lng : -123.11502, Q1 : 1.0, Q2 : 0.0, Q3 : 0.0, Q4 : -1.04971900328e-06}
2019-04-14 16:56:51.11: SIM {TimeUS : 43135239, Roll : 0.0, Pitch : 0.0, Yaw : 359.99, Alt : 30.1000003815, Lat : 49.28357, Lng : -123.11502, Q1 : 1.0, Q2 : 0.0, Q3 : 0.0, Q4 : -1.22645587908e-06}
2019-04-14 16:56:51.21: SIM {TimeUS : 43235199, Roll : 0.0, Pitch : 0.0, Yaw : 359.99, Alt : 30.1100006104, Lat : 49.28357, Lng : -123.11502, Q1 : 1.0, Q2 : 0.0, Q3 : 0.0, Q4 : -1.49189861531e-06}
2019-04-14 16:56:51.31: SIM {TimeUS : 43335159, Roll : 0.0, Pitch : 0.0, Yaw : 359.99, Alt : 30.1299991608, Lat : 49.28357, Lng : -123.11502, Q1 : 1.0, Q2 : 0.0, Q3 : 0.0, Q4 : -1.71609895006e-06}
2019-04-14 16:56:51.41: SIM {TimeUS : 43435119, Roll : 0.0, Pitch : 0.0, Yaw : 359.99, Alt : 30.1499996185, Lat : 49.28357, Lng : -123.11502, Q1 : 1.0, Q2 : 0.0, Q3 : 0.0, Q4 : -1.95971665562e-06}
2019-04-14 16:56:51.51: SIM {TimeUS : 43535079, Roll : 0.0, Pitch : 0.0, Yaw : 359.99, Alt : 30.1900005341, Lat : 49.28357, Lng : -123.11502, Q1 : 1.0, Q2 : 0.0, Q3 : 0.0, Q4 : -2.20717993216e-06}
2019-04-14 16:56:51.61: SIM {TimeUS : 43635039, Roll : -0.02, Pitch : -0.02, Yaw : 359.99, Alt : 30.2299995422, Lat : 49.28357, Lng : -123.11502, Q1 : 0.999999940395, Q2 : -0.000244466849836, Q3 : -0.000250868994044, Q4 : -3.50826826434e-06}
2019-04-14 16:56:51.71: SIM {TimeUS : 43734999, Roll : -0.27, Pitch : -0.27, Yaw : 359.99, Alt : 30.2999992371, Lat : 49.28357, Lng : -123.11502, Q1 : 0.999994397163, Q2 : -0.002358001424, Q3 : -0.0023679214064, Q4 : -3.23156527884e-05}
2019-04-14 16:56:51.81: SIM {TimeUS : 43834959, Roll : -0.59, Pitch : -0.54, Yaw : 359.99, Alt : 30.4300003052, Lat : 49.28357, Lng : -123.11502, Q1 : 0.999975204468, Q2 : -0.00520126800984, Q3 : -0.00475108111277, Q4 : -9.16401477298e-05}
2019-04-14 16:56:51.91: SIM {TimeUS : 43934919, Roll : -0.82, Pitch : -0.68, Yaw : 359.98, Alt : 30.5900001526, Lat : 49.28357, Lng : -123.11502, Q1 : 0.999956130981, Q2 : -0.00721269147471, Q3 : -0.0059753912501, Q4 : -0.000170209052158}
2019-04-14 16:56:52.01: SIM {TimeUS : 44034879, Roll : -0.87, Pitch : -0.68, Yaw : 359.97, Alt : 30.75, Lat : 49.28357, Lng : -123.11502, Q1 : 0.999952673912, Q2 : -0.0076707135886, Q3 : -0.00598160084337, Q4 : -0.000252105703112}
2019-04-14 16:56:52.11: SIM {TimeUS : 44134839, Roll : -0.77, Pitch : -0.58, Yaw : 359.96, Alt : 30.8999996185, Lat : 49.28357, Lng : -123.1150201, Q1 : 0.999963819981, Q2 : -0.00676665455103, Q3 : -0.0051420358941, Q4 : -0.000321823055856}
2019-04-14 16:56:52.21: SIM {TimeUS : 44235632, Roll : -0.58, Pitch : -0.43, Yaw : 359.95, Alt : 31.0599994659, Lat : 49.2835701, Lng : -123.1150202, Q1 : 0.999979734421, Q2 : -0.00508362939581, Q3 : -0.00381851149723, Q4 : -0.000383889680961}
2019-04-14 16:56:52.31: SIM {TimeUS : 44335592, Roll : -0.35, Pitch : -0.27, Yaw : 359.95, Alt : 31.2099990845, Lat : 49.2835701, Lng : -123.1150202, Q1 : 0.999992311001, Q2 : -0.00309254648164, Q3 : -0.00238406355493, Q4 : -0.000435821042629}
2019-04-14 16:56:52.41: SIM {TimeUS : 44435552, Roll : -0.13, Pitch : -0.14, Yaw : 359.94, Alt : 31.3799991608, Lat : 49.2835702, Lng : -123.1150203, Q1 : 0.999998450279, Q2 : -0.0011535086669, Q3 : -0.00126733572688, Q4 : -0.000475453503896}
2019-04-14 16:56:52.51: SIM {TimeUS : 44535512, Roll : 0.02, Pitch : -0.04, Yaw : 359.94, Alt : 31.5499992371, Lat : 49.2835702, Lng : -123.1150204, Q1 : 0.999999761581, Q2 : 0.000177244393853, Q3 : -0.000429400650319, Q4 : -0.000506454263814}
2019-04-14 16:56:52.61: SIM {TimeUS : 44635472, Roll : 0.07, Pitch : 0.01, Yaw : 359.93, Alt : 31.7299995422, Lat : 49.2835703, Lng : -123.1150205, Q1 : 0.999999582767, Q2 : 0.000695958791766, Q3 : 0.00011604269821, Q4 : -0.000529673998244}
2019-04-14 16:56:52.71: SIM {TimeUS : 44735432, Roll : 0.08, Pitch : 0.04, Yaw : 359.93, Alt : 31.9099998474, Lat : 49.2835703, Lng : -123.1150206, Q1 : 0.999999523163, Q2 : 0.00069908000296, Q3 : 0.000358842080459, Q4 : -0.000537761428859}
2019-04-14 16:56:52.81: SIM {TimeUS : 44835392, Roll : 0.06, Pitch : 0.04, Yaw : 359.93, Alt : 32.0900001526, Lat : 49.2835703, Lng : -123.1150206, Q1 : 0.999999642372, Q2 : 0.000529343553353, Q3 : 0.000396584713599, Q4 : -0.000541348767001}
2019-04-14 16:56:52.91: SIM {TimeUS : 44935352, Roll : 0.05, Pitch : 0.04, Yaw : 359.93, Alt : 32.2799987793, Lat : 49.2835703, Lng : -123.1150207, Q1 : 0.999999642372, Q2 : 0.000451854022685, Q3 : 0.000391160487197, Q4 : -0.000538884836715}
2019-04-14 16:56:53.01: SIM {TimeUS : 45035312, Roll : 0.06, Pitch : 0.04, Yaw : 359.93, Alt : 32.4700012207, Lat : 49.2835703, Lng : -123.1150207, Q1 : 0.999999642372, Q2 : 0.000588147900999, Q3 : 0.000413581146859, Q4 : -0.000525124545675}
2019-04-14 16:56:53.11: SIM {TimeUS : 45135272, Roll : 0.1, Pitch : 0.05, Yaw : 359.94, Alt : 32.6699981689, Lat : 49.2835703, Lng : -123.1150208, Q1 : 0.999999344349, Q2 : 0.00092869787477, Q3 : 0.000496745982673, Q4 : -0.000503405113705}
2019-04-14 16:56:53.21: SIM {TimeUS : 45235232, Roll : 0.14, Pitch : 0.07, Yaw : 359.94, Alt : 32.8699989319, Lat : 49.2835704, Lng : -123.1150208, Q1 : 0.999998867512, Q2 : 0.00123789103236, Q3 : 0.00069361604983, Q4 : -0.000483223877382}
2019-04-14 16:56:53.31: SIM {TimeUS : 45335192, Roll : 0.16, Pitch : 0.1, Yaw : 359.94, Alt : 33.0699996948, Lat : 49.2835704, Lng : -123.1150208, Q1 : 0.999998509884, Q2 : 0.00140523375012, Q3 : 0.000914488104172, Q4 : -0.000469951133709}
2019-04-14 16:56:53.41: SIM {TimeUS : 45435152, Roll : 0.15, Pitch : 0.13, Yaw : 359.94, Alt : 33.2700004578, Lat : 49.2835704, Lng : -123.1150209, Q1 : 0.999998211861, Q2 : 0.00135803001467, Q3 : 0.00121875177138, Q4 : -0.000476405926747}
2019-04-14 16:56:53.51: SIM {TimeUS : 45535112, Roll : 0.15, Pitch : 0.17, Yaw : 359.94, Alt : 33.4700012207, Lat : 49.2835704, Lng : -123.1150209, Q1 : 0.999997735023, Q2 : 0.00139158614911, Q3 : 0.00154743005987, Q4 : -0.000497819739394}
2019-04-14 16:56:53.61: SIM {TimeUS : 45635072, Roll : 0.17, Pitch : 0.19, Yaw : 359.94, Alt : 33.6800003052, Lat : 49.2835704, Lng : -123.1150209, Q1 : 0.999997317791, Q2 : 0.00148980761878, Q3 : 0.00171518977731, Q4 : -0.000518575834576}
2019-04-14 16:56:53.71: SIM {TimeUS : 45735032, Roll : 0.17, Pitch : 0.19, Yaw : 359.93, Alt : 33.8899993896, Lat : 49.2835704, Lng : -123.1150209, Q1 : 0.999997198582, Q2 : 0.00153079780284, Q3 : 0.00171981437597, Q4 : -0.00053500791546}
2019-04-14 16:56:53.81: SIM {TimeUS : 45834992, Roll : 0.15, Pitch : 0.18, Yaw : 359.93, Alt : 34.0999984741, Lat : 49.2835706, Lng : -123.1150209, Q1 : 0.99999755621, Q2 : 0.00139230070636, Q3 : 0.00163635902572, Q4 : -0.00055337237427}
2019-04-14 16:56:53.91: SIM {TimeUS : 45934952, Roll : 0.13, Pitch : 0.14, Yaw : 359.93, Alt : 34.3100013733, Lat : 49.2835706, Lng : -123.1150209, Q1 : 0.99999833107, Q2 : 0.00120953645092, Q3 : 0.00126881198958, Q4 : -0.000564487185329}
2019-04-14 16:56:54.01: SIM {TimeUS : 46034912, Roll : 0.11, Pitch : 0.08, Yaw : 359.93, Alt : 34.5200004578, Lat : 49.2835706, Lng : -123.1150209, Q1 : 0.999999046326, Q2 : 0.00102154654451, Q3 : 0.000734241097234, Q4 : -0.000562177796382}
2019-04-14 16:56:54.11: SIM {TimeUS : 46134872, Roll : 0.09, Pitch : 0.04, Yaw : 359.93, Alt : 34.7299995422, Lat : 49.2835706, Lng : -123.1150209, Q1 : 0.999999403954, Q2 : 0.000827459967695, Q3 : 0.000390198139939, Q4 : -0.00057261181064}
2019-04-14 16:56:54.21: SIM {TimeUS : 46234832, Roll : 0.07, Pitch : 0.03, Yaw : 359.93, Alt : 34.9500007629, Lat : 49.2835706, Lng : -123.1150209, Q1 : 0.999999582767, Q2 : 0.000682667014189, Q3 : 0.000266861519776, Q4 : -0.00059680454433}
2019-04-14 16:56:54.31: SIM {TimeUS : 46335625, Roll : 0.07, Pitch : 0.04, Yaw : 359.92, Alt : 35.1699981689, Lat : 49.2835706, Lng : -123.1150209, Q1 : 0.999999463558, Q2 : 0.000683576567098, Q3 : 0.00037489584065, Q4 : -0.000631026399788}
2019-04-14 16:56:54.41: SIM {TimeUS : 46435585, Roll : 0.07, Pitch : 0.04, Yaw : 359.92, Alt : 35.3800010681, Lat : 49.2835706, Lng : -123.1150208, Q1 : 0.999999523163, Q2 : 0.000621343788225, Q3 : 0.000403434067266, Q4 : -0.000677001022268}
2019-04-14 16:56:54.51: SIM {TimeUS : 46535545, Roll : 0.05, Pitch : 0.04, Yaw : 359.91, Alt : 35.5999984741, Lat : 49.2835704, Lng : -123.1150208, Q1 : 0.999999523163, Q2 : 0.000448394974228, Q3 : 0.000406031293096, Q4 : -0.000723410164937}
2019-04-14 16:56:54.61: SIM {TimeUS : 46635505, Roll : 0.03, Pitch : 0.05, Yaw : 359.91, Alt : 35.8199996948, Lat : 49.2835704, Lng : -123.1150208, Q1 : 0.999999582767, Q2 : 0.00027453750954, Q3 : 0.000456235808088, Q4 : -0.000766839075368}
2019-04-14 16:56:54.71: SIM {TimeUS : 46735465, Roll : 0.01, Pitch : 0.07, Yaw : 359.9, Alt : 36.0400009155, Lat : 49.2835704, Lng : -123.1150208, Q1 : 0.999999463558, Q2 : 0.000146317092003, Q3 : 0.000612573116086, Q4 : -0.000806204683613}
2019-04-14 16:56:54.81: SIM {TimeUS : 46835425, Roll : 0.0, Pitch : 0.06, Yaw : 359.9, Alt : 36.2599983215, Lat : 49.2835704, Lng : -123.1150208, Q1 : 0.999999463558, Q2 : 2.16841617657e-05, Q3 : 0.00060540123377, Q4 : -0.000840783875901}
2019-04-14 16:56:54.91: SIM {TimeUS : 46935385, Roll : -0.01, Pitch : 0.05, Yaw : 359.89, Alt : 36.4799995422, Lat : 49.2835704, Lng : -123.1150207, Q1 : 0.999999463558, Q2 : -9.95405353024e-05, Q3 : 0.000497168570291, Q4 : -0.000877512386069}
2019-04-14 16:56:55.01: SIM {TimeUS : 47035345, Roll : -0.02, Pitch : 0.03, Yaw : 359.89, Alt : 36.7099990845, Lat : 49.2835704, Lng : -123.1150207, Q1 : 0.999999523163, Q2 : -0.000201407630811, Q3 : 0.000324193068082, Q4 : -0.000906674016733}
2019-04-14 16:56:55.11: SIM {TimeUS : 47135305, Roll : -0.03, Pitch : 0.01, Yaw : 359.89, Alt : 36.9300003052, Lat : 49.2835704, Lng : -123.1150207, Q1 : 0.999999523163, Q2 : -0.000263617839664, Q3 : 0.000126198894577, Q4 : -0.000924541964196}
2019-04-14 16:56:55.21: SIM {TimeUS : 47235265, Roll : -0.01, Pitch : -0.01, Yaw : 359.89, Alt : 37.1500015259, Lat : 49.2835704, Lng : -123.1150207, Q1 : 0.999999582767, Q2 : -0.000160583658726, Q3 : -9.90463522612e-05, Q4 : -0.000936193449888}
2019-04-14 16:56:55.31: SIM {TimeUS : 47335225, Roll : -0.01, Pitch : -0.04, Yaw : 359.89, Alt : 37.3800010681, Lat : 49.2835704, Lng : -123.1150207, Q1 : 0.999999463558, Q2 : -0.000144966281368, Q3 : -0.000357942219125, Q4 : -0.000943711085711}
2019-04-14 16:56:55.41: SIM {TimeUS : 47435185, Roll : -0.02, Pitch : -0.07, Yaw : 359.89, Alt : 37.5999984741, Lat : 49.2835704, Lng : -123.1150207, Q1 : 0.999999284744, Q2 : -0.0002596223203, Q3 : -0.000663822225761, Q4 : -0.000946773972828}
2019-04-14 16:56:55.51: SIM {TimeUS : 47535145, Roll : -0.05, Pitch : -0.09, Yaw : 359.89, Alt : 37.8300018311, Lat : 49.2835704, Lng : -123.1150207, Q1 : 0.999999046326, Q2 : -0.00050084135728, Q3 : -0.000866820220836, Q4 : -0.000953569309786}
2019-04-14 16:56:55.61: SIM {TimeUS : 47635105, Roll : -0.09, Pitch : -0.1, Yaw : 359.88, Alt : 38.0600013733, Lat : 49.2835704, Lng : -123.1150207, Q1 : 0.999998867512, Q2 : -0.000789289304521, Q3 : -0.000884687236976, Q4 : -0.00096915604081}
2019-04-14 16:56:55.71: SIM {TimeUS : 47735065, Roll : -0.11, Pitch : -0.09, Yaw : 359.88, Alt : 38.2799987793, Lat : 49.2835704, Lng : -123.1150206, Q1 : 0.999998688698, Q2 : -0.000990218133666, Q3 : -0.00083484564675, Q4 : -0.000987617881037}
2019-04-14 16:56:55.81: SIM {TimeUS : 47835025, Roll : -0.12, Pitch : -0.08, Yaw : 359.88, Alt : 38.5099983215, Lat : 49.2835704, Lng : -123.1150206, Q1 : 0.999998688698, Q2 : -0.00105361582246, Q3 : -0.00071337830741, Q4 : -0.00100230914541}
2019-04-14 16:56:55.91: SIM {TimeUS : 47934985, Roll : -0.1, Pitch : -0.05, Yaw : 359.88, Alt : 38.7400016785, Lat : 49.2835704, Lng : -123.1150206, Q1 : 0.999998927116, Q2 : -0.000954336253926, Q3 : -0.000475166452816, Q4 : -0.00101713743061}
2019-04-14 16:56:56.01: SIM {TimeUS : 48034945, Roll : -0.08, Pitch : -0.04, Yaw : 359.88, Alt : 38.9700012207, Lat : 49.2835704, Lng : -123.1150206, Q1 : 0.99999910593, Q2 : -0.000730187981389, Q3 : -0.000413278670749, Q4 : -0.00103547680192}
2019-04-14 16:56:56.11: SIM {TimeUS : 48134905, Roll : -0.06, Pitch : -0.04, Yaw : 359.87, Alt : 39.2000007629, Lat : 49.2835704, Lng : -123.1150206, Q1 : 0.999999165535, Q2 : -0.000600814877544, Q3 : -0.000408763648011, Q4 : -0.00106260436587}
2019-04-14 16:56:56.21: SIM {TimeUS : 48234865, Roll : -0.06, Pitch : -0.03, Yaw : 359.87, Alt : 39.4300003052, Lat : 49.2835704, Lng : -123.1150206, Q1 : 0.99999922514, Q2 : -0.000537226209417, Q3 : -0.00027432286879, Q4 : -0.00108157505747}
2019-04-14 16:56:56.31: SIM {TimeUS : 48334825, Roll : -0.07, Pitch : 0.0, Yaw : 359.87, Alt : 39.6599998474, Lat : 49.2835704, Lng : -123.1150206, Q1 : 0.99999922514, Q2 : -0.000637860968709, Q3 : -2.08506808121e-05, Q4 : -0.00109801231883}
2019-04-14 16:56:56.41: SIM {TimeUS : 48435618, Roll : -0.06, Pitch : 0.02, Yaw : 359.87, Alt : 39.8899993896, Lat : 49.2835704, Lng : -123.1150206, Q1 : 0.999999165535, Q2 : -0.000586103531532, Q3 : 0.000245798786636, Q4 : -0.00111851259135}
2019-04-14 16:56:56.51: SIM {TimeUS : 48535578, Roll : -0.04, Pitch : 0.06, Yaw : 359.86, Alt : 40.1199989319, Lat : 49.2835704, Lng : -123.1150206, Q1 : 0.99999910593, Q2 : -0.000393117486965, Q3 : 0.000550417986233, Q4 : -0.00114825449418}
2019-04-14 16:56:56.61: SIM {TimeUS : 48635538, Roll : -0.02, Pitch : 0.06, Yaw : 359.86, Alt : 40.3499984741, Lat : 49.2835704, Lng : -123.1150207, Q1 : 0.99999910593, Q2 : -0.000248447293416, Q3 : 0.000566332193557, Q4 : -0.00116853148211}
2019-04-14 16:56:56.71: SIM {TimeUS : 48735498, Roll : 0.0, Pitch : 0.06, Yaw : 359.86, Alt : 40.5900001526, Lat : 49.2835704, Lng : -123.1150207, Q1 : 0.999999165535, Q2 : -2.79638825305e-05, Q3 : 0.0005247349618, Q4 : -0.00118410680443}
2019-04-14 16:56:56.81: SIM {TimeUS : 48835458, Roll : 0.03, Pitch : 0.07, Yaw : 359.86, Alt : 40.8199996948, Lat : 49.2835706, Lng : -123.1150207, Q1 : 0.999999046326, Q2 : 0.0002852876205, Q3 : 0.000619989994448, Q4 : -0.0012010904029}
2019-04-14 16:56:56.91: SIM {TimeUS : 48935418, Roll : 0.07, Pitch : 0.09, Yaw : 359.86, Alt : 41.0499992371, Lat : 49.2835706, Lng : -123.1150207, Q1 : 0.999998629093, Q2 : 0.000671574496664, Q3 : 0.000861787935719, Q4 : -0.00122237356845}
2019-04-14 16:56:57.01: SIM {TimeUS : 49035378, Roll : 0.1, Pitch : 0.12, Yaw : 359.85, Alt : 41.2799987793, Lat : 49.2835706, Lng : -123.1150207, Q1 : 0.999998211861, Q2 : 0.000909892260097, Q3 : 0.00108574004844, Q4 : -0.00124474742915}
2019-04-14 16:56:57.11: SIM {TimeUS : 49135338, Roll : 0.09, Pitch : 0.14, Yaw : 359.85, Alt : 41.5200004578, Lat : 49.2835706, Lng : -123.1150207, Q1 : 0.999998152256, Q2 : 0.000793802493718, Q3 : 0.00123903318308, Q4 : -0.00125531619415}
2019-04-14 16:56:57.21: SIM {TimeUS : 49235298, Roll : 0.04, Pitch : 0.15, Yaw : 359.85, Alt : 41.75, Lat : 49.2835706, Lng : -123.1150207, Q1 : 0.999998211861, Q2 : 0.000377239106456, Q3 : 0.00136669771746, Q4 : -0.00126457761507}
2019-04-14 16:56:57.31: SIM {TimeUS : 49335258, Roll : 0.0, Pitch : 0.16, Yaw : 359.85, Alt : 41.9900016785, Lat : 49.2835706, Lng : -123.1150207, Q1 : 0.999998092651, Q2 : -3.29583781422e-05, Q3 : 0.00146854668856, Q4 : -0.00127934466582}
2019-04-14 16:56:57.41: SIM {TimeUS : 49435218, Roll : -0.02, Pitch : 0.15, Yaw : 359.85, Alt : 42.2200012207, Lat : 49.2835706, Lng : -123.1150207, Q1 : 0.999998271465, Q2 : -0.00017764257791, Q3 : 0.00133127172012, Q4 : -0.00130240689032}
2019-04-14 16:56:57.51: SIM {TimeUS : 49535178, Roll : -0.02, Pitch : 0.12, Yaw : 359.84, Alt : 42.4500007629, Lat : 49.2835706, Lng : -123.1150207, Q1 : 0.999998509884, Q2 : -0.000193506333744, Q3 : 0.0010590183083, Q4 : -0.00132812152151}
2019-04-14 16:56:57.61: SIM {TimeUS : 49635138, Roll : -0.01, Pitch : 0.11, Yaw : 359.84, Alt : 42.6899986267, Lat : 49.2835706, Lng : -123.1150207, Q1 : 0.999998509884, Q2 : -0.000110588844109, Q3 : 0.00102311046794, Q4 : -0.00135988916736}
2019-04-14 16:56:57.71: SIM {TimeUS : 49735098, Roll : 0.02, Pitch : 0.12, Yaw : 359.83, Alt : 42.9199981689, Lat : 49.2835706, Lng : -123.1150207, Q1 : 0.99999833107, Q2 : 0.000200647089514, Q3 : 0.00113187776878, Q4 : -0.00140307599213}
2019-04-14 16:56:57.81: SIM {TimeUS : 49835058, Roll : 0.07, Pitch : 0.14, Yaw : 359.83, Alt : 43.1599998474, Lat : 49.2835706, Lng : -123.1150207, Q1 : 0.999997913837, Q2 : 0.000677789677866, Q3 : 0.00127135252114, Q4 : -0.00144089059904}
2019-04-14 16:56:57.91: SIM {TimeUS : 49935018, Roll : 0.12, Pitch : 0.13, Yaw : 359.83, Alt : 43.3899993896, Lat : 49.2835704, Lng : -123.1150207, Q1 : 0.999997675419, Q2 : 0.00105564913247, Q3 : 0.00118626165204, Q4 : -0.00147706002463}
2019-04-14 16:56:58.01: SIM {TimeUS : 50034978, Roll : 0.12, Pitch : 0.11, Yaw : 359.82, Alt : 43.6300010681, Lat : 49.2835704, Lng : -123.1150207, Q1 : 0.999997794628, Q2 : 0.00111060531344, Q3 : 0.00097027659649, Q4 : -0.00150095275603}
2019-04-14 16:56:58.11: SIM {TimeUS : 50134938, Roll : 0.08, Pitch : 0.09, Yaw : 359.82, Alt : 43.8600006104, Lat : 49.2835704, Lng : -123.1150207, Q1 : 0.999998271465, Q2 : 0.000721028773114, Q3 : 0.000831363431644, Q4 : -0.0015022601001}
2019-04-14 16:56:58.21: SIM {TimeUS : 50234898, Roll : 0.01, Pitch : 0.08, Yaw : 359.82, Alt : 44.0999984741, Lat : 49.2835704, Lng : -123.1150207, Q1 : 0.999998569489, Q2 : 0.00017434968322, Q3 : 0.000744431745261, Q4 : -0.00150245940313}
2019-04-14 16:56:58.31: SIM {TimeUS : 50334858, Roll : -0.02, Pitch : 0.08, Yaw : 359.82, Alt : 44.3400001526, Lat : 49.2835704, Lng : -123.1150207, Q1 : 0.999998569489, Q2 : -0.000223456067033, Q3 : 0.000769887934439, Q4 : -0.0015122013865}
2019-04-14 16:56:58.41: SIM {TimeUS : 50434818, Roll : -0.04, Pitch : 0.08, Yaw : 359.82, Alt : 44.5699996948, Lat : 49.2835704, Lng : -123.1150206, Q1 : 0.999998509884, Q2 : -0.000412620254792, Q3 : 0.000705655082129, Q4 : -0.00152838695794}
2019-04-14 16:56:58.51: SIM {TimeUS : 50535611, Roll : -0.04, Pitch : 0.05, Yaw : 359.82, Alt : 44.8100013733, Lat : 49.2835704, Lng : -123.1150206, Q1 : 0.999998629093, Q2 : -0.000358286313713, Q3 : 0.000490861479193, Q4 : -0.00155213533435}
2019-04-14 16:56:58.61: SIM {TimeUS : 50635571, Roll : -0.04, Pitch : 0.03, Yaw : 359.81, Alt : 45.0499992371, Lat : 49.2835704, Lng : -123.1150206, Q1 : 0.999998629093, Q2 : -0.000357062352123, Q3 : 0.000273071695119, Q4 : -0.00158396211918}
2019-04-14 16:56:58.71: SIM {TimeUS : 50735531, Roll : -0.03, Pitch : 0.0, Yaw : 359.81, Alt : 45.2799987793, Lat : 49.2835703, Lng : -123.1150206, Q1 : 0.999998629093, Q2 : -0.00029995731893, Q3 : 7.06049177097e-05, Q4 : -0.00161985459272}
2019-04-14 16:56:58.81: SIM {TimeUS : 50835491, Roll : -0.02, Pitch : 0.0, Yaw : 359.8, Alt : 45.5200004578, Lat : 49.2835703, Lng : -123.1150206, Q1 : 0.999998629093, Q2 : -0.000191316736164, Q3 : -5.53682148166e-05, Q4 : -0.00165838678367}
2019-04-14 16:56:58.91: SIM {TimeUS : 50935451, Roll : -0.02, Pitch : 0.0, Yaw : 359.8, Alt : 45.75, Lat : 49.2835703, Lng : -123.1150206, Q1 : 0.999998569489, Q2 : -0.000186618213775, Q3 : -6.25714455964e-05, Q4 : -0.00169746833853}
2019-04-14 16:56:59.01: SIM {TimeUS : 51035411, Roll : -0.03, Pitch : 0.0, Yaw : 359.8, Alt : 45.9799995422, Lat : 49.2835703, Lng : -123.1150206, Q1 : 0.999998450279, Q2 : -0.000263551832177, Q3 : -8.61592416186e-05, Q4 : -0.00173560308758}
2019-04-14 16:56:59.11: SIM {TimeUS : 51135371, Roll : -0.03, Pitch : -0.02, Yaw : 359.79, Alt : 46.2099990845, Lat : 49.2835703, Lng : -123.1150206, Q1 : 0.99999833107, Q2 : -0.00033677360625, Q3 : -0.00022076156165, Q4 : -0.00177125202026}
2019-04-14 16:56:59.21: SIM {TimeUS : 51235331, Roll : -0.04, Pitch : -0.03, Yaw : 359.79, Alt : 46.4399986267, Lat : 49.2835703, Lng : -123.1150205, Q1 : 0.999998271465, Q2 : -0.000361879967386, Q3 : -0.000292381417239, Q4 : -0.00180744857062}
2019-04-14 16:56:59.31: SIM {TimeUS : 51335291, Roll : -0.03, Pitch : -0.03, Yaw : 359.78, Alt : 46.6599998474, Lat : 49.2835703, Lng : -123.1150205, Q1 : 0.999998211861, Q2 : -0.000284571520751, Q3 : -0.000347645807778, Q4 : -0.00184003589675}
2019-04-14 16:56:59.41: SIM {TimeUS : 51435251, Roll : -0.03, Pitch : -0.04, Yaw : 359.78, Alt : 46.8699989319, Lat : 49.2835703, Lng : -123.1150205, Q1 : 0.999998152256, Q2 : -0.000295367412036, Q3 : -0.000388728833059, Q4 : -0.00187049619853}
2019-04-14 16:56:59.51: SIM {TimeUS : 51535211, Roll : -0.05, Pitch : -0.04, Yaw : 359.78, Alt : 47.0800018311, Lat : 49.2835703, Lng : -123.1150205, Q1 : 0.999998033047, Q2 : -0.000448407925433, Q3 : -0.000402524252422, Q4 : -0.0018987020012}
2019-04-14 16:56:59.61: SIM {TimeUS : 51635171, Roll : -0.08, Pitch : -0.04, Yaw : 359.77, Alt : 47.2799987793, Lat : 49.2835703, Lng : -123.1150205, Q1 : 0.999997794628, Q2 : -0.000728428014554, Q3 : -0.000417396920966, Q4 : -0.00192843994591}
2019-04-14 16:56:59.71: SIM {TimeUS : 51735131, Roll : -0.1, Pitch : -0.04, Yaw : 359.77, Alt : 47.4700012207, Lat : 49.2835703, Lng : -123.1150205, Q1 : 0.999997615814, Q2 : -0.000946107727941, Q3 : -0.000387197535019, Q4 : -0.00195765634999}
2019-04-14 16:56:59.81: SIM {TimeUS : 51835091, Roll : -0.12, Pitch : -0.04, Yaw : 359.77, Alt : 47.6599998474, Lat : 49.2835703, Lng : -123.1150205, Q1 : 0.999997317791, Q2 : -0.00112714711577, Q3 : -0.000360918551451, Q4 : -0.00198220717721}
2019-04-14 16:56:59.91: SIM {TimeUS : 51935051, Roll : -0.15, Pitch : -0.05, Yaw : 359.77, Alt : 47.8300018311, Lat : 49.2835703, Lng : -123.1150205, Q1 : 0.999996960163, Q2 : -0.00137738022022, Q3 : -0.000456008710898, Q4 : -0.00200186809525}
2019-04-14 16:57:00.01: SIM {TimeUS : 52035011, Roll : -0.16, Pitch : -0.05, Yaw : 359.76, Alt : 47.9900016785, Lat : 49.2835703, Lng : -123.1150205, Q1 : 0.999996781349, Q2 : -0.00143257132731, Q3 : -0.000508989673108, Q4 : -0.00202227011323}
2019-04-14 16:57:00.11: SIM {TimeUS : 52134971, Roll : -0.15, Pitch : -0.05, Yaw : 359.76, Alt : 48.1399993896, Lat : 49.2835703, Lng : -123.1150205, Q1 : 0.999996900558, Q2 : -0.0013367542997, Q3 : -0.000468341168016, Q4 : -0.0020486980211}
2019-04-14 16:57:00.21: SIM {TimeUS : 52234931, Roll : -0.13, Pitch : -0.04, Yaw : 359.76, Alt : 48.2700004578, Lat : 49.2835703, Lng : -123.1150205, Q1 : 0.999997079372, Q2 : -0.00116360862739, Q3 : -0.000421218574047, Q4 : -0.00207893643528}
2019-04-14 16:57:00.31: SIM {TimeUS : 52334891, Roll : -0.1, Pitch : -0.05, Yaw : 359.75, Alt : 48.4000015259, Lat : 49.2835703, Lng : -123.1150205, Q1 : 0.999997258186, Q2 : -0.000879044237081, Q3 : -0.000466487719677, Q4 : -0.00211173831485}
2019-04-14 16:57:00.41: SIM {TimeUS : 52434851, Roll : -0.06, Pitch : -0.06, Yaw : 359.75, Alt : 48.5099983215, Lat : 49.2835703, Lng : -123.1150205, Q1 : 0.999997377396, Q2 : -0.00056354526896, Q3 : -0.000540932174772, Q4 : -0.00214254949242}
2019-04-14 16:57:00.51: SIM {TimeUS : 52535644, Roll : -0.04, Pitch : -0.07, Yaw : 359.75, Alt : 48.6100006104, Lat : 49.2835703, Lng : -123.1150206, Q1 : 0.999997377396, Q2 : -0.000390860863263, Q3 : -0.000615702243522, Q4 : -0.00216721231118}
2019-04-14 16:57:00.61: SIM {TimeUS : 52635604, Roll : -0.04, Pitch : -0.07, Yaw : 359.75, Alt : 48.7000007629, Lat : 49.2835703, Lng : -123.1150206, Q1 : 0.999997317791, Q2 : -0.000403566955356, Q3 : -0.000672356400173, Q4 : -0.00217524333857}
2019-04-14 16:57:00.71: SIM {TimeUS : 52735564, Roll : -0.02, Pitch : -0.07, Yaw : 359.74, Alt : 48.7799987793, Lat : 49.2835703, Lng : -123.1150206, Q1 : 0.999997377396, Q2 : -0.000214568906813, Q3 : -0.00064665597165, Q4 : -0.0021852531936}
2019-04-14 16:57:00.81: SIM {TimeUS : 52835524, Roll : 0.0, Pitch : -0.05, Yaw : 359.74, Alt : 48.8400001526, Lat : 49.2835703, Lng : -123.1150206, Q1 : 0.999997437, Q2 : 8.13634324004e-05, Q3 : -0.000496542779729, Q4 : -0.00219838228077}
2019-04-14 16:57:00.91: SIM {TimeUS : 52935484, Roll : 0.03, Pitch : -0.03, Yaw : 359.74, Alt : 48.9000015259, Lat : 49.2835703, Lng : -123.1150206, Q1 : 0.999997437, Q2 : 0.000342764338711, Q3 : -0.000325625209371, Q4 : -0.00221271114424}
2019-04-14 16:57:01.01: SIM {TimeUS : 53035444, Roll : 0.05, Pitch : -0.01, Yaw : 359.74, Alt : 48.9500007629, Lat : 49.2835703, Lng : -123.1150206, Q1 : 0.999997377396, Q2 : 0.000491070968565, Q3 : -0.000144044111948, Q4 : -0.00223200838082}
2019-04-14 16:57:01.11: SIM {TimeUS : 53135404, Roll : 0.08, Pitch : -0.02, Yaw : 359.74, Alt : 49.0, Lat : 49.2835703, Lng : -123.1150206, Q1 : 0.999997138977, Q2 : 0.000766698271036, Q3 : -0.000180471935892, Q4 : -0.00225968239829}
2019-04-14 16:57:01.21: SIM {TimeUS : 53235364, Roll : 0.22, Pitch : -0.12, Yaw : 359.73, Alt : 49.0299987793, Lat : 49.2835703, Lng : -123.1150207, Q1 : 0.999994933605, Q2 : 0.00192075618543, Q3 : -0.00108145654667, Q4 : -0.00229583354667}
2019-04-14 16:57:01.31: SIM {TimeUS : 53335324, Roll : 0.53, Pitch : -0.36, Yaw : 359.73, Alt : 49.0600013733, Lat : 49.2835703, Lng : -123.1150207, Q1 : 0.999981343746, Q2 : 0.00465805595741, Q3 : -0.00318474369124, Q4 : -0.00233361101709}
2019-04-14 16:57:01.41: SIM {TimeUS : 53435284, Roll : 1.07, Pitch : -0.74, Yaw : 359.72, Alt : 49.0900001526, Lat : 49.2835703, Lng : -123.1150207, Q1 : 0.999931633472, Q2 : 0.00939095392823, Q3 : -0.00655465340242, Q4 : -0.00236606854014}
2019-04-14 16:57:01.51: SIM {TimeUS : 53535244, Roll : 1.8, Pitch : -1.26, Yaw : 359.7, Alt : 49.1100006104, Lat : 49.2835704, Lng : -123.1150206, Q1 : 0.99981200695, Q2 : 0.0157570894808, Q3 : -0.0110496599227, Q4 : -0.00237767817453}
2019-04-14 16:57:01.61: SIM {TimeUS : 53635204, Roll : 2.65, Pitch : -1.83, Yaw : 359.68, Alt : 49.1300010681, Lat : 49.2835704, Lng : -123.1150205, Q1 : 0.999600827694, Q2 : 0.0231289770454, Q3 : -0.0160527862608, Q4 : -0.00234910403378}
2019-04-14 16:57:01.71: SIM {TimeUS : 53735164, Roll : 3.51, Pitch : -2.38, Yaw : 359.66, Alt : 49.1500015259, Lat : 49.2835706, Lng : -123.1150204, Q1 : 0.999311923981, Q2 : 0.0305913034827, Q3 : -0.020852137357, Q4 : -0.00224861968309}
2019-04-14 16:57:01.81: SIM {TimeUS : 53835124, Roll : 4.23, Pitch : -2.84, Yaw : 359.65, Alt : 49.1699981689, Lat : 49.2835707, Lng : -123.1150202, Q1 : 0.999008357525, Q2 : 0.0368362255394, Q3 : -0.0249218828976, Q4 : -0.00208613206632}
2019-04-14 16:57:01.91: SIM {TimeUS : 53935084, Roll : 4.76, Pitch : -3.22, Yaw : 359.65, Alt : 49.1800003052, Lat : 49.2835708, Lng : -123.11502, Q1 : 0.998739123344, Q2 : 0.0414914004505, Q3 : -0.0281995590776, Q4 : -0.00187152822036}
2019-04-14 16:57:02.01: SIM {TimeUS : 54035044, Roll : 5.13, Pitch : -3.5, Yaw : 359.65, Alt : 49.1899986267, Lat : 49.2835709, Lng : -123.1150197, Q1 : 0.998528242111, Q2 : 0.0446993671358, Q3 : -0.0306708887219, Q4 : -0.0016210071044}
2019-04-14 16:57:02.11: SIM {TimeUS : 54135004, Roll : 5.41, Pitch : -3.75, Yaw : 359.66, Alt : 49.2000007629, Lat : 49.2835712, Lng : -123.1150192, Q1 : 0.99834883213, Q2 : 0.0471041575074, Q3 : -0.0328480117023, Q4 : -0.00135709054302}
2019-04-14 16:57:02.21: SIM {TimeUS : 54234964, Roll : 5.68, Pitch : -3.98, Yaw : 359.67, Alt : 49.2099990845, Lat : 49.2835714, Lng : -123.1150187, Q1 : 0.99816942215, Q2 : 0.0494257546961, Q3 : -0.034839335829, Q4 : -0.0010806361679}
2019-04-14 16:57:02.31: SIM {TimeUS : 54334924, Roll : 5.98, Pitch : -4.19, Yaw : 359.68, Alt : 49.2200012207, Lat : 49.2835716, Lng : -123.115018, Q1 : 0.997968792915, Q2 : 0.0520458891988, Q3 : -0.0367278493941, Q4 : -0.000810684869066}
2019-04-14 16:57:02.41: SIM {TimeUS : 54434884, Roll : 6.28, Pitch : -4.4, Yaw : 359.69, Alt : 49.2200012207, Lat : 49.2835721, Lng : -123.1150173, Q1 : 0.997760236263, Q2 : 0.0546621456742, Q3 : -0.0385514087975, Q4 : -0.000555320584681}
2019-04-14 16:57:02.51: SIM {TimeUS : 54534844, Roll : 6.54, Pitch : -4.58, Yaw : 359.7, Alt : 49.2299995422, Lat : 49.2835725, Lng : -123.1150163, Q1 : 0.997572243214, Q2 : 0.0569333322346, Q3 : -0.0401014462113, Q4 : -0.00031538202893}
2019-04-14 16:57:02.61: SIM {TimeUS : 54635637, Roll : 6.72, Pitch : -4.71, Yaw : 359.71, Alt : 49.2400016785, Lat : 49.2835728, Lng : -123.1150155, Q1 : 0.997435152531, Q2 : 0.0585422627628, Q3 : -0.0411819070578, Q4 : -0.000106748295366}
2019-04-14 16:57:02.71: SIM {TimeUS : 54735597, Roll : 6.84, Pitch : -4.81, Yaw : 359.71, Alt : 49.2400016785, Lat : 49.2835733, Lng : -123.1150145, Q1 : 0.997337460518, Q2 : 0.0595708489418, Q3 : -0.0420642383397, Q4 : 4.64775366709e-05}
2019-04-14 16:57:02.81: SIM {TimeUS : 54835557, Roll : 6.95, Pitch : -4.9, Yaw : 359.72, Alt : 49.2400016785, Lat : 49.2835739, Lng : -123.1150133, Q1 : 0.997248589993, Q2 : 0.0605085901916, Q3 : -0.0428244397044, Q4 : 0.000174750239239}
2019-04-14 16:57:02.91: SIM {TimeUS : 54935517, Roll : 7.08, Pitch : -4.98, Yaw : 359.72, Alt : 49.25, Lat : 49.2835744, Lng : -123.1150121, Q1 : 0.997147977352, Q2 : 0.0616125687957, Q3 : -0.0435864217579, Q4 : 0.000274898804491}
2019-04-14 16:57:03.01: SIM {TimeUS : 55035477, Roll : 7.29, Pitch : -5.0, Yaw : 359.76, Alt : 49.25, Lat : 49.283575, Lng : -123.1150108, Q1 : 0.997024357319, Q2 : 0.0635089725256, Q3 : -0.0436870530248, Q4 : 0.000760431401432}
2019-04-14 16:57:03.11: SIM {TimeUS : 55135437, Roll : 7.74, Pitch : -4.85, Yaw : 0.23, Alt : 49.2599983215, Lat : 49.2835757, Lng : -123.1150094, Q1 : 0.996815502644, Q2 : 0.0675330013037, Q3 : -0.0421175695956, Q4 : 0.00492864707485}
2019-04-14 16:57:03.21: SIM {TimeUS : 55235397, Roll : 8.34, Pitch : -4.67, Yaw : 1.8, Alt : 49.2599983215, Lat : 49.2835763, Lng : -123.115008, Q1 : 0.996350169182, Q2 : 0.0733268782496, Q3 : -0.0395117849112, Q4 : 0.0186639465392}
2019-04-14 16:57:03.31: SIM {TimeUS : 55335357, Roll : 8.87, Pitch : -4.81, Yaw : 4.91, Alt : 49.2599983215, Lat : 49.283577, Lng : -123.1150064, Q1 : 0.995070636272, Q2 : 0.0789854153991, Q3 : -0.0384921617806, Q4 : 0.0459799729288}
2019-04-14 16:57:03.41: SIM {TimeUS : 55435317, Roll : 9.07, Pitch : -5.45, Yaw : 9.57, Alt : 49.2599983215, Lat : 49.2835776, Lng : -123.1150047, Q1 : 0.991950333118, Q2 : 0.082671225071, Q3 : -0.0406617932022, Q4 : 0.0868707746267}
2019-04-14 16:57:03.51: SIM {TimeUS : 55535277, Roll : 8.75, Pitch : -6.59, Yaw : 15.58, Alt : 49.2599983215, Lat : 49.2835783, Lng : -123.1150029, Q1 : 0.985651016235, Q2 : 0.0832435563207, Q3 : -0.0464797541499, Q4 : 0.139291793108}
2019-04-14 16:57:03.61: SIM {TimeUS : 55635237, Roll : 7.83, Pitch : -8.07, Yaw : 22.68, Alt : 49.2599983215, Lat : 49.2835792, Lng : -123.1150009, Q1 : 0.974800646305, Q2 : 0.0806382969022, Q3 : -0.0554830096662, Q4 : 0.200456500053}
2019-04-14 16:57:03.71: SIM {TimeUS : 55735197, Roll : 6.33, Pitch : -9.68, Yaw : 30.63, Alt : 49.2700004578, Lat : 49.2835799, Lng : -123.1149989, Q1 : 0.958333790302, Q2 : 0.075381912291, Q3 : -0.0667496323586, Q4 : 0.267316997051}
2019-04-14 16:57:03.81: SIM {TimeUS : 55835157, Roll : 4.31, Pitch : -11.17, Yaw : 39.16, Alt : 49.2700004578, Lat : 49.2835806, Lng : -123.1149967, Q1 : 0.935777306557, Q2 : 0.0679088905454, Q3 : -0.0790972113609, Q4 : 0.336827665567}
2019-04-14 16:57:03.91: SIM {TimeUS : 55935117, Roll : 1.66, Pitch : -12.32, Yaw : 47.91, Alt : 49.2700004578, Lat : 49.2835814, Lng : -123.1149945, Q1 : 0.907828688622, Q2 : 0.0567923858762, Q3 : -0.0921949371696, Q4 : 0.405119478703}
2019-04-14 16:57:04.01: SIM {TimeUS : 56035077, Roll : -1.48, Pitch : -12.93, Yaw : 56.1, Alt : 49.2700004578, Lat : 49.2835824, Lng : -123.1149921, Q1 : 0.877522528172, Q2 : 0.0416301973164, Q3 : -0.10545899719, Q4 : 0.465939462185}
2019-04-14 16:57:04.11: SIM {TimeUS : 56135037, Roll : -4.52, Pitch : -13.03, Yaw : 62.84, Alt : 49.2700004578, Lat : 49.2835832, Lng : -123.1149896, Q1 : 0.849502086639, Q2 : 0.0256393365562, Q3 : -0.117227494717, Q4 : 0.513757288456}
2019-04-14 16:57:04.21: SIM {TimeUS : 56234997, Roll : -6.84, Pitch : -12.82, Yaw : 67.59, Alt : 49.2700004578, Lat : 49.2835843, Lng : -123.1149871, Q1 : 0.828039824963, Q2 : 0.0127496970817, Q3 : -0.125670984387, Q4 : 0.546254813671}
2019-04-14 16:57:04.31: SIM {TimeUS : 56334957, Roll : -8.13, Pitch : -12.6, Yaw : 70.26, Alt : 49.2700004578, Lat : 49.2835855, Lng : -123.1149846, Q1 : 0.815338790417, Q2 : 0.00535232899711, Q3 : -0.130081057549, Q4 : 0.564156889915}
2019-04-14 16:57:04.41: SIM {TimeUS : 56434917, Roll : -8.37, Pitch : -12.53, Yaw : 71.06, Alt : 49.2700004578, Lat : 49.2835867, Lng : -123.114982, Q1 : 0.811380922794, Q2 : 0.00423577846959, Q3 : -0.13081741333, Q4 : 0.569675266743}
2019-04-14 16:57:04.51: SIM {TimeUS : 56534877, Roll : -7.71, Pitch : -12.74, Yaw : 70.37, Alt : 49.2700004578, Lat : 49.283588, Lng : -123.1149792, Q1 : 0.814701318741, Q2 : 0.00916775222868, Q3 : -0.129077896476, Q4 : 0.565258085728}
2019-04-14 16:57:04.61: SIM {TimeUS : 56634837, Roll : -6.4, Pitch : -13.22, Yaw : 68.53, Alt : 49.2700004578, Lat : 49.2835896, Lng : -123.1149766, Q1 : 0.823255300522, Q2 : 0.0188831109554, Q3 : -0.126234054565, Q4 : 0.553135693073}
2019-04-14 16:57:04.71: SIM {TimeUS : 56735630, Roll : -4.65, Pitch : -13.89, Yaw : 65.87, Alt : 49.2799987793, Lat : 49.283591, Lng : -123.1149738, Q1 : 0.835064351559, Q2 : 0.0319301821291, Q3 : -0.123347356915, Q4 : 0.535194814205}
2019-04-14 16:57:04.81: SIM {TimeUS : 56835590, Roll : -2.71, Pitch : -14.62, Yaw : 62.76, Alt : 49.2799987793, Lat : 49.2835927, Lng : -123.114971, Q1 : 0.848122417927, Q2 : 0.0461593382061, Q3 : -0.120853565633, Q4 : 0.513762712479}
2019-04-14 16:57:04.91: SIM {TimeUS : 56935550, Roll : -0.8, Pitch : -15.24, Yaw : 59.47, Alt : 49.2799987793, Lat : 49.2835943, Lng : -123.114968, Q1 : 0.861070275307, Q2 : 0.059717617929, Q3 : -0.118622027338, Q4 : 0.490836650133}
2019-04-14 16:57:05.01: SIM {TimeUS : 57035510, Roll : 0.91, Pitch : -15.66, Yaw : 56.36, Alt : 49.2799987793, Lat : 49.2835958, Lng : -123.114965, Q1 : 0.872698247433, Q2 : 0.071301586926, Q3 : -0.116376630962, Q4 : 0.468796730042}
2019-04-14 16:57:05.11: SIM {TimeUS : 57135470, Roll : 2.28, Pitch : -15.85, Yaw : 53.72, Alt : 49.2799987793, Lat : 49.2835976, Lng : -123.1149618, Q1 : 0.88212865591, Q2 : 0.0799594223499, Q3 : -0.114116750658, Q4 : 0.449925452471}
2019-04-14 16:57:05.21: SIM {TimeUS : 57235430, Roll : 3.21, Pitch : -15.88, Yaw : 51.79, Alt : 49.2799987793, Lat : 49.2835993, Lng : -123.1149585, Q1 : 0.88891351223, Q2 : 0.0852703154087, Q3 : -0.112105965614, Q4 : 0.435883045197}
2019-04-14 16:57:05.31: SIM {TimeUS : 57335390, Roll : 3.65, Pitch : -15.81, Yaw : 50.65, Alt : 49.2799987793, Lat : 49.2836008, Lng : -123.1149551, Q1 : 0.892938613892, Q2 : 0.0873614773154, Q3 : -0.11078903079, Q4 : 0.427497804165}
2019-04-14 16:57:05.41: SIM {TimeUS : 57435350, Roll : 3.63, Pitch : -15.75, Yaw : 50.3, Alt : 49.2799987793, Lat : 49.2836025, Lng : -123.1149515, Q1 : 0.894334554672, Q2 : 0.0866509452462, Q3 : -0.110681161284, Q4 : 0.424743562937}
2019-04-14 16:57:05.51: SIM {TimeUS : 57535310, Roll : 3.22, Pitch : -15.75, Yaw : 50.63, Alt : 49.2799987793, Lat : 49.2836043, Lng : -123.1149478, Q1 : 0.893403172493, Q2 : 0.0837771445513, Q3 : -0.111968487501, Q4 : 0.426937073469}
2019-04-14 16:57:05.61: SIM {TimeUS : 57635270, Roll : 2.52, Pitch : -15.83, Yaw : 51.5, Alt : 49.2799987793, Lat : 49.283606, Lng : -123.114944, Q1 : 0.8905813694, Q2 : 0.0794591978192, Q3 : -0.114527203143, Q4 : 0.432937145233}
2019-04-14 16:57:05.71: SIM {TimeUS : 57735230, Roll : 1.66, Pitch : -15.95, Yaw : 52.7, Alt : 49.2900009155, Lat : 49.2836077, Lng : -123.1149402, Q1 : 0.88640755415, Q2 : 0.0744888782501, Q3 : -0.117934405804, Q4 : 0.441389411688}
2019-04-14 16:57:05.81: SIM {TimeUS : 57835190, Roll : 0.78, Pitch : -16.09, Yaw : 54.07, Alt : 49.2900009155, Lat : 49.2836093, Lng : -123.1149362, Q1 : 0.881487727165, Q2 : 0.0696669742465, Q3 : -0.121649496257, Q4 : 0.450918346643}
2019-04-14 16:57:05.91: SIM {TimeUS : 57935150, Roll : -0.02, Pitch : -16.25, Yaw : 55.41, Alt : 49.2900009155, Lat : 49.283611, Lng : -123.1149322, Q1 : 0.876449167728, Q2 : 0.0655222833157, Q3 : -0.125266388059, Q4 : 0.460273891687}
2019-04-14 16:57:06.01: SIM {TimeUS : 58035110, Roll : -0.69, Pitch : -16.38, Yaw : 56.59, Alt : 49.2900009155, Lat : 49.2836128, Lng : -123.1149281, Q1 : 0.871897816658, Q2 : 0.0622535720468, Q3 : -0.128309160471, Q4 : 0.468460738659}
2019-04-14 16:57:06.11: SIM {TimeUS : 58135070, Roll : -1.18, Pitch : -16.48, Yaw : 57.51, Alt : 49.2900009155, Lat : 49.2836147, Lng : -123.1149239, Q1 : 0.868292510509, Q2 : 0.0599625892937, Q3 : -0.130585193634, Q4 : 0.474784255028}
2019-04-14 16:57:06.21: SIM {TimeUS : 58235030, Roll : -1.47, Pitch : -16.51, Yaw : 58.1, Alt : 49.2900009155, Lat : 49.2836165, Lng : -123.1149198, Q1 : 0.865936636925, Q2 : 0.0586365163326, Q3 : -0.131745383143, Q4 : 0.478914141655}
2019-04-14 16:57:06.31: SIM {TimeUS : 58334990, Roll : -1.54, Pitch : -16.51, Yaw : 58.36, Alt : 49.2900009155, Lat : 49.2836184, Lng : -123.1149156, Q1 : 0.8648878932, Q2 : 0.0583706833422, Q3 : -0.131844818592, Q4 : 0.480810582638}
2019-04-14 16:57:06.41: SIM {TimeUS : 58434950, Roll : -1.43, Pitch : -16.5, Yaw : 58.32, Alt : 49.2900009155, Lat : 49.2836203, Lng : -123.1149114, Q1 : 0.865013837814, Q2 : 0.0590875633061, Q3 : -0.131385281682, Q4 : 0.480622172356}
2019-04-14 16:57:06.51: SIM {TimeUS : 58534910, Roll : -1.18, Pitch : -16.51, Yaw : 58.03, Alt : 49.2900009155, Lat : 49.2836223, Lng : -123.114907, Q1 : 0.866071999073, Q2 : 0.0607346221805, Q3 : -0.130570083857, Q4 : 0.478729635477}
2019-04-14 16:57:06.61: SIM {TimeUS : 58634870, Roll : -0.81, Pitch : -16.53, Yaw : 57.57, Alt : 49.2900009155, Lat : 49.2836243, Lng : -123.1149026, Q1 : 0.867779612541, Q2 : 0.0630496516824, Q3 : -0.129417449236, Q4 : 0.475641071796}
2019-04-14 16:57:06.71: SIM {TimeUS : 58734830, Roll : -0.42, Pitch : -16.56, Yaw : 57.01, Alt : 49.2900009155, Lat : 49.2836262, Lng : -123.1148983, Q1 : 0.869824945927, Q2 : 0.0655373334885, Q3 : -0.128307491541, Q4 : 0.471854478121}
2019-04-14 16:57:06.81: SIM {TimeUS : 58835623, Roll : -0.06, Pitch : -16.61, Yaw : 56.43, Alt : 49.2900009155, Lat : 49.2836282, Lng : -123.1148938, Q1 : 0.871932625771, Q2 : 0.067838780582, Q3 : -0.127558931708, Q4 : 0.467824876308}
2019-04-14 16:57:06.91: SIM {TimeUS : 58935583, Roll : 0.23, Pitch : -16.66, Yaw : 55.91, Alt : 49.2900009155, Lat : 49.2836304, Lng : -123.1148893, Q1 : 0.873841285706, Q2 : 0.0697219222784, Q3 : -0.127092704177, Q4 : 0.46409881115}
2019-04-14 16:57:07.01: SIM {TimeUS : 59035543, Roll : 0.44, Pitch : -16.73, Yaw : 55.47, Alt : 49.2900009155, Lat : 49.2836323, Lng : -123.1148848, Q1 : 0.875384569168, Q2 : 0.0711703076959, Q3 : -0.126995071769, Q4 : 0.460986942053}
2019-04-14 16:57:07.11: SIM {TimeUS : 59135503, Roll : 0.57, Pitch : -16.79, Yaw : 55.16, Alt : 49.2900009155, Lat : 49.2836345, Lng : -123.1148801, Q1 : 0.876486241817, Q2 : 0.0720567405224, Q3 : -0.127135485411, Q4 : 0.458711564541}
2019-04-14 16:57:07.21: SIM {TimeUS : 59235463, Roll : 0.63, Pitch : -16.84, Yaw : 54.98, Alt : 49.2900009155, Lat : 49.2836365, Lng : -123.1148756, Q1 : 0.877101004124, Q2 : 0.0724646821618, Q3 : -0.127441048622, Q4 : 0.457385569811}
2019-04-14 16:57:07.31: SIM {TimeUS : 59335423, Roll : 0.61, Pitch : -16.89, Yaw : 54.93, Alt : 49.2900009155, Lat : 49.2836385, Lng : -123.114871, Q1 : 0.877254247665, Q2 : 0.0724549368024, Q3 : -0.127901539207, Q4 : 0.456964433193}
2019-04-14 16:57:07.41: SIM {TimeUS : 59435383, Roll : 0.54, Pitch : -16.92, Yaw : 54.99, Alt : 49.2900009155, Lat : 49.2836407, Lng : -123.1148663, Q1 : 0.877019166946, Q2 : 0.0721335336566, Q3 : -0.12837100029, Q4 : 0.457334697247}
2019-04-14 16:57:07.51: SIM {TimeUS : 59535343, Roll : 0.43, Pitch : -16.94, Yaw : 55.14, Alt : 49.2900009155, Lat : 49.2836427, Lng : -123.1148615, Q1 : 0.876500189304, Q2 : 0.071511156857, Q3 : -0.128844484687, Q4 : 0.458293199539}
2019-04-14 16:57:07.61: SIM {TimeUS : 59635303, Roll : 0.3, Pitch : -16.95, Yaw : 55.33, Alt : 49.2900009155, Lat : 49.2836449, Lng : -123.1148568, Q1 : 0.875791072845, Q2 : 0.0707875564694, Q3 : -0.129373759031, Q4 : 0.459610253572}
2019-04-14 16:57:07.71: SIM {TimeUS : 59735263, Roll : 0.15, Pitch : -16.97, Yaw : 55.54, Alt : 49.2999992371, Lat : 49.2836469, Lng : -123.114852, Q1 : 0.875009119511, Q2 : 0.0699964687228, Q3 : -0.129951715469, Q4 : 0.461055457592}
2019-04-14 16:57:07.81: SIM {TimeUS : 59835223, Roll : 0.02, Pitch : -16.99, Yaw : 55.74, Alt : 49.2999992371, Lat : 49.2836491, Lng : -123.1148472, Q1 : 0.874255895615, Q2 : 0.069260917604, Q3 : -0.130539551377, Q4 : 0.462427318096}
2019-04-14 16:57:07.91: SIM {TimeUS : 59935183, Roll : -0.08, Pitch : -17.02, Yaw : 55.91, Alt : 49.2999992371, Lat : 49.2836511, Lng : -123.1148423, Q1 : 0.873597681522, Q2 : 0.0687432512641, Q3 : -0.131130442023, Q4 : 0.463579833508}
2019-04-14 16:57:08.01: SIM {TimeUS : 60035143, Roll : -0.16, Pitch : -17.07, Yaw : 56.04, Alt : 49.2999992371, Lat : 49.2836534, Lng : -123.1148374, Q1 : 0.873095154762, Q2 : 0.0684461519122, Q3 : -0.131713524461, Q4 : 0.464404463768}
2019-04-14 16:57:08.11: SIM {TimeUS : 60135103, Roll : -0.23, Pitch : -17.11, Yaw : 56.11, Alt : 49.2999992371, Lat : 49.2836554, Lng : -123.1148325, Q1 : 0.872799396515, Q2 : 0.0681850016117, Q3 : -0.132303908467, Q4 : 0.464830845594}
2019-04-14 16:57:08.21: SIM {TimeUS : 60235063, Roll : -0.27, Pitch : -17.15, Yaw : 56.12, Alt : 49.2999992371, Lat : 49.2836577, Lng : -123.1148276, Q1 : 0.872726023197, Q2 : 0.0680390894413, Q3 : -0.132704585791, Q4 : 0.464875727892}
2019-04-14 16:57:08.31: SIM {TimeUS : 60335023, Roll : -0.28, Pitch : -17.17, Yaw : 56.09, Alt : 49.2999992371, Lat : 49.2836598, Lng : -123.1148227, Q1 : 0.872840046883, Q2 : 0.0680563151836, Q3 : -0.132974907756, Q4 : 0.464581817389}
2019-04-14 16:57:08.41: SIM {TimeUS : 60434983, Roll : -0.24, Pitch : -17.21, Yaw : 56.01, Alt : 49.2999992371, Lat : 49.2836621, Lng : -123.1148177, Q1 : 0.873078465462, Q2 : 0.0684378892183, Q3 : -0.133118376136, Q4 : 0.464036375284}
2019-04-14 16:57:08.51: SIM {TimeUS : 60534943, Roll : -0.16, Pitch : -17.25, Yaw : 55.91, Alt : 49.2999992371, Lat : 49.2836643, Lng : -123.1148126, Q1 : 0.873407423496, Q2 : 0.0690557286143, Q3 : -0.133142128587, Q4 : 0.463318437338}
2019-04-14 16:57:08.61: SIM {TimeUS : 60634903, Roll : -0.06, Pitch : -17.28, Yaw : 55.79, Alt : 49.2999992371, Lat : 49.2836664, Lng : -123.1148077, Q1 : 0.873777091503, Q2 : 0.0698022469878, Q3 : -0.133096292615, Q4 : 0.462522059679}
2019-04-14 16:57:08.71: SIM {TimeUS : 60734863, Roll : 0.03, Pitch : -17.31, Yaw : 55.67, Alt : 49.3100013733, Lat : 49.2836687, Lng : -123.1148027, Q1 : 0.874153256416, Q2 : 0.0706077888608, Q3 : -0.132988154888, Q4 : 0.461719363928}
2019-04-14 16:57:08.81: SIM {TimeUS : 60834823, Roll : 0.11, Pitch : -17.34, Yaw : 55.57, Alt : 49.3100013733, Lat : 49.283671, Lng : -123.1147977, Q1 : 0.874517977238, Q2 : 0.0711664408445, Q3 : -0.132920816541, Q4 : 0.460961699486}
2019-04-14 16:57:08.91: SIM {TimeUS : 60935616, Roll : 0.15, Pitch : -17.34, Yaw : 55.47, Alt : 49.3100013733, Lat : 49.2836731, Lng : -123.1147926, Q1 : 0.874853134155, Q2 : 0.0713547617197, Q3 : -0.132881686091, Q4 : 0.460307449102}
2019-04-14 16:57:09.01: SIM {TimeUS : 61035576, Roll : 0.15, Pitch : -17.35, Yaw : 55.41, Alt : 49.3100013733, Lat : 49.2836755, Lng : -123.1147875, Q1 : 0.875117599964, Q2 : 0.0712872818112, Q3 : -0.132927179337, Q4 : 0.459801793098}
2019-04-14 16:57:09.11: SIM {TimeUS : 61135536, Roll : 0.16, Pitch : -17.35, Yaw : 55.37, Alt : 49.3100013733, Lat : 49.2836778, Lng : -123.1147824, Q1 : 0.875273346901, Q2 : 0.071331910789, Q3 : -0.132946059108, Q4 : 0.459492862225}
2019-04-14 16:57:09.21: SIM {TimeUS : 61235496, Roll : 0.16, Pitch : -17.36, Yaw : 55.35, Alt : 49.3100013733, Lat : 49.2836799, Lng : -123.1147773, Q1 : 0.875328600407, Q2 : 0.0714018270373, Q3 : -0.133056521416, Q4 : 0.45934471488}
2019-04-14 16:57:09.31: SIM {TimeUS : 61335456, Roll : 0.17, Pitch : -17.4, Yaw : 55.35, Alt : 49.3100013733, Lat : 49.2836822, Lng : -123.1147722, Q1 : 0.875274479389, Q2 : 0.0716457664967, Q3 : -0.133305624127, Q4 : 0.459337681532}
2019-04-14 16:57:09.41: SIM {TimeUS : 61435416, Roll : 0.17, Pitch : -17.46, Yaw : 55.36, Alt : 49.3100013733, Lat : 49.2836846, Lng : -123.114767, Q1 : 0.87515181303, Q2 : 0.0719055756927, Q3 : -0.133743867278, Q4 : 0.459403425455}
2019-04-14 16:57:09.51: SIM {TimeUS : 61535376, Roll : 0.16, Pitch : -17.5, Yaw : 55.38, Alt : 49.3100013733, Lat : 49.2836868, Lng : -123.1147619, Q1 : 0.875033080578, Q2 : 0.0720123574138, Q3 : -0.134052604437, Q4 : 0.459522843361}
2019-04-14 16:57:09.61: SIM {TimeUS : 61635336, Roll : 0.15, Pitch : -17.51, Yaw : 55.4, Alt : 49.3100013733, Lat : 49.283689, Lng : -123.1147567, Q1 : 0.874946951866, Q2 : 0.0719254910946, Q3 : -0.134155228734, Q4 : 0.459670484066}
2019-04-14 16:57:09.71: SIM {TimeUS : 61735296, Roll : 0.11, Pitch : -17.51, Yaw : 55.42, Alt : 49.3199996948, Lat : 49.2836913, Lng : -123.1147515, Q1 : 0.874877929688, Q2 : 0.0717163011432, Q3 : -0.134325176477, Q4 : 0.459784954786}
2019-04-14 16:57:09.81: SIM {TimeUS : 61835256, Roll : 0.07, Pitch : -17.53, Yaw : 55.44, Alt : 49.3199996948, Lat : 49.2836937, Lng : -123.1147463, Q1 : 0.87481713295, Q2 : 0.0715243592858, Q3 : -0.134630456567, Q4 : 0.459841161966}
2019-04-14 16:57:09.91: SIM {TimeUS : 61935216, Roll : 0.06, Pitch : -17.56, Yaw : 55.45, Alt : 49.3199996948, Lat : 49.283696, Lng : -123.1147411, Q1 : 0.874765336514, Q2 : 0.0715159848332, Q3 : -0.134854108095, Q4 : 0.459875404835}
2019-04-14 16:57:10.01: SIM {TimeUS : 62035176, Roll : 0.05, Pitch : -17.58, Yaw : 55.45, Alt : 49.3199996948, Lat : 49.2836984, Lng : -123.1147359, Q1 : 0.87474668026, Q2 : 0.0715215876698, Q3 : -0.135089442134, Q4 : 0.459841072559}
2019-04-14 16:57:10.11: SIM {TimeUS : 62135136, Roll : 0.04, Pitch : -17.6, Yaw : 55.44, Alt : 49.3199996948, Lat : 49.2837007, Lng : -123.1147307, Q1 : 0.874772369862, Q2 : 0.0715338364244, Q3 : -0.135237574577, Q4 : 0.459746748209}
2019-04-14 16:57:10.21: SIM {TimeUS : 62235096, Roll : 0.05, Pitch : -17.61, Yaw : 55.42, Alt : 49.3199996948, Lat : 49.2837029, Lng : -123.1147254, Q1 : 0.874826729298, Q2 : 0.0716322883964, Q3 : -0.135343819857, Q4 : 0.459596604109}
2019-04-14 16:57:10.31: SIM {TimeUS : 62335056, Roll : 0.07, Pitch : -17.63, Yaw : 55.39, Alt : 49.3199996948, Lat : 49.2837053, Lng : -123.1147202, Q1 : 0.874903261662, Q2 : 0.0718106031418, Q3 : -0.135382980108, Q4 : 0.459411561489}
2019-04-14 16:57:10.41: SIM {TimeUS : 62435016, Roll : 0.1, Pitch : -17.64, Yaw : 55.36, Alt : 49.3199996948, Lat : 49.2837077, Lng : -123.1147149, Q1 : 0.87497740984, Q2 : 0.0720721334219, Q3 : -0.135400891304, Q4 : 0.459224134684}
2019-04-14 16:57:10.51: SIM {TimeUS : 62534976, Roll : 0.13, Pitch : -17.67, Yaw : 55.33, Alt : 49.3199996948, Lat : 49.28371, Lng : -123.1147097, Q1 : 0.875042974949, Q2 : 0.0723954588175, Q3 : -0.135507330298, Q4 : 0.459016829729}
2019-04-14 16:57:10.61: SIM {TimeUS : 62634936, Roll : 0.15, Pitch : -17.71, Yaw : 55.3, Alt : 49.3199996948, Lat : 49.2837124, Lng : -123.1147044, Q1 : 0.875106394291, Q2 : 0.0726440548897, Q3 : -0.135777384043, Q4 : 0.458776831627}
2019-04-14 16:57:10.71: SIM {TimeUS : 62734896, Roll : 0.14, Pitch : -17.75, Yaw : 55.27, Alt : 49.3199996948, Lat : 49.2837147, Lng : -123.1146991, Q1 : 0.875173330307, Q2 : 0.0727416276932, Q3 : -0.136134386063, Q4 : 0.458527773619}
2019-04-14 16:57:10.81: SIM {TimeUS : 62834856, Roll : 0.14, Pitch : -17.79, Yaw : 55.25, Alt : 49.3199996948, Lat : 49.283717, Lng : -123.1146938, Q1 : 0.875236809254, Q2 : 0.0728041082621, Q3 : -0.136464580894, Q4 : 0.458298504353}
2019-04-14 16:57:10.91: SIM {TimeUS : 62934816, Roll : 0.15, Pitch : -17.81, Yaw : 55.23, Alt : 49.3199996948, Lat : 49.2837193, Lng : -123.1146885, Q1 : 0.875288963318, Q2 : 0.0729631558061, Q3 : -0.136604562402, Q4 : 0.458131939173}
2019-04-14 16:57:11.01: SIM {TimeUS : 63035609, Roll : 0.18, Pitch : -17.81, Yaw : 55.21, Alt : 49.3199996948, Lat : 49.2837217, Lng : -123.1146831, Q1 : 0.87534224987, Q2 : 0.0731739252806, Q3 : -0.136505588889, Q4 : 0.458025932312}
2019-04-14 16:57:11.11: SIM {TimeUS : 63135569, Roll : 0.2, Pitch : -17.79, Yaw : 55.19, Alt : 49.3199996948, Lat : 49.2837241, Lng : -123.1146777, Q1 : 0.875418126583, Q2 : 0.0731977298856, Q3 : -0.136218249798, Q4 : 0.457962661982}
2019-04-14 16:57:11.21: SIM {TimeUS : 63235529, Roll : 0.2, Pitch : -17.76, Yaw : 55.19, Alt : 49.3300018311, Lat : 49.2837265, Lng : -123.1146724, Q1 : 0.87547570467, Q2 : 0.0730871781707, Q3 : -0.136071458459, Q4 : 0.457913905382}
2019-04-14 16:57:11.31: SIM {TimeUS : 63335489, Roll : 0.18, Pitch : -17.75, Yaw : 55.18, Alt : 49.3300018311, Lat : 49.283729, Lng : -123.114667, Q1 : 0.875523269176, Q2 : 0.0728756561875, Q3 : -0.136032253504, Q4 : 0.457868367434}
2019-04-14 16:57:11.41: SIM {TimeUS : 63435449, Roll : 0.16, Pitch : -17.74, Yaw : 55.18, Alt : 49.3300018311, Lat : 49.2837314, Lng : -123.1146617, Q1 : 0.875554323196, Q2 : 0.0727228149772, Q3 : -0.136066123843, Q4 : 0.45782315731}
2019-04-14 16:57:11.51: SIM {TimeUS : 63535409, Roll : 0.15, Pitch : -17.76, Yaw : 55.17, Alt : 49.3300018311, Lat : 49.2837337, Lng : -123.1146563, Q1 : 0.87555962801, Q2 : 0.0726713985205, Q3 : -0.136248618364, Q4 : 0.457766979933}
2019-04-14 16:57:11.61: SIM {TimeUS : 63635369, Roll : 0.14, Pitch : -17.78, Yaw : 55.17, Alt : 49.3300018311, Lat : 49.2837361, Lng : -123.1146509, Q1 : 0.875550031662, Q2 : 0.0727366134524, Q3 : -0.136448353529, Q4 : 0.457715421915}
2019-04-14 16:57:11.71: SIM {TimeUS : 63735329, Roll : 0.13, Pitch : -17.83, Yaw : 55.17, Alt : 49.3300018311, Lat : 49.2837385, Lng : -123.1146455, Q1 : 0.875524222851, Q2 : 0.0728358402848, Q3 : -0.136816352606, Q4 : 0.457639187574}
2019-04-14 16:57:11.81: SIM {TimeUS : 63835289, Roll : 0.13, Pitch : -17.88, Yaw : 55.16, Alt : 49.3300018311, Lat : 49.2837409, Lng : -123.1146401, Q1 : 0.875493049622, Q2 : 0.0729895681143, Q3 : -0.137217760086, Q4 : 0.457554131746}
2019-04-14 16:57:11.91: SIM {TimeUS : 63935249, Roll : 0.14, Pitch : -17.91, Yaw : 55.15, Alt : 49.3300018311, Lat : 49.2837433, Lng : -123.1146347, Q1 : 0.875478088856, Q2 : 0.073197580874, Q3 : -0.137460008264, Q4 : 0.457476735115}
2019-04-14 16:57:12.01: SIM {TimeUS : 64035209, Roll : 0.14, Pitch : -17.94, Yaw : 55.14, Alt : 49.3300018311, Lat : 49.2837457, Lng : -123.1146293, Q1 : 0.875484108925, Q2 : 0.0733152627945, Q3 : -0.137695208192, Q4 : 0.457375645638}
2019-04-14 16:57:12.11: SIM {TimeUS : 64135169, Roll : 0.14, Pitch : -17.96, Yaw : 55.13, Alt : 49.3300018311, Lat : 49.283748, Lng : -123.1146239, Q1 : 0.875513553619, Q2 : 0.0733469054103, Q3 : -0.137864783406, Q4 : 0.45726314187}
2019-04-14 16:57:12.21: SIM {TimeUS : 64235129, Roll : 0.15, Pitch : -17.96, Yaw : 55.11, Alt : 49.3300018311, Lat : 49.2837506, Lng : -123.1146185, Q1 : 0.875571608543, Q2 : 0.0733898356557, Q3 : -0.137780070305, Q4 : 0.457170605659}
2019-04-14 16:57:12.31: SIM {TimeUS : 64335089, Roll : 0.17, Pitch : -17.96, Yaw : 55.09, Alt : 49.3300018311, Lat : 49.283753, Lng : -123.114613, Q1 : 0.875629663467, Q2 : 0.0735131800175, Q3 : -0.137738004327, Q4 : 0.45705229044}
2019-04-14 16:57:12.41: SIM {TimeUS : 64435049, Roll : 0.17, Pitch : -17.97, Yaw : 55.07, Alt : 49.3300018311, Lat : 49.2837553, Lng : -123.1146076, Q1 : 0.875687301159, Q2 : 0.0735742971301, Q3 : -0.137851625681, Q4 : 0.456897675991}
2019-04-14 16:57:12.51: SIM {TimeUS : 64535009, Roll : 0.17, Pitch : -17.98, Yaw : 55.06, Alt : 49.3300018311, Lat : 49.2837577, Lng : -123.1146022, Q1 : 0.87575507164, Q2 : 0.07360650599, Q3 : -0.137908115983, Q4 : 0.456745564938}
2019-04-14 16:57:12.61: SIM {TimeUS : 64634969, Roll : 0.18, Pitch : -17.98, Yaw : 55.04, Alt : 49.3400001526, Lat : 49.2837601, Lng : -123.1145967, Q1 : 0.875828683376, Q2 : 0.0736328214407, Q3 : -0.137849360704, Q4 : 0.456617861986}
2019-04-14 16:57:12.71: SIM {TimeUS : 64734929, Roll : 0.19, Pitch : -17.97, Yaw : 55.02, Alt : 49.3400001526, Lat : 49.2837626, Lng : -123.1145912, Q1 : 0.875895678997, Q2 : 0.0736319720745, Q3 : -0.137811630964, Q4 : 0.456500887871}
2019-04-14 16:57:12.81: SIM {TimeUS : 64834889, Roll : 0.17, Pitch : -17.99, Yaw : 55.01, Alt : 49.3400001526, Lat : 49.283765, Lng : -123.1145858, Q1 : 0.875937700272, Q2 : 0.0735911652446, Q3 : -0.137980610132, Q4 : 0.456375777721}
2019-04-14 16:57:12.91: SIM {TimeUS : 64934849, Roll : 0.16, Pitch : -18.02, Yaw : 55.0, Alt : 49.3400001526, Lat : 49.2837674, Lng : -123.1145803, Q1 : 0.875951170921, Q2 : 0.0735769197345, Q3 : -0.138313859701, Q4 : 0.456251323223}
2019-04-14 16:57:13.01: SIM {TimeUS : 65035642, Roll : 0.15, Pitch : -18.03, Yaw : 54.99, Alt : 49.3400001526, Lat : 49.2837699, Lng : -123.1145748, Q1 : 0.875982165337, Q2 : 0.0735045298934, Q3 : -0.138408347964, Q4 : 0.456174790859}
2019-04-14 16:57:13.11: SIM {TimeUS : 65135602, Roll : 0.15, Pitch : -18.01, Yaw : 54.98, Alt : 49.3400001526, Lat : 49.2837723, Lng : -123.1145693, Q1 : 0.876021206379, Q2 : 0.0734954252839, Q3 : -0.138266474009, Q4 : 0.456144332886}
2019-04-14 16:57:13.21: SIM {TimeUS : 65235562, Roll : 0.17, Pitch : -18.0, Yaw : 54.98, Alt : 49.3400001526, Lat : 49.2837749, Lng : -123.1145638, Q1 : 0.876055836678, Q2 : 0.0735299736261, Q3 : -0.138091310859, Q4 : 0.456125319004}
2019-04-14 16:57:13.31: SIM {TimeUS : 65335522, Roll : 0.17, Pitch : -18.0, Yaw : 54.97, Alt : 49.3400001526, Lat : 49.2837772, Lng : -123.1145584, Q1 : 0.876073002815, Q2 : 0.0735753625631, Q3 : -0.138127535582, Q4 : 0.456074148417}
2019-04-14 16:57:13.41: SIM {TimeUS : 65435482, Roll : 0.16, Pitch : -18.02, Yaw : 54.96, Alt : 49.3400001526, Lat : 49.2837798, Lng : -123.1145529, Q1 : 0.876083016396, Q2 : 0.0735508874059, Q3 : -0.138335078955, Q4 : 0.455995798111}
2019-04-14 16:57:13.51: SIM {TimeUS : 65535442, Roll : 0.13, Pitch : -18.05, Yaw : 54.96, Alt : 49.3400001526, Lat : 49.2837822, Lng : -123.1145474, Q1 : 0.876094222069, Q2 : 0.0734522417188, Q3 : -0.138657554984, Q4 : 0.455892264843}
2019-04-14 16:57:13.61: SIM {TimeUS : 65635402, Roll : 0.12, Pitch : -18.07, Yaw : 54.95, Alt : 49.3400001526, Lat : 49.2837847, Lng : -123.1145419, Q1 : 0.876108705997, Q2 : 0.0734432339668, Q3 : -0.138905912638, Q4 : 0.455790311098}
2019-04-14 16:57:13.71: SIM {TimeUS : 65735362, Roll : 0.12, Pitch : -18.1, Yaw : 54.94, Alt : 49.3400001526, Lat : 49.2837871, Lng : -123.1145364, Q1 : 0.876120209694, Q2 : 0.0735499858856, Q3 : -0.139063358307, Q4 : 0.455702990294}
2019-04-14 16:57:13.81: SIM {TimeUS : 65835322, Roll : 0.14, Pitch : -18.11, Yaw : 54.93, Alt : 49.3400001526, Lat : 49.2837896, Lng : -123.1145309, Q1 : 0.876129567623, Q2 : 0.0736998021603, Q3 : -0.139157861471, Q4 : 0.455631971359}
2019-04-14 16:57:13.91: SIM {TimeUS : 65935282, Roll : 0.16, Pitch : -18.13, Yaw : 54.92, Alt : 49.3400001526, Lat : 49.2837921, Lng : -123.1145254, Q1 : 0.876138448715, Q2 : 0.0739348530769, Q3 : -0.139164179564, Q4 : 0.455574899912}
