2019-04-14 19:24:29.70: SIM {TimeUS : 40116447, Roll : 0.0, Pitch : 0.0, Yaw : 0.0, Alt : 30.1000003815, Lat : 49.28357, Lng : -123.11502, Q1 : 1.0, Q2 : 0.0, Q3 : 0.0, Q4 : 0.0}
2019-04-14 19:24:29.81: SIM {TimeUS : 40235566, Roll : 0.0, Pitch : 0.0, Yaw : 0.0, Alt : 30.1000003815, Lat : 49.28357, Lng : -123.11502, Q1 : 1.0, Q2 : 0.0, Q3 : 0.0, Q4 : 0.0}
2019-04-14 19:24:29.91: SIM {TimeUS : 40335526, Roll : 0.0, Pitch : 0.0, Yaw : 0.0, Alt : 30.1000003815, Lat : 49.28357, Lng : -123.11502, Q1 : 1.0, Q2 : 0.0, Q3 : 0.0, Q4 : 0.0}
2019-04-14 19:24:30.01: SIM {TimeUS : 40435486, Roll : 0.0, Pitch : 0.0, Yaw : 0.0, Alt : 30.1000003815, Lat : 49.28357, Lng : -123.11502, Q1 : 1.0, Q2 : 0.0, Q3 : 0.0, Q4 : 0.0}
2019-04-14 19:24:30.11: SIM {TimeUS : 40535446, Roll : 0.0, Pitch : 0.0, Yaw : 0.0, Alt : 30.1000003815, Lat : 49.28357, Lng : -123.11502, Q1 : 1.0, Q2 : 0.0, Q3 : 0.0, Q4 : 0.0}
2019-04-14 19:24:30.21: SIM {TimeUS : 40635406, Roll : 0.0, Pitch : 0.0, Yaw : 0.0, Alt : 30.1000003815, Lat : 49.28357, Lng : -123.11502, Q1 : 1.0, Q2 : 0.0, Q3 : 0.0, Q4 : 0.0}
2019-04-14 19:24:30.31: SIM {TimeUS : 40735366, Roll : 0.0, Pitch : 0.0, Yaw : 0.0, Alt : 30.1000003815, Lat : 49.28357, Lng : -123.11502, Q1 : 1.0, Q2 : 0.0, Q3 : 0.0, Q4 : 0.0}
2019-04-14 19:24:30.41: SIM {TimeUS : 40835326, Roll : 0.0, Pitch : 0.0, Yaw : 0.0, Alt : 30.1000003815, Lat : 49.28357, Lng : -123.11502, Q1 : 1.0, Q2 : 0.0, Q3 : 0.0, Q4 : 0.0}
2019-04-14 19:24:30.51: SIM {TimeUS : 40935286, Roll : 0.0, Pitch : 0.0, Yaw : 0.0, Alt : 30.1000003815, Lat : 49.28357, Lng : -123.11502, Q1 : 1.0, Q2 : 0.0, Q3 : 0.0, Q4 : 0.0}
2019-04-14 19:24:30.61: SIM {TimeUS : 41035246, Roll : 0.0, Pitch : 0.0, Yaw : 0.0, Alt : 30.1000003815, Lat : 49.28357, Lng : -123.11502, Q1 : 1.0, Q2 : 0.0, Q3 : 0.0, Q4 : 0.0}
2019-04-14 19:24:30.71: SIM {TimeUS : 41135206, Roll : 0.0, Pitch : 0.0, Yaw : 0.0, Alt : 30.1000003815, Lat : 49.28357, Lng : -123.11502, Q1 : 1.0, Q2 : 0.0, Q3 : 0.0, Q4 : 0.0}
2019-04-14 19:24:30.81: SIM {TimeUS : 41235166, Roll : 0.0, Pitch : 0.0, Yaw : 0.0, Alt : 30.1000003815, Lat : 49.28357, Lng : -123.11502, Q1 : 1.0, Q2 : 0.0, Q3 : 0.0, Q4 : 0.0}
2019-04-14 19:24:30.91: SIM {TimeUS : 41335126, Roll : 0.0, Pitch : 0.0, Yaw : 0.0, Alt : 30.1000003815, Lat : 49.28357, Lng : -123.11502, Q1 : 1.0, Q2 : 0.0, Q3 : 0.0, Q4 : 0.0}
2019-04-14 19:24:31.01: SIM {TimeUS : 41435086, Roll : 0.0, Pitch : 0.0, Yaw : 0.0, Alt : 30.1000003815, Lat : 49.28357, Lng : -123.11502, Q1 : 1.0, Q2 : 0.0, Q3 : 0.0, Q4 : 0.0}
2019-04-14 19:24:31.11: SIM {TimeUS : 41535046, Roll : 0.0, Pitch : 0.0, Yaw : 0.0, Alt : 30.1000003815, Lat : 49.28357, Lng : -123.11502, Q1 : 1.0, Q2 : 0.0, Q3 : 0.0, Q4 : 0.0}
2019-04-14 19:24:31.21: SIM {TimeUS : 41635006, Roll : 0.0, Pitch : 0.0, Yaw : 0.0, Alt : 30.1000003815, Lat : 49.28357, Lng : -123.11502, Q1 : 1.0, Q2 : 0.0, Q3 : 0.0, Q4 : 0.0}
2019-04-14 19:24:31.31: SIM {TimeUS : 41734966, Roll : 0.0, Pitch : 0.0, Yaw : 0.0, Alt : 30.1000003815, Lat : 49.28357, Lng : -123.11502, Q1 : 1.0, Q2 : 0.0, Q3 : 0.0, Q4 : 0.0}
2019-04-14 19:24:31.41: SIM {TimeUS : 41834926, Roll : 0.0, Pitch : 0.0, Yaw : 0.0, Alt : 30.1000003815, Lat : 49.28357, Lng : -123.11502, Q1 : 1.0, Q2 : 0.0, Q3 : 0.0, Q4 : 0.0}
2019-04-14 19:24:31.51: SIM {TimeUS : 41934886, Roll : 0.0, Pitch : 0.0, Yaw : 0.0, Alt : 30.1000003815, Lat : 49.28357, Lng : -123.11502, Q1 : 1.0, Q2 : 0.0, Q3 : 0.0, Q4 : 0.0}
2019-04-14 19:24:31.61: SIM {TimeUS : 42034846, Roll : 0.0, Pitch : 0.0, Yaw : 0.0, Alt : 30.1000003815, Lat : 49.28357, Lng : -123.11502, Q1 : 1.0, Q2 : 0.0, Q3 : 0.0, Q4 : 0.0}
2019-04-14 19:24:31.71: SIM {TimeUS : 42134806, Roll : 0.0, Pitch : 0.0, Yaw : 0.0, Alt : 30.1000003815, Lat : 49.28357, Lng : -123.11502, Q1 : 1.0, Q2 : 0.0, Q3 : 0.0, Q4 : 0.0}
2019-04-14 19:24:31.82: SIM {TimeUS : 42235599, Roll : 0.0, Pitch : 0.0, Yaw : 0.0, Alt : 30.1000003815, Lat : 49.28357, Lng : -123.11502, Q1 : 1.0, Q2 : 0.0, Q3 : 0.0, Q4 : 0.0}
2019-04-14 19:24:31.91: SIM {TimeUS : 42335559, Roll : 0.0, Pitch : 0.0, Yaw : 0.0, Alt : 30.1000003815, Lat : 49.28357, Lng : -123.11502, Q1 : 1.0, Q2 : 0.0, Q3 : 0.0, Q4 : 0.0}
2019-04-14 19:24:32.01: SIM {TimeUS : 42435519, Roll : 0.0, Pitch : 0.0, Yaw : 0.0, Alt : 30.1000003815, Lat : 49.28357, Lng : -123.11502, Q1 : 1.0, Q2 : 0.0, Q3 : 0.0, Q4 : 0.0}
2019-04-14 19:24:32.11: SIM {TimeUS : 42535479, Roll : 0.0, Pitch : 0.0, Yaw : 360.0, Alt : 30.1000003815, Lat : 49.28357, Lng : -123.11502, Q1 : 1.0, Q2 : 0.0, Q3 : 0.0, Q4 : -1.32390366031e-12}
2019-04-14 19:24:32.21: SIM {TimeUS : 42635439, Roll : 0.0, Pitch : 0.0, Yaw : 360.0, Alt : 30.1000003815, Lat : 49.28357, Lng : -123.11502, Q1 : 1.0, Q2 : 0.0, Q3 : 0.0, Q4 : -4.84906372833e-08}
2019-04-14 19:24:32.31: SIM {TimeUS : 42735399, Roll : 0.0, Pitch : 0.0, Yaw : 359.99, Alt : 30.1000003815, Lat : 49.28357, Lng : -123.11502, Q1 : 1.0, Q2 : 0.0, Q3 : 0.0, Q4 : -1.92221222051e-07}
2019-04-14 19:24:32.41: SIM {TimeUS : 42835359, Roll : 0.0, Pitch : 0.0, Yaw : 359.99, Alt : 30.1000003815, Lat : 49.28357, Lng : -123.11502, Q1 : 1.0, Q2 : 0.0, Q3 : 0.0, Q4 : -3.67858376649e-07}
2019-04-14 19:24:32.51: SIM {TimeUS : 42935319, Roll : 0.0, Pitch : 0.0, Yaw : 359.99, Alt : 30.1000003815, Lat : 49.28357, Lng : -123.11502, Q1 : 1.0, Q2 : 0.0, Q3 : 0.0, Q4 : -5.54550467768e-07}
2019-04-14 19:24:32.61: SIM {TimeUS : 43035279, Roll : 0.0, Pitch : 0.0, Yaw : 359.99, Alt : 30.1000003815, Lat : 49.28357, Lng : -123.11502, Q1 : 1.0, Q2 : 0.0, Q3 : 0.0, Q4 : -7.51420600409e-07}
2019-04-14 19:24:32.71: SIM {TimeUS : 43135239, Roll : 0.0, Pitch : 0.0, Yaw : 359.99, Alt : 30.1000003815, Lat : 49.28357, Lng : -123.11502, Q1 : 1.0, Q2 : 0.0, Q3 : 0.0, Q4 : -9.4443623766e-07}
2019-04-14 19:24:32.81: SIM {TimeUS : 43235199, Roll : 0.0, Pitch : 0.0, Yaw : 359.99, Alt : 30.1000003815, Lat : 49.28357, Lng : -123.11502, Q1 : 1.0, Q2 : 0.0, Q3 : 0.0, Q4 : -1.1615134099e-06}
2019-04-14 19:24:32.91: SIM {TimeUS : 43335159, Roll : 0.0, Pitch : 0.0, Yaw : 359.99, Alt : 30.1100006104, Lat : 49.28357, Lng : -123.11502, Q1 : 1.0, Q2 : 0.0, Q3 : 0.0, Q4 : -1.33741536956e-06}
2019-04-14 19:24:33.01: SIM {TimeUS : 43435119, Roll : 0.0, Pitch : 0.0, Yaw : 359.99, Alt : 30.1200008392, Lat : 49.28357, Lng : -123.11502, Q1 : 1.0, Q2 : 0.0, Q3 : 0.0, Q4 : -1.55730765528e-06}
2019-04-14 19:24:33.11: SIM {TimeUS : 43535079, Roll : 0.0, Pitch : 0.0, Yaw : 359.99, Alt : 30.1499996185, Lat : 49.28357, Lng : -123.11502, Q1 : 1.0, Q2 : 0.0, Q3 : 0.0, Q4 : -1.78016352947e-06}
2019-04-14 19:24:33.21: SIM {TimeUS : 43635039, Roll : 0.0, Pitch : 0.0, Yaw : 359.99, Alt : 30.1800003052, Lat : 49.28357, Lng : -123.11502, Q1 : 1.0, Q2 : 0.0, Q3 : 0.0, Q4 : -1.99856071958e-06}
2019-04-14 19:24:33.31: SIM {TimeUS : 43734999, Roll : 0.0, Pitch : 0.0, Yaw : 359.99, Alt : 30.2099990845, Lat : 49.28357, Lng : -123.11502, Q1 : 1.0, Q2 : -3.43782885466e-05, Q3 : -3.22495870932e-05, Q4 : -2.31886178881e-06}
2019-04-14 19:24:33.41: SIM {TimeUS : 43834959, Roll : -0.21, Pitch : -0.17, Yaw : 359.99, Alt : 30.2800006866, Lat : 49.28357, Lng : -123.11502, Q1 : 0.999997079372, Q2 : -0.00185323692858, Q3 : -0.00156982883345, Q4 : -2.07372195291e-05}
2019-04-14 19:24:33.51: SIM {TimeUS : 43934919, Roll : -0.52, Pitch : -0.43, Yaw : 359.99, Alt : 30.3999996185, Lat : 49.28357, Lng : -123.11502, Q1 : 0.999982118607, Q2 : -0.00460947072133, Q3 : -0.00380283454433, Q4 : -6.92499961588e-05}
2019-04-14 19:24:33.61: SIM {TimeUS : 44034879, Roll : -0.75, Pitch : -0.63, Yaw : 359.98, Alt : 30.5499992371, Lat : 49.28357, Lng : -123.11502, Q1 : 0.999962687492, Q2 : -0.00662785489112, Q3 : -0.00553816789761, Q4 : -0.000139586874866}
2019-04-14 19:24:33.71: SIM {TimeUS : 44134839, Roll : -0.83, Pitch : -0.71, Yaw : 359.97, Alt : 30.7099990845, Lat : 49.28357, Lng : -123.11502, Q1 : 0.999953687191, Q2 : -0.00731855258346, Q3 : -0.00624671624973, Q4 : -0.000224586896366}
2019-04-14 19:24:33.81: SIM {TimeUS : 44234799, Roll : -0.78, Pitch : -0.67, Yaw : 359.96, Alt : 30.8700008392, Lat : 49.28357, Lng : -123.1150201, Q1 : 0.999959111214, Q2 : -0.006831378676, Q3 : -0.00591687206179, Q4 : -0.000305040128296}
2019-04-14 19:24:33.92: SIM {TimeUS : 44335592, Roll : -0.61, Pitch : -0.54, Yaw : 359.95, Alt : 31.0200004578, Lat : 49.2835701, Lng : -123.1150201, Q1 : 0.999974131584, Q2 : -0.00540418270975, Q3 : -0.00473585771397, Q4 : -0.000380349432817}
2019-04-14 19:24:34.01: SIM {TimeUS : 44435552, Roll : -0.38, Pitch : -0.37, Yaw : 359.95, Alt : 31.1800003052, Lat : 49.2835701, Lng : -123.1150202, Q1 : 0.999988973141, Q2 : -0.00334363244474, Q3 : -0.00327392970212, Q4 : -0.000443671713583}
2019-04-14 19:24:34.11: SIM {TimeUS : 44535512, Roll : -0.16, Pitch : -0.2, Yaw : 359.94, Alt : 31.3400001526, Lat : 49.2835702, Lng : -123.1150203, Q1 : 0.999997377396, Q2 : -0.00141009339131, Q3 : -0.0017514169449, Q4 : -0.000494876119774}
2019-04-14 19:24:34.21: SIM {TimeUS : 44635472, Roll : -0.01, Pitch : -0.05, Yaw : 359.93, Alt : 31.5100002289, Lat : 49.2835702, Lng : -123.1150204, Q1 : 0.999999701977, Q2 : -0.000137029681355, Q3 : -0.000502853072248, Q4 : -0.000532344158273}
2019-04-14 19:24:34.31: SIM {TimeUS : 44735432, Roll : 0.05, Pitch : 0.02, Yaw : 359.93, Alt : 31.6800003052, Lat : 49.2835702, Lng : -123.1150205, Q1 : 0.999999701977, Q2 : 0.000497779867146, Q3 : 0.000233816812397, Q4 : -0.000554072961677}
2019-04-14 19:24:34.41: SIM {TimeUS : 44835392, Roll : 0.06, Pitch : 0.05, Yaw : 359.93, Alt : 31.8600006104, Lat : 49.2835703, Lng : -123.1150205, Q1 : 0.999999523163, Q2 : 0.000607085239608, Q3 : 0.000467024947284, Q4 : -0.000565030321013}
2019-04-14 19:24:34.51: SIM {TimeUS : 44935352, Roll : 0.06, Pitch : 0.04, Yaw : 359.93, Alt : 32.0499992371, Lat : 49.2835703, Lng : -123.1150206, Q1 : 0.999999582767, Q2 : 0.000567662529647, Q3 : 0.000407846877351, Q4 : -0.000562927161809}
2019-04-14 19:24:34.61: SIM {TimeUS : 45035312, Roll : 0.06, Pitch : 0.02, Yaw : 359.93, Alt : 32.2400016785, Lat : 49.2835703, Lng : -123.1150207, Q1 : 0.999999701977, Q2 : 0.000538251537364, Q3 : 0.000252291589277, Q4 : -0.000553637335543}
2019-04-14 19:24:34.71: SIM {TimeUS : 45135272, Roll : 0.07, Pitch : 0.02, Yaw : 359.93, Alt : 32.4300003052, Lat : 49.2835703, Lng : -123.1150207, Q1 : 0.999999582767, Q2 : 0.000663207669277, Q3 : 0.000200312686502, Q4 : -0.000539626111276}
2019-04-14 19:24:34.81: SIM {TimeUS : 45235232, Roll : 0.09, Pitch : 0.05, Yaw : 359.93, Alt : 32.6199989319, Lat : 49.2835703, Lng : -123.1150208, Q1 : 0.999999403954, Q2 : 0.000863959372509, Q3 : 0.00044016315951, Q4 : -0.000526563671883}
2019-04-14 19:24:34.91: SIM {TimeUS : 45335192, Roll : 0.11, Pitch : 0.1, Yaw : 359.94, Alt : 32.8199996948, Lat : 49.2835704, Lng : -123.1150208, Q1 : 0.999998927116, Q2 : 0.00103286630474, Q3 : 0.000897428079043, Q4 : -0.000505816889927}
2019-04-14 19:24:35.01: SIM {TimeUS : 45435152, Roll : 0.13, Pitch : 0.15, Yaw : 359.94, Alt : 33.0200004578, Lat : 49.2835704, Lng : -123.1150208, Q1 : 0.99999833107, Q2 : 0.00115080759861, Q3 : 0.00132133008447, Q4 : -0.000486614648253}
2019-04-14 19:24:35.11: SIM {TimeUS : 45535112, Roll : 0.15, Pitch : 0.19, Yaw : 359.94, Alt : 33.2200012207, Lat : 49.2835704, Lng : -123.1150209, Q1 : 0.99999755621, Q2 : 0.00134942948353, Q3 : 0.00167966808658, Q4 : -0.000475690438179}
2019-04-14 19:24:35.21: SIM {TimeUS : 45635072, Roll : 0.18, Pitch : 0.21, Yaw : 359.94, Alt : 33.4300003052, Lat : 49.2835704, Lng : -123.1150209, Q1 : 0.999996900558, Q2 : 0.00159022165462, Q3 : 0.00184120808262, Q4 : -0.000477587658679}
2019-04-14 19:24:35.31: SIM {TimeUS : 45735032, Roll : 0.19, Pitch : 0.21, Yaw : 359.94, Alt : 33.6300010681, Lat : 49.2835704, Lng : -123.1150209, Q1 : 0.999996602535, Q2 : 0.00172617612407, Q3 : 0.00189611560199, Q4 : -0.000484314427013}
2019-04-14 19:24:35.41: SIM {TimeUS : 45834992, Roll : 0.18, Pitch : 0.21, Yaw : 359.94, Alt : 33.8400001526, Lat : 49.2835704, Lng : -123.1150209, Q1 : 0.999996900558, Q2 : 0.00160025304649, Q3 : 0.00184360297862, Q4 : -0.000501015398186}
2019-04-14 19:24:35.51: SIM {TimeUS : 45934952, Roll : 0.15, Pitch : 0.17, Yaw : 359.94, Alt : 34.0499992371, Lat : 49.2835706, Lng : -123.1150209, Q1 : 0.999997794628, Q2 : 0.00138485222124, Q3 : 0.00149931269698, Q4 : -0.000519376073498}
2019-04-14 19:24:35.61: SIM {TimeUS : 46034912, Roll : 0.12, Pitch : 0.11, Yaw : 359.93, Alt : 34.2599983215, Lat : 49.2835706, Lng : -123.1150209, Q1 : 0.999998748302, Q2 : 0.00111595995259, Q3 : 0.00099405425135, Q4 : -0.000529697921593}
2019-04-14 19:24:35.71: SIM {TimeUS : 46134872, Roll : 0.09, Pitch : 0.07, Yaw : 359.93, Alt : 34.4700012207, Lat : 49.2835706, Lng : -123.1150209, Q1 : 0.999999284744, Q2 : 0.0008562040166, Q3 : 0.000622649909928, Q4 : -0.000548305280972}
2019-04-14 19:24:35.81: SIM {TimeUS : 46234832, Roll : 0.07, Pitch : 0.04, Yaw : 359.93, Alt : 34.6899986267, Lat : 49.2835706, Lng : -123.1150209, Q1 : 0.999999523163, Q2 : 0.000677619478665, Q3 : 0.000420126103563, Q4 : -0.000573679339141}
2019-04-14 19:24:35.91: SIM {TimeUS : 46334792, Roll : 0.07, Pitch : 0.05, Yaw : 359.93, Alt : 34.9000015259, Lat : 49.2835706, Lng : -123.1150209, Q1 : 0.999999463558, Q2 : 0.000674728071317, Q3 : 0.000451829866506, Q4 : -0.000604293250944}
2019-04-14 19:24:36.02: SIM {TimeUS : 46435585, Roll : 0.08, Pitch : 0.04, Yaw : 359.92, Alt : 35.1199989319, Lat : 49.2835704, Lng : -123.1150208, Q1 : 0.999999463558, Q2 : 0.000719978008419, Q3 : 0.000429836334661, Q4 : -0.000628447567578}
2019-04-14 19:24:36.11: SIM {TimeUS : 46535545, Roll : 0.07, Pitch : 0.04, Yaw : 359.92, Alt : 35.3400001526, Lat : 49.2835704, Lng : -123.1150208, Q1 : 0.999999463558, Q2 : 0.000674232840538, Q3 : 0.000424762547482, Q4 : -0.00065088365227}
2019-04-14 19:24:36.21: SIM {TimeUS : 46635505, Roll : 0.06, Pitch : 0.05, Yaw : 359.92, Alt : 35.5600013733, Lat : 49.2835704, Lng : -123.1150208, Q1 : 0.999999463558, Q2 : 0.000571863201912, Q3 : 0.000480699032778, Q4 : -0.000676691124681}
2019-04-14 19:24:36.31: SIM {TimeUS : 46735465, Roll : 0.04, Pitch : 0.06, Yaw : 359.91, Alt : 35.7700004578, Lat : 49.2835704, Lng : -123.1150208, Q1 : 0.999999523163, Q2 : 0.000398741889512, Q3 : 0.000582993787248, Q4 : -0.000705030746758}
2019-04-14 19:24:36.41: SIM {TimeUS : 46835425, Roll : 0.02, Pitch : 0.05, Yaw : 359.91, Alt : 35.9900016785, Lat : 49.2835704, Lng : -123.1150208, Q1 : 0.999999582767, Q2 : 0.000239582135691, Q3 : 0.000455941277323, Q4 : -0.000719671428669}
2019-04-14 19:24:36.51: SIM {TimeUS : 46935385, Roll : 0.0, Pitch : 0.03, Yaw : 359.91, Alt : 36.2200012207, Lat : 49.2835704, Lng : -123.1150207, Q1 : 0.999999701977, Q2 : 8.30396020319e-05, Q3 : 0.000278982071904, Q4 : -0.000730065919925}
2019-04-14 19:24:36.61: SIM {TimeUS : 47035345, Roll : -0.01, Pitch : 0.01, Yaw : 359.91, Alt : 36.4399986267, Lat : 49.2835704, Lng : -123.1150207, Q1 : 0.999999701977, Q2 : -0.000120925418742, Q3 : 0.000115229217045, Q4 : -0.000747006444726}
2019-04-14 19:24:36.71: SIM {TimeUS : 47135305, Roll : -0.02, Pitch : 0.0, Yaw : 359.91, Alt : 36.6599998474, Lat : 49.2835704, Lng : -123.1150207, Q1 : 0.999999701977, Q2 : -0.000203373172553, Q3 : -2.28859425988e-05, Q4 : -0.000772573635913}
2019-04-14 19:24:36.81: SIM {TimeUS : 47235265, Roll : -0.01, Pitch : -0.02, Yaw : 359.9, Alt : 36.8800010681, Lat : 49.2835704, Lng : -123.1150207, Q1 : 0.999999642372, Q2 : -9.63203274296e-05, Q3 : -0.000179553389899, Q4 : -0.000805625866633}
2019-04-14 19:24:36.91: SIM {TimeUS : 47335225, Roll : -0.01, Pitch : -0.04, Yaw : 359.9, Alt : 37.1100006104, Lat : 49.2835704, Lng : -123.1150207, Q1 : 0.999999582767, Q2 : -9.66568186413e-05, Q3 : -0.000372029287973, Q4 : -0.000835850602016}
2019-04-14 19:24:37.01: SIM {TimeUS : 47435185, Roll : -0.03, Pitch : -0.07, Yaw : 359.9, Alt : 37.3300018311, Lat : 49.2835704, Lng : -123.1150207, Q1 : 0.999999403954, Q2 : -0.000292697281111, Q3 : -0.000616445264313, Q4 : -0.000866090005729}
2019-04-14 19:24:37.11: SIM {TimeUS : 47535145, Roll : -0.07, Pitch : -0.08, Yaw : 359.89, Alt : 37.5600013733, Lat : 49.2835704, Lng : -123.1150207, Q1 : 0.99999910593, Q2 : -0.000619096099399, Q3 : -0.000766443088651, Q4 : -0.000900168553926}
2019-04-14 19:24:37.21: SIM {TimeUS : 47635105, Roll : -0.1, Pitch : -0.09, Yaw : 359.89, Alt : 37.7799987793, Lat : 49.2835704, Lng : -123.1150207, Q1 : 0.999998807907, Q2 : -0.000906173023395, Q3 : -0.000816905871034, Q4 : -0.000935086573008}
2019-04-14 19:24:37.31: SIM {TimeUS : 47735065, Roll : -0.12, Pitch : -0.09, Yaw : 359.88, Alt : 38.0099983215, Lat : 49.2835704, Lng : -123.1150206, Q1 : 0.999998629093, Q2 : -0.00109707925003, Q3 : -0.000798475404736, Q4 : -0.000969883578364}
2019-04-14 19:24:37.41: SIM {TimeUS : 47835025, Roll : -0.13, Pitch : -0.08, Yaw : 359.88, Alt : 38.2400016785, Lat : 49.2835704, Lng : -123.1150206, Q1 : 0.999998569489, Q2 : -0.00116606825031, Q3 : -0.000705478072632, Q4 : -0.00100423512049}
2019-04-14 19:24:37.51: SIM {TimeUS : 47934985, Roll : -0.11, Pitch : -0.05, Yaw : 359.88, Alt : 38.4599990845, Lat : 49.2835704, Lng : -123.1150206, Q1 : 0.999998807907, Q2 : -0.00103535980452, Q3 : -0.000471697392641, Q4 : -0.00103819184005}
2019-04-14 19:24:37.61: SIM {TimeUS : 48034945, Roll : -0.09, Pitch : -0.04, Yaw : 359.87, Alt : 38.6899986267, Lat : 49.2835704, Lng : -123.1150206, Q1 : 0.999999046326, Q2 : -0.000803815026302, Q3 : -0.000358737132046, Q4 : -0.00107178976759}
2019-04-14 19:24:37.71: SIM {TimeUS : 48134905, Roll : -0.07, Pitch : -0.03, Yaw : 359.87, Alt : 38.9199981689, Lat : 49.2835704, Lng : -123.1150206, Q1 : 0.99999910593, Q2 : -0.000666137784719, Q3 : -0.000346135086147, Q4 : -0.00110988866072}
2019-04-14 19:24:37.81: SIM {TimeUS : 48234865, Roll : -0.06, Pitch : -0.02, Yaw : 359.86, Alt : 39.1500015259, Lat : 49.2835704, Lng : -123.1150206, Q1 : 0.999999165535, Q2 : -0.000597986101639, Q3 : -0.000197261892026, Q4 : -0.00113543879706}
2019-04-14 19:24:37.91: SIM {TimeUS : 48334825, Roll : -0.08, Pitch : 0.0, Yaw : 359.86, Alt : 39.3800010681, Lat : 49.2835704, Lng : -123.1150206, Q1 : 0.99999910593, Q2 : -0.000703549943864, Q3 : -2.39816945395e-05, Q4 : -0.0011449350277}
2019-04-14 19:24:38.01: SIM {TimeUS : 48434785, Roll : -0.07, Pitch : 0.01, Yaw : 359.86, Alt : 39.6100006104, Lat : 49.2835704, Lng : -123.1150206, Q1 : 0.99999910593, Q2 : -0.000691569875926, Q3 : 0.000117098730698, Q4 : -0.00114674528595}
2019-04-14 19:24:38.12: SIM {TimeUS : 48535578, Roll : -0.06, Pitch : 0.04, Yaw : 359.86, Alt : 39.8400001526, Lat : 49.2835704, Lng : -123.1150206, Q1 : 0.99999910593, Q2 : -0.000529330573045, Q3 : 0.000369189452613, Q4 : -0.00114640395623}
2019-04-14 19:24:38.21: SIM {TimeUS : 48635538, Roll : -0.03, Pitch : 0.04, Yaw : 359.86, Alt : 40.0699996948, Lat : 49.2835704, Lng : -123.1150207, Q1 : 0.99999922514, Q2 : -0.000317436526529, Q3 : 0.000383365550078, Q4 : -0.00114749907516}
2019-04-14 19:24:38.31: SIM {TimeUS : 48735498, Roll : 0.0, Pitch : 0.04, Yaw : 359.86, Alt : 40.3100013733, Lat : 49.2835706, Lng : -123.1150207, Q1 : 0.999999284744, Q2 : -7.40841715015e-05, Q3 : 0.0003510286042, Q4 : -0.00114988768473}
2019-04-14 19:24:38.41: SIM {TimeUS : 48835458, Roll : 0.02, Pitch : 0.05, Yaw : 359.86, Alt : 40.5400009155, Lat : 49.2835706, Lng : -123.1150207, Q1 : 0.99999922514, Q2 : 0.00020267876971, Q3 : 0.000475813954836, Q4 : -0.00115335616283}
2019-04-14 19:24:38.51: SIM {TimeUS : 48935418, Roll : 0.06, Pitch : 0.08, Yaw : 359.86, Alt : 40.7700004578, Lat : 49.2835706, Lng : -123.1150207, Q1 : 0.999998867512, Q2 : 0.000608604517765, Q3 : 0.000767762830947, Q4 : -0.0011596698314}
2019-04-14 19:24:38.61: SIM {TimeUS : 49035378, Roll : 0.1, Pitch : 0.12, Yaw : 359.86, Alt : 41.0, Lat : 49.2835706, Lng : -123.1150207, Q1 : 0.999998390675, Q2 : 0.000882198801264, Q3 : 0.00106369319838, Q4 : -0.00117228808813}
2019-04-14 19:24:38.71: SIM {TimeUS : 49135338, Roll : 0.08, Pitch : 0.14, Yaw : 359.86, Alt : 41.2299995422, Lat : 49.2835706, Lng : -123.1150207, Q1 : 0.999998152256, Q2 : 0.000778899120633, Q3 : 0.00129265652504, Q4 : -0.00117970921565}
2019-04-14 19:24:38.81: SIM {TimeUS : 49235298, Roll : 0.03, Pitch : 0.16, Yaw : 359.86, Alt : 41.4700012207, Lat : 49.2835706, Lng : -123.1150207, Q1 : 0.999998152256, Q2 : 0.000340990081895, Q3 : 0.00144988612738, Q4 : -0.00120075070299}
2019-04-14 19:24:38.91: SIM {TimeUS : 49335258, Roll : 0.0, Pitch : 0.17, Yaw : 359.85, Alt : 41.7000007629, Lat : 49.2835706, Lng : -123.1150207, Q1 : 0.999998152256, Q2 : -6.84014012222e-05, Q3 : 0.00150315917563, Q4 : -0.00122746510897}
2019-04-14 19:24:39.01: SIM {TimeUS : 49435218, Roll : -0.02, Pitch : 0.14, Yaw : 359.85, Alt : 41.9300003052, Lat : 49.2835706, Lng : -123.1150207, Q1 : 0.99999833107, Q2 : -0.000246956304181, Q3 : 0.00129993620794, Q4 : -0.00125032453798}
2019-04-14 19:24:39.11: SIM {TimeUS : 49535178, Roll : -0.02, Pitch : 0.11, Yaw : 359.85, Alt : 42.1699981689, Lat : 49.2835706, Lng : -123.1150207, Q1 : 0.999998629093, Q2 : -0.000249906559475, Q3 : 0.0010175263742, Q4 : -0.00127774348948}
2019-04-14 19:24:39.21: SIM {TimeUS : 49635138, Roll : 0.0, Pitch : 0.11, Yaw : 359.85, Alt : 42.4000015259, Lat : 49.2835706, Lng : -123.1150207, Q1 : 0.999998629093, Q2 : -7.99038170953e-05, Q3 : 0.000994946574792, Q4 : -0.00130840810016}
2019-04-14 19:24:39.31: SIM {TimeUS : 49735098, Roll : 0.03, Pitch : 0.13, Yaw : 359.84, Alt : 42.6399993896, Lat : 49.2835706, Lng : -123.1150207, Q1 : 0.999998390675, Q2 : 0.000271944503766, Q3 : 0.00114417530131, Q4 : -0.00134216225706}
2019-04-14 19:24:39.41: SIM {TimeUS : 49835058, Roll : 0.07, Pitch : 0.14, Yaw : 359.84, Alt : 42.8699989319, Lat : 49.2835706, Lng : -123.1150207, Q1 : 0.999997973442, Q2 : 0.000699606374837, Q3 : 0.00127091200557, Q4 : -0.00137616146822}
2019-04-14 19:24:39.51: SIM {TimeUS : 49935018, Roll : 0.11, Pitch : 0.12, Yaw : 359.83, Alt : 43.1100006104, Lat : 49.2835706, Lng : -123.1150207, Q1 : 0.999997854233, Q2 : 0.00100917217787, Q3 : 0.00112801848445, Q4 : -0.00141744152643}
2019-04-14 19:24:39.61: SIM {TimeUS : 50034978, Roll : 0.11, Pitch : 0.1, Yaw : 359.83, Alt : 43.3400001526, Lat : 49.2835706, Lng : -123.1150207, Q1 : 0.999998033047, Q2 : 0.00100598519202, Q3 : 0.000890914001502, Q4 : -0.00145843462087}
2019-04-14 19:24:39.71: SIM {TimeUS : 50134938, Roll : 0.07, Pitch : 0.08, Yaw : 359.82, Alt : 43.5800018311, Lat : 49.2835704, Lng : -123.1150207, Q1 : 0.999998450279, Q2 : 0.000642923638225, Q3 : 0.000720154843293, Q4 : -0.00148448278196}
2019-04-14 19:24:39.81: SIM {TimeUS : 50234898, Roll : 0.01, Pitch : 0.07, Yaw : 359.82, Alt : 43.8100013733, Lat : 49.2835704, Lng : -123.1150207, Q1 : 0.999998688698, Q2 : 0.000138829360367, Q3 : 0.000654852425214, Q4 : -0.0015072269598}
2019-04-14 19:24:39.91: SIM {TimeUS : 50334858, Roll : -0.02, Pitch : 0.08, Yaw : 359.82, Alt : 44.0499992371, Lat : 49.2835704, Lng : -123.1150207, Q1 : 0.999998509884, Q2 : -0.000196332330233, Q3 : 0.000761203409638, Q4 : -0.0015295696212}
2019-04-14 19:24:40.01: SIM {TimeUS : 50434818, Roll : -0.04, Pitch : 0.09, Yaw : 359.82, Alt : 44.2799987793, Lat : 49.2835704, Lng : -123.1150207, Q1 : 0.999998390675, Q2 : -0.00036140481825, Q3 : 0.00082152482355, Q4 : -0.00154944928363}
2019-04-14 19:24:40.11: SIM {TimeUS : 50534778, Roll : -0.03, Pitch : 0.08, Yaw : 359.82, Alt : 44.5200004578, Lat : 49.2835704, Lng : -123.1150206, Q1 : 0.999998450279, Q2 : -0.00034391641384, Q3 : 0.000708581123035, Q4 : -0.00156602112111}
2019-04-14 19:24:40.21: SIM {TimeUS : 50635571, Roll : -0.04, Pitch : 0.06, Yaw : 359.81, Alt : 44.7599983215, Lat : 49.2835704, Lng : -123.1150206, Q1 : 0.999998509884, Q2 : -0.000395522918552, Q3 : 0.000534286838956, Q4 : -0.00158516643569}
2019-04-14 19:24:40.31: SIM {TimeUS : 50735531, Roll : -0.04, Pitch : 0.04, Yaw : 359.81, Alt : 44.9900016785, Lat : 49.2835704, Lng : -123.1150206, Q1 : 0.999998569489, Q2 : -0.00037667536526, Q3 : 0.00036402256228, Q4 : -0.00160616822541}
2019-04-14 19:24:40.41: SIM {TimeUS : 50835491, Roll : -0.02, Pitch : 0.02, Yaw : 359.81, Alt : 45.2299995422, Lat : 49.2835704, Lng : -123.1150206, Q1 : 0.999998629093, Q2 : -0.000223976545385, Q3 : 0.000227920725592, Q4 : -0.00163086073007}
2019-04-14 19:24:40.51: SIM {TimeUS : 50935451, Roll : -0.01, Pitch : 0.01, Yaw : 359.8, Alt : 45.4599990845, Lat : 49.2835704, Lng : -123.1150206, Q1 : 0.999998569489, Q2 : -0.00016385728668, Q3 : 0.000142391741974, Q4 : -0.00166377914138}
2019-04-14 19:24:40.61: SIM {TimeUS : 51035411, Roll : -0.01, Pitch : 0.0, Yaw : 359.8, Alt : 45.7000007629, Lat : 49.2835703, Lng : -123.1150206, Q1 : 0.999998569489, Q2 : -0.00017298446619, Q3 : -1.5545716451e-05, Q4 : -0.0016988517018}
2019-04-14 19:24:40.71: SIM {TimeUS : 51135371, Roll : -0.02, Pitch : -0.03, Yaw : 359.8, Alt : 45.9300003052, Lat : 49.2835703, Lng : -123.1150206, Q1 : 0.999998450279, Q2 : -0.000192634484847, Q3 : -0.000272740318906, Q4 : -0.00173609948251}
2019-04-14 19:24:40.81: SIM {TimeUS : 51235331, Roll : -0.02, Pitch : -0.04, Yaw : 359.79, Alt : 46.1599998474, Lat : 49.2835703, Lng : -123.1150206, Q1 : 0.99999833107, Q2 : -0.000204871219466, Q3 : -0.000416119262809, Q4 : -0.00176897610072}
2019-04-14 19:24:40.91: SIM {TimeUS : 51335291, Roll : -0.01, Pitch : -0.05, Yaw : 359.79, Alt : 46.3899993896, Lat : 49.2835703, Lng : -123.1150206, Q1 : 0.999998271465, Q2 : -0.000167811231222, Q3 : -0.000450525956694, Q4 : -0.00179864501115}
2019-04-14 19:24:41.01: SIM {TimeUS : 51435251, Roll : -0.02, Pitch : -0.04, Yaw : 359.79, Alt : 46.6100006104, Lat : 49.2835703, Lng : -123.1150206, Q1 : 0.999998211861, Q2 : -0.000239091852563, Q3 : -0.000418356532464, Q4 : -0.00182440527715}
2019-04-14 19:24:41.11: SIM {TimeUS : 51535211, Roll : -0.05, Pitch : -0.03, Yaw : 359.78, Alt : 46.8199996948, Lat : 49.2835703, Lng : -123.1150206, Q1 : 0.999998152256, Q2 : -0.00046570651466, Q3 : -0.000339444406563, Q4 : -0.00184678949881}
2019-04-14 19:24:41.21: SIM {TimeUS : 51635171, Roll : -0.09, Pitch : -0.03, Yaw : 359.78, Alt : 47.0299987793, Lat : 49.2835703, Lng : -123.1150206, Q1 : 0.999997913837, Q2 : -0.000786971882917, Q3 : -0.000278283434454, Q4 : -0.00187080167234}
2019-04-14 19:24:41.31: SIM {TimeUS : 51735131, Roll : -0.11, Pitch : -0.03, Yaw : 359.78, Alt : 47.2400016785, Lat : 49.2835703, Lng : -123.1150205, Q1 : 0.999997675419, Q2 : -0.000998894218355, Q3 : -0.000260379718384, Q4 : -0.00189711351413}
2019-04-14 19:24:41.41: SIM {TimeUS : 51835091, Roll : -0.11, Pitch : -0.02, Yaw : 359.77, Alt : 47.4300003052, Lat : 49.2835703, Lng : -123.1150205, Q1 : 0.999997615814, Q2 : -0.00101690145675, Q3 : -0.000189856582438, Q4 : -0.00192644831259}
2019-04-14 19:24:41.51: SIM {TimeUS : 51935051, Roll : -0.1, Pitch : 0.0, Yaw : 359.77, Alt : 47.6199989319, Lat : 49.2835703, Lng : -123.1150205, Q1 : 0.999997675419, Q2 : -0.000949178240262, Q3 : -7.30005340301e-05, Q4 : -0.00195536133833}
2019-04-14 19:24:41.61: SIM {TimeUS : 52035011, Roll : -0.12, Pitch : -0.02, Yaw : 359.77, Alt : 47.7900009155, Lat : 49.2835703, Lng : -123.1150205, Q1 : 0.999997437, Q2 : -0.0010830105748, Q3 : -0.000198019013624, Q4 : -0.00198382185772}
2019-04-14 19:24:41.71: SIM {TimeUS : 52134971, Roll : -0.13, Pitch : -0.03, Yaw : 359.76, Alt : 47.9500007629, Lat : 49.2835703, Lng : -123.1150205, Q1 : 0.999997258186, Q2 : -0.00114435318392, Q3 : -0.000340847182088, Q4 : -0.00200939783826}
2019-04-14 19:24:41.81: SIM {TimeUS : 52234931, Roll : -0.12, Pitch : -0.05, Yaw : 359.76, Alt : 48.1100006104, Lat : 49.2835703, Lng : -123.1150206, Q1 : 0.999997198582, Q2 : -0.00111767544877, Q3 : -0.000463758973638, Q4 : -0.00203209556639}
2019-04-14 19:24:41.91: SIM {TimeUS : 52334891, Roll : -0.1, Pitch : -0.06, Yaw : 359.76, Alt : 48.2400016785, Lat : 49.2835703, Lng : -123.1150206, Q1 : 0.999997258186, Q2 : -0.000930554990191, Q3 : -0.000595747726038, Q4 : -0.00205457722768}
2019-04-14 19:24:42.01: SIM {TimeUS : 52434851, Roll : -0.06, Pitch : -0.07, Yaw : 359.76, Alt : 48.3699989319, Lat : 49.2835703, Lng : -123.1150206, Q1 : 0.999997437, Q2 : -0.000591648567934, Q3 : -0.000672213966027, Q4 : -0.00208128313534}
2019-04-14 19:24:42.11: SIM {TimeUS : 52534811, Roll : -0.04, Pitch : -0.08, Yaw : 359.75, Alt : 48.4900016785, Lat : 49.2835703, Lng : -123.1150206, Q1 : 0.999997437, Q2 : -0.000384256942198, Q3 : -0.000704042671714, Q4 : -0.00210829009302}
2019-04-14 19:24:42.22: SIM {TimeUS : 52635604, Roll : -0.03, Pitch : -0.08, Yaw : 359.75, Alt : 48.5900001526, Lat : 49.2835703, Lng : -123.1150206, Q1 : 0.999997437, Q2 : -0.000315119221341, Q3 : -0.000707556318957, Q4 : -0.00213097431697}
2019-04-14 19:24:42.31: SIM {TimeUS : 52735564, Roll : 0.0, Pitch : -0.07, Yaw : 359.75, Alt : 48.6800003052, Lat : 49.2835703, Lng : -123.1150206, Q1 : 0.999997496605, Q2 : -4.62238531327e-05, Q3 : -0.000630991184153, Q4 : -0.00214950880036}
2019-04-14 19:24:42.41: SIM {TimeUS : 52835524, Roll : 0.03, Pitch : -0.05, Yaw : 359.75, Alt : 48.7599983215, Lat : 49.2835703, Lng : -123.1150206, Q1 : 0.999997496605, Q2 : 0.000264799484285, Q3 : -0.000502825714648, Q4 : -0.00216960906982}
2019-04-14 19:24:42.51: SIM {TimeUS : 52935484, Roll : 0.04, Pitch : -0.03, Yaw : 359.74, Alt : 48.8300018311, Lat : 49.2835703, Lng : -123.1150206, Q1 : 0.999997437, Q2 : 0.000431515101809, Q3 : -0.000317546189763, Q4 : -0.0021911112126}
2019-04-14 19:24:42.61: SIM {TimeUS : 53035444, Roll : 0.05, Pitch : -0.01, Yaw : 359.74, Alt : 48.8899993896, Lat : 49.2835703, Lng : -123.1150206, Q1 : 0.999997377396, Q2 : 0.000515692459885, Q3 : -0.00014299940085, Q4 : -0.00221532187425}
2019-04-14 19:24:42.71: SIM {TimeUS : 53135404, Roll : 0.06, Pitch : 0.0, Yaw : 359.74, Alt : 48.9399986267, Lat : 49.2835703, Lng : -123.1150207, Q1 : 0.999997317791, Q2 : 0.000567067647353, Q3 : -7.72801722633e-05, Q4 : -0.00224493746646}
2019-04-14 19:24:42.81: SIM {TimeUS : 53235364, Roll : 0.08, Pitch : -0.04, Yaw : 359.73, Alt : 48.9900016785, Lat : 49.2835703, Lng : -123.1150207, Q1 : 0.999997079372, Q2 : 0.000731686188374, Q3 : -0.000354225107003, Q4 : -0.00227371579967}
2019-04-14 19:24:42.91: SIM {TimeUS : 53335324, Roll : 0.21, Pitch : -0.15, Yaw : 359.73, Alt : 49.0299987793, Lat : 49.2835703, Lng : -123.1150207, Q1 : 0.999994695187, Q2 : 0.00186366739217, Q3 : -0.001371029648, Q4 : -0.00229895417579}
2019-04-14 19:24:43.01: SIM {TimeUS : 53435284, Roll : 0.56, Pitch : -0.4, Yaw : 359.73, Alt : 49.0600013733, Lat : 49.2835703, Lng : -123.1150207, Q1 : 0.999979019165, Q2 : 0.00490405410528, Q3 : -0.0035342569463, Q4 : -0.00232127518393}
2019-04-14 19:24:43.11: SIM {TimeUS : 53535244, Roll : 1.13, Pitch : -0.79, Yaw : 359.72, Alt : 49.0900001526, Lat : 49.2835703, Lng : -123.1150207, Q1 : 0.999923825264, Q2 : 0.00989491399378, Q3 : -0.00700022326782, Q4 : -0.0023335784208}
2019-04-14 19:24:43.21: SIM {TimeUS : 53635204, Roll : 1.88, Pitch : -1.3, Yaw : 359.71, Alt : 49.1100006104, Lat : 49.2835704, Lng : -123.1150206, Q1 : 0.999796807766, Q2 : 0.0164373405278, Q3 : -0.0114360088482, Q4 : -0.00232483679429}
2019-04-14 19:24:43.31: SIM {TimeUS : 53735164, Roll : 2.76, Pitch : -1.86, Yaw : 359.69, Alt : 49.1300010681, Lat : 49.2835704, Lng : -123.1150205, Q1 : 0.999574303627, Q2 : 0.0240409597754, Q3 : -0.0163729228079, Q4 : -0.00227957032621}
2019-04-14 19:24:43.41: SIM {TimeUS : 53835124, Roll : 3.6, Pitch : -2.42, Yaw : 359.67, Alt : 49.1500015259, Lat : 49.2835706, Lng : -123.1150204, Q1 : 0.99927932024, Q2 : 0.0314143337309, Q3 : -0.0211977511644, Q4 : -0.00217918423004}
2019-04-14 19:24:43.51: SIM {TimeUS : 53935084, Roll : 4.3, Pitch : -2.9, Yaw : 359.65, Alt : 49.1599998474, Lat : 49.2835707, Lng : -123.1150202, Q1 : 0.998973488808, Q2 : 0.0374313890934, Q3 : -0.0254325475544, Q4 : -0.00202174088918}
2019-04-14 19:24:43.61: SIM {TimeUS : 54035044, Roll : 4.79, Pitch : -3.26, Yaw : 359.65, Alt : 49.1800003052, Lat : 49.2835708, Lng : -123.11502, Q1 : 0.998716652393, Q2 : 0.0417408943176, Q3 : -0.0286269187927, Q4 : -0.00181051809341}
2019-04-14 19:24:43.71: SIM {TimeUS : 54135004, Roll : 5.13, Pitch : -3.55, Yaw : 359.66, Alt : 49.1899986267, Lat : 49.2835709, Lng : -123.1150197, Q1 : 0.998513579369, Q2 : 0.0447004027665, Q3 : -0.0311454366893, Q4 : -0.00156861951109}
2019-04-14 19:24:43.81: SIM {TimeUS : 54234964, Roll : 5.41, Pitch : -3.79, Yaw : 359.67, Alt : 49.2000007629, Lat : 49.2835712, Lng : -123.1150192, Q1 : 0.99833804369, Q2 : 0.0470729358494, Q3 : -0.0332195535302, Q4 : -0.00130000128411}
2019-04-14 19:24:43.91: SIM {TimeUS : 54334924, Roll : 5.67, Pitch : -4.0, Yaw : 359.68, Alt : 49.2099990845, Lat : 49.2835715, Lng : -123.1150186, Q1 : 0.998161911964, Q2 : 0.0494155734777, Q3 : -0.0350708328187, Q4 : -0.0010151125025}
2019-04-14 19:24:44.01: SIM {TimeUS : 54434884, Roll : 5.98, Pitch : -4.22, Yaw : 359.69, Alt : 49.2099990845, Lat : 49.2835718, Lng : -123.115018, Q1 : 0.997959494591, Q2 : 0.0520612560213, Q3 : -0.0369595661759, Q4 : -0.000730422267225}
2019-04-14 19:24:44.11: SIM {TimeUS : 54534844, Roll : 6.29, Pitch : -4.43, Yaw : 359.7, Alt : 49.2200012207, Lat : 49.2835721, Lng : -123.1150172, Q1 : 0.997745037079, Q2 : 0.054779548198, Q3 : -0.0387792140245, Q4 : -0.000449757935712}
2019-04-14 19:24:44.21: SIM {TimeUS : 54634804, Roll : 6.55, Pitch : -4.6, Yaw : 359.71, Alt : 49.2299995422, Lat : 49.2835725, Lng : -123.1150163, Q1 : 0.997561573982, Q2 : 0.0569936111569, Q3 : -0.0402813516557, Q4 : -0.000198307883693}
2019-04-14 19:24:44.32: SIM {TimeUS : 54735597, Roll : 6.74, Pitch : -4.75, Yaw : 359.72, Alt : 49.2299995422, Lat : 49.2835728, Lng : -123.1150154, Q1 : 0.997414469719, Q2 : 0.0586404912174, Q3 : -0.0415409505367, Q4 : 6.4974074121e-06}
2019-04-14 19:24:44.41: SIM {TimeUS : 54835557, Roll : 6.87, Pitch : -4.86, Yaw : 359.72, Alt : 49.2400016785, Lat : 49.2835733, Lng : -123.1150144, Q1 : 0.997301876545, Q2 : 0.0598380863667, Q3 : -0.0425253137946, Q4 : 0.000161648786161}
2019-04-14 19:24:44.51: SIM {TimeUS : 54935517, Roll : 6.99, Pitch : -4.94, Yaw : 359.72, Alt : 49.2400016785, Lat : 49.2835739, Lng : -123.1150132, Q1 : 0.99721300602, Q2 : 0.0608162656426, Q3 : -0.0432152822614, Q4 : 0.000277317478321}
2019-04-14 19:24:44.61: SIM {TimeUS : 55035477, Roll : 7.09, Pitch : -5.0, Yaw : 359.73, Alt : 49.25, Lat : 49.2835745, Lng : -123.115012, Q1 : 0.997135102749, Q2 : 0.0617514662445, Q3 : -0.0436832979321, Q4 : 0.00035662020673}
2019-04-14 19:24:44.71: SIM {TimeUS : 55135437, Roll : 7.33, Pitch : -4.98, Yaw : 359.79, Alt : 49.25, Lat : 49.2835751, Lng : -123.1150107, Q1 : 0.997011840343, Q2 : 0.0638165846467, Q3 : -0.0435195118189, Q4 : 0.00101062329486}
2019-04-14 19:24:44.81: SIM {TimeUS : 55235397, Roll : 7.79, Pitch : -4.81, Yaw : 0.36, Alt : 49.25, Lat : 49.2835757, Lng : -123.1150093, Q1 : 0.996793329716, Q2 : 0.0680169761181, Q3 : -0.0417222082615, Q4 : 0.00600265199319}
2019-04-14 19:24:44.91: SIM {TimeUS : 55335357, Roll : 8.4, Pitch : -4.65, Yaw : 2.1, Alt : 49.2599983215, Lat : 49.2835764, Lng : -123.1150078, Q1 : 0.996263504028, Q2 : 0.0739910751581, Q3 : -0.0391329489648, Q4 : 0.0212825424969}
2019-04-14 19:24:45.01: SIM {TimeUS : 55435317, Roll : 8.9, Pitch : -4.84, Yaw : 5.41, Alt : 49.2599983215, Lat : 49.283577, Lng : -123.1150062, Q1 : 0.994820177555, Q2 : 0.079499155283, Q3 : -0.0384639576077, Q4 : 0.0503311939538}
2019-04-14 19:24:45.11: SIM {TimeUS : 55535277, Roll : 9.05, Pitch : -5.56, Yaw : 10.25, Alt : 49.2599983215, Lat : 49.2835777, Lng : -123.1150045, Q1 : 0.991382777691, Q2 : 0.0828172490001, Q3 : -0.041162263602, Q4 : 0.0927747637033}
2019-04-14 19:24:45.21: SIM {TimeUS : 55635237, Roll : 8.67, Pitch : -6.75, Yaw : 16.4, Alt : 49.2599983215, Lat : 49.2835785, Lng : -123.1150027, Q1 : 0.984579801559, Q2 : 0.0830990150571, Q3 : -0.0474103353918, Q4 : 0.146456241608}
2019-04-14 19:24:45.31: SIM {TimeUS : 55735197, Roll : 7.7, Pitch : -8.27, Yaw : 23.63, Alt : 49.2599983215, Lat : 49.2835792, Lng : -123.1150007, Q1 : 0.973062098026, Q2 : 0.0803344100714, Q3 : -0.056744992733, Q4 : 0.208510160446}
2019-04-14 19:24:45.41: SIM {TimeUS : 55835157, Roll : 6.14, Pitch : -9.88, Yaw : 31.66, Alt : 49.2700004578, Lat : 49.28358, Lng : -123.1149987, Q1 : 0.955846846104, Q2 : 0.0748486965895, Q3 : -0.068161778152, Q4 : 0.275877535343}
2019-04-14 19:24:45.51: SIM {TimeUS : 55935117, Roll : 4.04, Pitch : -11.32, Yaw : 40.25, Alt : 49.2700004578, Lat : 49.2835807, Lng : -123.1149965, Q1 : 0.932557165623, Q2 : 0.0669183954597, Q3 : -0.0805336609483, Q4 : 0.345504552126}
2019-04-14 19:24:45.61: SIM {TimeUS : 56035077, Roll : 1.3, Pitch : -12.41, Yaw : 48.98, Alt : 49.2700004578, Lat : 49.2835816, Lng : -123.1149942, Q1 : 0.904107928276, Q2 : 0.05510918051, Q3 : -0.0937297865748, Q4 : 0.413239121437}
2019-04-14 19:24:45.71: SIM {TimeUS : 56135037, Roll : -1.87, Pitch : -12.98, Yaw : 57.03, Alt : 49.2700004578, Lat : 49.2835824, Lng : -123.1149918, Q1 : 0.873809635639, Q2 : 0.0396582186222, Q3 : -0.107075482607, Q4 : 0.472671955824}
2019-04-14 19:24:45.81: SIM {TimeUS : 56234997, Roll : -4.86, Pitch : -13.04, Yaw : 63.55, Alt : 49.2700004578, Lat : 49.2835835, Lng : -123.1149894, Q1 : 0.846392333508, Q2 : 0.0239405296743, Q3 : -0.118655957282, Q4 : 0.518620967865}
2019-04-14 19:24:45.91: SIM {TimeUS : 56334957, Roll : -7.07, Pitch : -12.83, Yaw : 68.03, Alt : 49.2700004578, Lat : 49.2835844, Lng : -123.1149869, Q1 : 0.825955629349, Q2 : 0.0115508465096, Q3 : -0.126761227846, Q4 : 0.549177050591}
2019-04-14 19:24:46.01: SIM {TimeUS : 56434917, Roll : -8.23, Pitch : -12.6, Yaw : 70.44, Alt : 49.2700004578, Lat : 49.2835856, Lng : -123.1149843, Q1 : 0.814410209656, Q2 : 0.00479853386059, Q3 : -0.13059617579, Q4 : 0.56538271904}
2019-04-14 19:24:46.11: SIM {TimeUS : 56534877, Roll : -8.34, Pitch : -12.56, Yaw : 71.04, Alt : 49.2700004578, Lat : 49.2835868, Lng : -123.1149817, Q1 : 0.811466574669, Q2 : 0.00458022532985, Q3 : -0.13082253933, Q4 : 0.569549381733}
2019-04-14 19:24:46.21: SIM {TimeUS : 56634837, Roll : -7.57, Pitch : -12.79, Yaw : 70.18, Alt : 49.2700004578, Lat : 49.2835883, Lng : -123.114979, Q1 : 0.815563857555, Q2 : 0.0102123655379, Q3 : -0.128744915128, Q4 : 0.564070940018}
2019-04-14 19:24:46.31: SIM {TimeUS : 56734797, Roll : -6.18, Pitch : -13.29, Yaw : 68.23, Alt : 49.2700004578, Lat : 49.2835897, Lng : -123.1149763, Q1 : 0.824623286724, Q2 : 0.0204563755542, Q3 : -0.125770300627, Q4 : 0.551144063473}
2019-04-14 19:24:46.42: SIM {TimeUS : 56835590, Roll : -4.39, Pitch : -13.98, Yaw : 65.5, Alt : 49.2799987793, Lat : 49.2835913, Lng : -123.1149735, Q1 : 0.836688935757, Q2 : 0.0337638482451, Q3 : -0.122906662524, Q4 : 0.532640218735}
2019-04-14 19:24:46.51: SIM {TimeUS : 56935550, Roll : -2.47, Pitch : -14.68, Yaw : 62.34, Alt : 49.2799987793, Lat : 49.2835928, Lng : -123.1149707, Q1 : 0.849818408489, Q2 : 0.047819018364, Q3 : -0.120452307165, Q4 : 0.510894596577}
2019-04-14 19:24:46.61: SIM {TimeUS : 57035510, Roll : -0.58, Pitch : -15.28, Yaw : 59.06, Alt : 49.2799987793, Lat : 49.2835945, Lng : -123.1149677, Q1 : 0.862663269043, Q2 : 0.0611334294081, Q3 : -0.118206657469, Q4 : 0.487956881523}
2019-04-14 19:24:46.71: SIM {TimeUS : 57135470, Roll : 1.09, Pitch : -15.67, Yaw : 55.99, Alt : 49.2799987793, Lat : 49.283596, Lng : -123.1149646, Q1 : 0.874049127102, Q2 : 0.0723641291261, Q3 : -0.115991480649, Q4 : 0.466205477715}
2019-04-14 19:24:46.81: SIM {TimeUS : 57235430, Roll : 2.41, Pitch : -15.85, Yaw : 53.44, Alt : 49.2799987793, Lat : 49.2835977, Lng : -123.1149615, Q1 : 0.883157491684, Q2 : 0.0806219354272, Q3 : -0.113783925772, Q4 : 0.447868436575}
2019-04-14 19:24:46.91: SIM {TimeUS : 57335390, Roll : 3.28, Pitch : -15.86, Yaw : 51.6, Alt : 49.2799987793, Lat : 49.2835995, Lng : -123.1149581, Q1 : 0.889584064484, Q2 : 0.0855797752738, Q3 : -0.111826986074, Q4 : 0.434523910284}
2019-04-14 19:24:47.01: SIM {TimeUS : 57435350, Roll : 3.66, Pitch : -15.8, Yaw : 50.57, Alt : 49.2799987793, Lat : 49.2836011, Lng : -123.1149547, Q1 : 0.893256545067, Q2 : 0.0873312801123, Q3 : -0.110744908452, Q4 : 0.426850795746}
2019-04-14 19:24:47.11: SIM {TimeUS : 57535310, Roll : 3.59, Pitch : -15.76, Yaw : 50.31, Alt : 49.2799987793, Lat : 49.2836028, Lng : -123.1149511, Q1 : 0.894332110882, Q2 : 0.0863785818219, Q3 : -0.110864184797, Q4 : 0.424756318331}
2019-04-14 19:24:47.21: SIM {TimeUS : 57635270, Roll : 3.14, Pitch : -15.77, Yaw : 50.71, Alt : 49.2799987793, Lat : 49.2836044, Lng : -123.1149474, Q1 : 0.893140375614, Q2 : 0.0832997709513, Q3 : -0.112319715321, Q4 : 0.427487790585}
2019-04-14 19:24:47.31: SIM {TimeUS : 57735230, Roll : 2.42, Pitch : -15.84, Yaw : 51.63, Alt : 49.2799987793, Lat : 49.2836062, Lng : -123.1149436, Q1 : 0.890124619007, Q2 : 0.0788777992129, Q3 : -0.114961743355, Q4 : 0.433866679668}
2019-04-14 19:24:47.41: SIM {TimeUS : 57835190, Roll : 1.56, Pitch : -15.97, Yaw : 52.87, Alt : 49.2900009155, Lat : 49.2836079, Lng : -123.1149397, Q1 : 0.885820090771, Q2 : 0.0740018710494, Q3 : -0.118371210992, Q4 : 0.44253218174}
2019-04-14 19:24:47.51: SIM {TimeUS : 57935150, Roll : 0.69, Pitch : -16.13, Yaw : 54.23, Alt : 49.2900009155, Lat : 49.2836096, Lng : -123.1149358, Q1 : 0.880840420723, Q2 : 0.0693435892463, Q3 : -0.122142285109, Q4 : 0.452098488808}
2019-04-14 19:24:47.61: SIM {TimeUS : 58035110, Roll : -0.1, Pitch : -16.28, Yaw : 55.56, Alt : 49.2900009155, Lat : 49.2836112, Lng : -123.1149318, Q1 : 0.875838220119, Q2 : 0.0652687177062, Q3 : -0.125740617514, Q4 : 0.461342304945}
2019-04-14 19:24:47.71: SIM {TimeUS : 58135070, Roll : -0.76, Pitch : -16.41, Yaw : 56.72, Alt : 49.2900009155, Lat : 49.283613, Lng : -123.1149277, Q1 : 0.871400296688, Q2 : 0.0619647651911, Q3 : -0.128765597939, Q4 : 0.469298750162}
2019-04-14 19:24:47.81: SIM {TimeUS : 58235030, Roll : -1.24, Pitch : -16.47, Yaw : 57.59, Alt : 49.2900009155, Lat : 49.2836148, Lng : -123.1149236, Q1 : 0.867980718613, Q2 : 0.0595937334001, Q3 : -0.130728185177, Q4 : 0.47536110878}
2019-04-14 19:24:47.91: SIM {TimeUS : 58334990, Roll : -1.49, Pitch : -16.48, Yaw : 58.14, Alt : 49.2900009155, Lat : 49.2836168, Lng : -123.1149194, Q1 : 0.865804255009, Q2 : 0.0584081746638, Q3 : -0.131545245647, Q4 : 0.479236185551}
2019-04-14 19:24:48.01: SIM {TimeUS : 58434950, Roll : -1.53, Pitch : -16.47, Yaw : 58.36, Alt : 49.2900009155, Lat : 49.2836187, Lng : -123.1149152, Q1 : 0.864910662174, Q2 : 0.0582628138363, Q3 : -0.131589487195, Q4 : 0.480852633715}
2019-04-14 19:24:48.11: SIM {TimeUS : 58534910, Roll : -1.39, Pitch : -16.48, Yaw : 58.29, Alt : 49.2900009155, Lat : 49.2836206, Lng : -123.1149109, Q1 : 0.86514788866, Q2 : 0.0592685118318, Q3 : -0.13110254705, Q4 : 0.480435699224}
2019-04-14 19:24:48.21: SIM {TimeUS : 58634870, Roll : -1.1, Pitch : -16.5, Yaw : 57.97, Alt : 49.2900009155, Lat : 49.2836226, Lng : -123.1149066, Q1 : 0.8662956357, Q2 : 0.0611658208072, Q3 : -0.13014985621, Q4 : 0.478384375572}
2019-04-14 19:24:48.31: SIM {TimeUS : 58734830, Roll : -0.74, Pitch : -16.52, Yaw : 57.49, Alt : 49.2900009155, Lat : 49.2836244, Lng : -123.1149022, Q1 : 0.868061244488, Q2 : 0.0634483471513, Q3 : -0.129100769758, Q4 : 0.475159972906}
2019-04-14 19:24:48.41: SIM {TimeUS : 58834790, Roll : -0.38, Pitch : -16.57, Yaw : 56.93, Alt : 49.2900009155, Lat : 49.2836264, Lng : -123.1148978, Q1 : 0.870120584965, Q2 : 0.0657967403531, Q3 : -0.12829709053, Q4 : 0.471275687218}
2019-04-14 19:24:48.52: SIM {TimeUS : 58935583, Roll : -0.04, Pitch : -16.64, Yaw : 56.36, Alt : 49.2900009155, Lat : 49.2836286, Lng : -123.1148933, Q1 : 0.872205555439, Q2 : 0.0680235922337, Q3 : -0.127783045173, Q4 : 0.467227816582}
2019-04-14 19:24:48.61: SIM {TimeUS : 59035543, Roll : 0.24, Pitch : -16.71, Yaw : 55.84, Alt : 49.2900009155, Lat : 49.2836305, Lng : -123.1148888, Q1 : 0.874060690403, Q2 : 0.0699143335223, Q3 : -0.127493217587, Q4 : 0.463546514511}
2019-04-14 19:24:48.71: SIM {TimeUS : 59135503, Roll : 0.44, Pitch : -16.77, Yaw : 55.42, Alt : 49.2900009155, Lat : 49.2836327, Lng : -123.1148843, Q1 : 0.875562727451, Q2 : 0.0712621286511, Q3 : -0.127341374755, Q4 : 0.460538595915}
2019-04-14 19:24:48.81: SIM {TimeUS : 59235463, Roll : 0.57, Pitch : -16.81, Yaw : 55.12, Alt : 49.2900009155, Lat : 49.2836347, Lng : -123.1148797, Q1 : 0.876615285873, Q2 : 0.0720676109195, Q3 : -0.12730269134, Q4 : 0.458416819572}
2019-04-14 19:24:48.91: SIM {TimeUS : 59335423, Roll : 0.62, Pitch : -16.84, Yaw : 54.96, Alt : 49.2900009155, Lat : 49.2836367, Lng : -123.1148751, Q1 : 0.877195060253, Q2 : 0.0723348259926, Q3 : -0.127429738641, Q4 : 0.457228839397}
2019-04-14 19:24:49.01: SIM {TimeUS : 59435383, Roll : 0.6, Pitch : -16.86, Yaw : 54.93, Alt : 49.2900009155, Lat : 49.2836388, Lng : -123.1148704, Q1 : 0.87731218338, Q2 : 0.0722329169512, Q3 : -0.127699583769, Q4 : 0.456944793463}
2019-04-14 19:24:49.11: SIM {TimeUS : 59535343, Roll : 0.53, Pitch : -16.88, Yaw : 55.01, Alt : 49.2900009155, Lat : 49.2836408, Lng : -123.1148657, Q1 : 0.877035319805, Q2 : 0.0718863457441, Q3 : -0.128076970577, Q4 : 0.457425177097}
2019-04-14 19:24:49.21: SIM {TimeUS : 59635303, Roll : 0.43, Pitch : -16.91, Yaw : 55.16, Alt : 49.2900009155, Lat : 49.283643, Lng : -123.114861, Q1 : 0.876452744007, Q2 : 0.0714158937335, Q3 : -0.128620147705, Q4 : 0.458461821079}
2019-04-14 19:24:49.31: SIM {TimeUS : 59735263, Roll : 0.3, Pitch : -16.94, Yaw : 55.36, Alt : 49.2900009155, Lat : 49.2836451, Lng : -123.1148563, Q1 : 0.875703692436, Q2 : 0.0707681030035, Q3 : -0.129268810153, Q4 : 0.459809213877}
2019-04-14 19:24:49.41: SIM {TimeUS : 59835223, Roll : 0.16, Pitch : -16.98, Yaw : 55.57, Alt : 49.2999992371, Lat : 49.2836472, Lng : -123.1148515, Q1 : 0.8748960495, Q2 : 0.0700799226761, Q3 : -0.129963546991, Q4 : 0.461253941059}
2019-04-14 19:24:49.51: SIM {TimeUS : 59935183, Roll : 0.02, Pitch : -17.01, Yaw : 55.77, Alt : 49.2999992371, Lat : 49.2836493, Lng : -123.1148466, Q1 : 0.874133110046, Q2 : 0.0694346278906, Q3 : -0.130667388439, Q4 : 0.462597221136}
2019-04-14 19:24:49.61: SIM {TimeUS : 60035143, Roll : -0.08, Pitch : -17.05, Yaw : 55.93, Alt : 49.2999992371, Lat : 49.2836515, Lng : -123.1148418, Q1 : 0.873495340347, Q2 : 0.0688823238015, Q3 : -0.131342977285, Q4 : 0.463691800833}
2019-04-14 19:24:49.71: SIM {TimeUS : 60135103, Roll : -0.19, Pitch : -17.09, Yaw : 56.05, Alt : 49.2999992371, Lat : 49.2836536, Lng : -123.1148369, Q1 : 0.87304764986, Q2 : 0.0683718398213, Q3 : -0.131949231029, Q4 : 0.464437901974}
2019-04-14 19:24:49.81: SIM {TimeUS : 60235063, Roll : -0.26, Pitch : -17.11, Yaw : 56.11, Alt : 49.2999992371, Lat : 49.2836558, Lng : -123.114832, Q1 : 0.872811853886, Q2 : 0.0679657757282, Q3 : -0.132433593273, Q4 : 0.464802622795}
2019-04-14 19:24:49.91: SIM {TimeUS : 60335023, Roll : -0.3, Pitch : -17.14, Yaw : 56.12, Alt : 49.2999992371, Lat : 49.2836579, Lng : -123.1148271, Q1 : 0.872776627541, Q2 : 0.0677795186639, Q3 : -0.13282251358, Q4 : 0.464785069227}
2019-04-14 19:24:50.01: SIM {TimeUS : 60434983, Roll : -0.28, Pitch : -17.18, Yaw : 56.07, Alt : 49.2999992371, Lat : 49.2836601, Lng : -123.1148221, Q1 : 0.872891783714, Q2 : 0.0680198892951, Q3 : -0.133021965623, Q4 : 0.464476555586}
2019-04-14 19:24:50.11: SIM {TimeUS : 60534943, Roll : -0.23, Pitch : -17.21, Yaw : 56.0, Alt : 49.2999992371, Lat : 49.2836622, Lng : -123.1148172, Q1 : 0.873135149479, Q2 : 0.0685079470277, Q3 : -0.133087620139, Q4 : 0.463928222656}
2019-04-14 19:24:50.21: SIM {TimeUS : 60634903, Roll : -0.13, Pitch : -17.25, Yaw : 55.89, Alt : 49.2999992371, Lat : 49.2836645, Lng : -123.1148122, Q1 : 0.873458504677, Q2 : 0.0692348405719, Q3 : -0.133068233728, Q4 : 0.463216543198}
2019-04-14 19:24:50.31: SIM {TimeUS : 60734863, Roll : -0.02, Pitch : -17.29, Yaw : 55.78, Alt : 49.2999992371, Lat : 49.2836668, Lng : -123.1148072, Q1 : 0.873803317547, Q2 : 0.0701567977667, Q3 : -0.133027091622, Q4 : 0.462438732386}
2019-04-14 19:24:50.41: SIM {TimeUS : 60834823, Roll : 0.07, Pitch : -17.33, Yaw : 55.66, Alt : 49.3100013733, Lat : 49.2836689, Lng : -123.1148022, Q1 : 0.874164819717, Q2 : 0.0709078535438, Q3 : -0.133002892137, Q4 : 0.46164727211}
2019-04-14 19:24:50.51: SIM {TimeUS : 60934783, Roll : 0.13, Pitch : -17.35, Yaw : 55.56, Alt : 49.3100013733, Lat : 49.2836712, Lng : -123.1147971, Q1 : 0.874532580376, Q2 : 0.071305513382, Q3 : -0.132932558656, Q4 : 0.460909128189}
2019-04-14 19:24:50.62: SIM {TimeUS : 61035576, Roll : 0.15, Pitch : -17.35, Yaw : 55.47, Alt : 49.3100013733, Lat : 49.2836735, Lng : -123.114792, Q1 : 0.874863505363, Q2 : 0.0714261159301, Q3 : -0.132891818881, Q4 : 0.46027380228}
2019-04-14 19:24:50.71: SIM {TimeUS : 61135536, Roll : 0.17, Pitch : -17.34, Yaw : 55.4, Alt : 49.3100013733, Lat : 49.2836758, Lng : -123.114787, Q1 : 0.875114560127, Q2 : 0.0714925080538, Q3 : -0.132813423872, Q4 : 0.459808558226}
2019-04-14 19:24:50.81: SIM {TimeUS : 61235496, Roll : 0.18, Pitch : -17.35, Yaw : 55.37, Alt : 49.3100013733, Lat : 49.2836779, Lng : -123.1147819, Q1 : 0.875265777111, Q2 : 0.0714929923415, Q3 : -0.132861271501, Q4 : 0.459506779909}
2019-04-14 19:24:50.91: SIM {TimeUS : 61335456, Roll : 0.18, Pitch : -17.39, Yaw : 55.35, Alt : 49.3100013733, Lat : 49.2836803, Lng : -123.1147768, Q1 : 0.875284552574, Q2 : 0.0716671049595, Q3 : -0.133126273751, Q4 : 0.459367215633}
2019-04-14 19:24:51.01: SIM {TimeUS : 61435416, Roll : 0.18, Pitch : -17.45, Yaw : 55.35, Alt : 49.3100013733, Lat : 49.2836825, Lng : -123.1147716, Q1 : 0.875205039978, Q2 : 0.0719018280506, Q3 : -0.133619695902, Q4 : 0.459338724613}
2019-04-14 19:24:51.11: SIM {TimeUS : 61535376, Roll : 0.16, Pitch : -17.48, Yaw : 55.36, Alt : 49.3100013733, Lat : 49.2836847, Lng : -123.1147664, Q1 : 0.87512254715, Q2 : 0.0719150230289, Q3 : -0.133954107761, Q4 : 0.459396392107}
2019-04-14 19:24:51.21: SIM {TimeUS : 61635336, Roll : 0.14, Pitch : -17.48, Yaw : 55.38, Alt : 49.3100013733, Lat : 49.283687, Lng : -123.1147613, Q1 : 0.875059723854, Q2 : 0.0717861875892, Q3 : -0.133999705315, Q4 : 0.45952296257}
2019-04-14 19:24:51.31: SIM {TimeUS : 61735296, Roll : 0.12, Pitch : -17.49, Yaw : 55.4, Alt : 49.3100013733, Lat : 49.2836894, Lng : -123.1147561, Q1 : 0.874980568886, Q2 : 0.0716355293989, Q3 : -0.134147465229, Q4 : 0.459654003382}
2019-04-14 19:24:51.41: SIM {TimeUS : 61835256, Roll : 0.09, Pitch : -17.51, Yaw : 55.42, Alt : 49.3100013733, Lat : 49.2836917, Lng : -123.114751, Q1 : 0.874895632267, Q2 : 0.0715122446418, Q3 : -0.134458437562, Q4 : 0.459744125605}
2019-04-14 19:24:51.51: SIM {TimeUS : 61935216, Roll : 0.07, Pitch : -17.54, Yaw : 55.44, Alt : 49.3199996948, Lat : 49.2836939, Lng : -123.1147458, Q1 : 0.874816179276, Q2 : 0.0714895501733, Q3 : -0.13472558558, Q4 : 0.459820628166}
2019-04-14 19:24:51.61: SIM {TimeUS : 62035176, Roll : 0.05, Pitch : -17.56, Yaw : 55.45, Alt : 49.3199996948, Lat : 49.2836962, Lng : -123.1147406, Q1 : 0.874772310257, Q2 : 0.0714675635099, Q3 : -0.134956359863, Q4 : 0.459839761257}
2019-04-14 19:24:51.71: SIM {TimeUS : 62135136, Roll : 0.05, Pitch : -17.58, Yaw : 55.44, Alt : 49.3199996948, Lat : 49.2836986, Lng : -123.1147353, Q1 : 0.874770283699, Q2 : 0.0714857950807, Q3 : -0.135085150599, Q4 : 0.459802895784}
2019-04-14 19:24:51.81: SIM {TimeUS : 62235096, Roll : 0.05, Pitch : -17.59, Yaw : 55.43, Alt : 49.3199996948, Lat : 49.2837009, Lng : -123.1147301, Q1 : 0.874802112579, Q2 : 0.0715635344386, Q3 : -0.135167583823, Q4 : 0.459706097841}
2019-04-14 19:24:51.91: SIM {TimeUS : 62335056, Roll : 0.07, Pitch : -17.6, Yaw : 55.41, Alt : 49.3199996948, Lat : 49.2837033, Lng : -123.1147249, Q1 : 0.874859511852, Q2 : 0.0717246979475, Q3 : -0.135200098157, Q4 : 0.459562122822}
2019-04-14 19:24:52.01: SIM {TimeUS : 62435016, Roll : 0.1, Pitch : -17.62, Yaw : 55.38, Alt : 49.3199996948, Lat : 49.2837056, Lng : -123.1147196, Q1 : 0.874917447567, Q2 : 0.0720105245709, Q3 : -0.135245382786, Q4 : 0.45939385891}
2019-04-14 19:24:52.11: SIM {TimeUS : 62534976, Roll : 0.13, Pitch : -17.65, Yaw : 55.36, Alt : 49.3199996948, Lat : 49.283708, Lng : -123.1147144, Q1 : 0.874971985817, Q2 : 0.072337590158, Q3 : -0.135394319892, Q4 : 0.459194660187}
2019-04-14 19:24:52.21: SIM {TimeUS : 62634936, Roll : 0.14, Pitch : -17.69, Yaw : 55.33, Alt : 49.3199996948, Lat : 49.2837102, Lng : -123.1147091, Q1 : 0.875039279461, Q2 : 0.0725407004356, Q3 : -0.13567660749, Q4 : 0.458950966597}
2019-04-14 19:24:52.31: SIM {TimeUS : 62734896, Roll : 0.14, Pitch : -17.74, Yaw : 55.3, Alt : 49.3199996948, Lat : 49.2837126, Lng : -123.1147038, Q1 : 0.875109553337, Q2 : 0.0726644918323, Q3 : -0.13600833714, Q4 : 0.458699226379}
2019-04-14 19:24:52.41: SIM {TimeUS : 62834856, Roll : 0.13, Pitch : -17.77, Yaw : 55.27, Alt : 49.3199996948, Lat : 49.283715, Lng : -123.1146985, Q1 : 0.875179886818, Q2 : 0.0727428421378, Q3 : -0.136343255639, Q4 : 0.458452999592}
2019-04-14 19:24:52.51: SIM {TimeUS : 62934816, Roll : 0.14, Pitch : -17.8, Yaw : 55.24, Alt : 49.3199996948, Lat : 49.2837174, Lng : -123.1146932, Q1 : 0.875249028206, Q2 : 0.0728669017553, Q3 : -0.136504396796, Q4 : 0.458253383636}
2019-04-14 19:24:52.61: SIM {TimeUS : 63034776, Roll : 0.16, Pitch : -17.8, Yaw : 55.22, Alt : 49.3199996948, Lat : 49.2837197, Lng : -123.1146879, Q1 : 0.875325620174, Q2 : 0.0730125755072, Q3 : -0.136467829347, Q4 : 0.458094775677}
2019-04-14 19:24:52.71: SIM {TimeUS : 63135569, Roll : 0.18, Pitch : -17.78, Yaw : 55.2, Alt : 49.3199996948, Lat : 49.2837221, Lng : -123.1146825, Q1 : 0.875418365002, Q2 : 0.0730135440826, Q3 : -0.136265739799, Q4 : 0.457977473736}
2019-04-14 19:24:52.81: SIM {TimeUS : 63235529, Roll : 0.17, Pitch : -17.76, Yaw : 55.19, Alt : 49.3199996948, Lat : 49.2837245, Lng : -123.1146772, Q1 : 0.875500202179, Q2 : 0.0728660300374, Q3 : -0.136098057032, Q4 : 0.457894384861}
2019-04-14 19:24:52.91: SIM {TimeUS : 63335489, Roll : 0.16, Pitch : -17.73, Yaw : 55.18, Alt : 49.3199996948, Lat : 49.2837269, Lng : -123.1146718, Q1 : 0.875566363335, Q2 : 0.0726934224367, Q3 : -0.13597753644, Q4 : 0.457831144333}
2019-04-14 19:24:53.01: SIM {TimeUS : 63435449, Roll : 0.16, Pitch : -17.73, Yaw : 55.17, Alt : 49.3300018311, Lat : 49.2837291, Lng : -123.1146664, Q1 : 0.875597476959, Q2 : 0.0726101323962, Q3 : -0.135971844196, Q4 : 0.457786500454}
2019-04-14 19:24:53.11: SIM {TimeUS : 63535409, Roll : 0.15, Pitch : -17.75, Yaw : 55.17, Alt : 49.3300018311, Lat : 49.2837315, Lng : -123.1146611, Q1 : 0.87559401989, Q2 : 0.0726176723838, Q3 : -0.136158004403, Q4 : 0.457736670971}
2019-04-14 19:24:53.21: SIM {TimeUS : 63635369, Roll : 0.15, Pitch : -17.78, Yaw : 55.17, Alt : 49.3300018311, Lat : 49.2837339, Lng : -123.1146557, Q1 : 0.87557476759, Q2 : 0.0727258399129, Q3 : -0.136364579201, Q4 : 0.45769482851}
2019-04-14 19:24:53.31: SIM {TimeUS : 63735329, Roll : 0.14, Pitch : -17.81, Yaw : 55.16, Alt : 49.3300018311, Lat : 49.2837363, Lng : -123.1146503, Q1 : 0.875552475452, Q2 : 0.0728069320321, Q3 : -0.136685982347, Q4 : 0.457628637552}
2019-04-14 19:24:53.41: SIM {TimeUS : 63835289, Roll : 0.13, Pitch : -17.86, Yaw : 55.16, Alt : 49.3300018311, Lat : 49.2837387, Lng : -123.1146448, Q1 : 0.875525772572, Q2 : 0.0729274600744, Q3 : -0.137054175138, Q4 : 0.457550466061}
2019-04-14 19:24:53.51: SIM {TimeUS : 63935249, Roll : 0.14, Pitch : -17.89, Yaw : 55.15, Alt : 49.3300018311, Lat : 49.2837411, Lng : -123.1146395, Q1 : 0.875511050224, Q2 : 0.0730981975794, Q3 : -0.137301325798, Q4 : 0.457477271557}
2019-04-14 19:24:53.61: SIM {TimeUS : 64035209, Roll : 0.13, Pitch : -17.92, Yaw : 55.14, Alt : 49.3300018311, Lat : 49.2837436, Lng : -123.1146341, Q1 : 0.875517189503, Q2 : 0.0731718912721, Q3 : -0.137548178434, Q4 : 0.457379490137}
2019-04-14 19:24:53.71: SIM {TimeUS : 64135169, Roll : 0.13, Pitch : -17.94, Yaw : 55.13, Alt : 49.3300018311, Lat : 49.283746, Lng : -123.1146287, Q1 : 0.875537693501, Q2 : 0.0732149928808, Q3 : -0.137733802199, Q4 : 0.45727750659}
2019-04-14 19:24:53.81: SIM {TimeUS : 64235129, Roll : 0.15, Pitch : -17.94, Yaw : 55.12, Alt : 49.3300018311, Lat : 49.2837484, Lng : -123.1146233, Q1 : 0.875580430031, Q2 : 0.0733071863651, Q3 : -0.137656226754, Q4 : 0.457204282284}
2019-04-14 19:24:53.91: SIM {TimeUS : 64335089, Roll : 0.17, Pitch : -17.95, Yaw : 55.1, Alt : 49.3300018311, Lat : 49.2837508, Lng : -123.1146179, Q1 : 0.875615477562, Q2 : 0.0735144689679, Q3 : -0.137620031834, Q4 : 0.457114756107}
2019-04-14 19:24:54.01: SIM {TimeUS : 64435049, Roll : 0.18, Pitch : -17.96, Yaw : 55.08, Alt : 49.3300018311, Lat : 49.2837533, Lng : -123.1146124, Q1 : 0.875653147697, Q2 : 0.0736310482025, Q3 : -0.137722462416, Q4 : 0.456992983818}
2019-04-14 19:24:54.11: SIM {TimeUS : 64535009, Roll : 0.19, Pitch : -17.97, Yaw : 55.07, Alt : 49.3300018311, Lat : 49.2837557, Lng : -123.114607, Q1 : 0.875704288483, Q2 : 0.0737141296268, Q3 : -0.137768641114, Q4 : 0.456867665052}
2019-04-14 19:24:54.21: SIM {TimeUS : 64634969, Roll : 0.2, Pitch : -17.96, Yaw : 55.05, Alt : 49.3300018311, Lat : 49.2837581, Lng : -123.1146016, Q1 : 0.875771164894, Q2 : 0.07373277843, Q3 : -0.137664854527, Q4 : 0.456767678261}
2019-04-14 19:24:54.31: SIM {TimeUS : 64734929, Roll : 0.21, Pitch : -17.96, Yaw : 55.04, Alt : 49.3300018311, Lat : 49.2837605, Lng : -123.1145961, Q1 : 0.875828266144, Q2 : 0.0737504065037, Q3 : -0.137592375278, Q4 : 0.456677168608}
2019-04-14 19:24:54.41: SIM {TimeUS : 64834889, Roll : 0.19, Pitch : -17.97, Yaw : 55.03, Alt : 49.3400001526, Lat : 49.283763, Lng : -123.1145906, Q1 : 0.875863790512, Q2 : 0.0736983418465, Q3 : -0.13779014349, Q4 : 0.456557780504}
2019-04-14 19:24:54.51: SIM {TimeUS : 64934849, Roll : 0.17, Pitch : -18.01, Yaw : 55.02, Alt : 49.3400001526, Lat : 49.2837654, Lng : -123.1145852, Q1 : 0.875876605511, Q2 : 0.073624022305, Q3 : -0.138180032372, Q4 : 0.456427395344}
2019-04-14 19:24:54.61: SIM {TimeUS : 65034809, Roll : 0.15, Pitch : -18.01, Yaw : 55.01, Alt : 49.3400001526, Lat : 49.2837678, Lng : -123.1145797, Q1 : 0.875913918018, Q2 : 0.0734927654266, Q3 : -0.138279289007, Q4 : 0.456346899271}
2019-04-14 19:24:54.72: SIM {TimeUS : 65135602, Roll : 0.16, Pitch : -18.0, Yaw : 55.0, Alt : 49.3400001526, Lat : 49.2837703, Lng : -123.1145742, Q1 : 0.87595641613, Q2 : 0.0734767243266, Q3 : -0.138128697872, Q4 : 0.456313610077}
2019-04-14 19:24:54.81: SIM {TimeUS : 65235562, Roll : 0.17, Pitch : -17.98, Yaw : 55.0, Alt : 49.3400001526, Lat : 49.2837727, Lng : -123.1145687, Q1 : 0.875989258289, Q2 : 0.0735174641013, Q3 : -0.137989163399, Q4 : 0.456286013126}
2019-04-14 19:24:54.91: SIM {TimeUS : 65335522, Roll : 0.17, Pitch : -17.99, Yaw : 54.99, Alt : 49.3400001526, Lat : 49.2837752, Lng : -123.1145632, Q1 : 0.876011133194, Q2 : 0.0735421404243, Q3 : -0.13802818954, Q4 : 0.456228375435}
2019-04-14 19:24:55.01: SIM {TimeUS : 65435482, Roll : 0.15, Pitch : -18.01, Yaw : 54.98, Alt : 49.3400001526, Lat : 49.2837776, Lng : -123.1145577, Q1 : 0.876029133797, Q2 : 0.0734814405441, Q3 : -0.138256832957, Q4 : 0.456134289503}
2019-04-14 19:24:55.11: SIM {TimeUS : 65535442, Roll : 0.13, Pitch : -18.04, Yaw : 54.97, Alt : 49.3400001526, Lat : 49.2837801, Lng : -123.1145523, Q1 : 0.87604624033, Q2 : 0.073376044631, Q3 : -0.138583123684, Q4 : 0.456019371748}
2019-04-14 19:24:55.21: SIM {TimeUS : 65635402, Roll : 0.12, Pitch : -18.06, Yaw : 54.96, Alt : 49.3400001526, Lat : 49.2837825, Lng : -123.1145468, Q1 : 0.876064896584, Q2 : 0.0733790323138, Q3 : -0.138816297054, Q4 : 0.455912083387}
2019-04-14 19:24:55.31: SIM {TimeUS : 65735362, Roll : 0.13, Pitch : -18.09, Yaw : 54.95, Alt : 49.3400001526, Lat : 49.2837849, Lng : -123.1145413, Q1 : 0.876076042652, Q2 : 0.073553159833, Q3 : -0.138954907656, Q4 : 0.455820441246}
2019-04-14 19:24:55.41: SIM {TimeUS : 65835322, Roll : 0.15, Pitch : -18.1, Yaw : 54.94, Alt : 49.3400001526, Lat : 49.2837873, Lng : -123.1145358, Q1 : 0.876086711884, Q2 : 0.0737616419792, Q3 : -0.139028683305, Q4 : 0.455743640661}
2019-04-14 19:24:55.51: SIM {TimeUS : 65935282, Roll : 0.17, Pitch : -18.11, Yaw : 54.93, Alt : 49.3400001526, Lat : 49.2837898, Lng : -123.1145303, Q1 : 0.876097798347, Q2 : 0.0740019977093, Q3 : -0.138999864459, Q4 : 0.455692231655}
2019-04-14 19:24:55.61: SIM {TimeUS : 66035242, Roll : 0.19, Pitch : -18.13, Yaw : 54.92, Alt : 49.3400001526, Lat : 49.2837922, Lng : -123.1145247, Q1 : 0.876111507416, Q2 : 0.0741424411535, Q3 : -0.139032319188, Q4 : 0.455633223057}
