2019-04-14 17:44:50.80: SIM {TimeUS : 40016487, Roll : 0.0, Pitch : 0.0, Yaw : 0.0, Alt : 30.1000003815, Lat : 49.28357, Lng : -123.11502, Q1 : 1.0, Q2 : 0.0, Q3 : 0.0, Q4 : 0.0}
2019-04-14 17:44:50.91: SIM {TimeUS : 40135606, Roll : 0.0, Pitch : 0.0, Yaw : 0.0, Alt : 30.1000003815, Lat : 49.28357, Lng : -123.11502, Q1 : 1.0, Q2 : 0.0, Q3 : 0.0, Q4 : 0.0}
2019-04-14 17:44:51.01: SIM {TimeUS : 40235566, Roll : 0.0, Pitch : 0.0, Yaw : 0.0, Alt : 30.1000003815, Lat : 49.28357, Lng : -123.11502, Q1 : 1.0, Q2 : 0.0, Q3 : 0.0, Q4 : 0.0}
2019-04-14 17:44:51.11: SIM {TimeUS : 40335526, Roll : 0.0, Pitch : 0.0, Yaw : 0.0, Alt : 30.1000003815, Lat : 49.28357, Lng : -123.11502, Q1 : 1.0, Q2 : 0.0, Q3 : 0.0, Q4 : 0.0}
2019-04-14 17:44:51.21: SIM {TimeUS : 40435486, Roll : 0.0, Pitch : 0.0, Yaw : 0.0, Alt : 30.1000003815, Lat : 49.28357, Lng : -123.11502, Q1 : 1.0, Q2 : 0.0, Q3 : 0.0, Q4 : 0.0}
2019-04-14 17:44:51.31: SIM {TimeUS : 40535446, Roll : 0.0, Pitch : 0.0, Yaw : 0.0, Alt : 30.1000003815, Lat : 49.28357, Lng : -123.11502, Q1 : 1.0, Q2 : 0.0, Q3 : 0.0, Q4 : 0.0}
2019-04-14 17:44:51.41: SIM {TimeUS : 40635406, Roll : 0.0, Pitch : 0.0, Yaw : 0.0, Alt : 30.1000003815, Lat : 49.28357, Lng : -123.11502, Q1 : 1.0, Q2 : 0.0, Q3 : 0.0, Q4 : 0.0}
2019-04-14 17:44:51.51: SIM {TimeUS : 40735366, Roll : 0.0, Pitch : 0.0, Yaw : 0.0, Alt : 30.1000003815, Lat : 49.28357, Lng : -123.11502, Q1 : 1.0, Q2 : 0.0, Q3 : 0.0, Q4 : 0.0}
2019-04-14 17:44:51.61: SIM {TimeUS : 40835326, Roll : 0.0, Pitch : 0.0, Yaw : 0.0, Alt : 30.1000003815, Lat : 49.28357, Lng : -123.11502, Q1 : 1.0, Q2 : 0.0, Q3 : 0.0, Q4 : 0.0}
2019-04-14 17:44:51.71: SIM {TimeUS : 40935286, Roll : 0.0, Pitch : 0.0, Yaw : 0.0, Alt : 30.1000003815, Lat : 49.28357, Lng : -123.11502, Q1 : 1.0, Q2 : 0.0, Q3 : 0.0, Q4 : 0.0}
2019-04-14 17:44:51.81: SIM {TimeUS : 41035246, Roll : 0.0, Pitch : 0.0, Yaw : 0.0, Alt : 30.1000003815, Lat : 49.28357, Lng : -123.11502, Q1 : 1.0, Q2 : 0.0, Q3 : 0.0, Q4 : 0.0}
2019-04-14 17:44:51.91: SIM {TimeUS : 41135206, Roll : 0.0, Pitch : 0.0, Yaw : 0.0, Alt : 30.1000003815, Lat : 49.28357, Lng : -123.11502, Q1 : 1.0, Q2 : 0.0, Q3 : 0.0, Q4 : 0.0}
2019-04-14 17:44:52.01: SIM {TimeUS : 41235166, Roll : 0.0, Pitch : 0.0, Yaw : 0.0, Alt : 30.1000003815, Lat : 49.28357, Lng : -123.11502, Q1 : 1.0, Q2 : 0.0, Q3 : 0.0, Q4 : 0.0}
2019-04-14 17:44:52.11: SIM {TimeUS : 41335126, Roll : 0.0, Pitch : 0.0, Yaw : 0.0, Alt : 30.1000003815, Lat : 49.28357, Lng : -123.11502, Q1 : 1.0, Q2 : 0.0, Q3 : 0.0, Q4 : 0.0}
2019-04-14 17:44:52.21: SIM {TimeUS : 41435086, Roll : 0.0, Pitch : 0.0, Yaw : 0.0, Alt : 30.1000003815, Lat : 49.28357, Lng : -123.11502, Q1 : 1.0, Q2 : 0.0, Q3 : 0.0, Q4 : 0.0}
2019-04-14 17:44:52.31: SIM {TimeUS : 41535046, Roll : 0.0, Pitch : 0.0, Yaw : 0.0, Alt : 30.1000003815, Lat : 49.28357, Lng : -123.11502, Q1 : 1.0, Q2 : 0.0, Q3 : 0.0, Q4 : 0.0}
2019-04-14 17:44:52.41: SIM {TimeUS : 41635006, Roll : 0.0, Pitch : 0.0, Yaw : 0.0, Alt : 30.1000003815, Lat : 49.28357, Lng : -123.11502, Q1 : 1.0, Q2 : 0.0, Q3 : 0.0, Q4 : 0.0}
2019-04-14 17:44:52.51: SIM {TimeUS : 41734966, Roll : 0.0, Pitch : 0.0, Yaw : 0.0, Alt : 30.1000003815, Lat : 49.28357, Lng : -123.11502, Q1 : 1.0, Q2 : 0.0, Q3 : 0.0, Q4 : 0.0}
2019-04-14 17:44:52.61: SIM {TimeUS : 41834926, Roll : 0.0, Pitch : 0.0, Yaw : 0.0, Alt : 30.1000003815, Lat : 49.28357, Lng : -123.11502, Q1 : 1.0, Q2 : 0.0, Q3 : 0.0, Q4 : 0.0}
2019-04-14 17:44:52.71: SIM {TimeUS : 41934886, Roll : 0.0, Pitch : 0.0, Yaw : 0.0, Alt : 30.1000003815, Lat : 49.28357, Lng : -123.11502, Q1 : 1.0, Q2 : 0.0, Q3 : 0.0, Q4 : 0.0}
2019-04-14 17:44:52.81: SIM {TimeUS : 42034846, Roll : 0.0, Pitch : 0.0, Yaw : 0.0, Alt : 30.1000003815, Lat : 49.28357, Lng : -123.11502, Q1 : 1.0, Q2 : 0.0, Q3 : 0.0, Q4 : 0.0}
2019-04-14 17:44:52.91: SIM {TimeUS : 42135639, Roll : 0.0, Pitch : 0.0, Yaw : 0.0, Alt : 30.1000003815, Lat : 49.28357, Lng : -123.11502, Q1 : 1.0, Q2 : 0.0, Q3 : 0.0, Q4 : 0.0}
2019-04-14 17:44:53.01: SIM {TimeUS : 42235599, Roll : 0.0, Pitch : 0.0, Yaw : 0.0, Alt : 30.1000003815, Lat : 49.28357, Lng : -123.11502, Q1 : 1.0, Q2 : 0.0, Q3 : 0.0, Q4 : 0.0}
2019-04-14 17:44:53.11: SIM {TimeUS : 42335559, Roll : 0.0, Pitch : 0.0, Yaw : 360.0, Alt : 30.1000003815, Lat : 49.28357, Lng : -123.11502, Q1 : 1.0, Q2 : 0.0, Q3 : 0.0, Q4 : -7.07429687746e-12}
2019-04-14 17:44:53.21: SIM {TimeUS : 42435519, Roll : 0.0, Pitch : 0.0, Yaw : 0.0, Alt : 30.1000003815, Lat : 49.28357, Lng : -123.11502, Q1 : 1.0, Q2 : 0.0, Q3 : 0.0, Q4 : 1.12069374614e-10}
2019-04-14 17:44:53.31: SIM {TimeUS : 42535479, Roll : 0.0, Pitch : 0.0, Yaw : 360.0, Alt : 30.1000003815, Lat : 49.28357, Lng : -123.11502, Q1 : 1.0, Q2 : 0.0, Q3 : 0.0, Q4 : -9.64545421311e-08}
2019-04-14 17:44:53.41: SIM {TimeUS : 42635439, Roll : 0.0, Pitch : 0.0, Yaw : 359.99, Alt : 30.1000003815, Lat : 49.28357, Lng : -123.11502, Q1 : 1.0, Q2 : 0.0, Q3 : 0.0, Q4 : -2.49799796848e-07}
2019-04-14 17:44:53.51: SIM {TimeUS : 42735399, Roll : 0.0, Pitch : 0.0, Yaw : 359.99, Alt : 30.1000003815, Lat : 49.28357, Lng : -123.11502, Q1 : 1.0, Q2 : 0.0, Q3 : 0.0, Q4 : -4.33715285908e-07}
2019-04-14 17:44:53.61: SIM {TimeUS : 42835359, Roll : 0.0, Pitch : 0.0, Yaw : 359.99, Alt : 30.1000003815, Lat : 49.28357, Lng : -123.11502, Q1 : 1.0, Q2 : 0.0, Q3 : 0.0, Q4 : -6.57298585338e-07}
2019-04-14 17:44:53.71: SIM {TimeUS : 42935319, Roll : 0.0, Pitch : 0.0, Yaw : 359.99, Alt : 30.1000003815, Lat : 49.28357, Lng : -123.11502, Q1 : 1.0, Q2 : 0.0, Q3 : 0.0, Q4 : -8.36136280213e-07}
2019-04-14 17:44:53.81: SIM {TimeUS : 43035279, Roll : 0.0, Pitch : 0.0, Yaw : 359.99, Alt : 30.1000003815, Lat : 49.28357, Lng : -123.11502, Q1 : 1.0, Q2 : 0.0, Q3 : 0.0, Q4 : -1.04971957171e-06}
2019-04-14 17:44:53.91: SIM {TimeUS : 43135239, Roll : 0.0, Pitch : 0.0, Yaw : 359.99, Alt : 30.1000003815, Lat : 49.28357, Lng : -123.11502, Q1 : 1.0, Q2 : 0.0, Q3 : 0.0, Q4 : -1.25067663248e-06}
2019-04-14 17:44:54.01: SIM {TimeUS : 43235199, Roll : 0.0, Pitch : 0.0, Yaw : 359.99, Alt : 30.1100006104, Lat : 49.28357, Lng : -123.11502, Q1 : 1.0, Q2 : 0.0, Q3 : 0.0, Q4 : -1.50804555688e-06}
2019-04-14 17:44:54.11: SIM {TimeUS : 43335159, Roll : 0.0, Pitch : 0.0, Yaw : 359.99, Alt : 30.1299991608, Lat : 49.28357, Lng : -123.11502, Q1 : 1.0, Q2 : 0.0, Q3 : 0.0, Q4 : -1.73224577793e-06}
2019-04-14 17:44:54.21: SIM {TimeUS : 43435119, Roll : 0.0, Pitch : 0.0, Yaw : 359.99, Alt : 30.1499996185, Lat : 49.28357, Lng : -123.11502, Q1 : 1.0, Q2 : 0.0, Q3 : 0.0, Q4 : -1.96779024009e-06}
2019-04-14 17:44:54.31: SIM {TimeUS : 43535079, Roll : 0.0, Pitch : 0.0, Yaw : 359.99, Alt : 30.1900005341, Lat : 49.28357, Lng : -123.11502, Q1 : 1.0, Q2 : 0.0, Q3 : 0.0, Q4 : -2.215253744e-06}
2019-04-14 17:44:54.41: SIM {TimeUS : 43635039, Roll : -0.02, Pitch : -0.02, Yaw : 359.99, Alt : 30.2299995422, Lat : 49.28357, Lng : -123.11502, Q1 : 0.999999940395, Q2 : -0.000243357819272, Q3 : -0.000250869023148, Q4 : -3.58874990525e-06}
2019-04-14 17:44:54.51: SIM {TimeUS : 43734999, Roll : -0.26, Pitch : -0.27, Yaw : 359.99, Alt : 30.2999992371, Lat : 49.28357, Lng : -123.11502, Q1 : 0.999994456768, Q2 : -0.00234497780912, Q3 : -0.00236711092293, Q4 : -3.2247222407e-05}
2019-04-14 17:44:54.61: SIM {TimeUS : 43834959, Roll : -0.59, Pitch : -0.54, Yaw : 359.99, Alt : 30.4300003052, Lat : 49.28357, Lng : -123.11502, Q1 : 0.999975323677, Q2 : -0.00518606649712, Q3 : -0.00473929615691, Q4 : -9.15195269044e-05}
2019-04-14 17:44:54.71: SIM {TimeUS : 43934919, Roll : -0.82, Pitch : -0.68, Yaw : 359.98, Alt : 30.5900001526, Lat : 49.28357, Lng : -123.11502, Q1 : 0.999956190586, Q2 : -0.00720985978842, Q3 : -0.00597225595266, Q4 : -0.000168876576936}
2019-04-14 17:44:54.81: SIM {TimeUS : 44034879, Roll : -0.87, Pitch : -0.68, Yaw : 359.97, Alt : 30.75, Lat : 49.28357, Lng : -123.11502, Q1 : 0.999952554703, Q2 : -0.00767637789249, Q3 : -0.00599301652983, Q4 : -0.000250836426858}
2019-04-14 17:44:54.91: SIM {TimeUS : 44134839, Roll : -0.77, Pitch : -0.58, Yaw : 359.96, Alt : 30.8999996185, Lat : 49.28357, Lng : -123.1150201, Q1 : 0.999963879585, Q2 : -0.00676593137905, Q3 : -0.00514307292178, Q4 : -0.000324690219713}
2019-04-14 17:44:55.01: SIM {TimeUS : 44235632, Roll : -0.58, Pitch : -0.43, Yaw : 359.95, Alt : 31.0599994659, Lat : 49.2835701, Lng : -123.1150202, Q1 : 0.999979794025, Q2 : -0.00507286423817, Q3 : -0.00381175824441, Q4 : -0.000391440989915}
2019-04-14 17:44:55.11: SIM {TimeUS : 44335592, Roll : -0.35, Pitch : -0.27, Yaw : 359.94, Alt : 31.2099990845, Lat : 49.2835701, Lng : -123.1150202, Q1 : 0.999992311001, Q2 : -0.00309630436823, Q3 : -0.00236615119502, Q4 : -0.000446766323876}
2019-04-14 17:44:55.21: SIM {TimeUS : 44435552, Roll : -0.13, Pitch : -0.14, Yaw : 359.94, Alt : 31.3799991608, Lat : 49.2835702, Lng : -123.1150203, Q1 : 0.999998450279, Q2 : -0.00116498651914, Q3 : -0.00124696723651, Q4 : -0.000489185273182}
2019-04-14 17:44:55.31: SIM {TimeUS : 44535512, Roll : 0.01, Pitch : -0.04, Yaw : 359.94, Alt : 31.5499992371, Lat : 49.2835702, Lng : -123.1150204, Q1 : 0.999999761581, Q2 : 0.000168409649632, Q3 : -0.00041702366434, Q4 : -0.000522165384609}
2019-04-14 17:44:55.41: SIM {TimeUS : 44635472, Roll : 0.07, Pitch : 0.01, Yaw : 359.93, Alt : 31.7299995422, Lat : 49.2835703, Lng : -123.1150205, Q1 : 0.999999582767, Q2 : 0.000694281305186, Q3 : 0.000119635013107, Q4 : -0.000545579125173}
2019-04-14 17:44:55.51: SIM {TimeUS : 44735432, Roll : 0.08, Pitch : 0.04, Yaw : 359.93, Alt : 31.9099998474, Lat : 49.2835703, Lng : -123.1150206, Q1 : 0.999999523163, Q2 : 0.000699369877111, Q3 : 0.00035698901047, Q4 : -0.00055206991965}
2019-04-14 17:44:55.61: SIM {TimeUS : 44835392, Roll : 0.06, Pitch : 0.04, Yaw : 359.93, Alt : 32.0900001526, Lat : 49.2835703, Lng : -123.1150206, Q1 : 0.999999642372, Q2 : 0.00052928290097, Q3 : 0.000385589781217, Q4 : -0.000554305792321}
2019-04-14 17:44:55.71: SIM {TimeUS : 44935352, Roll : 0.04, Pitch : 0.04, Yaw : 359.93, Alt : 32.2799987793, Lat : 49.2835703, Lng : -123.1150207, Q1 : 0.999999701977, Q2 : 0.000427402672358, Q3 : 0.000375933625037, Q4 : -0.000549980672076}
2019-04-14 17:44:55.81: SIM {TimeUS : 45035312, Roll : 0.06, Pitch : 0.04, Yaw : 359.93, Alt : 32.4700012207, Lat : 49.2835703, Lng : -123.1150207, Q1 : 0.999999642372, Q2 : 0.000537920801435, Q3 : 0.000399370357627, Q4 : -0.000532736477908}
2019-04-14 17:44:55.91: SIM {TimeUS : 45135272, Roll : 0.1, Pitch : 0.05, Yaw : 359.94, Alt : 32.6699981689, Lat : 49.2835703, Lng : -123.1150208, Q1 : 0.999999403954, Q2 : 0.000880610488821, Q3 : 0.000493742700201, Q4 : -0.000507364806253}
2019-04-14 17:44:56.01: SIM {TimeUS : 45235232, Roll : 0.13, Pitch : 0.08, Yaw : 359.94, Alt : 32.8699989319, Lat : 49.2835704, Lng : -123.1150208, Q1 : 0.999998927116, Q2 : 0.00121233717073, Q3 : 0.000705369107891, Q4 : -0.000485685595777}
2019-04-14 17:44:56.11: SIM {TimeUS : 45335192, Roll : 0.15, Pitch : 0.11, Yaw : 359.94, Alt : 33.0699996948, Lat : 49.2835704, Lng : -123.1150208, Q1 : 0.999998450279, Q2 : 0.00139273575041, Q3 : 0.00096435053274, Q4 : -0.000470716302516}
2019-04-14 17:44:56.21: SIM {TimeUS : 45435152, Roll : 0.15, Pitch : 0.14, Yaw : 359.94, Alt : 33.2700004578, Lat : 49.2835704, Lng : -123.1150209, Q1 : 0.999998211861, Q2 : 0.00134906463791, Q3 : 0.00126400450245, Q4 : -0.000475832115626}
2019-04-14 17:44:56.31: SIM {TimeUS : 45535112, Roll : 0.16, Pitch : 0.17, Yaw : 359.94, Alt : 33.4700012207, Lat : 49.2835704, Lng : -123.1150209, Q1 : 0.999997675419, Q2 : 0.00139924057294, Q3 : 0.00156807305757, Q4 : -0.000498273875564}
2019-04-14 17:44:56.41: SIM {TimeUS : 45635072, Roll : 0.17, Pitch : 0.19, Yaw : 359.94, Alt : 33.6800003052, Lat : 49.2835704, Lng : -123.1150209, Q1 : 0.999997317791, Q2 : 0.00151980656665, Q3 : 0.00169125164393, Q4 : -0.000517056614626}
2019-04-14 17:44:56.51: SIM {TimeUS : 45735032, Roll : 0.18, Pitch : 0.19, Yaw : 359.93, Alt : 33.8899993896, Lat : 49.2835704, Lng : -123.1150209, Q1 : 0.999997198582, Q2 : 0.00159091246314, Q3 : 0.0016934069572, Q4 : -0.000532879377715}
2019-04-14 17:44:56.61: SIM {TimeUS : 45834992, Roll : 0.16, Pitch : 0.18, Yaw : 359.93, Alt : 34.0999984741, Lat : 49.2835706, Lng : -123.1150209, Q1 : 0.999997437, Q2 : 0.00145385682117, Q3 : 0.00162463239394, Q4 : -0.000554036698304}
2019-04-14 17:44:56.71: SIM {TimeUS : 45934952, Roll : 0.14, Pitch : 0.14, Yaw : 359.93, Alt : 34.3100013733, Lat : 49.2835706, Lng : -123.1150209, Q1 : 0.999998211861, Q2 : 0.00126940722112, Q3 : 0.00126775703393, Q4 : -0.000571351964027}
2019-04-14 17:44:56.81: SIM {TimeUS : 46034912, Roll : 0.12, Pitch : 0.08, Yaw : 359.93, Alt : 34.5200004578, Lat : 49.2835706, Lng : -123.1150209, Q1 : 0.999998986721, Q2 : 0.00107857678086, Q3 : 0.000734017405193, Q4 : -0.000574597157538}
2019-04-14 17:44:56.91: SIM {TimeUS : 46134872, Roll : 0.1, Pitch : 0.04, Yaw : 359.93, Alt : 34.7299995422, Lat : 49.2835706, Lng : -123.1150209, Q1 : 0.999999403954, Q2 : 0.000880501465872, Q3 : 0.000382712983992, Q4 : -0.000590075505897}
2019-04-14 17:44:57.01: SIM {TimeUS : 46234832, Roll : 0.08, Pitch : 0.03, Yaw : 359.92, Alt : 34.9500007629, Lat : 49.2835706, Lng : -123.1150209, Q1 : 0.999999523163, Q2 : 0.000703964149579, Q3 : 0.000276704115095, Q4 : -0.000623120053206}
2019-04-14 17:44:57.11: SIM {TimeUS : 46335625, Roll : 0.07, Pitch : 0.04, Yaw : 359.92, Alt : 35.1699981689, Lat : 49.2835706, Lng : -123.1150209, Q1 : 0.999999463558, Q2 : 0.000681291799992, Q3 : 0.000403362937504, Q4 : -0.000666508160066}
2019-04-14 17:44:57.21: SIM {TimeUS : 46435585, Roll : 0.06, Pitch : 0.04, Yaw : 359.91, Alt : 35.3800010681, Lat : 49.2835706, Lng : -123.1150208, Q1 : 0.999999523163, Q2 : 0.000590454495978, Q3 : 0.000433302193414, Q4 : -0.000706445076503}
2019-04-14 17:44:57.31: SIM {TimeUS : 46535545, Roll : 0.04, Pitch : 0.05, Yaw : 359.91, Alt : 35.5999984741, Lat : 49.2835704, Lng : -123.1150208, Q1 : 0.999999523163, Q2 : 0.000415268965298, Q3 : 0.000437596609117, Q4 : -0.000738398812246}
2019-04-14 17:44:57.41: SIM {TimeUS : 46635505, Roll : 0.02, Pitch : 0.05, Yaw : 359.91, Alt : 35.8199996948, Lat : 49.2835704, Lng : -123.1150208, Q1 : 0.999999582767, Q2 : 0.000250316516031, Q3 : 0.000493551080581, Q4 : -0.00076733820606}
2019-04-14 17:44:57.51: SIM {TimeUS : 46735465, Roll : 0.01, Pitch : 0.07, Yaw : 359.9, Alt : 36.0400009155, Lat : 49.2835704, Lng : -123.1150208, Q1 : 0.999999463558, Q2 : 0.000134712972795, Q3 : 0.000648125365842, Q4 : -0.000795241387095}
2019-04-14 17:44:57.61: SIM {TimeUS : 46835425, Roll : 0.0, Pitch : 0.06, Yaw : 359.9, Alt : 36.2599983215, Lat : 49.2835704, Lng : -123.1150208, Q1 : 0.999999463558, Q2 : 2.23267434194e-05, Q3 : 0.000606811547186, Q4 : -0.000820718472824}
2019-04-14 17:44:57.71: SIM {TimeUS : 46935385, Roll : -0.01, Pitch : 0.05, Yaw : 359.9, Alt : 36.4799995422, Lat : 49.2835704, Lng : -123.1150207, Q1 : 0.999999523163, Q2 : -8.6969404947e-05, Q3 : 0.000480877875816, Q4 : -0.000843549671117}
2019-04-14 17:44:57.81: SIM {TimeUS : 47035345, Roll : -0.02, Pitch : 0.03, Yaw : 359.9, Alt : 36.7099990845, Lat : 49.2835704, Lng : -123.1150207, Q1 : 0.999999582767, Q2 : -0.000202230439754, Q3 : 0.000305132300127, Q4 : -0.000865930458531}
2019-04-14 17:44:57.91: SIM {TimeUS : 47135305, Roll : -0.02, Pitch : 0.01, Yaw : 359.89, Alt : 36.9300003052, Lat : 49.2835704, Lng : -123.1150207, Q1 : 0.999999582767, Q2 : -0.000259739113972, Q3 : 0.00010744597239, Q4 : -0.000894296797924}
2019-04-14 17:44:58.01: SIM {TimeUS : 47235265, Roll : -0.01, Pitch : -0.01, Yaw : 359.89, Alt : 37.1500015259, Lat : 49.2835704, Lng : -123.1150207, Q1 : 0.999999582767, Q2 : -0.000133817346068, Q3 : -0.000125119055156, Q4 : -0.000916578050237}
2019-04-14 17:44:58.11: SIM {TimeUS : 47335225, Roll : -0.01, Pitch : -0.04, Yaw : 359.89, Alt : 37.3800010681, Lat : 49.2835704, Lng : -123.1150207, Q1 : 0.999999463558, Q2 : -0.000105576225906, Q3 : -0.000395262206439, Q4 : -0.000932441849727}
2019-04-14 17:44:58.21: SIM {TimeUS : 47435185, Roll : -0.02, Pitch : -0.08, Yaw : 359.89, Alt : 37.5999984741, Lat : 49.2835704, Lng : -123.1150207, Q1 : 0.999999284744, Q2 : -0.000249314005487, Q3 : -0.000698760792147, Q4 : -0.0009420622373}
2019-04-14 17:44:58.31: SIM {TimeUS : 47535145, Roll : -0.05, Pitch : -0.1, Yaw : 359.89, Alt : 37.8300018311, Lat : 49.2835704, Lng : -123.1150207, Q1 : 0.999999046326, Q2 : -0.00051063275896, Q3 : -0.0008771691937, Q4 : -0.000953346607275}
2019-04-14 17:44:58.41: SIM {TimeUS : 47635105, Roll : -0.09, Pitch : -0.1, Yaw : 359.88, Alt : 38.0600013733, Lat : 49.2835704, Lng : -123.1150207, Q1 : 0.999998807907, Q2 : -0.000819898559712, Q3 : -0.000879213446751, Q4 : -0.00096715753898}
2019-04-14 17:44:58.51: SIM {TimeUS : 47735065, Roll : -0.11, Pitch : -0.09, Yaw : 359.88, Alt : 38.2799987793, Lat : 49.2835704, Lng : -123.1150206, Q1 : 0.999998688698, Q2 : -0.00104085961357, Q3 : -0.000817556632683, Q4 : -0.000980713055469}
2019-04-14 17:44:58.61: SIM {TimeUS : 47835025, Roll : -0.12, Pitch : -0.08, Yaw : 359.88, Alt : 38.5099983215, Lat : 49.2835704, Lng : -123.1150206, Q1 : 0.999998688698, Q2 : -0.00111303012818, Q3 : -0.000703831843566, Q4 : -0.000991230248474}
2019-04-14 17:44:58.71: SIM {TimeUS : 47934985, Roll : -0.11, Pitch : -0.05, Yaw : 359.88, Alt : 38.7400016785, Lat : 49.2835704, Lng : -123.1150206, Q1 : 0.999998927116, Q2 : -0.000989446416497, Q3 : -0.000478321686387, Q4 : -0.00100269995164}
2019-04-14 17:44:58.81: SIM {TimeUS : 48034945, Roll : -0.08, Pitch : -0.04, Yaw : 359.88, Alt : 38.9700012207, Lat : 49.2835704, Lng : -123.1150206, Q1 : 0.99999910593, Q2 : -0.000745284545701, Q3 : -0.000423583813244, Q4 : -0.0010188028682}
2019-04-14 17:44:58.91: SIM {TimeUS : 48134905, Roll : -0.06, Pitch : -0.04, Yaw : 359.88, Alt : 39.2000007629, Lat : 49.2835704, Lng : -123.1150206, Q1 : 0.99999922514, Q2 : -0.000586965936236, Q3 : -0.000434705667431, Q4 : -0.00104583159555}
2019-04-14 17:44:59.01: SIM {TimeUS : 48234865, Roll : -0.05, Pitch : -0.03, Yaw : 359.87, Alt : 39.4300003052, Lat : 49.2835704, Lng : -123.1150206, Q1 : 0.99999922514, Q2 : -0.000498485984281, Q3 : -0.000297390157357, Q4 : -0.00106500927359}
2019-04-14 17:44:59.11: SIM {TimeUS : 48334825, Roll : -0.07, Pitch : 0.0, Yaw : 359.87, Alt : 39.6599998474, Lat : 49.2835704, Lng : -123.1150206, Q1 : 0.99999922514, Q2 : -0.000614402466454, Q3 : -3.6990368244e-05, Q4 : -0.00108826626092}
2019-04-14 17:44:59.21: SIM {TimeUS : 48435618, Roll : -0.06, Pitch : 0.02, Yaw : 359.87, Alt : 39.8899993896, Lat : 49.2835704, Lng : -123.1150206, Q1 : 0.999999165535, Q2 : -0.000567799434066, Q3 : 0.000260610861005, Q4 : -0.00111594388727}
2019-04-14 17:44:59.31: SIM {TimeUS : 48535578, Roll : -0.04, Pitch : 0.06, Yaw : 359.86, Alt : 40.1199989319, Lat : 49.2835704, Lng : -123.1150206, Q1 : 0.99999910593, Q2 : -0.000404443126172, Q3 : 0.000575952348299, Q4 : -0.00115223403554}
2019-04-14 17:44:59.41: SIM {TimeUS : 48635538, Roll : -0.03, Pitch : 0.06, Yaw : 359.86, Alt : 40.3499984741, Lat : 49.2835704, Lng : -123.1150207, Q1 : 0.99999910593, Q2 : -0.000271516561043, Q3 : 0.000585441186558, Q4 : -0.0011843687389}
2019-04-14 17:44:59.51: SIM {TimeUS : 48735498, Roll : 0.0, Pitch : 0.06, Yaw : 359.86, Alt : 40.5900001526, Lat : 49.2835704, Lng : -123.1150207, Q1 : 0.99999910593, Q2 : -5.61606066185e-05, Q3 : 0.000544305192307, Q4 : -0.00121016765479}
2019-04-14 17:44:59.61: SIM {TimeUS : 48835458, Roll : 0.02, Pitch : 0.07, Yaw : 359.85, Alt : 40.8199996948, Lat : 49.2835706, Lng : -123.1150207, Q1 : 0.999999046326, Q2 : 0.00025523325894, Q3 : 0.000613455660641, Q4 : -0.00123340566643}
2019-04-14 17:44:59.71: SIM {TimeUS : 48935418, Roll : 0.07, Pitch : 0.09, Yaw : 359.85, Alt : 41.0499992371, Lat : 49.2835706, Lng : -123.1150207, Q1 : 0.999998629093, Q2 : 0.000684569589794, Q3 : 0.000827231968287, Q4 : -0.00125849444885}
2019-04-14 17:44:59.81: SIM {TimeUS : 49035378, Roll : 0.1, Pitch : 0.12, Yaw : 359.85, Alt : 41.2799987793, Lat : 49.2835706, Lng : -123.1150207, Q1 : 0.999998211861, Q2 : 0.000920666439924, Q3 : 0.00106659322046, Q4 : -0.00128459860571}
2019-04-14 17:44:59.91: SIM {TimeUS : 49135338, Roll : 0.08, Pitch : 0.14, Yaw : 359.85, Alt : 41.5200004578, Lat : 49.2835706, Lng : -123.1150207, Q1 : 0.999998092651, Q2 : 0.000770974846091, Q3 : 0.00123800709844, Q4 : -0.00129484129138}
2019-04-14 17:45:00.01: SIM {TimeUS : 49235298, Roll : 0.03, Pitch : 0.15, Yaw : 359.85, Alt : 41.75, Lat : 49.2835706, Lng : -123.1150207, Q1 : 0.999998211861, Q2 : 0.000348468165612, Q3 : 0.00136815931182, Q4 : -0.00129576586187}
2019-04-14 17:45:00.11: SIM {TimeUS : 49335258, Roll : 0.0, Pitch : 0.16, Yaw : 359.85, Alt : 41.9900016785, Lat : 49.2835706, Lng : -123.1150207, Q1 : 0.999998092651, Q2 : -6.64129838697e-05, Q3 : 0.0014619436115, Q4 : -0.00130195217207}
2019-04-14 17:45:00.21: SIM {TimeUS : 49435218, Roll : -0.02, Pitch : 0.15, Yaw : 359.84, Alt : 42.2200012207, Lat : 49.2835706, Lng : -123.1150207, Q1 : 0.999998211861, Q2 : -0.000192402949324, Q3 : 0.00132874713745, Q4 : -0.00131881493144}
2019-04-14 17:45:00.31: SIM {TimeUS : 49535178, Roll : -0.01, Pitch : 0.12, Yaw : 359.84, Alt : 42.4500007629, Lat : 49.2835706, Lng : -123.1150207, Q1 : 0.999998569489, Q2 : -0.000172020503669, Q3 : 0.00105100276414, Q4 : -0.00133887014817}
2019-04-14 17:45:00.41: SIM {TimeUS : 49635138, Roll : 0.0, Pitch : 0.11, Yaw : 359.84, Alt : 42.6899986267, Lat : 49.2835706, Lng : -123.1150207, Q1 : 0.999998509884, Q2 : -8.17810287117e-05, Q3 : 0.00101853429805, Q4 : -0.00136863638181}
2019-04-14 17:45:00.51: SIM {TimeUS : 49735098, Roll : 0.02, Pitch : 0.13, Yaw : 359.83, Alt : 42.9199981689, Lat : 49.2835706, Lng : -123.1150207, Q1 : 0.99999833107, Q2 : 0.000205327087315, Q3 : 0.00115497980732, Q4 : -0.00140778999776}
2019-04-14 17:45:00.61: SIM {TimeUS : 49835058, Roll : 0.07, Pitch : 0.14, Yaw : 359.83, Alt : 43.1599998474, Lat : 49.2835706, Lng : -123.1150207, Q1 : 0.999997913837, Q2 : 0.000679011805914, Q3 : 0.00128689780831, Q4 : -0.00143758300692}
2019-04-14 17:45:00.71: SIM {TimeUS : 49935018, Roll : 0.11, Pitch : 0.13, Yaw : 359.83, Alt : 43.3899993896, Lat : 49.2835704, Lng : -123.1150207, Q1 : 0.999997675419, Q2 : 0.00104161759373, Q3 : 0.00120614026673, Q4 : -0.00146516144741}
2019-04-14 17:45:00.81: SIM {TimeUS : 50034978, Roll : 0.12, Pitch : 0.11, Yaw : 359.82, Alt : 43.6300010681, Lat : 49.2835704, Lng : -123.1150207, Q1 : 0.999997735023, Q2 : 0.00110226927791, Q3 : 0.00102908886038, Q4 : -0.0014892538311}
2019-04-14 17:45:00.91: SIM {TimeUS : 50134938, Roll : 0.08, Pitch : 0.1, Yaw : 359.82, Alt : 43.8600006104, Lat : 49.2835704, Lng : -123.1150207, Q1 : 0.999998211861, Q2 : 0.000734579050913, Q3 : 0.000880073814187, Q4 : -0.00149473536294}
2019-04-14 17:45:01.01: SIM {TimeUS : 50234898, Roll : 0.02, Pitch : 0.08, Yaw : 359.82, Alt : 44.0999984741, Lat : 49.2835704, Lng : -123.1150207, Q1 : 0.999998569489, Q2 : 0.000219397668843, Q3 : 0.000780654663686, Q4 : -0.00149695272557}
2019-04-14 17:45:01.11: SIM {TimeUS : 50334858, Roll : -0.01, Pitch : 0.09, Yaw : 359.82, Alt : 44.3400001526, Lat : 49.2835704, Lng : -123.1150207, Q1 : 0.999998569489, Q2 : -0.000154669745825, Q3 : 0.000793548882939, Q4 : -0.00150785967708}
2019-04-14 17:45:01.21: SIM {TimeUS : 50434818, Roll : -0.03, Pitch : 0.08, Yaw : 359.82, Alt : 44.5699996948, Lat : 49.2835704, Lng : -123.1150206, Q1 : 0.999998509884, Q2 : -0.000346575194271, Q3 : 0.000716122915037, Q4 : -0.00152465957217}
2019-04-14 17:45:01.31: SIM {TimeUS : 50535611, Roll : -0.03, Pitch : 0.05, Yaw : 359.82, Alt : 44.8100013733, Lat : 49.2835704, Lng : -123.1150206, Q1 : 0.999998629093, Q2 : -0.000330634560669, Q3 : 0.000486249075038, Q4 : -0.00154922914226}
2019-04-14 17:45:01.41: SIM {TimeUS : 50635571, Roll : -0.04, Pitch : 0.02, Yaw : 359.81, Alt : 45.0499992371, Lat : 49.2835704, Lng : -123.1150206, Q1 : 0.999998629093, Q2 : -0.000364986888599, Q3 : 0.000247414805926, Q4 : -0.00158204988111}
2019-04-14 17:45:01.51: SIM {TimeUS : 50735531, Roll : -0.03, Pitch : 0.0, Yaw : 359.81, Alt : 45.2799987793, Lat : 49.2835703, Lng : -123.1150206, Q1 : 0.999998629093, Q2 : -0.000305716472212, Q3 : 4.96154716529e-05, Q4 : -0.00162563554477}
2019-04-14 17:45:01.61: SIM {TimeUS : 50835491, Roll : -0.02, Pitch : 0.0, Yaw : 359.8, Alt : 45.5200004578, Lat : 49.2835703, Lng : -123.1150206, Q1 : 0.999998569489, Q2 : -0.000188911086298, Q3 : -5.77843929932e-05, Q4 : -0.00167226407211}
2019-04-14 17:45:01.71: SIM {TimeUS : 50935451, Roll : -0.01, Pitch : 0.0, Yaw : 359.8, Alt : 45.75, Lat : 49.2835703, Lng : -123.1150206, Q1 : 0.999998509884, Q2 : -0.00016445213987, Q3 : -5.75431076868e-05, Q4 : -0.00171902845614}
2019-04-14 17:45:01.81: SIM {TimeUS : 51035411, Roll : -0.02, Pitch : 0.0, Yaw : 359.79, Alt : 45.9799995422, Lat : 49.2835703, Lng : -123.1150206, Q1 : 0.999998450279, Q2 : -0.000214065701584, Q3 : -7.160907262e-05, Q4 : -0.00176186894532}
2019-04-14 17:45:01.91: SIM {TimeUS : 51135371, Roll : -0.03, Pitch : -0.02, Yaw : 359.79, Alt : 46.2099990845, Lat : 49.2835703, Lng : -123.1150205, Q1 : 0.99999833107, Q2 : -0.000289386924123, Q3 : -0.000201212751563, Q4 : -0.00180269079283}
2019-04-14 17:45:02.01: SIM {TimeUS : 51235331, Roll : -0.03, Pitch : -0.03, Yaw : 359.78, Alt : 46.4399986267, Lat : 49.2835703, Lng : -123.1150205, Q1 : 0.999998211861, Q2 : -0.000319393235259, Q3 : -0.000267749710474, Q4 : -0.00183713948354}
2019-04-14 17:45:02.11: SIM {TimeUS : 51335291, Roll : -0.02, Pitch : -0.03, Yaw : 359.78, Alt : 46.6599998474, Lat : 49.2835703, Lng : -123.1150205, Q1 : 0.999998152256, Q2 : -0.000260433967924, Q3 : -0.000340439612046, Q4 : -0.00186441664118}
2019-04-14 17:45:02.21: SIM {TimeUS : 51435251, Roll : -0.03, Pitch : -0.04, Yaw : 359.78, Alt : 46.8699989319, Lat : 49.2835703, Lng : -123.1150205, Q1 : 0.999998092651, Q2 : -0.000273528392427, Q3 : -0.000389052758692, Q4 : -0.00188828108367}
2019-04-14 17:45:02.31: SIM {TimeUS : 51535211, Roll : -0.04, Pitch : -0.03, Yaw : 359.78, Alt : 47.0800018311, Lat : 49.2835703, Lng : -123.1150205, Q1 : 0.999998033047, Q2 : -0.000427689199569, Q3 : -0.000348063302226, Q4 : -0.00191472726874}
2019-04-14 17:45:02.41: SIM {TimeUS : 51635171, Roll : -0.08, Pitch : -0.03, Yaw : 359.77, Alt : 47.2799987793, Lat : 49.2835703, Lng : -123.1150205, Q1 : 0.999997794628, Q2 : -0.000716403068509, Q3 : -0.000325591448927, Q4 : -0.00194253481459}
2019-04-14 17:45:02.51: SIM {TimeUS : 51735131, Roll : -0.1, Pitch : -0.03, Yaw : 359.77, Alt : 47.4700012207, Lat : 49.2835703, Lng : -123.1150205, Q1 : 0.99999755621, Q2 : -0.000928350083996, Q3 : -0.000323286716593, Q4 : -0.00196646456607}
2019-04-14 17:45:02.61: SIM {TimeUS : 51835091, Roll : -0.12, Pitch : -0.04, Yaw : 359.77, Alt : 47.6599998474, Lat : 49.2835703, Lng : -123.1150205, Q1 : 0.999997317791, Q2 : -0.00111856067088, Q3 : -0.000357794429874, Q4 : -0.00198945216835}
2019-04-14 17:45:02.71: SIM {TimeUS : 51935051, Roll : -0.15, Pitch : -0.05, Yaw : 359.76, Alt : 47.8300018311, Lat : 49.2835703, Lng : -123.1150205, Q1 : 0.999996900558, Q2 : -0.00139313598629, Q3 : -0.000475024047773, Q4 : -0.00201160344295}
2019-04-14 17:45:02.81: SIM {TimeUS : 52035011, Roll : -0.16, Pitch : -0.06, Yaw : 359.76, Alt : 47.9900016785, Lat : 49.2835703, Lng : -123.1150205, Q1 : 0.999996721745, Q2 : -0.00147226813715, Q3 : -0.000528434524313, Q4 : -0.00203171488829}
2019-04-14 17:45:02.91: SIM {TimeUS : 52134971, Roll : -0.15, Pitch : -0.05, Yaw : 359.76, Alt : 48.1399993896, Lat : 49.2835703, Lng : -123.1150205, Q1 : 0.999996900558, Q2 : -0.00134186004288, Q3 : -0.000500804977491, Q4 : -0.00205191108398}
2019-04-14 17:45:03.01: SIM {TimeUS : 52234931, Roll : -0.13, Pitch : -0.05, Yaw : 359.76, Alt : 48.2700004578, Lat : 49.2835703, Lng : -123.1150205, Q1 : 0.999997079372, Q2 : -0.00114759546705, Q3 : -0.000482391769765, Q4 : -0.00207481905818}
2019-04-14 17:45:03.11: SIM {TimeUS : 52334891, Roll : -0.1, Pitch : -0.06, Yaw : 359.75, Alt : 48.4000015259, Lat : 49.2835703, Lng : -123.1150205, Q1 : 0.999997258186, Q2 : -0.000882060034201, Q3 : -0.000539051543456, Q4 : -0.0021000711713}
2019-04-14 17:45:03.21: SIM {TimeUS : 52434851, Roll : -0.06, Pitch : -0.06, Yaw : 359.75, Alt : 48.5099983215, Lat : 49.2835703, Lng : -123.1150205, Q1 : 0.999997437, Q2 : -0.000550343364011, Q3 : -0.000598973012529, Q4 : -0.00212389486842}
2019-04-14 17:45:03.31: SIM {TimeUS : 52535644, Roll : -0.04, Pitch : -0.07, Yaw : 359.75, Alt : 48.6100006104, Lat : 49.2835703, Lng : -123.1150205, Q1 : 0.999997437, Q2 : -0.000367059808923, Q3 : -0.000665944244247, Q4 : -0.0021471567452}
2019-04-14 17:45:03.41: SIM {TimeUS : 52635604, Roll : -0.03, Pitch : -0.08, Yaw : 359.75, Alt : 48.7000007629, Lat : 49.2835703, Lng : -123.1150206, Q1 : 0.999997377396, Q2 : -0.000340286322171, Q3 : -0.000738949514925, Q4 : -0.00215876544826}
2019-04-14 17:45:03.51: SIM {TimeUS : 52735564, Roll : -0.01, Pitch : -0.07, Yaw : 359.75, Alt : 48.7799987793, Lat : 49.2835703, Lng : -123.1150206, Q1 : 0.999997377396, Q2 : -0.000131790468004, Q3 : -0.000660979247186, Q4 : -0.00217166030779}
2019-04-14 17:45:03.61: SIM {TimeUS : 52835524, Roll : 0.01, Pitch : -0.05, Yaw : 359.74, Alt : 48.8400001526, Lat : 49.2835703, Lng : -123.1150206, Q1 : 0.999997496605, Q2 : 0.000135546273668, Q3 : -0.000473596475786, Q4 : -0.00219515711069}
2019-04-14 17:45:03.71: SIM {TimeUS : 52935484, Roll : 0.04, Pitch : -0.02, Yaw : 359.74, Alt : 48.9000015259, Lat : 49.2835703, Lng : -123.1150206, Q1 : 0.999997377396, Q2 : 0.000377211545128, Q3 : -0.00026241800515, Q4 : -0.00222299178131}
2019-04-14 17:45:03.81: SIM {TimeUS : 53035444, Roll : 0.06, Pitch : 0.0, Yaw : 359.74, Alt : 48.9500007629, Lat : 49.2835703, Lng : -123.1150206, Q1 : 0.999997317791, Q2 : 0.000541098474059, Q3 : -8.22951769806e-05, Q4 : -0.00225338712335}
2019-04-14 17:45:03.91: SIM {TimeUS : 53135404, Roll : 0.1, Pitch : -0.02, Yaw : 359.73, Alt : 49.0, Lat : 49.2835703, Lng : -123.1150206, Q1 : 0.999997019768, Q2 : 0.000873458164278, Q3 : -0.000188909456483, Q4 : -0.00228685024194}
2019-04-14 17:45:04.01: SIM {TimeUS : 53235364, Roll : 0.24, Pitch : -0.13, Yaw : 359.73, Alt : 49.0299987793, Lat : 49.2835703, Lng : -123.1150206, Q1 : 0.999994218349, Q2 : 0.00216204440221, Q3 : -0.0012215677416, Q4 : -0.00232234783471}
2019-04-14 17:45:04.11: SIM {TimeUS : 53335324, Roll : 0.58, Pitch : -0.39, Yaw : 359.72, Alt : 49.0600013733, Lat : 49.2835703, Lng : -123.1150206, Q1 : 0.999978303909, Q2 : 0.0050830100663, Q3 : -0.00347141060047, Q4 : -0.00235860026442}
2019-04-14 17:45:04.21: SIM {TimeUS : 53435284, Roll : 1.14, Pitch : -0.79, Yaw : 359.71, Alt : 49.0900001526, Lat : 49.2835703, Lng : -123.1150206, Q1 : 0.999923229218, Q2 : 0.0099830692634, Q3 : -0.00694450549781, Q4 : -0.00238462397829}
2019-04-14 17:45:04.31: SIM {TimeUS : 53535244, Roll : 1.89, Pitch : -1.31, Yaw : 359.7, Alt : 49.1100006104, Lat : 49.2835704, Lng : -123.1150206, Q1 : 0.99979531765, Q2 : 0.0164652410895, Q3 : -0.0115130990744, Q4 : -0.00238743098453}
2019-04-14 17:45:04.41: SIM {TimeUS : 53635204, Roll : 2.73, Pitch : -1.88, Yaw : 359.68, Alt : 49.1300010681, Lat : 49.2835704, Lng : -123.1150205, Q1 : 0.999575972557, Q2 : 0.0238517541438, Q3 : -0.0165357924998, Q4 : -0.00234357919544}
2019-04-14 17:45:04.51: SIM {TimeUS : 53735164, Roll : 3.58, Pitch : -2.42, Yaw : 359.66, Alt : 49.1500015259, Lat : 49.2835706, Lng : -123.1150204, Q1 : 0.999284803867, Q2 : 0.0311817191541, Q3 : -0.0212761387229, Q4 : -0.0022284546867}
2019-04-14 17:45:04.61: SIM {TimeUS : 53835124, Roll : 4.27, Pitch : -2.88, Yaw : 359.65, Alt : 49.1699981689, Lat : 49.2835707, Lng : -123.1150202, Q1 : 0.998985052109, Q2 : 0.0372423045337, Q3 : -0.0252522304654, Q4 : -0.00205993326381}
2019-04-14 17:45:04.71: SIM {TimeUS : 53935084, Roll : 4.79, Pitch : -3.24, Yaw : 359.65, Alt : 49.1800003052, Lat : 49.2835708, Lng : -123.11502, Q1 : 0.998723566532, Q2 : 0.0417071320117, Q3 : -0.028431719169, Q4 : -0.00184173788875}
2019-04-14 17:45:04.81: SIM {TimeUS : 54035044, Roll : 5.14, Pitch : -3.52, Yaw : 359.65, Alt : 49.1899986267, Lat : 49.2835709, Lng : -123.1150196, Q1 : 0.998518168926, Q2 : 0.0447958447039, Q3 : -0.0308599267155, Q4 : -0.00158941897098}
2019-04-14 17:45:04.91: SIM {TimeUS : 54135004, Roll : 5.41, Pitch : -3.77, Yaw : 359.66, Alt : 49.2000007629, Lat : 49.2835712, Lng : -123.1150192, Q1 : 0.998341262341, Q2 : 0.0471436195076, Q3 : -0.033022467047, Q4 : -0.00132233533077}
2019-04-14 17:45:05.01: SIM {TimeUS : 54234964, Roll : 5.68, Pitch : -4.0, Yaw : 359.68, Alt : 49.2099990845, Lat : 49.2835715, Lng : -123.1150186, Q1 : 0.998160719872, Q2 : 0.049469165504, Q3 : -0.0350280217826, Q4 : -0.00103677832521}
2019-04-14 17:45:05.11: SIM {TimeUS : 54334924, Roll : 5.99, Pitch : -4.22, Yaw : 359.69, Alt : 49.2200012207, Lat : 49.2835718, Lng : -123.1150179, Q1 : 0.997956573963, Q2 : 0.0521255470812, Q3 : -0.0369474254549, Q4 : -0.000760524359066}
2019-04-14 17:45:05.21: SIM {TimeUS : 54434884, Roll : 6.29, Pitch : -4.43, Yaw : 359.69, Alt : 49.2200012207, Lat : 49.2835721, Lng : -123.1150172, Q1 : 0.997745037079, Q2 : 0.0547907017171, Q3 : -0.038763076067, Q4 : -0.00049901305465}
2019-04-14 17:45:05.31: SIM {TimeUS : 54534844, Roll : 6.56, Pitch : -4.6, Yaw : 359.7, Alt : 49.2299995422, Lat : 49.2835725, Lng : -123.1150163, Q1 : 0.99755603075, Q2 : 0.057102791965, Q3 : -0.0402632169425, Q4 : -0.000256998260738}
2019-04-14 17:45:05.41: SIM {TimeUS : 54635637, Roll : 6.75, Pitch : -4.72, Yaw : 359.71, Alt : 49.2400016785, Lat : 49.2835728, Lng : -123.1150154, Q1 : 0.997419774532, Q2 : 0.0587326399982, Q3 : -0.0412831678987, Q4 : -4.67256904813e-05}
2019-04-14 17:45:05.51: SIM {TimeUS : 54735597, Roll : 6.87, Pitch : -4.81, Yaw : 359.72, Alt : 49.2400016785, Lat : 49.2835733, Lng : -123.1150144, Q1 : 0.997323811054, Q2 : 0.0597756281495, Q3 : -0.0420952104032, Q4 : 0.000107057632704}
2019-04-14 17:45:05.61: SIM {TimeUS : 54835557, Roll : 6.97, Pitch : -4.9, Yaw : 359.72, Alt : 49.2400016785, Lat : 49.2835739, Lng : -123.1150132, Q1 : 0.997237086296, Q2 : 0.0606983862817, Q3 : -0.0428239926696, Q4 : 0.000217135224375}
2019-04-14 17:45:05.71: SIM {TimeUS : 54935517, Roll : 7.1, Pitch : -4.98, Yaw : 359.72, Alt : 49.25, Lat : 49.2835745, Lng : -123.115012, Q1 : 0.997137546539, Q2 : 0.0617891773582, Q3 : -0.0435749068856, Q4 : 0.000294242054224}
2019-04-14 17:45:05.81: SIM {TimeUS : 55035477, Roll : 7.33, Pitch : -4.98, Yaw : 359.78, Alt : 49.25, Lat : 49.2835751, Lng : -123.1150107, Q1 : 0.997010707855, Q2 : 0.0638167336583, Q3 : -0.043546449393, Q4 : 0.000908272399101}
2019-04-14 17:45:05.91: SIM {TimeUS : 55135437, Roll : 7.79, Pitch : -4.83, Yaw : 0.33, Alt : 49.2599983215, Lat : 49.2835757, Lng : -123.1150093, Q1 : 0.996788978577, Q2 : 0.0680286064744, Q3 : -0.0418447107077, Q4 : 0.0057351924479}
2019-04-14 17:45:06.01: SIM {TimeUS : 55235397, Roll : 8.39, Pitch : -4.66, Yaw : 2.03, Alt : 49.2599983215, Lat : 49.2835764, Lng : -123.1150078, Q1 : 0.996276140213, Q2 : 0.0738830640912, Q3 : -0.0393230766058, Q4 : 0.0207089912146}
2019-04-14 17:45:06.11: SIM {TimeUS : 55335357, Roll : 8.89, Pitch : -4.85, Yaw : 5.3, Alt : 49.2599983215, Lat : 49.283577, Lng : -123.1150062, Q1 : 0.994869410992, Q2 : 0.0793884396553, Q3 : -0.0385972000659, Q4 : 0.0494226925075}
2019-04-14 17:45:06.21: SIM {TimeUS : 55435317, Roll : 9.05, Pitch : -5.54, Yaw : 10.11, Alt : 49.2599983215, Lat : 49.2835777, Lng : -123.1150045, Q1 : 0.991499900818, Q2 : 0.0827932208776, Q3 : -0.0410782732069, Q4 : 0.0915737077594}
2019-04-14 17:45:06.31: SIM {TimeUS : 55535277, Roll : 8.68, Pitch : -6.71, Yaw : 16.24, Alt : 49.2599983215, Lat : 49.2835785, Lng : -123.1150027, Q1 : 0.984808623791, Q2 : 0.0830765664577, Q3 : -0.0471563637257, Q4 : 0.145005241036}
2019-04-14 17:45:06.41: SIM {TimeUS : 55635237, Roll : 7.71, Pitch : -8.21, Yaw : 23.44, Alt : 49.2599983215, Lat : 49.2835792, Lng : -123.1150007, Q1 : 0.973441183567, Q2 : 0.0802103504539, Q3 : -0.056382779032, Q4 : 0.206880480051}
2019-04-14 17:45:06.51: SIM {TimeUS : 55735197, Roll : 6.16, Pitch : -9.82, Yaw : 31.45, Alt : 49.2700004578, Lat : 49.28358, Lng : -123.1149987, Q1 : 0.956377148628, Q2 : 0.0747416988015, Q3 : -0.0678131356835, Q4 : 0.274149209261}
2019-04-14 17:45:06.61: SIM {TimeUS : 55835157, Roll : 4.09, Pitch : -11.29, Yaw : 40.03, Alt : 49.2700004578, Lat : 49.2835807, Lng : -123.1149965, Q1 : 0.93321621418, Q2 : 0.0670503377914, Q3 : -0.0802618339658, Q4 : 0.343758314848}
2019-04-14 17:45:06.71: SIM {TimeUS : 55935117, Roll : 1.37, Pitch : -12.4, Yaw : 48.77, Alt : 49.2700004578, Lat : 49.2835816, Lng : -123.1149942, Q1 : 0.904850780964, Q2 : 0.0554773956537, Q3 : -0.093477986753, Q4 : 0.411617845297}
2019-04-14 17:45:06.81: SIM {TimeUS : 56035077, Roll : -1.8, Pitch : -12.96, Yaw : 56.85, Alt : 49.2700004578, Lat : 49.2835824, Lng : -123.1149919, Q1 : 0.874547898769, Q2 : 0.040001668036, Q3 : -0.106732040644, Q4 : 0.471353530884}
2019-04-14 17:45:06.91: SIM {TimeUS : 56135037, Roll : -4.8, Pitch : -13.01, Yaw : 63.41, Alt : 49.2700004578, Lat : 49.2835834, Lng : -123.1149894, Q1 : 0.847007215023, Q2 : 0.0241162832826, Q3 : -0.118235290051, Q4 : 0.517704248428}
2019-04-14 17:45:07.01: SIM {TimeUS : 56234997, Roll : -7.02, Pitch : -12.79, Yaw : 67.95, Alt : 49.2700004578, Lat : 49.2835844, Lng : -123.1149869, Q1 : 0.826352238655, Q2 : 0.0116862151772, Q3 : -0.126287966967, Q4 : 0.548686444759}
2019-04-14 17:45:07.11: SIM {TimeUS : 56334957, Roll : -8.2, Pitch : -12.58, Yaw : 70.42, Alt : 49.2700004578, Lat : 49.2835855, Lng : -123.1149843, Q1 : 0.814547419548, Q2 : 0.00494470214471, Q3 : -0.130281284451, Q4 : 0.565256416798}
2019-04-14 17:45:07.21: SIM {TimeUS : 56434917, Roll : -8.34, Pitch : -12.54, Yaw : 71.06, Alt : 49.2700004578, Lat : 49.2835868, Lng : -123.1149817, Q1 : 0.811399459839, Q2 : 0.00446472270414, Q3 : -0.130683854222, Q4 : 0.569677770138}
2019-04-14 17:45:07.31: SIM {TimeUS : 56534877, Roll : -7.61, Pitch : -12.77, Yaw : 70.23, Alt : 49.2700004578, Lat : 49.2835881, Lng : -123.1149791, Q1 : 0.815344214439, Q2 : 0.00992553029209, Q3 : -0.128773495555, Q4 : 0.564387023449}
2019-04-14 17:45:07.41: SIM {TimeUS : 56634837, Roll : -6.24, Pitch : -13.27, Yaw : 68.3, Alt : 49.2700004578, Lat : 49.2835897, Lng : -123.1149763, Q1 : 0.824314713478, Q2 : 0.0200013350695, Q3 : -0.125893503428, Q4 : 0.551594078541}
2019-04-14 17:45:07.51: SIM {TimeUS : 56735630, Roll : -4.46, Pitch : -13.95, Yaw : 65.58, Alt : 49.2799987793, Lat : 49.2835911, Lng : -123.1149736, Q1 : 0.836348116398, Q2 : 0.0332247391343, Q3 : -0.123024627566, Q4 : 0.533181846142}
2019-04-14 17:45:07.61: SIM {TimeUS : 56835590, Roll : -2.53, Pitch : -14.67, Yaw : 62.43, Alt : 49.2799987793, Lat : 49.2835928, Lng : -123.1149707, Q1 : 0.849464535713, Q2 : 0.0474457591772, Q3 : -0.120587192476, Q4 : 0.511485695839}
2019-04-14 17:45:07.71: SIM {TimeUS : 56935550, Roll : -0.63, Pitch : -15.28, Yaw : 59.14, Alt : 49.2799987793, Lat : 49.2835944, Lng : -123.1149677, Q1 : 0.862335503101, Q2 : 0.0608597397804, Q3 : -0.118383891881, Q4 : 0.488527297974}
2019-04-14 17:45:07.81: SIM {TimeUS : 57035510, Roll : 1.06, Pitch : -15.68, Yaw : 56.06, Alt : 49.2799987793, Lat : 49.283596, Lng : -123.1149646, Q1 : 0.873777627945, Q2 : 0.072222456336, Q3 : -0.116109892726, Q4 : 0.466706603765}
2019-04-14 17:45:07.91: SIM {TimeUS : 57135470, Roll : 2.4, Pitch : -15.86, Yaw : 53.49, Alt : 49.2799987793, Lat : 49.2835976, Lng : -123.1149615, Q1 : 0.882952332497, Q2 : 0.0806243792176, Q3 : -0.113834768534, Q4 : 0.448259443045}
2019-04-14 17:45:08.01: SIM {TimeUS : 57235430, Roll : 3.28, Pitch : -15.87, Yaw : 51.64, Alt : 49.2799987793, Lat : 49.2835994, Lng : -123.1149582, Q1 : 0.889453470707, Q2 : 0.0856664329767, Q3 : -0.111887156963, Q4 : 0.434758663177}
2019-04-14 17:45:08.11: SIM {TimeUS : 57335390, Roll : 3.68, Pitch : -15.8, Yaw : 50.58, Alt : 49.2799987793, Lat : 49.2836011, Lng : -123.1149547, Q1 : 0.893203139305, Q2 : 0.0874813348055, Q3 : -0.110691644251, Q4 : 0.426945596933}
2019-04-14 17:45:08.21: SIM {TimeUS : 57435350, Roll : 3.6, Pitch : -15.75, Yaw : 50.3, Alt : 49.2799987793, Lat : 49.2836028, Lng : -123.1149512, Q1 : 0.894360542297, Q2 : 0.0864608064294, Q3 : -0.110773891211, Q4 : 0.424703299999}
2019-04-14 17:45:08.31: SIM {TimeUS : 57535310, Roll : 3.15, Pitch : -15.76, Yaw : 50.69, Alt : 49.2799987793, Lat : 49.2836043, Lng : -123.1149475, Q1 : 0.89322912693, Q2 : 0.0833592042327, Q3 : -0.112243056297, Q4 : 0.427310794592}
2019-04-14 17:45:08.41: SIM {TimeUS : 57635270, Roll : 2.43, Pitch : -15.84, Yaw : 51.59, Alt : 49.2900009155, Lat : 49.2836061, Lng : -123.1149437, Q1 : 0.890254914761, Q2 : 0.0789138823748, Q3 : -0.11494590342, Q4 : 0.433596879244}
2019-04-14 17:45:08.51: SIM {TimeUS : 57735230, Roll : 1.56, Pitch : -15.97, Yaw : 52.82, Alt : 49.2900009155, Lat : 49.2836078, Lng : -123.1149397, Q1 : 0.885986566544, Q2 : 0.0739312320948, Q3 : -0.11840492487, Q4 : 0.44220161438}
2019-04-14 17:45:08.61: SIM {TimeUS : 57835190, Roll : 0.69, Pitch : -16.11, Yaw : 54.19, Alt : 49.2900009155, Lat : 49.2836095, Lng : -123.1149359, Q1 : 0.881034731865, Q2 : 0.0691983476281, Q3 : -0.122042328119, Q4 : 0.451768815517}
2019-04-14 17:45:08.71: SIM {TimeUS : 57935150, Roll : -0.09, Pitch : -16.25, Yaw : 55.52, Alt : 49.2900009155, Lat : 49.2836112, Lng : -123.1149318, Q1 : 0.87602943182, Q2 : 0.0651569664478, Q3 : -0.125511720777, Q4 : 0.461057335138}
2019-04-14 17:45:08.81: SIM {TimeUS : 58035110, Roll : -0.74, Pitch : -16.38, Yaw : 56.68, Alt : 49.2900009155, Lat : 49.283613, Lng : -123.1149278, Q1 : 0.871557950974, Q2 : 0.0619904957712, Q3 : -0.128427088261, Q4 : 0.46909531951}
2019-04-14 17:45:08.91: SIM {TimeUS : 58135070, Roll : -1.21, Pitch : -16.46, Yaw : 57.57, Alt : 49.2900009155, Lat : 49.2836148, Lng : -123.1149236, Q1 : 0.868070363998, Q2 : 0.0597502812743, Q3 : -0.130582883954, Q4 : 0.475217759609}
2019-04-14 17:45:09.01: SIM {TimeUS : 58235030, Roll : -1.48, Pitch : -16.5, Yaw : 58.13, Alt : 49.2900009155, Lat : 49.2836166, Lng : -123.1149195, Q1 : 0.865838587284, Q2 : 0.0585241466761, Q3 : -0.131652206182, Q4 : 0.479130625725}
2019-04-14 17:45:09.11: SIM {TimeUS : 58334990, Roll : -1.53, Pitch : -16.49, Yaw : 58.36, Alt : 49.2900009155, Lat : 49.2836185, Lng : -123.1149152, Q1 : 0.864901006222, Q2 : 0.0583916679025, Q3 : -0.131693169475, Q4 : 0.480825930834}
2019-04-14 17:45:09.21: SIM {TimeUS : 58434950, Roll : -1.41, Pitch : -16.49, Yaw : 58.29, Alt : 49.2900009155, Lat : 49.2836205, Lng : -123.114911, Q1 : 0.865116715431, Q2 : 0.0591884069145, Q3 : -0.131218805909, Q4 : 0.480470091105}
2019-04-14 17:45:09.31: SIM {TimeUS : 58534910, Roll : -1.15, Pitch : -16.51, Yaw : 57.99, Alt : 49.2900009155, Lat : 49.2836225, Lng : -123.1149067, Q1 : 0.866226315498, Q2 : 0.0609246790409, Q3 : -0.130452901125, Q4 : 0.47845813632}
2019-04-14 17:45:09.41: SIM {TimeUS : 58634870, Roll : -0.78, Pitch : -16.54, Yaw : 57.52, Alt : 49.2900009155, Lat : 49.2836244, Lng : -123.1149023, Q1 : 0.867958426476, Q2 : 0.0632808580995, Q3 : -0.129383340478, Q4 : 0.475293308496}
2019-04-14 17:45:09.51: SIM {TimeUS : 58734830, Roll : -0.39, Pitch : -16.57, Yaw : 56.96, Alt : 49.2900009155, Lat : 49.2836264, Lng : -123.1148979, Q1 : 0.870012283325, Q2 : 0.0657441988587, Q3 : -0.128333181143, Q4 : 0.471473067999}
2019-04-14 17:45:09.61: SIM {TimeUS : 58835623, Roll : -0.03, Pitch : -16.62, Yaw : 56.38, Alt : 49.2900009155, Lat : 49.2836285, Lng : -123.1148934, Q1 : 0.872109889984, Q2 : 0.068019144237, Q3 : -0.127586454153, Q4 : 0.467460662127}
2019-04-14 17:45:09.71: SIM {TimeUS : 58935583, Roll : 0.25, Pitch : -16.68, Yaw : 55.86, Alt : 49.2900009155, Lat : 49.2836305, Lng : -123.1148889, Q1 : 0.873991310596, Q2 : 0.06987015903, Q3 : -0.127140328288, Q4 : 0.463780909777}
2019-04-14 17:45:09.81: SIM {TimeUS : 59035543, Roll : 0.45, Pitch : -16.74, Yaw : 55.44, Alt : 49.2900009155, Lat : 49.2836326, Lng : -123.1148844, Q1 : 0.875504672527, Q2 : 0.071245893836, Q3 : -0.127050220966, Q4 : 0.460731834173}
2019-04-14 17:45:09.91: SIM {TimeUS : 59135503, Roll : 0.58, Pitch : -16.79, Yaw : 55.14, Alt : 49.2900009155, Lat : 49.2836346, Lng : -123.1148798, Q1 : 0.876573979855, Q2 : 0.0720483437181, Q3 : -0.12714035809, Q4 : 0.458543866873}
2019-04-14 17:45:10.01: SIM {TimeUS : 59235463, Roll : 0.63, Pitch : -16.84, Yaw : 54.97, Alt : 49.2900009155, Lat : 49.2836366, Lng : -123.1148752, Q1 : 0.877144157887, Q2 : 0.0724572613835, Q3 : -0.127395644784, Q4 : 0.45731651783}
2019-04-14 17:45:10.11: SIM {TimeUS : 59335423, Roll : 0.61, Pitch : -16.88, Yaw : 54.94, Alt : 49.2900009155, Lat : 49.2836388, Lng : -123.1148705, Q1 : 0.877248883247, Q2 : 0.0724788531661, Q3 : -0.127837523818, Q4 : 0.456988811493}
2019-04-14 17:45:10.21: SIM {TimeUS : 59435383, Roll : 0.54, Pitch : -16.92, Yaw : 55.01, Alt : 49.2900009155, Lat : 49.2836408, Lng : -123.1148659, Q1 : 0.876975774765, Q2 : 0.0721478760242, Q3 : -0.12831197679, Q4 : 0.457432210445}
2019-04-14 17:45:10.31: SIM {TimeUS : 59535343, Roll : 0.43, Pitch : -16.93, Yaw : 55.16, Alt : 49.2900009155, Lat : 49.2836428, Lng : -123.1148611, Q1 : 0.8764321208, Q2 : 0.0714807882905, Q3 : -0.128801465034, Q4 : 0.458440244198}
2019-04-14 17:45:10.41: SIM {TimeUS : 59635303, Roll : 0.29, Pitch : -16.95, Yaw : 55.35, Alt : 49.2900009155, Lat : 49.283645, Lng : -123.1148564, Q1 : 0.875704169273, Q2 : 0.07071582973, Q3 : -0.129398703575, Q4 : 0.459779828787}
2019-04-14 17:45:10.51: SIM {TimeUS : 59735263, Roll : 0.14, Pitch : -16.97, Yaw : 55.57, Alt : 49.2999992371, Lat : 49.2836472, Lng : -123.1148516, Q1 : 0.874920010567, Q2 : 0.0699250400066, Q3 : -0.130019620061, Q4 : 0.461216181517}
2019-04-14 17:45:10.61: SIM {TimeUS : 59835223, Roll : 0.0, Pitch : -17.0, Yaw : 55.76, Alt : 49.2999992371, Lat : 49.2836493, Lng : -123.1148467, Q1 : 0.874174416065, Q2 : 0.0691940188408, Q3 : -0.130634620786, Q4 : 0.462564438581}
2019-04-14 17:45:10.71: SIM {TimeUS : 59935183, Roll : -0.09, Pitch : -17.04, Yaw : 55.93, Alt : 49.2999992371, Lat : 49.2836513, Lng : -123.1148418, Q1 : 0.873523831367, Q2 : 0.0687385648489, Q3 : -0.131265565753, Q4 : 0.463681459427}
2019-04-14 17:45:10.81: SIM {TimeUS : 60035143, Roll : -0.16, Pitch : -17.09, Yaw : 56.05, Alt : 49.2999992371, Lat : 49.2836536, Lng : -123.114837, Q1 : 0.873027741909, Q2 : 0.0685480907559, Q3 : -0.131873607635, Q4 : 0.464470773935}
2019-04-14 17:45:10.91: SIM {TimeUS : 60135103, Roll : -0.22, Pitch : -17.12, Yaw : 56.11, Alt : 49.2999992371, Lat : 49.2836557, Lng : -123.1148321, Q1 : 0.872758030891, Q2 : 0.0683268010616, Q3 : -0.132342413068, Q4 : 0.464876770973}
2019-04-14 17:45:11.01: SIM {TimeUS : 60235063, Roll : -0.26, Pitch : -17.15, Yaw : 56.12, Alt : 49.2999992371, Lat : 49.2836578, Lng : -123.1148272, Q1 : 0.872711718082, Q2 : 0.068167231977, Q3 : -0.132629334927, Q4 : 0.4649053514}
2019-04-14 17:45:11.11: SIM {TimeUS : 60335023, Roll : -0.26, Pitch : -17.17, Yaw : 56.08, Alt : 49.2999992371, Lat : 49.2836601, Lng : -123.1148222, Q1 : 0.872844099998, Q2 : 0.0681816190481, Q3 : -0.132868379354, Q4 : 0.464586317539}
2019-04-14 17:45:11.21: SIM {TimeUS : 60434983, Roll : -0.22, Pitch : -17.21, Yaw : 56.01, Alt : 49.2999992371, Lat : 49.2836622, Lng : -123.1148173, Q1 : 0.873097062111, Q2 : 0.0685263872147, Q3 : -0.133027717471, Q4 : 0.464014410973}
2019-04-14 17:45:11.31: SIM {TimeUS : 60534943, Roll : -0.15, Pitch : -17.24, Yaw : 55.9, Alt : 49.2999992371, Lat : 49.2836645, Lng : -123.1148123, Q1 : 0.873428165913, Q2 : 0.0691153407097, Q3 : -0.133080780506, Q4 : 0.463288068771}
2019-04-14 17:45:11.41: SIM {TimeUS : 60634903, Roll : -0.06, Pitch : -17.28, Yaw : 55.79, Alt : 49.2999992371, Lat : 49.2836667, Lng : -123.1148073, Q1 : 0.873789429665, Q2 : 0.0698513165116, Q3 : -0.133089348674, Q4 : 0.462493300438}
2019-04-14 17:45:11.51: SIM {TimeUS : 60734863, Roll : 0.04, Pitch : -17.32, Yaw : 55.67, Alt : 49.3100013733, Lat : 49.2836688, Lng : -123.1148023, Q1 : 0.874156057835, Q2 : 0.0706557258964, Q3 : -0.133002385497, Q4 : 0.461702674627}
2019-04-14 17:45:11.61: SIM {TimeUS : 60834823, Roll : 0.12, Pitch : -17.35, Yaw : 55.56, Alt : 49.3100013733, Lat : 49.2836712, Lng : -123.1147972, Q1 : 0.874510407448, Q2 : 0.0712338685989, Q3 : -0.132953569293, Q4 : 0.460956245661}
2019-04-14 17:45:11.71: SIM {TimeUS : 60935616, Roll : 0.15, Pitch : -17.35, Yaw : 55.48, Alt : 49.3100013733, Lat : 49.2836734, Lng : -123.1147921, Q1 : 0.874839305878, Q2 : 0.0714164748788, Q3 : -0.132921054959, Q4 : 0.460312783718}
2019-04-14 17:45:11.81: SIM {TimeUS : 61035576, Roll : 0.15, Pitch : -17.35, Yaw : 55.41, Alt : 49.3100013733, Lat : 49.2836756, Lng : -123.1147871, Q1 : 0.875099420547, Q2 : 0.0713387653232, Q3 : -0.132967829704, Q4 : 0.459816664457}
2019-04-14 17:45:11.91: SIM {TimeUS : 61135536, Roll : 0.16, Pitch : -17.36, Yaw : 55.37, Alt : 49.3100013733, Lat : 49.2836779, Lng : -123.114782, Q1 : 0.875251710415, Q2 : 0.0713596194983, Q3 : -0.133009716868, Q4 : 0.459511369467}
2019-04-14 17:45:12.01: SIM {TimeUS : 61235496, Roll : 0.16, Pitch : -17.38, Yaw : 55.35, Alt : 49.3100013733, Lat : 49.2836802, Lng : -123.1147769, Q1 : 0.875303924084, Q2 : 0.0714109092951, Q3 : -0.133155733347, Q4 : 0.459361642599}
2019-04-14 17:45:12.11: SIM {TimeUS : 61335456, Roll : 0.16, Pitch : -17.41, Yaw : 55.35, Alt : 49.3100013733, Lat : 49.2836825, Lng : -123.1147717, Q1 : 0.875256180763, Q2 : 0.0716214552522, Q3 : -0.133394822478, Q4 : 0.459350436926}
2019-04-14 17:45:12.21: SIM {TimeUS : 61435416, Roll : 0.17, Pitch : -17.46, Yaw : 55.36, Alt : 49.3100013733, Lat : 49.2836846, Lng : -123.1147666, Q1 : 0.875140368938, Q2 : 0.0718810111284, Q3 : -0.133779168129, Q4 : 0.459418803453}
2019-04-14 17:45:12.31: SIM {TimeUS : 61535376, Roll : 0.17, Pitch : -17.5, Yaw : 55.38, Alt : 49.3100013733, Lat : 49.283687, Lng : -123.1147614, Q1 : 0.87502592802, Q2 : 0.0720110908151, Q3 : -0.13400824368, Q4 : 0.459549635649}
2019-04-14 17:45:12.41: SIM {TimeUS : 61635336, Roll : 0.15, Pitch : -17.5, Yaw : 55.41, Alt : 49.3100013733, Lat : 49.2836893, Lng : -123.1147563, Q1 : 0.874941051006, Q2 : 0.0719422698021, Q3 : -0.134085386992, Q4 : 0.459699481726}
2019-04-14 17:45:12.51: SIM {TimeUS : 61735296, Roll : 0.11, Pitch : -17.51, Yaw : 55.43, Alt : 49.3199996948, Lat : 49.2836916, Lng : -123.1147511, Q1 : 0.874873220921, Q2 : 0.0717200264335, Q3 : -0.13431493938, Q4 : 0.459796220064}
2019-04-14 17:45:12.61: SIM {TimeUS : 61835256, Roll : 0.07, Pitch : -17.54, Yaw : 55.44, Alt : 49.3199996948, Lat : 49.2836938, Lng : -123.1147459, Q1 : 0.874813318253, Q2 : 0.0715174153447, Q3 : -0.134676620364, Q4 : 0.459836006165}
2019-04-14 17:45:12.71: SIM {TimeUS : 61935216, Roll : 0.05, Pitch : -17.56, Yaw : 55.45, Alt : 49.3199996948, Lat : 49.2836961, Lng : -123.1147407, Q1 : 0.874766528606, Q2 : 0.0714748501778, Q3 : -0.134945064783, Q4 : 0.459852993488}
2019-04-14 17:45:12.81: SIM {TimeUS : 62035176, Roll : 0.04, Pitch : -17.59, Yaw : 55.44, Alt : 49.3199996948, Lat : 49.2836985, Lng : -123.1147355, Q1 : 0.874754607677, Q2 : 0.0714690312743, Q3 : -0.135178640485, Q4 : 0.459807813168}
2019-04-14 17:45:12.91: SIM {TimeUS : 62135136, Roll : 0.04, Pitch : -17.6, Yaw : 55.43, Alt : 49.3199996948, Lat : 49.2837009, Lng : -123.1147302, Q1 : 0.874782919884, Q2 : 0.07151684165, Q3 : -0.135312244296, Q4 : 0.459707349539}
2019-04-14 17:45:13.01: SIM {TimeUS : 62235096, Roll : 0.05, Pitch : -17.62, Yaw : 55.41, Alt : 49.3199996948, Lat : 49.2837032, Lng : -123.114725, Q1 : 0.874838113785, Q2 : 0.0716330707073, Q3 : -0.135422125459, Q4 : 0.459551751614}
2019-04-14 17:45:13.11: SIM {TimeUS : 62335056, Roll : 0.07, Pitch : -17.63, Yaw : 55.39, Alt : 49.3199996948, Lat : 49.2837054, Lng : -123.1147197, Q1 : 0.874916434288, Q2 : 0.0718115493655, Q3 : -0.135447204113, Q4 : 0.459367334843}
2019-04-14 17:45:13.21: SIM {TimeUS : 62435016, Roll : 0.1, Pitch : -17.65, Yaw : 55.36, Alt : 49.3199996948, Lat : 49.2837078, Lng : -123.1147145, Q1 : 0.874990105629, Q2 : 0.0720628872514, Q3 : -0.135464280844, Q4 : 0.459182649851}
2019-04-14 17:45:13.31: SIM {TimeUS : 62534976, Roll : 0.13, Pitch : -17.67, Yaw : 55.33, Alt : 49.3199996948, Lat : 49.2837101, Lng : -123.1147092, Q1 : 0.87505877018, Q2 : 0.0723722502589, Q3 : -0.135532483459, Q4 : 0.458982974291}
2019-04-14 17:45:13.41: SIM {TimeUS : 62634936, Roll : 0.15, Pitch : -17.71, Yaw : 55.3, Alt : 49.3199996948, Lat : 49.2837126, Lng : -123.1147039, Q1 : 0.875122189522, Q2 : 0.0726085081697, Q3 : -0.135776355863, Q4 : 0.458752632141}
2019-04-14 17:45:13.51: SIM {TimeUS : 62734896, Roll : 0.14, Pitch : -17.75, Yaw : 55.27, Alt : 49.3199996948, Lat : 49.2837149, Lng : -123.1146986, Q1 : 0.875188112259, Q2 : 0.0727077051997, Q3 : -0.136099800467, Q4 : 0.458515226841}
2019-04-14 17:45:13.61: SIM {TimeUS : 62834856, Roll : 0.14, Pitch : -17.79, Yaw : 55.25, Alt : 49.3199996948, Lat : 49.2837173, Lng : -123.1146933, Q1 : 0.875248730183, Q2 : 0.0727758035064, Q3 : -0.136436849833, Q4 : 0.45828846097}
2019-04-14 17:45:13.71: SIM {TimeUS : 62934816, Roll : 0.14, Pitch : -17.81, Yaw : 55.22, Alt : 49.3199996948, Lat : 49.2837196, Lng : -123.114688, Q1 : 0.875298082829, Q2 : 0.0729239359498, Q3 : -0.13664534688, Q4 : 0.458108574152}
2019-04-14 17:45:13.81: SIM {TimeUS : 63035609, Roll : 0.17, Pitch : -17.82, Yaw : 55.21, Alt : 49.3199996948, Lat : 49.283722, Lng : -123.1146826, Q1 : 0.875359237194, Q2 : 0.0730875581503, Q3 : -0.136576548219, Q4 : 0.457986116409}
2019-04-14 17:45:13.91: SIM {TimeUS : 63135569, Roll : 0.19, Pitch : -17.79, Yaw : 55.19, Alt : 49.3199996948, Lat : 49.2837243, Lng : -123.1146773, Q1 : 0.875442326069, Q2 : 0.0730934739113, Q3 : -0.136270746589, Q4 : 0.457917481661}
2019-04-14 17:45:14.01: SIM {TimeUS : 63235529, Roll : 0.19, Pitch : -17.76, Yaw : 55.18, Alt : 49.3300018311, Lat : 49.2837267, Lng : -123.1146719, Q1 : 0.875507712364, Q2 : 0.0729865804315, Q3 : -0.136094018817, Q4 : 0.457862138748}
2019-04-14 17:45:14.11: SIM {TimeUS : 63335489, Roll : 0.17, Pitch : -17.74, Yaw : 55.18, Alt : 49.3300018311, Lat : 49.2837291, Lng : -123.1146666, Q1 : 0.875561237335, Q2 : 0.072798833251, Q3 : -0.136019602418, Q4 : 0.457811653614}
2019-04-14 17:45:14.21: SIM {TimeUS : 63435449, Roll : 0.16, Pitch : -17.74, Yaw : 55.17, Alt : 49.3300018311, Lat : 49.2837315, Lng : -123.1146612, Q1 : 0.875584363937, Q2 : 0.0727028176188, Q3 : -0.136073723435, Q4 : 0.457766652107}
2019-04-14 17:45:14.31: SIM {TimeUS : 63535409, Roll : 0.15, Pitch : -17.76, Yaw : 55.17, Alt : 49.3300018311, Lat : 49.2837338, Lng : -123.1146558, Q1 : 0.875582277775, Q2 : 0.0726861357689, Q3 : -0.136283397675, Q4 : 0.457710921764}
2019-04-14 17:45:14.41: SIM {TimeUS : 63635369, Roll : 0.14, Pitch : -17.79, Yaw : 55.16, Alt : 49.3300018311, Lat : 49.2837363, Lng : -123.1146503, Q1 : 0.875573635101, Q2 : 0.0727410167456, Q3 : -0.13648660481, Q4 : 0.457658201456}
2019-04-14 17:45:14.51: SIM {TimeUS : 63735329, Roll : 0.13, Pitch : -17.83, Yaw : 55.16, Alt : 49.3300018311, Lat : 49.2837387, Lng : -123.114645, Q1 : 0.875550925732, Q2 : 0.0728169381618, Q3 : -0.136844962835, Q4 : 0.457582473755}
2019-04-14 17:45:14.61: SIM {TimeUS : 63835289, Roll : 0.13, Pitch : -17.88, Yaw : 55.15, Alt : 49.3300018311, Lat : 49.2837411, Lng : -123.1146396, Q1 : 0.87551856041, Q2 : 0.072981223464, Q3 : -0.137247830629, Q4 : 0.457497566938}
2019-04-14 17:45:14.71: SIM {TimeUS : 63935249, Roll : 0.14, Pitch : -17.91, Yaw : 55.14, Alt : 49.3300018311, Lat : 49.2837435, Lng : -123.1146342, Q1 : 0.875505626202, Q2 : 0.0731689110398, Q3 : -0.137472897768, Q4 : 0.457424789667}
2019-04-14 17:45:14.81: SIM {TimeUS : 64035209, Roll : 0.14, Pitch : -17.94, Yaw : 55.13, Alt : 49.3300018311, Lat : 49.2837459, Lng : -123.1146288, Q1 : 0.875516474247, Q2 : 0.0732681378722, Q3 : -0.137683182955, Q4 : 0.457324922085}
2019-04-14 17:45:14.91: SIM {TimeUS : 64135169, Roll : 0.13, Pitch : -17.96, Yaw : 55.12, Alt : 49.3300018311, Lat : 49.2837483, Lng : -123.1146234, Q1 : 0.875546514988, Q2 : 0.0732965990901, Q3 : -0.137838304043, Q4 : 0.457216113806}
2019-04-14 17:45:15.01: SIM {TimeUS : 64235129, Roll : 0.15, Pitch : -17.95, Yaw : 55.11, Alt : 49.3300018311, Lat : 49.2837508, Lng : -123.114618, Q1 : 0.875598609447, Q2 : 0.0733684673905, Q3 : -0.137746736407, Q4 : 0.45713236928}
2019-04-14 17:45:15.11: SIM {TimeUS : 64335089, Roll : 0.17, Pitch : -17.96, Yaw : 55.09, Alt : 49.3300018311, Lat : 49.2837532, Lng : -123.1146126, Q1 : 0.875639796257, Q2 : 0.0735621750355, Q3 : -0.13768838346, Q4 : 0.457039862871}
2019-04-14 17:45:15.21: SIM {TimeUS : 64435049, Roll : 0.18, Pitch : -17.97, Yaw : 55.08, Alt : 49.3300018311, Lat : 49.2837556, Lng : -123.1146071, Q1 : 0.875679194927, Q2 : 0.0736726000905, Q3 : -0.137780800462, Q4 : 0.456918746233}
2019-04-14 17:45:15.31: SIM {TimeUS : 64535009, Roll : 0.19, Pitch : -17.98, Yaw : 55.06, Alt : 49.3300018311, Lat : 49.283758, Lng : -123.1146017, Q1 : 0.875733733177, Q2 : 0.0737244784832, Q3 : -0.137802585959, Q4 : 0.456799268723}
2019-04-14 17:45:15.41: SIM {TimeUS : 64634969, Roll : 0.2, Pitch : -17.97, Yaw : 55.04, Alt : 49.3400001526, Lat : 49.2837605, Lng : -123.1145962, Q1 : 0.875797867775, Q2 : 0.0737296193838, Q3 : -0.137731894851, Q4 : 0.45669683814}
2019-04-14 17:45:15.51: SIM {TimeUS : 64734929, Roll : 0.2, Pitch : -17.97, Yaw : 55.03, Alt : 49.3400001526, Lat : 49.2837629, Lng : -123.1145907, Q1 : 0.875851273537, Q2 : 0.0737487822771, Q3 : -0.137706190348, Q4 : 0.456599026918}
2019-04-14 17:45:15.61: SIM {TimeUS : 64834889, Roll : 0.19, Pitch : -17.99, Yaw : 55.02, Alt : 49.3400001526, Lat : 49.2837653, Lng : -123.1145852, Q1 : 0.875886559486, Q2 : 0.0736837089062, Q3 : -0.137919634581, Q4 : 0.456477433443}
2019-04-14 17:45:15.71: SIM {TimeUS : 64934849, Roll : 0.15, Pitch : -18.02, Yaw : 55.01, Alt : 49.3400001526, Lat : 49.2837677, Lng : -123.1145798, Q1 : 0.87590265274, Q2 : 0.0735827386379, Q3 : -0.138343706727, Q4 : 0.456334531307}
2019-04-14 17:45:15.81: SIM {TimeUS : 65035642, Roll : 0.13, Pitch : -18.03, Yaw : 55.0, Alt : 49.3400001526, Lat : 49.2837702, Lng : -123.1145743, Q1 : 0.87594550848, Q2 : 0.0734071582556, Q3 : -0.138501226902, Q4 : 0.456232666969}
2019-04-14 17:45:15.91: SIM {TimeUS : 65135602, Roll : 0.13, Pitch : -18.01, Yaw : 54.99, Alt : 49.3400001526, Lat : 49.2837726, Lng : -123.1145688, Q1 : 0.875995993614, Q2 : 0.0733505934477, Q3 : -0.138365924358, Q4 : 0.456185907125}
2019-04-14 17:45:16.01: SIM {TimeUS : 65235562, Roll : 0.15, Pitch : -18.0, Yaw : 54.98, Alt : 49.3400001526, Lat : 49.2837751, Lng : -123.1145634, Q1 : 0.87603956461, Q2 : 0.0733814239502, Q3 : -0.138188704848, Q4 : 0.456150978804}
2019-04-14 17:45:16.11: SIM {TimeUS : 65335522, Roll : 0.16, Pitch : -18.0, Yaw : 54.97, Alt : 49.3400001526, Lat : 49.2837775, Lng : -123.1145579, Q1 : 0.876065254211, Q2 : 0.0734711736441, Q3 : -0.138188898563, Q4 : 0.456087172031}
2019-04-14 17:45:16.21: SIM {TimeUS : 65435482, Roll : 0.15, Pitch : -18.02, Yaw : 54.96, Alt : 49.3400001526, Lat : 49.28378, Lng : -123.1145524, Q1 : 0.876088023186, Q2 : 0.0734794363379, Q3 : -0.138359755278, Q4 : 0.455990284681}
2019-04-14 17:45:16.31: SIM {TimeUS : 65535442, Roll : 0.13, Pitch : -18.05, Yaw : 54.95, Alt : 49.3400001526, Lat : 49.2837824, Lng : -123.1145469, Q1 : 0.876111090183, Q2 : 0.0734131336212, Q3 : -0.138643503189, Q4 : 0.455870419741}
2019-04-14 17:45:16.41: SIM {TimeUS : 65635402, Roll : 0.12, Pitch : -18.07, Yaw : 54.94, Alt : 49.3400001526, Lat : 49.2837849, Lng : -123.1145414, Q1 : 0.87613350153, Q2 : 0.0733924210072, Q3 : -0.138897016644, Q4 : 0.45575350523}
2019-04-14 17:45:16.51: SIM {TimeUS : 65735362, Roll : 0.12, Pitch : -18.1, Yaw : 54.93, Alt : 49.3400001526, Lat : 49.2837873, Lng : -123.1145359, Q1 : 0.876148223877, Q2 : 0.0735125392675, Q3 : -0.139080107212, Q4 : 0.455650001764}
2019-04-14 17:45:16.61: SIM {TimeUS : 65835322, Roll : 0.14, Pitch : -18.12, Yaw : 54.92, Alt : 49.3400001526, Lat : 49.2837898, Lng : -123.1145304, Q1 : 0.876159369946, Q2 : 0.0736967772245, Q3 : -0.139180839062, Q4 : 0.455568104982}
2019-04-14 17:45:16.71: SIM {TimeUS : 65935282, Roll : 0.16, Pitch : -18.13, Yaw : 54.91, Alt : 49.3400001526, Lat : 49.2837922, Lng : -123.1145249, Q1 : 0.876169979572, Q2 : 0.0739379897714, Q3 : -0.139200925827, Q4 : 0.455502450466}
