2019-04-14 17:22:41.40: SIM {TimeUS : 40216407, Roll : 0.0, Pitch : 0.0, Yaw : 0.0, Alt : 30.1000003815, Lat : 49.28357, Lng : -123.11502, Q1 : 1.0, Q2 : 0.0, Q3 : 0.0, Q4 : 0.0}
2019-04-14 17:22:41.51: SIM {TimeUS : 40335526, Roll : 0.0, Pitch : 0.0, Yaw : 0.0, Alt : 30.1000003815, Lat : 49.28357, Lng : -123.11502, Q1 : 1.0, Q2 : 0.0, Q3 : 0.0, Q4 : 0.0}
2019-04-14 17:22:41.61: SIM {TimeUS : 40435486, Roll : 0.0, Pitch : 0.0, Yaw : 0.0, Alt : 30.1000003815, Lat : 49.28357, Lng : -123.11502, Q1 : 1.0, Q2 : 0.0, Q3 : 0.0, Q4 : 0.0}
2019-04-14 17:22:41.71: SIM {TimeUS : 40535446, Roll : 0.0, Pitch : 0.0, Yaw : 0.0, Alt : 30.1000003815, Lat : 49.28357, Lng : -123.11502, Q1 : 1.0, Q2 : 0.0, Q3 : 0.0, Q4 : 0.0}
2019-04-14 17:22:41.81: SIM {TimeUS : 40635406, Roll : 0.0, Pitch : 0.0, Yaw : 0.0, Alt : 30.1000003815, Lat : 49.28357, Lng : -123.11502, Q1 : 1.0, Q2 : 0.0, Q3 : 0.0, Q4 : 0.0}
2019-04-14 17:22:41.91: SIM {TimeUS : 40735366, Roll : 0.0, Pitch : 0.0, Yaw : 0.0, Alt : 30.1000003815, Lat : 49.28357, Lng : -123.11502, Q1 : 1.0, Q2 : 0.0, Q3 : 0.0, Q4 : 0.0}
2019-04-14 17:22:42.01: SIM {TimeUS : 40835326, Roll : 0.0, Pitch : 0.0, Yaw : 0.0, Alt : 30.1000003815, Lat : 49.28357, Lng : -123.11502, Q1 : 1.0, Q2 : 0.0, Q3 : 0.0, Q4 : 0.0}
2019-04-14 17:22:42.11: SIM {TimeUS : 40935286, Roll : 0.0, Pitch : 0.0, Yaw : 0.0, Alt : 30.1000003815, Lat : 49.28357, Lng : -123.11502, Q1 : 1.0, Q2 : 0.0, Q3 : 0.0, Q4 : 0.0}
2019-04-14 17:22:42.21: SIM {TimeUS : 41035246, Roll : 0.0, Pitch : 0.0, Yaw : 0.0, Alt : 30.1000003815, Lat : 49.28357, Lng : -123.11502, Q1 : 1.0, Q2 : 0.0, Q3 : 0.0, Q4 : 0.0}
2019-04-14 17:22:42.31: SIM {TimeUS : 41135206, Roll : 0.0, Pitch : 0.0, Yaw : 0.0, Alt : 30.1000003815, Lat : 49.28357, Lng : -123.11502, Q1 : 1.0, Q2 : 0.0, Q3 : 0.0, Q4 : 0.0}
2019-04-14 17:22:42.41: SIM {TimeUS : 41235166, Roll : 0.0, Pitch : 0.0, Yaw : 0.0, Alt : 30.1000003815, Lat : 49.28357, Lng : -123.11502, Q1 : 1.0, Q2 : 0.0, Q3 : 0.0, Q4 : 0.0}
2019-04-14 17:22:42.51: SIM {TimeUS : 41335126, Roll : 0.0, Pitch : 0.0, Yaw : 0.0, Alt : 30.1000003815, Lat : 49.28357, Lng : -123.11502, Q1 : 1.0, Q2 : 0.0, Q3 : 0.0, Q4 : 0.0}
2019-04-14 17:22:42.61: SIM {TimeUS : 41435086, Roll : 0.0, Pitch : 0.0, Yaw : 0.0, Alt : 30.1000003815, Lat : 49.28357, Lng : -123.11502, Q1 : 1.0, Q2 : 0.0, Q3 : 0.0, Q4 : 0.0}
2019-04-14 17:22:42.71: SIM {TimeUS : 41535046, Roll : 0.0, Pitch : 0.0, Yaw : 0.0, Alt : 30.1000003815, Lat : 49.28357, Lng : -123.11502, Q1 : 1.0, Q2 : 0.0, Q3 : 0.0, Q4 : 0.0}
2019-04-14 17:22:42.81: SIM {TimeUS : 41635006, Roll : 0.0, Pitch : 0.0, Yaw : 0.0, Alt : 30.1000003815, Lat : 49.28357, Lng : -123.11502, Q1 : 1.0, Q2 : 0.0, Q3 : 0.0, Q4 : 0.0}
2019-04-14 17:22:42.91: SIM {TimeUS : 41734966, Roll : 0.0, Pitch : 0.0, Yaw : 0.0, Alt : 30.1000003815, Lat : 49.28357, Lng : -123.11502, Q1 : 1.0, Q2 : 0.0, Q3 : 0.0, Q4 : 0.0}
2019-04-14 17:22:43.01: SIM {TimeUS : 41834926, Roll : 0.0, Pitch : 0.0, Yaw : 0.0, Alt : 30.1000003815, Lat : 49.28357, Lng : -123.11502, Q1 : 1.0, Q2 : 0.0, Q3 : 0.0, Q4 : 0.0}
2019-04-14 17:22:43.11: SIM {TimeUS : 41934886, Roll : 0.0, Pitch : 0.0, Yaw : 0.0, Alt : 30.1000003815, Lat : 49.28357, Lng : -123.11502, Q1 : 1.0, Q2 : 0.0, Q3 : 0.0, Q4 : 0.0}
2019-04-14 17:22:43.21: SIM {TimeUS : 42034846, Roll : 0.0, Pitch : 0.0, Yaw : 0.0, Alt : 30.1000003815, Lat : 49.28357, Lng : -123.11502, Q1 : 1.0, Q2 : 0.0, Q3 : 0.0, Q4 : 0.0}
2019-04-14 17:22:43.31: SIM {TimeUS : 42134806, Roll : 0.0, Pitch : 0.0, Yaw : 0.0, Alt : 30.1000003815, Lat : 49.28357, Lng : -123.11502, Q1 : 1.0, Q2 : 0.0, Q3 : 0.0, Q4 : 0.0}
2019-04-14 17:22:43.41: SIM {TimeUS : 42234766, Roll : 0.0, Pitch : 0.0, Yaw : 0.0, Alt : 30.1000003815, Lat : 49.28357, Lng : -123.11502, Q1 : 1.0, Q2 : 0.0, Q3 : 0.0, Q4 : 0.0}
2019-04-14 17:22:43.51: SIM {TimeUS : 42335559, Roll : 0.0, Pitch : 0.0, Yaw : 0.0, Alt : 30.1000003815, Lat : 49.28357, Lng : -123.11502, Q1 : 1.0, Q2 : 0.0, Q3 : 0.0, Q4 : 0.0}
2019-04-14 17:22:43.61: SIM {TimeUS : 42435519, Roll : 0.0, Pitch : 0.0, Yaw : 0.0, Alt : 30.1000003815, Lat : 49.28357, Lng : -123.11502, Q1 : 1.0, Q2 : 0.0, Q3 : 0.0, Q4 : 0.0}
2019-04-14 17:22:43.71: SIM {TimeUS : 42535479, Roll : 0.0, Pitch : 0.0, Yaw : 360.0, Alt : 30.1000003815, Lat : 49.28357, Lng : -123.11502, Q1 : 1.0, Q2 : 0.0, Q3 : 0.0, Q4 : -1.1336584449e-11}
2019-04-14 17:22:43.81: SIM {TimeUS : 42635439, Roll : 0.0, Pitch : 0.0, Yaw : 360.0, Alt : 30.1000003815, Lat : 49.28357, Lng : -123.11502, Q1 : 1.0, Q2 : 0.0, Q3 : 0.0, Q4 : -1.61812430122e-08}
2019-04-14 17:22:43.91: SIM {TimeUS : 42735399, Roll : 0.0, Pitch : 0.0, Yaw : 359.99, Alt : 30.1000003815, Lat : 49.28357, Lng : -123.11502, Q1 : 1.0, Q2 : 0.0, Q3 : 0.0, Q4 : -2.24486328193e-07}
2019-04-14 17:22:44.01: SIM {TimeUS : 42835359, Roll : 0.0, Pitch : 0.0, Yaw : 359.99, Alt : 30.1000003815, Lat : 49.28357, Lng : -123.11502, Q1 : 1.0, Q2 : 0.0, Q3 : 0.0, Q4 : -4.08227208482e-07}
2019-04-14 17:22:44.11: SIM {TimeUS : 42935319, Roll : 0.0, Pitch : 0.0, Yaw : 359.99, Alt : 30.1000003815, Lat : 49.28357, Lng : -123.11502, Q1 : 1.0, Q2 : 0.0, Q3 : 0.0, Q4 : -5.78754338676e-07}
2019-04-14 17:22:44.21: SIM {TimeUS : 43035279, Roll : 0.0, Pitch : 0.0, Yaw : 359.99, Alt : 30.1000003815, Lat : 49.28357, Lng : -123.11502, Q1 : 1.0, Q2 : 0.0, Q3 : 0.0, Q4 : -7.67514222844e-07}
2019-04-14 17:22:44.31: SIM {TimeUS : 43135239, Roll : 0.0, Pitch : 0.0, Yaw : 359.99, Alt : 30.1000003815, Lat : 49.28357, Lng : -123.11502, Q1 : 1.0, Q2 : 0.0, Q3 : 0.0, Q4 : -9.76687488219e-07}
2019-04-14 17:22:44.41: SIM {TimeUS : 43235199, Roll : 0.0, Pitch : 0.0, Yaw : 359.99, Alt : 30.1000003815, Lat : 49.28357, Lng : -123.11502, Q1 : 1.0, Q2 : 0.0, Q3 : 0.0, Q4 : -1.1453313391e-06}
2019-04-14 17:22:44.51: SIM {TimeUS : 43335159, Roll : 0.0, Pitch : 0.0, Yaw : 359.99, Alt : 30.1000003815, Lat : 49.28357, Lng : -123.11502, Q1 : 1.0, Q2 : 0.0, Q3 : 0.0, Q4 : -1.35353730002e-06}
2019-04-14 17:22:44.61: SIM {TimeUS : 43435119, Roll : 0.0, Pitch : 0.0, Yaw : 359.99, Alt : 30.1200008392, Lat : 49.28357, Lng : -123.11502, Q1 : 1.0, Q2 : 0.0, Q3 : 0.0, Q4 : -1.55730958795e-06}
2019-04-14 17:22:44.71: SIM {TimeUS : 43535079, Roll : 0.0, Pitch : 0.0, Yaw : 359.99, Alt : 30.1399993896, Lat : 49.28357, Lng : -123.11502, Q1 : 1.0, Q2 : 0.0, Q3 : 0.0, Q4 : -1.83666099929e-06}
2019-04-14 17:22:44.81: SIM {TimeUS : 43635039, Roll : 0.0, Pitch : 0.0, Yaw : 359.99, Alt : 30.1800003052, Lat : 49.28357, Lng : -123.11502, Q1 : 1.0, Q2 : 0.0, Q3 : 0.0, Q4 : -2.03890954253e-06}
2019-04-14 17:22:44.91: SIM {TimeUS : 43734999, Roll : 0.0, Pitch : 0.0, Yaw : 359.99, Alt : 30.2099990845, Lat : 49.28357, Lng : -123.11502, Q1 : 1.0, Q2 : -6.35661672277e-06, Q3 : -5.64090942134e-06, Q4 : -2.2787544367e-06}
2019-04-14 17:22:45.01: SIM {TimeUS : 43834959, Roll : -0.19, Pitch : -0.15, Yaw : 359.99, Alt : 30.2700004578, Lat : 49.28357, Lng : -123.11502, Q1 : 0.999997675419, Q2 : -0.00167102587875, Q3 : -0.00137694657315, Q4 : -2.04011739697e-05}
2019-04-14 17:22:45.11: SIM {TimeUS : 43934919, Roll : -0.5, Pitch : -0.41, Yaw : 359.99, Alt : 30.3899993896, Lat : 49.28357, Lng : -123.11502, Q1 : 0.999983727932, Q2 : -0.00443563563749, Q3 : -0.00359508837573, Q4 : -6.69005603413e-05}
2019-04-14 17:22:45.21: SIM {TimeUS : 44034879, Roll : -0.74, Pitch : -0.62, Yaw : 359.98, Alt : 30.5400009155, Lat : 49.28357, Lng : -123.11502, Q1 : 0.999963760376, Q2 : -0.00654475810006, Q3 : -0.00544777605683, Q4 : -0.000134461864945}
2019-04-14 17:22:45.31: SIM {TimeUS : 44134839, Roll : -0.84, Pitch : -0.72, Yaw : 359.98, Alt : 30.7000007629, Lat : 49.28357, Lng : -123.11502, Q1 : 0.999953269958, Q2 : -0.00733406934887, Q3 : -0.00629625003785, Q4 : -0.000215309337364}
2019-04-14 17:22:45.41: SIM {TimeUS : 44234799, Roll : -0.78, Pitch : -0.68, Yaw : 359.97, Alt : 30.8500003815, Lat : 49.28357, Lng : -123.1150201, Q1 : 0.999958395958, Q2 : -0.00685553299263, Q3 : -0.0060079251416, Q4 : -0.000295974983601}
2019-04-14 17:22:45.51: SIM {TimeUS : 44334759, Roll : -0.62, Pitch : -0.55, Yaw : 359.96, Alt : 31.0100002289, Lat : 49.2835701, Lng : -123.1150201, Q1 : 0.999973058701, Q2 : -0.00546377757564, Q3 : -0.00488068442792, Q4 : -0.000374686496798}
2019-04-14 17:22:45.61: SIM {TimeUS : 44435552, Roll : -0.39, Pitch : -0.39, Yaw : 359.95, Alt : 31.1599998474, Lat : 49.2835701, Lng : -123.1150202, Q1 : 0.999988079071, Q2 : -0.00343681173399, Q3 : -0.00344918435439, Q4 : -0.000441763724666}
2019-04-14 17:22:45.71: SIM {TimeUS : 44535512, Roll : -0.17, Pitch : -0.22, Yaw : 359.94, Alt : 31.3299999237, Lat : 49.2835701, Lng : -123.1150203, Q1 : 0.999996900558, Q2 : -0.00151483470108, Q3 : -0.00192221638281, Q4 : -0.000490398379043}
2019-04-14 17:22:45.81: SIM {TimeUS : 44635472, Roll : -0.02, Pitch : -0.07, Yaw : 359.93, Alt : 31.5, Lat : 49.2835702, Lng : -123.1150204, Q1 : 0.999999642372, Q2 : -0.000244775175815, Q3 : -0.000621852697805, Q4 : -0.000525689742062}
2019-04-14 17:22:45.91: SIM {TimeUS : 44735432, Roll : 0.04, Pitch : 0.01, Yaw : 359.93, Alt : 31.6700000763, Lat : 49.2835702, Lng : -123.1150205, Q1 : 0.999999761581, Q2 : 0.000394978531403, Q3 : 0.000168912680238, Q4 : -0.000548088864889}
2019-04-14 17:22:46.01: SIM {TimeUS : 44835392, Roll : 0.06, Pitch : 0.05, Yaw : 359.93, Alt : 31.8500003815, Lat : 49.2835703, Lng : -123.1150205, Q1 : 0.999999582767, Q2 : 0.000525823095813, Q3 : 0.000490964972414, Q4 : -0.000562851782888}
2019-04-14 17:22:46.11: SIM {TimeUS : 44935352, Roll : 0.05, Pitch : 0.05, Yaw : 359.93, Alt : 32.0400009155, Lat : 49.2835703, Lng : -123.1150206, Q1 : 0.999999582767, Q2 : 0.000497635104693, Q3 : 0.00048813255853, Q4 : -0.000564764486626}
2019-04-14 17:22:46.21: SIM {TimeUS : 45035312, Roll : 0.05, Pitch : 0.04, Yaw : 359.93, Alt : 32.2200012207, Lat : 49.2835703, Lng : -123.1150207, Q1 : 0.999999642372, Q2 : 0.000494990788866, Q3 : 0.000362793740351, Q4 : -0.000556585902814}
2019-04-14 17:22:46.31: SIM {TimeUS : 45135272, Roll : 0.07, Pitch : 0.03, Yaw : 359.93, Alt : 32.4099998474, Lat : 49.2835703, Lng : -123.1150207, Q1 : 0.999999642372, Q2 : 0.00062723440351, Q3 : 0.000301093910821, Q4 : -0.000544744718354}
2019-04-14 17:22:46.41: SIM {TimeUS : 45235232, Roll : 0.09, Pitch : 0.05, Yaw : 359.93, Alt : 32.6100006104, Lat : 49.2835703, Lng : -123.1150208, Q1 : 0.999999403954, Q2 : 0.000830037461128, Q3 : 0.00051366322441, Q4 : -0.000525577983353}
2019-04-14 17:22:46.51: SIM {TimeUS : 45335192, Roll : 0.12, Pitch : 0.1, Yaw : 359.94, Alt : 32.8100013733, Lat : 49.2835704, Lng : -123.1150208, Q1 : 0.999998927116, Q2 : 0.00105113815516, Q3 : 0.000925290281884, Q4 : -0.000493774889037}
2019-04-14 17:22:46.61: SIM {TimeUS : 45435152, Roll : 0.14, Pitch : 0.15, Yaw : 359.94, Alt : 33.0099983215, Lat : 49.2835704, Lng : -123.1150208, Q1 : 0.999998271465, Q2 : 0.00122242269572, Q3 : 0.00130855396856, Q4 : -0.000463770702481}
2019-04-14 17:22:46.71: SIM {TimeUS : 45535112, Roll : 0.16, Pitch : 0.18, Yaw : 359.94, Alt : 33.2099990845, Lat : 49.2835704, Lng : -123.1150209, Q1 : 0.99999755621, Q2 : 0.00142448069528, Q3 : 0.00161578960251, Q4 : -0.000442920980277}
2019-04-14 17:22:46.81: SIM {TimeUS : 45635072, Roll : 0.18, Pitch : 0.2, Yaw : 359.95, Alt : 33.4099998474, Lat : 49.2835704, Lng : -123.1150209, Q1 : 0.999997019768, Q2 : 0.0016271576751, Q3 : 0.00175604701508, Q4 : -0.000438156654127}
2019-04-14 17:22:46.91: SIM {TimeUS : 45735032, Roll : 0.19, Pitch : 0.2, Yaw : 359.94, Alt : 33.6199989319, Lat : 49.2835704, Lng : -123.1150209, Q1 : 0.999996781349, Q2 : 0.00171446835157, Q3 : 0.00182398944162, Q4 : -0.000442672142526}
2019-04-14 17:22:47.01: SIM {TimeUS : 45834992, Roll : 0.17, Pitch : 0.2, Yaw : 359.94, Alt : 33.8300018311, Lat : 49.2835704, Lng : -123.1150209, Q1 : 0.999997079372, Q2 : 0.00155007385183, Q3 : 0.00180819525849, Q4 : -0.00045986531768}
2019-04-14 17:22:47.11: SIM {TimeUS : 45934952, Roll : 0.15, Pitch : 0.17, Yaw : 359.94, Alt : 34.0400009155, Lat : 49.2835706, Lng : -123.1150209, Q1 : 0.999997913837, Q2 : 0.00133877061307, Q3 : 0.00148560234811, Q4 : -0.000476808461826}
2019-04-14 17:22:47.21: SIM {TimeUS : 46034912, Roll : 0.13, Pitch : 0.11, Yaw : 359.94, Alt : 34.25, Lat : 49.2835706, Lng : -123.1150209, Q1 : 0.999998748302, Q2 : 0.00113895325921, Q3 : 0.000981893972494, Q4 : -0.000482323230244}
2019-04-14 17:22:47.31: SIM {TimeUS : 46134872, Roll : 0.1, Pitch : 0.06, Yaw : 359.94, Alt : 34.4599990845, Lat : 49.2835706, Lng : -123.1150209, Q1 : 0.99999922514, Q2 : 0.000943173712585, Q3 : 0.000599066843279, Q4 : -0.000496308901347}
2019-04-14 17:22:47.41: SIM {TimeUS : 46234832, Roll : 0.08, Pitch : 0.04, Yaw : 359.94, Alt : 34.6699981689, Lat : 49.2835706, Lng : -123.1150209, Q1 : 0.999999523163, Q2 : 0.000763273448683, Q3 : 0.000379631936084, Q4 : -0.000521756592207}
2019-04-14 17:22:47.51: SIM {TimeUS : 46334792, Roll : 0.08, Pitch : 0.04, Yaw : 359.93, Alt : 34.8899993896, Lat : 49.2835706, Lng : -123.1150209, Q1 : 0.999999463558, Q2 : 0.000718083872925, Q3 : 0.000397506024456, Q4 : -0.00055913469987}
2019-04-14 17:22:47.61: SIM {TimeUS : 46434752, Roll : 0.08, Pitch : 0.04, Yaw : 359.93, Alt : 35.0999984741, Lat : 49.2835706, Lng : -123.1150208, Q1 : 0.999999463558, Q2 : 0.000717346032616, Q3 : 0.000414556474425, Q4 : -0.000606568646617}
2019-04-14 17:22:47.71: SIM {TimeUS : 46535545, Roll : 0.07, Pitch : 0.05, Yaw : 359.92, Alt : 35.3199996948, Lat : 49.2835704, Lng : -123.1150208, Q1 : 0.999999463558, Q2 : 0.000634183757938, Q3 : 0.000447218539193, Q4 : -0.000654988107271}
2019-04-14 17:22:47.81: SIM {TimeUS : 46635505, Roll : 0.05, Pitch : 0.05, Yaw : 359.91, Alt : 35.5400009155, Lat : 49.2835704, Lng : -123.1150208, Q1 : 0.999999463558, Q2 : 0.000498300709296, Q3 : 0.000515323830768, Q4 : -0.000703211408108}
2019-04-14 17:22:47.91: SIM {TimeUS : 46735465, Roll : 0.03, Pitch : 0.07, Yaw : 359.91, Alt : 35.7599983215, Lat : 49.2835704, Lng : -123.1150208, Q1 : 0.999999463558, Q2 : 0.000344183761626, Q3 : 0.000610882299952, Q4 : -0.000747126643546}
2019-04-14 17:22:48.01: SIM {TimeUS : 46835425, Roll : 0.02, Pitch : 0.05, Yaw : 359.91, Alt : 35.9799995422, Lat : 49.2835704, Lng : -123.1150208, Q1 : 0.999999523163, Q2 : 0.000238135398831, Q3 : 0.000479614594951, Q4 : -0.000777979264967}
2019-04-14 17:22:48.11: SIM {TimeUS : 46935385, Roll : 0.01, Pitch : 0.04, Yaw : 359.9, Alt : 36.2000007629, Lat : 49.2835704, Lng : -123.1150208, Q1 : 0.999999582767, Q2 : 0.000169971957803, Q3 : 0.000367322732927, Q4 : -0.000800767564215}
2019-04-14 17:22:48.21: SIM {TimeUS : 47035345, Roll : 0.0, Pitch : 0.03, Yaw : 359.9, Alt : 36.4199981689, Lat : 49.2835704, Lng : -123.1150207, Q1 : 0.999999642372, Q2 : 6.87068022671e-05, Q3 : 0.000302272848785, Q4 : -0.000824775837827}
2019-04-14 17:22:48.31: SIM {TimeUS : 47135305, Roll : 0.0, Pitch : 0.02, Yaw : 359.9, Alt : 36.6399993896, Lat : 49.2835704, Lng : -123.1150207, Q1 : 0.999999582767, Q2 : -7.86788223195e-06, Q3 : 0.000238468885073, Q4 : -0.000849989359267}
2019-04-14 17:22:48.41: SIM {TimeUS : 47235265, Roll : 0.0, Pitch : 0.0, Yaw : 359.89, Alt : 36.8600006104, Lat : 49.2835704, Lng : -123.1150207, Q1 : 0.999999582767, Q2 : 4.99687121192e-05, Q3 : 8.4357423475e-05, Q4 : -0.000876700738445}
2019-04-14 17:22:48.51: SIM {TimeUS : 47335225, Roll : 0.0, Pitch : -0.01, Yaw : 359.89, Alt : 37.0900001526, Lat : 49.2835704, Lng : -123.1150207, Q1 : 0.999999582767, Q2 : -1.84550335689e-05, Q3 : -0.000150539999595, Q4 : -0.000904127024114}
2019-04-14 17:22:48.61: SIM {TimeUS : 47435185, Roll : -0.03, Pitch : -0.05, Yaw : 359.89, Alt : 37.3100013733, Lat : 49.2835704, Lng : -123.1150207, Q1 : 0.999999403954, Q2 : -0.000277676706901, Q3 : -0.000478784611914, Q4 : -0.000933727424126}
2019-04-14 17:22:48.71: SIM {TimeUS : 47535145, Roll : -0.07, Pitch : -0.08, Yaw : 359.88, Alt : 37.5400009155, Lat : 49.2835704, Lng : -123.1150207, Q1 : 0.999999046326, Q2 : -0.000646305445116, Q3 : -0.000730811851099, Q4 : -0.000963455880992}
2019-04-14 17:22:48.81: SIM {TimeUS : 47635105, Roll : -0.11, Pitch : -0.1, Yaw : 359.88, Alt : 37.7599983215, Lat : 49.2835704, Lng : -123.1150206, Q1 : 0.999998629093, Q2 : -0.000963361526374, Q3 : -0.000888857292011, Q4 : -0.000991928507574}
2019-04-14 17:22:48.91: SIM {TimeUS : 47735065, Roll : -0.13, Pitch : -0.1, Yaw : 359.88, Alt : 37.9900016785, Lat : 49.2835704, Lng : -123.1150206, Q1 : 0.99999833107, Q2 : -0.00116490374785, Q3 : -0.000945093750488, Q4 : -0.00102210056502}
2019-04-14 17:22:49.01: SIM {TimeUS : 47835025, Roll : -0.14, Pitch : -0.09, Yaw : 359.88, Alt : 38.2200012207, Lat : 49.2835704, Lng : -123.1150206, Q1 : 0.99999833107, Q2 : -0.00122523237951, Q3 : -0.000868662609719, Q4 : -0.00104812067002}
2019-04-14 17:22:49.11: SIM {TimeUS : 47934985, Roll : -0.12, Pitch : -0.06, Yaw : 359.87, Alt : 38.4500007629, Lat : 49.2835704, Lng : -123.1150206, Q1 : 0.999998688698, Q2 : -0.00109830824658, Q3 : -0.00057225296041, Q4 : -0.0010633545462}
2019-04-14 17:22:49.21: SIM {TimeUS : 48034945, Roll : -0.09, Pitch : -0.04, Yaw : 359.87, Alt : 38.6699981689, Lat : 49.2835704, Lng : -123.1150206, Q1 : 0.999998986721, Q2 : -0.000869164534379, Q3 : -0.000398260512156, Q4 : -0.0010787389474}
2019-04-14 17:22:49.31: SIM {TimeUS : 48134905, Roll : -0.08, Pitch : -0.04, Yaw : 359.87, Alt : 38.9000015259, Lat : 49.2835704, Lng : -123.1150206, Q1 : 0.999999046326, Q2 : -0.000722683500499, Q3 : -0.000367609143723, Q4 : -0.00110089126974}
2019-04-14 17:22:49.41: SIM {TimeUS : 48234865, Roll : -0.07, Pitch : -0.02, Yaw : 359.87, Alt : 39.1300010681, Lat : 49.2835704, Lng : -123.1150206, Q1 : 0.999999165535, Q2 : -0.000640170823317, Q3 : -0.000215175008634, Q4 : -0.00111208180897}
2019-04-14 17:22:49.51: SIM {TimeUS : 48334825, Roll : -0.08, Pitch : 0.0, Yaw : 359.87, Alt : 39.3600006104, Lat : 49.2835704, Lng : -123.1150206, Q1 : 0.99999910593, Q2 : -0.00073934259126, Q3 : -2.58496893366e-05, Q4 : -0.00111233105417}
2019-04-14 17:22:49.61: SIM {TimeUS : 48434785, Roll : -0.08, Pitch : 0.01, Yaw : 359.87, Alt : 39.5900001526, Lat : 49.2835704, Lng : -123.1150206, Q1 : 0.99999910593, Q2 : -0.000721758406144, Q3 : 0.000117882533232, Q4 : -0.00110978551675}
2019-04-14 17:22:49.71: SIM {TimeUS : 48534745, Roll : -0.06, Pitch : 0.03, Yaw : 359.87, Alt : 39.8199996948, Lat : 49.2835704, Lng : -123.1150206, Q1 : 0.999999165535, Q2 : -0.000537429354154, Q3 : 0.000330490322085, Q4 : -0.00111403164919}
2019-04-14 17:22:49.81: SIM {TimeUS : 48635538, Roll : -0.03, Pitch : 0.03, Yaw : 359.87, Alt : 40.0600013733, Lat : 49.2835704, Lng : -123.1150206, Q1 : 0.999999284744, Q2 : -0.000294374680379, Q3 : 0.0003093467094, Q4 : -0.0011117287213}
2019-04-14 17:22:49.91: SIM {TimeUS : 48735498, Roll : 0.0, Pitch : 0.02, Yaw : 359.87, Alt : 40.2900009155, Lat : 49.2835704, Lng : -123.1150207, Q1 : 0.999999344349, Q2 : -1.19188744065e-05, Q3 : 0.000231189434999, Q4 : -0.00111071416177}
2019-04-14 17:22:50.01: SIM {TimeUS : 48835458, Roll : 0.03, Pitch : 0.04, Yaw : 359.87, Alt : 40.5200004578, Lat : 49.2835706, Lng : -123.1150207, Q1 : 0.999999284744, Q2 : 0.000286227237666, Q3 : 0.000400741846533, Q4 : -0.00111298414413}
2019-04-14 17:22:50.11: SIM {TimeUS : 48935418, Roll : 0.07, Pitch : 0.08, Yaw : 359.87, Alt : 40.75, Lat : 49.2835706, Lng : -123.1150207, Q1 : 0.999998867512, Q2 : 0.000638999743387, Q3 : 0.00074902101187, Q4 : -0.00112627621274}
2019-04-14 17:22:50.21: SIM {TimeUS : 49035378, Roll : 0.09, Pitch : 0.12, Yaw : 359.86, Alt : 40.9799995422, Lat : 49.2835706, Lng : -123.1150207, Q1 : 0.999998390675, Q2 : 0.000853428151459, Q3 : 0.00108498230111, Q4 : -0.00115105102304}
2019-04-14 17:22:50.31: SIM {TimeUS : 49135338, Roll : 0.08, Pitch : 0.15, Yaw : 359.86, Alt : 41.2200012207, Lat : 49.2835706, Lng : -123.1150207, Q1 : 0.999998152256, Q2 : 0.000730130530428, Q3 : 0.0013121527154, Q4 : -0.00117238948587}
2019-04-14 17:22:50.41: SIM {TimeUS : 49235298, Roll : 0.03, Pitch : 0.16, Yaw : 359.86, Alt : 41.4500007629, Lat : 49.2835706, Lng : -123.1150207, Q1 : 0.999998211861, Q2 : 0.00030612089904, Q3 : 0.00145602959674, Q4 : -0.00119839189574}
2019-04-14 17:22:50.51: SIM {TimeUS : 49335258, Roll : -0.01, Pitch : 0.17, Yaw : 359.85, Alt : 41.6800003052, Lat : 49.2835706, Lng : -123.1150207, Q1 : 0.999998092651, Q2 : -9.65808212641e-05, Q3 : 0.00151197903324, Q4 : -0.00122643390205}
2019-04-14 17:22:50.61: SIM {TimeUS : 49435218, Roll : -0.03, Pitch : 0.15, Yaw : 359.85, Alt : 41.9199981689, Lat : 49.2835706, Lng : -123.1150207, Q1 : 0.999998271465, Q2 : -0.000263225636445, Q3 : 0.00133462983649, Q4 : -0.00125511444639}
2019-04-14 17:22:50.71: SIM {TimeUS : 49535178, Roll : -0.02, Pitch : 0.11, Yaw : 359.85, Alt : 42.1500015259, Lat : 49.2835706, Lng : -123.1150207, Q1 : 0.999998569489, Q2 : -0.000260234286543, Q3 : 0.00104559236206, Q4 : -0.00128972786479}
2019-04-14 17:22:50.81: SIM {TimeUS : 49635138, Roll : -0.01, Pitch : 0.11, Yaw : 359.84, Alt : 42.3800010681, Lat : 49.2835706, Lng : -123.1150207, Q1 : 0.999998569489, Q2 : -9.96198650682e-05, Q3 : 0.00101381831337, Q4 : -0.00132666574791}
2019-04-14 17:22:50.91: SIM {TimeUS : 49735098, Roll : 0.02, Pitch : 0.13, Yaw : 359.84, Alt : 42.6199989319, Lat : 49.2835706, Lng : -123.1150207, Q1 : 0.999998390675, Q2 : 0.000227660231758, Q3 : 0.00114339869469, Q4 : -0.00136589910835}
2019-04-14 17:22:51.01: SIM {TimeUS : 49835058, Roll : 0.07, Pitch : 0.14, Yaw : 359.83, Alt : 42.8499984741, Lat : 49.2835706, Lng : -123.1150207, Q1 : 0.999998033047, Q2 : 0.000677227799315, Q3 : 0.00124520331156, Q4 : -0.00140264071524}
2019-04-14 17:22:51.11: SIM {TimeUS : 49935018, Roll : 0.11, Pitch : 0.12, Yaw : 359.83, Alt : 43.0900001526, Lat : 49.2835706, Lng : -123.1150207, Q1 : 0.999997794628, Q2 : 0.00101398641709, Q3 : 0.00113156891894, Q4 : -0.00143876811489}
2019-04-14 17:22:51.21: SIM {TimeUS : 50034978, Roll : 0.11, Pitch : 0.1, Yaw : 359.83, Alt : 43.3199996948, Lat : 49.2835704, Lng : -123.1150207, Q1 : 0.999997973442, Q2 : 0.00101404986344, Q3 : 0.000924288178794, Q4 : -0.00146999629214}
2019-04-14 17:22:51.31: SIM {TimeUS : 50134938, Roll : 0.07, Pitch : 0.09, Yaw : 359.83, Alt : 43.5600013733, Lat : 49.2835704, Lng : -123.1150207, Q1 : 0.999998390675, Q2 : 0.000646509462968, Q3 : 0.000784846371971, Q4 : -0.00148303073365}
2019-04-14 17:22:51.41: SIM {TimeUS : 50234898, Roll : 0.01, Pitch : 0.08, Yaw : 359.82, Alt : 43.7900009155, Lat : 49.2835704, Lng : -123.1150207, Q1 : 0.999998629093, Q2 : 0.000142432007124, Q3 : 0.000719936855603, Q4 : -0.00149341113865}
2019-04-14 17:22:51.51: SIM {TimeUS : 50334858, Roll : -0.02, Pitch : 0.08, Yaw : 359.82, Alt : 44.0299987793, Lat : 49.2835704, Lng : -123.1150207, Q1 : 0.999998509884, Q2 : -0.000209480000194, Q3 : 0.000776342814788, Q4 : -0.00150598271284}
2019-04-14 17:22:51.61: SIM {TimeUS : 50434818, Roll : -0.04, Pitch : 0.08, Yaw : 359.82, Alt : 44.2599983215, Lat : 49.2835704, Lng : -123.1150207, Q1 : 0.999998509884, Q2 : -0.000377054151613, Q3 : 0.000759265909437, Q4 : -0.00151754484978}
2019-04-14 17:22:51.71: SIM {TimeUS : 50534778, Roll : -0.04, Pitch : 0.07, Yaw : 359.82, Alt : 44.5, Lat : 49.2835704, Lng : -123.1150206, Q1 : 0.999998569489, Q2 : -0.000363125669537, Q3 : 0.000612431031186, Q4 : -0.00152839743532}
2019-04-14 17:22:51.81: SIM {TimeUS : 50634738, Roll : -0.04, Pitch : 0.04, Yaw : 359.82, Alt : 44.7400016785, Lat : 49.2835704, Lng : -123.1150206, Q1 : 0.999998629093, Q2 : -0.000410800596001, Q3 : 0.000436482223449, Q4 : -0.00154562515672}
2019-04-14 17:22:51.91: SIM {TimeUS : 50735531, Roll : -0.04, Pitch : 0.02, Yaw : 359.82, Alt : 44.9700012207, Lat : 49.2835704, Lng : -123.1150206, Q1 : 0.999998688698, Q2 : -0.000393268070184, Q3 : 0.000255551480222, Q4 : -0.00156115088612}
2019-04-14 17:22:52.01: SIM {TimeUS : 50835491, Roll : -0.02, Pitch : 0.01, Yaw : 359.81, Alt : 45.2099990845, Lat : 49.2835704, Lng : -123.1150206, Q1 : 0.999998688698, Q2 : -0.000248854892561, Q3 : 0.000133872701554, Q4 : -0.00157719454728}
2019-04-14 17:22:52.11: SIM {TimeUS : 50935451, Roll : -0.01, Pitch : 0.0, Yaw : 359.81, Alt : 45.4500007629, Lat : 49.2835703, Lng : -123.1150206, Q1 : 0.999998688698, Q2 : -0.000149963743752, Q3 : 8.31989600556e-05, Q4 : -0.00160091440193}
2019-04-14 17:22:52.21: SIM {TimeUS : 51035411, Roll : -0.01, Pitch : 0.0, Yaw : 359.81, Alt : 45.6800003052, Lat : 49.2835703, Lng : -123.1150206, Q1 : 0.999998629093, Q2 : -0.000149505445734, Q3 : -3.29014001181e-05, Q4 : -0.00163438974414}
2019-04-14 17:22:52.31: SIM {TimeUS : 51135371, Roll : -0.02, Pitch : -0.02, Yaw : 359.8, Alt : 45.9099998474, Lat : 49.2835703, Lng : -123.1150206, Q1 : 0.999998569489, Q2 : -0.000180660077604, Q3 : -0.000246581446845, Q4 : -0.00167398981284}
2019-04-14 17:22:52.41: SIM {TimeUS : 51235331, Roll : -0.02, Pitch : -0.04, Yaw : 359.8, Alt : 46.1399993896, Lat : 49.2835703, Lng : -123.1150206, Q1 : 0.999998450279, Q2 : -0.000186518445844, Q3 : -0.000376213400159, Q4 : -0.00172034918796}
2019-04-14 17:22:52.51: SIM {TimeUS : 51335291, Roll : -0.01, Pitch : -0.04, Yaw : 359.79, Alt : 46.3699989319, Lat : 49.2835703, Lng : -123.1150206, Q1 : 0.99999833107, Q2 : -0.000158649781952, Q3 : -0.000397256604629, Q4 : -0.00177054153755}
2019-04-14 17:22:52.61: SIM {TimeUS : 51435251, Roll : -0.02, Pitch : -0.03, Yaw : 359.79, Alt : 46.5900001526, Lat : 49.2835703, Lng : -123.1150206, Q1 : 0.999998271465, Q2 : -0.000224892210099, Q3 : -0.000336777855409, Q4 : -0.00181947625242}
2019-04-14 17:22:52.71: SIM {TimeUS : 51535211, Roll : -0.04, Pitch : -0.03, Yaw : 359.78, Alt : 46.8100013733, Lat : 49.2835703, Lng : -123.1150206, Q1 : 0.999998152256, Q2 : -0.000428954663221, Q3 : -0.000279117142782, Q4 : -0.00186575320549}
2019-04-14 17:22:52.81: SIM {TimeUS : 51635171, Roll : -0.08, Pitch : -0.03, Yaw : 359.78, Alt : 47.0200004578, Lat : 49.2835703, Lng : -123.1150206, Q1 : 0.999997854233, Q2 : -0.000732661108486, Q3 : -0.000301039835904, Q4 : -0.00190718634985}
2019-04-14 17:22:52.91: SIM {TimeUS : 51735131, Roll : -0.1, Pitch : -0.04, Yaw : 359.77, Alt : 47.2200012207, Lat : 49.2835703, Lng : -123.1150205, Q1 : 0.999997615814, Q2 : -0.000936453929171, Q3 : -0.000356130563887, Q4 : -0.00194204901345}
2019-04-14 17:22:53.01: SIM {TimeUS : 51835091, Roll : -0.11, Pitch : -0.03, Yaw : 359.77, Alt : 47.4199981689, Lat : 49.2835703, Lng : -123.1150205, Q1 : 0.999997496605, Q2 : -0.000987343955785, Q3 : -0.000310910545522, Q4 : -0.00197347975336}
2019-04-14 17:22:53.11: SIM {TimeUS : 51935051, Roll : -0.1, Pitch : -0.01, Yaw : 359.77, Alt : 47.5999984741, Lat : 49.2835703, Lng : -123.1150205, Q1 : 0.99999755621, Q2 : -0.000913467258215, Q3 : -0.000143359822687, Q4 : -0.00199971650727}
2019-04-14 17:22:53.21: SIM {TimeUS : 52035011, Roll : -0.11, Pitch : -0.02, Yaw : 359.76, Alt : 47.7799987793, Lat : 49.2835703, Lng : -123.1150205, Q1 : 0.999997377396, Q2 : -0.00104724615812, Q3 : -0.000238198743318, Q4 : -0.00202021817677}
2019-04-14 17:22:53.31: SIM {TimeUS : 52134971, Roll : -0.13, Pitch : -0.04, Yaw : 359.76, Alt : 47.9399986267, Lat : 49.2835703, Lng : -123.1150205, Q1 : 0.999997198582, Q2 : -0.00114268390462, Q3 : -0.000385499530239, Q4 : -0.00203635985963}
2019-04-14 17:22:53.41: SIM {TimeUS : 52234931, Roll : -0.12, Pitch : -0.05, Yaw : 359.76, Alt : 48.0900001526, Lat : 49.2835703, Lng : -123.1150206, Q1 : 0.999997138977, Q2 : -0.00113526708446, Q3 : -0.000502972572576, Q4 : -0.00205276254565}
2019-04-14 17:22:53.51: SIM {TimeUS : 52334891, Roll : -0.1, Pitch : -0.07, Yaw : 359.76, Alt : 48.2400016785, Lat : 49.2835703, Lng : -123.1150206, Q1 : 0.999997198582, Q2 : -0.000956320669502, Q3 : -0.000629581860267, Q4 : -0.00207138317637}
2019-04-14 17:22:53.61: SIM {TimeUS : 52434851, Roll : -0.07, Pitch : -0.08, Yaw : 359.76, Alt : 48.3600006104, Lat : 49.2835703, Lng : -123.1150206, Q1 : 0.999997377396, Q2 : -0.000640921818558, Q3 : -0.000711945584044, Q4 : -0.00208791927435}
2019-04-14 17:22:53.71: SIM {TimeUS : 52534811, Roll : -0.04, Pitch : -0.08, Yaw : 359.75, Alt : 48.4799995422, Lat : 49.2835703, Lng : -123.1150206, Q1 : 0.999997437, Q2 : -0.000409188156482, Q3 : -0.000757252739277, Q4 : -0.00210664677434}
2019-04-14 17:22:53.81: SIM {TimeUS : 52634771, Roll : -0.03, Pitch : -0.08, Yaw : 359.75, Alt : 48.5800018311, Lat : 49.2835703, Lng : -123.1150206, Q1 : 0.999997377396, Q2 : -0.00033880295814, Q3 : -0.000758095877245, Q4 : -0.00212399009615}
2019-04-14 17:22:53.91: SIM {TimeUS : 52735564, Roll : 0.0, Pitch : -0.07, Yaw : 359.75, Alt : 48.6800003052, Lat : 49.2835703, Lng : -123.1150206, Q1 : 0.999997496605, Q2 : -8.07319447631e-05, Q3 : -0.000674537906889, Q4 : -0.00214093970135}
2019-04-14 17:22:54.01: SIM {TimeUS : 52835524, Roll : 0.02, Pitch : -0.06, Yaw : 359.75, Alt : 48.7599983215, Lat : 49.2835703, Lng : -123.1150206, Q1 : 0.999997496605, Q2 : 0.000213526378502, Q3 : -0.000544614333194, Q4 : -0.00215859431773}
2019-04-14 17:22:54.11: SIM {TimeUS : 52935484, Roll : 0.05, Pitch : -0.04, Yaw : 359.74, Alt : 48.8300018311, Lat : 49.2835703, Lng : -123.1150206, Q1 : 0.999997437, Q2 : 0.000439681782154, Q3 : -0.000366843130905, Q4 : -0.00218349997886}
2019-04-14 17:22:54.21: SIM {TimeUS : 53035444, Roll : 0.06, Pitch : -0.02, Yaw : 359.74, Alt : 48.8899993896, Lat : 49.2835703, Lng : -123.1150206, Q1 : 0.999997377396, Q2 : 0.000569734489545, Q3 : -0.000204557014513, Q4 : -0.00220865383744}
2019-04-14 17:22:54.31: SIM {TimeUS : 53135404, Roll : 0.07, Pitch : -0.01, Yaw : 359.74, Alt : 48.9399986267, Lat : 49.2835703, Lng : -123.1150207, Q1 : 0.999997317791, Q2 : 0.000612137257122, Q3 : -0.000127184626763, Q4 : -0.00223383586854}
2019-04-14 17:22:54.41: SIM {TimeUS : 53235364, Roll : 0.06, Pitch : -0.02, Yaw : 359.74, Alt : 48.9799995422, Lat : 49.2835703, Lng : -123.1150207, Q1 : 0.999997258186, Q2 : 0.000555063365027, Q3 : -0.000234216742683, Q4 : -0.00226007145829}
2019-04-14 17:22:54.51: SIM {TimeUS : 53335324, Roll : 0.06, Pitch : -0.05, Yaw : 359.73, Alt : 49.0200004578, Lat : 49.2835703, Lng : -123.1150207, Q1 : 0.999997079372, Q2 : 0.000602433807217, Q3 : -0.000440145027824, Q4 : -0.00228744326159}
2019-04-14 17:22:54.61: SIM {TimeUS : 53435284, Roll : 0.2, Pitch : -0.14, Yaw : 359.73, Alt : 49.0600013733, Lat : 49.2835703, Lng : -123.1150207, Q1 : 0.999994874001, Q2 : 0.00179880566429, Q3 : -0.00129365583416, Q4 : -0.00231470004655}
2019-04-14 17:22:54.71: SIM {TimeUS : 53535244, Roll : 0.55, Pitch : -0.38, Yaw : 359.73, Alt : 49.0800018311, Lat : 49.2835703, Lng : -123.1150207, Q1 : 0.999979615211, Q2 : 0.00486662844196, Q3 : -0.00341290584765, Q4 : -0.00233950512484}
2019-04-14 17:22:54.81: SIM {TimeUS : 53635204, Roll : 1.13, Pitch : -0.78, Yaw : 359.72, Alt : 49.1100006104, Lat : 49.2835704, Lng : -123.1150207, Q1 : 0.999924480915, Q2 : 0.00992950890213, Q3 : -0.00684785284102, Q4 : -0.00236119702458}
2019-04-14 17:22:54.91: SIM {TimeUS : 53735164, Roll : 1.92, Pitch : -1.28, Yaw : 359.7, Alt : 49.1300010681, Lat : 49.2835704, Lng : -123.1150206, Q1 : 0.999793589115, Q2 : 0.0167366601527, Q3 : -0.0112787755206, Q4 : -0.00235967291519}
2019-04-14 17:22:55.01: SIM {TimeUS : 53835124, Roll : 2.8, Pitch : -1.86, Yaw : 359.68, Alt : 49.1500015259, Lat : 49.2835704, Lng : -123.1150206, Q1 : 0.999564886093, Q2 : 0.0244256723672, Q3 : -0.0163701176643, Q4 : -0.00231652264483}
2019-04-14 17:22:55.11: SIM {TimeUS : 53935084, Roll : 3.63, Pitch : -2.45, Yaw : 359.66, Alt : 49.1599998474, Lat : 49.2835706, Lng : -123.1150204, Q1 : 0.9992659688, Q2 : 0.0316391400993, Q3 : -0.0214840080589, Q4 : -0.00221964763477}
2019-04-14 17:22:55.21: SIM {TimeUS : 54035044, Roll : 4.29, Pitch : -2.94, Yaw : 359.65, Alt : 49.1800003052, Lat : 49.2835707, Lng : -123.1150202, Q1 : 0.998967766762, Q2 : 0.0373632609844, Q3 : -0.0257519688457, Q4 : -0.00206132489257}
2019-04-14 17:22:55.31: SIM {TimeUS : 54135004, Roll : 4.76, Pitch : -3.31, Yaw : 359.64, Alt : 49.1899986267, Lat : 49.2835708, Lng : -123.11502, Q1 : 0.998716413975, Q2 : 0.0414537601173, Q3 : -0.0290459096432, Q4 : -0.00185548828449}
2019-04-14 17:22:55.41: SIM {TimeUS : 54234964, Roll : 5.1, Pitch : -3.59, Yaw : 359.65, Alt : 49.2000007629, Lat : 49.2835709, Lng : -123.1150196, Q1 : 0.99851411581, Q2 : 0.044445283711, Q3 : -0.031489059329, Q4 : -0.00160210556351}
2019-04-14 17:22:55.51: SIM {TimeUS : 54334924, Roll : 5.4, Pitch : -3.8, Yaw : 359.66, Alt : 49.2099990845, Lat : 49.2835712, Lng : -123.1150192, Q1 : 0.998335897923, Q2 : 0.0470374412835, Q3 : -0.0333350710571, Q4 : -0.00131951610092}
2019-04-14 17:22:55.61: SIM {TimeUS : 54434884, Roll : 5.69, Pitch : -4.01, Yaw : 359.68, Alt : 49.2099990845, Lat : 49.2835715, Lng : -123.1150186, Q1 : 0.998152256012, Q2 : 0.0495795980096, Q3 : -0.0351115874946, Q4 : -0.00103418563958}
2019-04-14 17:22:55.71: SIM {TimeUS : 54534844, Roll : 6.0, Pitch : -4.22, Yaw : 359.69, Alt : 49.2200012207, Lat : 49.2835718, Lng : -123.1150179, Q1 : 0.997948229313, Q2 : 0.05227650702, Q3 : -0.0369587466121, Q4 : -0.000758106238209}
2019-04-14 17:22:55.81: SIM {TimeUS : 54634804, Roll : 6.3, Pitch : -4.42, Yaw : 359.69, Alt : 49.2299995422, Lat : 49.2835721, Lng : -123.1150172, Q1 : 0.997745513916, Q2 : 0.0548230409622, Q3 : -0.0387051925063, Q4 : -0.000494751089718}
2019-04-14 17:22:55.91: SIM {TimeUS : 54734764, Roll : 6.54, Pitch : -4.61, Yaw : 359.7, Alt : 49.2299995422, Lat : 49.2835725, Lng : -123.1150163, Q1 : 0.997565329075, Q2 : 0.0569060482085, Q3 : -0.0403119027615, Q4 : -0.000253011181485}
2019-04-14 17:22:56.01: SIM {TimeUS : 54835557, Roll : 6.72, Pitch : -4.75, Yaw : 359.71, Alt : 49.2400016785, Lat : 49.2835729, Lng : -123.1150154, Q1 : 0.997419476509, Q2 : 0.0585330873728, Q3 : -0.0415730029345, Q4 : -2.58810687228e-05}
2019-04-14 17:22:56.11: SIM {TimeUS : 54935517, Roll : 6.87, Pitch : -4.85, Yaw : 359.72, Alt : 49.2400016785, Lat : 49.2835733, Lng : -123.1150143, Q1 : 0.997308135033, Q2 : 0.0597870498896, Q3 : -0.042449362576, Q4 : 0.000169571721926}
2019-04-14 17:22:56.21: SIM {TimeUS : 55035477, Roll : 6.97, Pitch : -4.91, Yaw : 359.73, Alt : 49.25, Lat : 49.2835739, Lng : -123.1150132, Q1 : 0.997232377529, Q2 : 0.0606721043587, Q3 : -0.042970687151, Q4 : 0.000304034678265}
2019-04-14 17:22:56.31: SIM {TimeUS : 55135437, Roll : 7.08, Pitch : -4.98, Yaw : 359.73, Alt : 49.25, Lat : 49.2835745, Lng : -123.115012, Q1 : 0.997147679329, Q2 : 0.0616532787681, Q3 : -0.0435341335833, Q4 : 0.000380784244044}
2019-04-14 17:22:56.41: SIM {TimeUS : 55235397, Roll : 7.31, Pitch : -4.98, Yaw : 359.79, Alt : 49.2599983215, Lat : 49.2835751, Lng : -123.1150107, Q1 : 0.997021853924, Q2 : 0.0636770501733, Q3 : -0.0434924885631, Q4 : 0.00102502922527}
2019-04-14 17:22:56.51: SIM {TimeUS : 55335357, Roll : 7.78, Pitch : -4.81, Yaw : 0.36, Alt : 49.2599983215, Lat : 49.2835758, Lng : -123.1150093, Q1 : 0.996796607971, Q2 : 0.067997045815, Q3 : -0.0416742935777, Q4 : 0.00601845560595}
2019-04-14 17:22:56.61: SIM {TimeUS : 55435317, Roll : 8.41, Pitch : -4.64, Yaw : 2.1, Alt : 49.2599983215, Lat : 49.2835764, Lng : -123.1150078, Q1 : 0.996265113354, Q2 : 0.0740077272058, Q3 : -0.0390518382192, Q4 : 0.0212998241186}
2019-04-14 17:22:56.71: SIM {TimeUS : 55535277, Roll : 8.9, Pitch : -4.84, Yaw : 5.41, Alt : 49.2599983215, Lat : 49.283577, Lng : -123.1150062, Q1 : 0.994823396206, Q2 : 0.0794652923942, Q3 : -0.0384430736303, Q4 : 0.0503372699022}
2019-04-14 17:22:56.81: SIM {TimeUS : 55635237, Roll : 9.04, Pitch : -5.56, Yaw : 10.25, Alt : 49.2599983215, Lat : 49.2835777, Lng : -123.1150045, Q1 : 0.991382241249, Q2 : 0.0828072875738, Q3 : -0.041167549789, Q4 : 0.0927869305015}
2019-04-14 17:22:56.91: SIM {TimeUS : 55735197, Roll : 8.68, Pitch : -6.76, Yaw : 16.4, Alt : 49.2599983215, Lat : 49.2835785, Lng : -123.1150026, Q1 : 0.984566152096, Q2 : 0.0832056477666, Q3 : -0.047467302531, Q4 : 0.146468997002}
2019-04-14 17:22:57.01: SIM {TimeUS : 55835157, Roll : 7.71, Pitch : -8.27, Yaw : 23.63, Alt : 49.2700004578, Lat : 49.2835793, Lng : -123.1150007, Q1 : 0.973048090935, Q2 : 0.0804677680135, Q3 : -0.0567533932626, Q4 : 0.208521932364}
2019-04-14 17:22:57.11: SIM {TimeUS : 55935117, Roll : 6.15, Pitch : -9.86, Yaw : 31.66, Alt : 49.2700004578, Lat : 49.28358, Lng : -123.1149986, Q1 : 0.955850303173, Q2 : 0.0748634263873, Q3 : -0.0680558755994, Q4 : 0.275887876749}
2019-04-14 17:22:57.21: SIM {TimeUS : 56035077, Roll : 4.04, Pitch : -11.3, Yaw : 40.25, Alt : 49.2700004578, Lat : 49.2835807, Lng : -123.1149965, Q1 : 0.932574033737, Q2 : 0.0668744668365, Q3 : -0.0803660899401, Q4 : 0.345506608486}
2019-04-14 17:22:57.31: SIM {TimeUS : 56135037, Roll : 1.3, Pitch : -12.41, Yaw : 48.98, Alt : 49.2700004578, Lat : 49.2835817, Lng : -123.1149942, Q1 : 0.904112696648, Q2 : 0.0551502890885, Q3 : -0.0936947092414, Q4 : 0.413231194019}
2019-04-14 17:22:57.41: SIM {TimeUS : 56234997, Roll : -1.86, Pitch : -13.0, Yaw : 57.03, Alt : 49.2700004578, Lat : 49.2835824, Lng : -123.1149918, Q1 : 0.873774647713, Q2 : 0.0398387052119, Q3 : -0.107260897756, Q4 : 0.472679495811}
2019-04-14 17:22:57.51: SIM {TimeUS : 56334957, Roll : -4.87, Pitch : -13.09, Yaw : 63.56, Alt : 49.2700004578, Lat : 49.2835835, Lng : -123.1149893, Q1 : 0.846311926842, Q2 : 0.0240824334323, Q3 : -0.119080193341, Q4 : 0.518648266792}
2019-04-14 17:22:57.61: SIM {TimeUS : 56434917, Roll : -7.1, Pitch : -12.87, Yaw : 68.05, Alt : 49.2700004578, Lat : 49.2835844, Lng : -123.1149868, Q1 : 0.825847387314, Q2 : 0.0116068748757, Q3 : -0.127154380083, Q4 : 0.549247860909}
2019-04-14 17:22:57.71: SIM {TimeUS : 56534877, Roll : -8.24, Pitch : -12.63, Yaw : 70.47, Alt : 49.2700004578, Lat : 49.2835856, Lng : -123.1149843, Q1 : 0.814266502857, Q2 : 0.00494233658537, Q3 : -0.130863949656, Q4 : 0.565526604652}
2019-04-14 17:22:57.81: SIM {TimeUS : 56634837, Roll : -8.34, Pitch : -12.57, Yaw : 71.08, Alt : 49.2700004578, Lat : 49.283587, Lng : -123.1149816, Q1 : 0.81129938364, Q2 : 0.00469641759992, Q3 : -0.130923643708, Q4 : 0.569763362408}
2019-04-14 17:22:57.91: SIM {TimeUS : 56734797, Roll : -7.56, Pitch : -12.8, Yaw : 70.22, Alt : 49.2700004578, Lat : 49.2835883, Lng : -123.114979, Q1 : 0.815379679203, Q2 : 0.0103769646958, Q3 : -0.128695756197, Q4 : 0.564345359802}
2019-04-14 17:22:58.01: SIM {TimeUS : 56834757, Roll : -6.17, Pitch : -13.29, Yaw : 68.27, Alt : 49.2799987793, Lat : 49.2835897, Lng : -123.1149763, Q1 : 0.824421167374, Q2 : 0.0206320863217, Q3 : -0.125711128116, Q4 : 0.551453351974}
2019-04-14 17:22:58.11: SIM {TimeUS : 56935550, Roll : -4.4, Pitch : -13.97, Yaw : 65.54, Alt : 49.2799987793, Lat : 49.2835913, Lng : -123.1149735, Q1 : 0.83649879694, Q2 : 0.0337115973234, Q3 : -0.122847989202, Q4 : 0.532955646515}
2019-04-14 17:22:58.21: SIM {TimeUS : 57035510, Roll : -2.49, Pitch : -14.66, Yaw : 62.39, Alt : 49.2799987793, Lat : 49.2835928, Lng : -123.1149706, Q1 : 0.849648654461, Q2 : 0.0476391538978, Q3 : -0.120314307511, Q4 : 0.511226177216}
2019-04-14 17:22:58.31: SIM {TimeUS : 57135470, Roll : -0.6, Pitch : -15.25, Yaw : 59.11, Alt : 49.2799987793, Lat : 49.2835945, Lng : -123.1149677, Q1 : 0.862516343594, Q2 : 0.0608891546726, Q3 : -0.118056789041, Q4 : 0.488283395767}
2019-04-14 17:22:58.41: SIM {TimeUS : 57235430, Roll : 1.06, Pitch : -15.65, Yaw : 56.03, Alt : 49.2799987793, Lat : 49.2835962, Lng : -123.1149646, Q1 : 0.87392783165, Q2 : 0.0721003040671, Q3 : -0.115919701755, Q4 : 0.466491520405}
2019-04-14 17:22:58.51: SIM {TimeUS : 57335390, Roll : 2.38, Pitch : -15.83, Yaw : 53.47, Alt : 49.2799987793, Lat : 49.2835977, Lng : -123.1149614, Q1 : 0.883067667484, Q2 : 0.0803676694632, Q3 : -0.113748043776, Q4 : 0.44810038805}
2019-04-14 17:22:58.61: SIM {TimeUS : 57435350, Roll : 3.24, Pitch : -15.86, Yaw : 51.63, Alt : 49.2799987793, Lat : 49.2835995, Lng : -123.1149581, Q1 : 0.889522433281, Q2 : 0.0853499397635, Q3 : -0.11193395406, Q4 : 0.434667766094}
2019-04-14 17:22:58.71: SIM {TimeUS : 57535310, Roll : 3.63, Pitch : -15.81, Yaw : 50.58, Alt : 49.2799987793, Lat : 49.2836012, Lng : -123.1149546, Q1 : 0.893224060535, Q2 : 0.0871668234468, Q3 : -0.110852897167, Q4 : 0.42692437768}
2019-04-14 17:22:58.81: SIM {TimeUS : 57635270, Roll : 3.57, Pitch : -15.76, Yaw : 50.31, Alt : 49.2799987793, Lat : 49.2836029, Lng : -123.114951, Q1 : 0.894338607788, Q2 : 0.0862235352397, Q3 : -0.110899113119, Q4 : 0.424765110016}
2019-04-14 17:22:58.91: SIM {TimeUS : 57735230, Roll : 3.13, Pitch : -15.76, Yaw : 50.71, Alt : 49.2799987793, Lat : 49.2836044, Lng : -123.1149473, Q1 : 0.893174231052, Q2 : 0.0832158252597, Q3 : -0.112269118428, Q4 : 0.427446603775}
2019-04-14 17:22:59.01: SIM {TimeUS : 57835190, Roll : 2.44, Pitch : -15.83, Yaw : 51.62, Alt : 49.2900009155, Lat : 49.2836062, Lng : -123.1149435, Q1 : 0.890165567398, Q2 : 0.0789938718081, Q3 : -0.114799141884, Q4 : 0.433804571629}
2019-04-14 17:22:59.11: SIM {TimeUS : 57935150, Roll : 1.61, Pitch : -15.98, Yaw : 52.85, Alt : 49.2900009155, Lat : 49.2836079, Lng : -123.1149397, Q1 : 0.885847747326, Q2 : 0.0743319243193, Q3 : -0.11828071624, Q4 : 0.44244581461}
2019-04-14 17:22:59.21: SIM {TimeUS : 58035110, Roll : 0.74, Pitch : -16.15, Yaw : 54.22, Alt : 49.2900009155, Lat : 49.2836097, Lng : -123.1149357, Q1 : 0.880868494511, Q2 : 0.0697281882167, Q3 : -0.122134625912, Q4 : 0.451986581087}
2019-04-14 17:22:59.31: SIM {TimeUS : 58135070, Roll : -0.07, Pitch : -16.31, Yaw : 55.55, Alt : 49.2900009155, Lat : 49.2836114, Lng : -123.1149317, Q1 : 0.87587416172, Q2 : 0.0655331686139, Q3 : -0.125838011503, Q4 : 0.461210012436}
2019-04-14 17:22:59.41: SIM {TimeUS : 58235030, Roll : -0.75, Pitch : -16.41, Yaw : 56.7, Alt : 49.2900009155, Lat : 49.2836132, Lng : -123.1149276, Q1 : 0.87145781517, Q2 : 0.0620628222823, Q3 : -0.1287150383, Q4 : 0.469192802906}
2019-04-14 17:22:59.51: SIM {TimeUS : 58334990, Roll : -1.22, Pitch : -16.45, Yaw : 57.58, Alt : 49.2900009155, Lat : 49.283615, Lng : -123.1149235, Q1 : 0.868037045002, Q2 : 0.059677220881, Q3 : -0.130499139428, Q4 : 0.475310742855}
2019-04-14 17:22:59.61: SIM {TimeUS : 58434950, Roll : -1.48, Pitch : -16.46, Yaw : 58.13, Alt : 49.2900009155, Lat : 49.2836169, Lng : -123.1149193, Q1 : 0.865851223469, Q2 : 0.0583592839539, Q3 : -0.131389051676, Q4 : 0.479200184345}
2019-04-14 17:22:59.71: SIM {TimeUS : 58534910, Roll : -1.52, Pitch : -16.48, Yaw : 58.36, Alt : 49.2900009155, Lat : 49.2836187, Lng : -123.1149151, Q1 : 0.864903926849, Q2 : 0.0583882294595, Q3 : -0.131575480103, Q4 : 0.480853289366}
2019-04-14 17:22:59.81: SIM {TimeUS : 58634870, Roll : -1.36, Pitch : -16.48, Yaw : 58.29, Alt : 49.2900009155, Lat : 49.2836207, Lng : -123.1149108, Q1 : 0.865112006664, Q2 : 0.0595275461674, Q3 : -0.130971327424, Q4 : 0.480504184961}
2019-04-14 17:22:59.91: SIM {TimeUS : 58734830, Roll : -1.08, Pitch : -16.48, Yaw : 57.98, Alt : 49.2900009155, Lat : 49.2836226, Lng : -123.1149065, Q1 : 0.866254687309, Q2 : 0.0613021329045, Q3 : -0.12995262444, Q4 : 0.47849470377}
2019-04-14 17:23:00.01: SIM {TimeUS : 58834790, Roll : -0.75, Pitch : -16.51, Yaw : 57.51, Alt : 49.2900009155, Lat : 49.2836245, Lng : -123.1149021, Q1 : 0.868005633354, Q2 : 0.0634250566363, Q3 : -0.129045575857, Q4 : 0.47527962923}
2019-04-14 17:23:00.11: SIM {TimeUS : 58934750, Roll : -0.4, Pitch : -16.57, Yaw : 56.95, Alt : 49.2900009155, Lat : 49.2836266, Lng : -123.1148977, Q1 : 0.870045661926, Q2 : 0.0656986609101, Q3 : -0.128389626741, Q4 : 0.471402615309}
2019-04-14 17:23:00.21: SIM {TimeUS : 59035543, Roll : -0.06, Pitch : -16.65, Yaw : 56.38, Alt : 49.2900009155, Lat : 49.2836286, Lng : -123.1148932, Q1 : 0.872114658356, Q2 : 0.0679165497422, Q3 : -0.127961590886, Q4 : 0.467364192009}
2019-04-14 17:23:00.31: SIM {TimeUS : 59135503, Roll : 0.21, Pitch : -16.71, Yaw : 55.86, Alt : 49.2900009155, Lat : 49.2836306, Lng : -123.1148887, Q1 : 0.873983860016, Q2 : 0.0697358995676, Q3 : -0.127538055182, Q4 : 0.463705927134}
2019-04-14 17:23:00.41: SIM {TimeUS : 59235463, Roll : 0.43, Pitch : -16.76, Yaw : 55.44, Alt : 49.2900009155, Lat : 49.2836327, Lng : -123.1148842, Q1 : 0.875490009785, Q2 : 0.0711372718215, Q3 : -0.127268493176, Q4 : 0.460716307163}
2019-04-14 17:23:00.51: SIM {TimeUS : 59335423, Roll : 0.57, Pitch : -16.8, Yaw : 55.14, Alt : 49.2900009155, Lat : 49.2836347, Lng : -123.1148796, Q1 : 0.876545906067, Q2 : 0.0720488205552, Q3 : -0.127208292484, Q4 : 0.458578526974}
2019-04-14 17:23:00.61: SIM {TimeUS : 59435383, Roll : 0.64, Pitch : -16.84, Yaw : 54.98, Alt : 49.2900009155, Lat : 49.2836367, Lng : -123.114875, Q1 : 0.877114415169, Q2 : 0.0725258812308, Q3 : -0.127371877432, Q4 : 0.457369416952}
2019-04-14 17:23:00.71: SIM {TimeUS : 59535343, Roll : 0.63, Pitch : -16.87, Yaw : 54.94, Alt : 49.2900009155, Lat : 49.2836389, Lng : -123.1148703, Q1 : 0.877241134644, Q2 : 0.072514615953, Q3 : -0.127653136849, Q4 : 0.457049608231}
2019-04-14 17:23:00.81: SIM {TimeUS : 59635303, Roll : 0.56, Pitch : -16.89, Yaw : 55.01, Alt : 49.2900009155, Lat : 49.2836409, Lng : -123.1148657, Q1 : 0.876982629299, Q2 : 0.0721825435758, Q3 : -0.128059506416, Q4 : 0.457484304905}
2019-04-14 17:23:00.91: SIM {TimeUS : 59735263, Roll : 0.44, Pitch : -16.92, Yaw : 55.16, Alt : 49.2900009155, Lat : 49.283643, Lng : -123.1148609, Q1 : 0.876438736916, Q2 : 0.0715094059706, Q3 : -0.128632038832, Q4 : 0.458470672369}
2019-04-14 17:23:01.01: SIM {TimeUS : 59835223, Roll : 0.29, Pitch : -16.94, Yaw : 55.35, Alt : 49.2999992371, Lat : 49.2836451, Lng : -123.1148562, Q1 : 0.875718832016, Q2 : 0.0706937164068, Q3 : -0.129290014505, Q4 : 0.459785878658}
2019-04-14 17:23:01.11: SIM {TimeUS : 59935183, Roll : 0.14, Pitch : -16.98, Yaw : 55.57, Alt : 49.2999992371, Lat : 49.2836473, Lng : -123.1148514, Q1 : 0.874919950962, Q2 : 0.0699133276939, Q3 : -0.130056217313, Q4 : 0.461207747459}
2019-04-14 17:23:01.21: SIM {TimeUS : 60035143, Roll : 0.0, Pitch : -17.02, Yaw : 55.76, Alt : 49.2999992371, Lat : 49.2836493, Lng : -123.1148465, Q1 : 0.874149918556, Q2 : 0.0692255347967, Q3 : -0.130857422948, Q4 : 0.462543070316}
2019-04-14 17:23:01.31: SIM {TimeUS : 60135103, Roll : -0.13, Pitch : -17.06, Yaw : 55.93, Alt : 49.2999992371, Lat : 49.2836515, Lng : -123.1148417, Q1 : 0.873513519764, Q2 : 0.0685492604971, Q3 : -0.131590127945, Q4 : 0.463636994362}
2019-04-14 17:23:01.41: SIM {TimeUS : 60235063, Roll : -0.24, Pitch : -17.08, Yaw : 56.05, Alt : 49.2999992371, Lat : 49.2836536, Lng : -123.1148368, Q1 : 0.873076021671, Q2 : 0.0679553970695, Q3 : -0.132128551602, Q4 : 0.464394569397}
2019-04-14 17:23:01.51: SIM {TimeUS : 60335023, Roll : -0.3, Pitch : -17.11, Yaw : 56.11, Alt : 49.2999992371, Lat : 49.2836558, Lng : -123.1148319, Q1 : 0.872838020325, Q2 : 0.0676558092237, Q3 : -0.132553264499, Q4 : 0.464764654636}
2019-04-14 17:23:01.61: SIM {TimeUS : 60434983, Roll : -0.31, Pitch : -17.15, Yaw : 56.11, Alt : 49.2999992371, Lat : 49.2836579, Lng : -123.114827, Q1 : 0.87277764082, Q2 : 0.0677749738097, Q3 : -0.13285279274, Q4 : 0.464775115252}
2019-04-14 17:23:01.71: SIM {TimeUS : 60534943, Roll : -0.26, Pitch : -17.19, Yaw : 56.07, Alt : 49.2999992371, Lat : 49.2836602, Lng : -123.114822, Q1 : 0.872882962227, Q2 : 0.0682083517313, Q3 : -0.133024677634, Q4 : 0.464464724064}
2019-04-14 17:23:01.81: SIM {TimeUS : 60634903, Roll : -0.18, Pitch : -17.23, Yaw : 55.99, Alt : 49.2999992371, Lat : 49.2836624, Lng : -123.1148171, Q1 : 0.873117983341, Q2 : 0.0689013302326, Q3 : -0.133060023189, Q4 : 0.463910132647}
2019-04-14 17:23:01.91: SIM {TimeUS : 60734863, Roll : -0.09, Pitch : -17.27, Yaw : 55.88, Alt : 49.3100013733, Lat : 49.2836645, Lng : -123.1148121, Q1 : 0.87344622612, Q2 : 0.0696602240205, Q3 : -0.133027225733, Q4 : 0.463187724352}
2019-04-14 17:23:02.01: SIM {TimeUS : 60834823, Roll : 0.0, Pitch : -17.3, Yaw : 55.77, Alt : 49.3100013733, Lat : 49.2836668, Lng : -123.1148071, Q1 : 0.873830676079, Q2 : 0.0703020915389, Q3 : -0.132988870144, Q4 : 0.462375968695}
2019-04-14 17:23:02.11: SIM {TimeUS : 60934783, Roll : 0.05, Pitch : -17.32, Yaw : 55.65, Alt : 49.3100013733, Lat : 49.2836689, Lng : -123.1148021, Q1 : 0.874228298664, Q2 : 0.0707295835018, Q3 : -0.132991537452, Q4 : 0.461557686329}
2019-04-14 17:23:02.21: SIM {TimeUS : 61034743, Roll : 0.08, Pitch : -17.33, Yaw : 55.55, Alt : 49.3100013733, Lat : 49.2836712, Lng : -123.114797, Q1 : 0.87461233139, Q2 : 0.0709005966783, Q3 : -0.132964670658, Q4 : 0.460811078548}
2019-04-14 17:23:02.31: SIM {TimeUS : 61135536, Roll : 0.12, Pitch : -17.33, Yaw : 55.46, Alt : 49.3100013733, Lat : 49.2836735, Lng : -123.1147919, Q1 : 0.874926686287, Q2 : 0.0710939839482, Q3 : -0.132847264409, Q4 : 0.460218012333}
2019-04-14 17:23:02.41: SIM {TimeUS : 61235496, Roll : 0.15, Pitch : -17.33, Yaw : 55.41, Alt : 49.3100013733, Lat : 49.2836758, Lng : -123.1147869, Q1 : 0.875138044357, Q2 : 0.0713027045131, Q3 : -0.132814601064, Q4 : 0.459793031216}
2019-04-14 17:23:02.51: SIM {TimeUS : 61335456, Roll : 0.19, Pitch : -17.37, Yaw : 55.37, Alt : 49.3100013733, Lat : 49.2836779, Lng : -123.1147818, Q1 : 0.875218570232, Q2 : 0.0716626122594, Q3 : -0.132992744446, Q4 : 0.459532260895}
2019-04-14 17:23:02.61: SIM {TimeUS : 61435416, Roll : 0.21, Pitch : -17.44, Yaw : 55.35, Alt : 49.3100013733, Lat : 49.2836803, Lng : -123.1147767, Q1 : 0.875192940235, Q2 : 0.0720646828413, Q3 : -0.133396089077, Q4 : 0.459401249886}
2019-04-14 17:23:02.71: SIM {TimeUS : 61535376, Roll : 0.21, Pitch : -17.47, Yaw : 55.35, Alt : 49.3100013733, Lat : 49.2836826, Lng : -123.1147715, Q1 : 0.875150203705, Q2 : 0.0721751302481, Q3 : -0.133692353964, Q4 : 0.459379196167}
2019-04-14 17:23:02.81: SIM {TimeUS : 61635336, Roll : 0.19, Pitch : -17.47, Yaw : 55.37, Alt : 49.3100013733, Lat : 49.2836849, Lng : -123.1147664, Q1 : 0.875107467175, Q2 : 0.072070248425, Q3 : -0.133771508932, Q4 : 0.459453999996}
2019-04-14 17:23:02.91: SIM {TimeUS : 61735296, Roll : 0.16, Pitch : -17.48, Yaw : 55.39, Alt : 49.3100013733, Lat : 49.2836871, Lng : -123.1147612, Q1 : 0.875040173531, Q2 : 0.0718948617578, Q3 : -0.133881464601, Q4 : 0.459577649832}
2019-04-14 17:23:03.01: SIM {TimeUS : 61835256, Roll : 0.11, Pitch : -17.49, Yaw : 55.41, Alt : 49.3199996948, Lat : 49.2836894, Lng : -123.1147561, Q1 : 0.874959290028, Q2 : 0.0716286152601, Q3 : -0.134191796184, Q4 : 0.459682673216}
2019-04-14 17:23:03.11: SIM {TimeUS : 61935216, Roll : 0.08, Pitch : -17.51, Yaw : 55.43, Alt : 49.3199996948, Lat : 49.2836917, Lng : -123.1147509, Q1 : 0.874876320362, Q2 : 0.071479216218, Q3 : -0.134466931224, Q4 : 0.459783434868}
2019-04-14 17:23:03.21: SIM {TimeUS : 62035176, Roll : 0.05, Pitch : -17.54, Yaw : 55.44, Alt : 49.3199996948, Lat : 49.2836939, Lng : -123.1147457, Q1 : 0.874817550182, Q2 : 0.071383588016, Q3 : -0.134739860892, Q4 : 0.459830194712}
2019-04-14 17:23:03.31: SIM {TimeUS : 62135136, Roll : 0.04, Pitch : -17.56, Yaw : 55.44, Alt : 49.3199996948, Lat : 49.2836963, Lng : -123.1147405, Q1 : 0.874789059162, Q2 : 0.0713560655713, Q3 : -0.134964674711, Q4 : 0.459822684526}
2019-04-14 17:23:03.41: SIM {TimeUS : 62235096, Roll : 0.04, Pitch : -17.58, Yaw : 55.44, Alt : 49.3199996948, Lat : 49.2836986, Lng : -123.1147352, Q1 : 0.874786496162, Q2 : 0.0714548528194, Q3 : -0.135142460465, Q4 : 0.459760040045}
2019-04-14 17:23:03.51: SIM {TimeUS : 62335056, Roll : 0.06, Pitch : -17.6, Yaw : 55.42, Alt : 49.3199996948, Lat : 49.283701, Lng : -123.11473, Q1 : 0.874817311764, Q2 : 0.0716418847442, Q3 : -0.135204210877, Q4 : 0.459654182196}
2019-04-14 17:23:03.61: SIM {TimeUS : 62435016, Roll : 0.09, Pitch : -17.62, Yaw : 55.4, Alt : 49.3199996948, Lat : 49.2837033, Lng : -123.1147248, Q1 : 0.874856948853, Q2 : 0.0719614177942, Q3 : -0.135211452842, Q4 : 0.459526658058}
2019-04-14 17:23:03.71: SIM {TimeUS : 62534976, Roll : 0.13, Pitch : -17.64, Yaw : 55.38, Alt : 49.3199996948, Lat : 49.2837057, Lng : -123.1147195, Q1 : 0.874908685684, Q2 : 0.0723140090704, Q3 : -0.135271370411, Q4 : 0.459355145693}
2019-04-14 17:23:03.81: SIM {TimeUS : 62634936, Roll : 0.14, Pitch : -17.68, Yaw : 55.35, Alt : 49.3199996948, Lat : 49.283708, Lng : -123.1147142, Q1 : 0.87497740984, Q2 : 0.0725178569555, Q3 : -0.135521873832, Q4 : 0.459118187428}
2019-04-14 17:23:03.91: SIM {TimeUS : 62734896, Roll : 0.14, Pitch : -17.72, Yaw : 55.32, Alt : 49.3199996948, Lat : 49.2837102, Lng : -123.114709, Q1 : 0.87505209446, Q2 : 0.0726321339607, Q3 : -0.135847091675, Q4 : 0.458861619234}
2019-04-14 17:23:04.01: SIM {TimeUS : 62834856, Roll : 0.13, Pitch : -17.76, Yaw : 55.29, Alt : 49.3199996948, Lat : 49.2837126, Lng : -123.1147037, Q1 : 0.875126600266, Q2 : 0.0726925730705, Q3 : -0.136229217052, Q4 : 0.458596646786}
2019-04-14 17:23:04.11: SIM {TimeUS : 62934816, Roll : 0.14, Pitch : -17.79, Yaw : 55.26, Alt : 49.3199996948, Lat : 49.283715, Lng : -123.1146984, Q1 : 0.875199973583, Q2 : 0.0728176310658, Q3 : -0.136443063617, Q4 : 0.458373129368}
2019-04-14 17:23:04.21: SIM {TimeUS : 63034776, Roll : 0.15, Pitch : -17.79, Yaw : 55.23, Alt : 49.3199996948, Lat : 49.2837174, Lng : -123.1146931, Q1 : 0.87528860569, Q2 : 0.0729118734598, Q3 : -0.136444509029, Q4 : 0.458188354969}
2019-04-14 17:23:04.31: SIM {TimeUS : 63134736, Roll : 0.16, Pitch : -17.78, Yaw : 55.21, Alt : 49.3199996948, Lat : 49.2837198, Lng : -123.1146877, Q1 : 0.875389397144, Q2 : 0.0729162245989, Q3 : -0.136272192001, Q4 : 0.458046406507}
2019-04-14 17:23:04.41: SIM {TimeUS : 63235529, Roll : 0.16, Pitch : -17.75, Yaw : 55.19, Alt : 49.3199996948, Lat : 49.2837222, Lng : -123.1146824, Q1 : 0.875482439995, Q2 : 0.0727813690901, Q3 : -0.13609701395, Q4 : 0.457942098379}
2019-04-14 17:23:04.51: SIM {TimeUS : 63335489, Roll : 0.15, Pitch : -17.72, Yaw : 55.18, Alt : 49.3199996948, Lat : 49.2837245, Lng : -123.114677, Q1 : 0.875564515591, Q2 : 0.0725812166929, Q3 : -0.135940805078, Q4 : 0.457863360643}
2019-04-14 17:23:04.61: SIM {TimeUS : 63435449, Roll : 0.15, Pitch : -17.71, Yaw : 55.18, Alt : 49.3300018311, Lat : 49.2837269, Lng : -123.1146717, Q1 : 0.875605285168, Q2 : 0.0724848434329, Q3 : -0.135900571942, Q4 : 0.457812637091}
2019-04-14 17:23:04.71: SIM {TimeUS : 63535409, Roll : 0.14, Pitch : -17.73, Yaw : 55.17, Alt : 49.3300018311, Lat : 49.2837293, Lng : -123.1146663, Q1 : 0.875606477261, Q2 : 0.0725103393197, Q3 : -0.136034294963, Q4 : 0.4577665627}
2019-04-14 17:23:04.81: SIM {TimeUS : 63635369, Roll : 0.15, Pitch : -17.76, Yaw : 55.17, Alt : 49.3300018311, Lat : 49.2837317, Lng : -123.1146609, Q1 : 0.875588297844, Q2 : 0.0726472809911, Q3 : -0.136216282845, Q4 : 0.457725554705}
2019-04-14 17:23:04.91: SIM {TimeUS : 63735329, Roll : 0.14, Pitch : -17.8, Yaw : 55.16, Alt : 49.3300018311, Lat : 49.283734, Lng : -123.1146555, Q1 : 0.875554323196, Q2 : 0.0727758184075, Q3 : -0.136600077152, Q4 : 0.457655727863}
2019-04-14 17:23:05.01: SIM {TimeUS : 63835289, Roll : 0.13, Pitch : -17.86, Yaw : 55.16, Alt : 49.3300018311, Lat : 49.2837364, Lng : -123.1146502, Q1 : 0.875516355038, Q2 : 0.0729306936264, Q3 : -0.137039214373, Q4 : 0.45757240057}
2019-04-14 17:23:05.11: SIM {TimeUS : 63935249, Roll : 0.13, Pitch : -17.89, Yaw : 55.15, Alt : 49.3300018311, Lat : 49.2837388, Lng : -123.1146448, Q1 : 0.875506520271, Q2 : 0.0730439946055, Q3 : -0.137338906527, Q4 : 0.457483351231}
2019-04-14 17:23:05.21: SIM {TimeUS : 64035209, Roll : 0.12, Pitch : -17.92, Yaw : 55.14, Alt : 49.3300018311, Lat : 49.2837412, Lng : -123.1146394, Q1 : 0.875517189503, Q2 : 0.073073849082, Q3 : -0.137611418962, Q4 : 0.457376152277}
2019-04-14 17:23:05.31: SIM {TimeUS : 64135169, Roll : 0.11, Pitch : -17.94, Yaw : 55.13, Alt : 49.3300018311, Lat : 49.2837436, Lng : -123.114634, Q1 : 0.875545501709, Q2 : 0.0730830729008, Q3 : -0.137790501118, Q4 : 0.45726659894}
2019-04-14 17:23:05.41: SIM {TimeUS : 64235129, Roll : 0.13, Pitch : -17.93, Yaw : 55.12, Alt : 49.3300018311, Lat : 49.283746, Lng : -123.1146286, Q1 : 0.875598013401, Q2 : 0.073175214231, Q3 : -0.137659788132, Q4 : 0.457190662622}
2019-04-14 17:23:05.51: SIM {TimeUS : 64335089, Roll : 0.16, Pitch : -17.93, Yaw : 55.1, Alt : 49.3300018311, Lat : 49.2837484, Lng : -123.1146231, Q1 : 0.875641942024, Q2 : 0.073392957449, Q3 : -0.137566938996, Q4 : 0.457099586725}
2019-04-14 17:23:05.61: SIM {TimeUS : 64435049, Roll : 0.18, Pitch : -17.95, Yaw : 55.08, Alt : 49.3300018311, Lat : 49.2837509, Lng : -123.1146177, Q1 : 0.875687003136, Q2 : 0.0735304951668, Q3 : -0.137605845928, Q4 : 0.456979483366}
2019-04-14 17:23:05.71: SIM {TimeUS : 64535009, Roll : 0.19, Pitch : -17.95, Yaw : 55.06, Alt : 49.3300018311, Lat : 49.2837533, Lng : -123.1146123, Q1 : 0.87573570013, Q2 : 0.0736611187458, Q3 : -0.137624412775, Q4 : 0.456859439611}
2019-04-14 17:23:05.81: SIM {TimeUS : 64634969, Roll : 0.2, Pitch : -17.95, Yaw : 55.05, Alt : 49.3300018311, Lat : 49.2837557, Lng : -123.1146069, Q1 : 0.875795304775, Q2 : 0.0737243071198, Q3 : -0.137557059526, Q4 : 0.456755310297}
2019-04-14 17:23:05.91: SIM {TimeUS : 64734929, Roll : 0.21, Pitch : -17.95, Yaw : 55.03, Alt : 49.3300018311, Lat : 49.2837582, Lng : -123.1146014, Q1 : 0.8758507967, Q2 : 0.0737491622567, Q3 : -0.137526705861, Q4 : 0.456654042006}
2019-04-14 17:23:06.01: SIM {TimeUS : 64834889, Roll : 0.19, Pitch : -17.97, Yaw : 55.02, Alt : 49.3400001526, Lat : 49.2837606, Lng : -123.114596, Q1 : 0.875890016556, Q2 : 0.0736751109362, Q3 : -0.137723937631, Q4 : 0.456531256437}
2019-04-14 17:23:06.11: SIM {TimeUS : 64934849, Roll : 0.16, Pitch : -18.0, Yaw : 55.01, Alt : 49.3400001526, Lat : 49.283763, Lng : -123.1145905, Q1 : 0.875904202461, Q2 : 0.0735714435577, Q3 : -0.138117283583, Q4 : 0.456401884556}
2019-04-14 17:23:06.21: SIM {TimeUS : 65034809, Roll : 0.14, Pitch : -18.0, Yaw : 55.01, Alt : 49.3400001526, Lat : 49.2837655, Lng : -123.114585, Q1 : 0.875942587852, Q2 : 0.0733882263303, Q3 : -0.138247445226, Q4 : 0.456318289042}
2019-04-14 17:23:06.31: SIM {TimeUS : 65134769, Roll : 0.14, Pitch : -17.99, Yaw : 55.0, Alt : 49.3400001526, Lat : 49.2837679, Lng : -123.1145796, Q1 : 0.875978767872, Q2 : 0.0733596682549, Q3 : -0.138120755553, Q4 : 0.456291824579}
2019-04-14 17:23:06.41: SIM {TimeUS : 65235562, Roll : 0.16, Pitch : -17.98, Yaw : 55.0, Alt : 49.3400001526, Lat : 49.2837703, Lng : -123.114574, Q1 : 0.876004576683, Q2 : 0.0734387561679, Q3 : -0.137958645821, Q4 : 0.45627862215}
2019-04-14 17:23:06.51: SIM {TimeUS : 65335522, Roll : 0.17, Pitch : -17.98, Yaw : 54.99, Alt : 49.3400001526, Lat : 49.2837728, Lng : -123.1145686, Q1 : 0.876016736031, Q2 : 0.0735368728638, Q3 : -0.137968376279, Q4 : 0.456236541271}
2019-04-14 17:23:06.61: SIM {TimeUS : 65435482, Roll : 0.16, Pitch : -18.0, Yaw : 54.98, Alt : 49.3400001526, Lat : 49.2837752, Lng : -123.1145631, Q1 : 0.87603443861, Q2 : 0.0735121592879, Q3 : -0.138129815459, Q4 : 0.456157654524}
2019-04-14 17:23:06.71: SIM {TimeUS : 65535442, Roll : 0.14, Pitch : -18.02, Yaw : 54.97, Alt : 49.3400001526, Lat : 49.2837776, Lng : -123.1145576, Q1 : 0.876055538654, Q2 : 0.0733993947506, Q3 : -0.138410523534, Q4 : 0.456050187349}
2019-04-14 17:23:06.81: SIM {TimeUS : 65635402, Roll : 0.13, Pitch : -18.05, Yaw : 54.96, Alt : 49.3400001526, Lat : 49.2837801, Lng : -123.1145521, Q1 : 0.87607228756, Q2 : 0.073403455317, Q3 : -0.13863748312, Q4 : 0.455948442221}
2019-04-14 17:23:06.91: SIM {TimeUS : 65735362, Roll : 0.14, Pitch : -18.07, Yaw : 54.95, Alt : 49.3400001526, Lat : 49.2837825, Lng : -123.1145466, Q1 : 0.876077353954, Q2 : 0.0735768154263, Q3 : -0.138799056411, Q4 : 0.455861508846}
2019-04-14 17:23:07.01: SIM {TimeUS : 65835322, Roll : 0.15, Pitch : -18.09, Yaw : 54.94, Alt : 49.3400001526, Lat : 49.2837849, Lng : -123.1145411, Q1 : 0.876082479954, Q2 : 0.0737677440047, Q3 : -0.138921886683, Q4 : 0.455783396959}
2019-04-14 17:23:07.11: SIM {TimeUS : 65935282, Roll : 0.17, Pitch : -18.11, Yaw : 54.93, Alt : 49.3400001526, Lat : 49.2837874, Lng : -123.1145356, Q1 : 0.876097619534, Q2 : 0.0739477500319, Q3 : -0.138938426971, Q4 : 0.455720126629}
2019-04-14 17:23:07.21: SIM {TimeUS : 66035242, Roll : 0.18, Pitch : -18.12, Yaw : 54.92, Alt : 49.3400001526, Lat : 49.2837899, Lng : -123.1145301, Q1 : 0.876112580299, Q2 : 0.0740812271833, Q3 : -0.138994276524, Q4 : 0.455652564764}
2019-04-14 17:23:07.31: SIM {TimeUS : 66135202, Roll : 0.2, Pitch : -18.13, Yaw : 54.91, Alt : 49.3499984741, Lat : 49.2837923, Lng : -123.1145246, Q1 : 0.876125276089, Q2 : 0.0742210000753, Q3 : -0.139050647616, Q4 : 0.455588281155}
