2019-04-14 17:37:27.60: SIM {TimeUS : 40216407, Roll : 0.0, Pitch : 0.0, Yaw : 0.0, Alt : 30.1000003815, Lat : 49.28357, Lng : -123.11502, Q1 : 1.0, Q2 : 0.0, Q3 : 0.0, Q4 : 0.0}
2019-04-14 17:37:27.71: SIM {TimeUS : 40335526, Roll : 0.0, Pitch : 0.0, Yaw : 0.0, Alt : 30.1000003815, Lat : 49.28357, Lng : -123.11502, Q1 : 1.0, Q2 : 0.0, Q3 : 0.0, Q4 : 0.0}
2019-04-14 17:37:27.81: SIM {TimeUS : 40435486, Roll : 0.0, Pitch : 0.0, Yaw : 0.0, Alt : 30.1000003815, Lat : 49.28357, Lng : -123.11502, Q1 : 1.0, Q2 : 0.0, Q3 : 0.0, Q4 : 0.0}
2019-04-14 17:37:27.91: SIM {TimeUS : 40535446, Roll : 0.0, Pitch : 0.0, Yaw : 0.0, Alt : 30.1000003815, Lat : 49.28357, Lng : -123.11502, Q1 : 1.0, Q2 : 0.0, Q3 : 0.0, Q4 : 0.0}
2019-04-14 17:37:28.01: SIM {TimeUS : 40635406, Roll : 0.0, Pitch : 0.0, Yaw : 0.0, Alt : 30.1000003815, Lat : 49.28357, Lng : -123.11502, Q1 : 1.0, Q2 : 0.0, Q3 : 0.0, Q4 : 0.0}
2019-04-14 17:37:28.11: SIM {TimeUS : 40735366, Roll : 0.0, Pitch : 0.0, Yaw : 0.0, Alt : 30.1000003815, Lat : 49.28357, Lng : -123.11502, Q1 : 1.0, Q2 : 0.0, Q3 : 0.0, Q4 : 0.0}
2019-04-14 17:37:28.21: SIM {TimeUS : 40835326, Roll : 0.0, Pitch : 0.0, Yaw : 0.0, Alt : 30.1000003815, Lat : 49.28357, Lng : -123.11502, Q1 : 1.0, Q2 : 0.0, Q3 : 0.0, Q4 : 0.0}
2019-04-14 17:37:28.31: SIM {TimeUS : 40935286, Roll : 0.0, Pitch : 0.0, Yaw : 0.0, Alt : 30.1000003815, Lat : 49.28357, Lng : -123.11502, Q1 : 1.0, Q2 : 0.0, Q3 : 0.0, Q4 : 0.0}
2019-04-14 17:37:28.41: SIM {TimeUS : 41035246, Roll : 0.0, Pitch : 0.0, Yaw : 0.0, Alt : 30.1000003815, Lat : 49.28357, Lng : -123.11502, Q1 : 1.0, Q2 : 0.0, Q3 : 0.0, Q4 : 0.0}
2019-04-14 17:37:28.51: SIM {TimeUS : 41135206, Roll : 0.0, Pitch : 0.0, Yaw : 0.0, Alt : 30.1000003815, Lat : 49.28357, Lng : -123.11502, Q1 : 1.0, Q2 : 0.0, Q3 : 0.0, Q4 : 0.0}
2019-04-14 17:37:28.61: SIM {TimeUS : 41235166, Roll : 0.0, Pitch : 0.0, Yaw : 0.0, Alt : 30.1000003815, Lat : 49.28357, Lng : -123.11502, Q1 : 1.0, Q2 : 0.0, Q3 : 0.0, Q4 : 0.0}
2019-04-14 17:37:28.71: SIM {TimeUS : 41335126, Roll : 0.0, Pitch : 0.0, Yaw : 0.0, Alt : 30.1000003815, Lat : 49.28357, Lng : -123.11502, Q1 : 1.0, Q2 : 0.0, Q3 : 0.0, Q4 : 0.0}
2019-04-14 17:37:28.81: SIM {TimeUS : 41435086, Roll : 0.0, Pitch : 0.0, Yaw : 0.0, Alt : 30.1000003815, Lat : 49.28357, Lng : -123.11502, Q1 : 1.0, Q2 : 0.0, Q3 : 0.0, Q4 : 0.0}
2019-04-14 17:37:28.91: SIM {TimeUS : 41535046, Roll : 0.0, Pitch : 0.0, Yaw : 0.0, Alt : 30.1000003815, Lat : 49.28357, Lng : -123.11502, Q1 : 1.0, Q2 : 0.0, Q3 : 0.0, Q4 : 0.0}
2019-04-14 17:37:29.01: SIM {TimeUS : 41635006, Roll : 0.0, Pitch : 0.0, Yaw : 0.0, Alt : 30.1000003815, Lat : 49.28357, Lng : -123.11502, Q1 : 1.0, Q2 : 0.0, Q3 : 0.0, Q4 : 0.0}
2019-04-14 17:37:29.11: SIM {TimeUS : 41734966, Roll : 0.0, Pitch : 0.0, Yaw : 0.0, Alt : 30.1000003815, Lat : 49.28357, Lng : -123.11502, Q1 : 1.0, Q2 : 0.0, Q3 : 0.0, Q4 : 0.0}
2019-04-14 17:37:29.21: SIM {TimeUS : 41834926, Roll : 0.0, Pitch : 0.0, Yaw : 0.0, Alt : 30.1000003815, Lat : 49.28357, Lng : -123.11502, Q1 : 1.0, Q2 : 0.0, Q3 : 0.0, Q4 : 0.0}
2019-04-14 17:37:29.31: SIM {TimeUS : 41934886, Roll : 0.0, Pitch : 0.0, Yaw : 0.0, Alt : 30.1000003815, Lat : 49.28357, Lng : -123.11502, Q1 : 1.0, Q2 : 0.0, Q3 : 0.0, Q4 : 0.0}
2019-04-14 17:37:29.41: SIM {TimeUS : 42034846, Roll : 0.0, Pitch : 0.0, Yaw : 0.0, Alt : 30.1000003815, Lat : 49.28357, Lng : -123.11502, Q1 : 1.0, Q2 : 0.0, Q3 : 0.0, Q4 : 0.0}
2019-04-14 17:37:29.51: SIM {TimeUS : 42134806, Roll : 0.0, Pitch : 0.0, Yaw : 0.0, Alt : 30.1000003815, Lat : 49.28357, Lng : -123.11502, Q1 : 1.0, Q2 : 0.0, Q3 : 0.0, Q4 : 0.0}
2019-04-14 17:37:29.61: SIM {TimeUS : 42234766, Roll : 0.0, Pitch : 0.0, Yaw : 0.0, Alt : 30.1000003815, Lat : 49.28357, Lng : -123.11502, Q1 : 1.0, Q2 : 0.0, Q3 : 0.0, Q4 : 0.0}
2019-04-14 17:37:29.71: SIM {TimeUS : 42335559, Roll : 0.0, Pitch : 0.0, Yaw : 0.0, Alt : 30.1000003815, Lat : 49.28357, Lng : -123.11502, Q1 : 1.0, Q2 : 0.0, Q3 : 0.0, Q4 : 0.0}
2019-04-14 17:37:29.81: SIM {TimeUS : 42435519, Roll : 0.0, Pitch : 0.0, Yaw : 0.0, Alt : 30.1000003815, Lat : 49.28357, Lng : -123.11502, Q1 : 1.0, Q2 : 0.0, Q3 : 0.0, Q4 : 0.0}
2019-04-14 17:37:29.91: SIM {TimeUS : 42535479, Roll : 0.0, Pitch : 0.0, Yaw : 360.0, Alt : 30.1000003815, Lat : 49.28357, Lng : -123.11502, Q1 : 1.0, Q2 : 0.0, Q3 : 0.0, Q4 : -1.4079991513e-12}
2019-04-14 17:37:30.01: SIM {TimeUS : 42635439, Roll : 0.0, Pitch : 0.0, Yaw : 0.0, Alt : 30.1000003815, Lat : 49.28357, Lng : -123.11502, Q1 : 1.0, Q2 : 0.0, Q3 : 0.0, Q4 : 2.27504577677e-11}
2019-04-14 17:37:30.11: SIM {TimeUS : 42735399, Roll : 0.0, Pitch : 0.0, Yaw : 360.0, Alt : 30.1000003815, Lat : 49.28357, Lng : -123.11502, Q1 : 1.0, Q2 : 0.0, Q3 : 0.0, Q4 : -1.51769285139e-07}
2019-04-14 17:37:30.21: SIM {TimeUS : 42835359, Roll : 0.0, Pitch : 0.0, Yaw : 359.99, Alt : 30.1000003815, Lat : 49.28357, Lng : -123.11502, Q1 : 1.0, Q2 : 0.0, Q3 : 0.0, Q4 : -3.19486787248e-07}
2019-04-14 17:37:30.31: SIM {TimeUS : 42935319, Roll : 0.0, Pitch : 0.0, Yaw : 359.99, Alt : 30.1000003815, Lat : 49.28357, Lng : -123.11502, Q1 : 1.0, Q2 : 0.0, Q3 : 0.0, Q4 : -5.3840341252e-07}
2019-04-14 17:37:30.41: SIM {TimeUS : 43035279, Roll : 0.0, Pitch : 0.0, Yaw : 359.99, Alt : 30.1000003815, Lat : 49.28357, Lng : -123.11502, Q1 : 1.0, Q2 : 0.0, Q3 : 0.0, Q4 : -7.1894589837e-07}
2019-04-14 17:37:30.51: SIM {TimeUS : 43135239, Roll : 0.0, Pitch : 0.0, Yaw : 359.99, Alt : 30.1000003815, Lat : 49.28357, Lng : -123.11502, Q1 : 1.0, Q2 : 0.0, Q3 : 0.0, Q4 : -9.28150143409e-07}
2019-04-14 17:37:30.61: SIM {TimeUS : 43235199, Roll : 0.0, Pitch : 0.0, Yaw : 359.99, Alt : 30.1000003815, Lat : 49.28357, Lng : -123.11502, Q1 : 1.0, Q2 : 0.0, Q3 : 0.0, Q4 : -1.12912380246e-06}
2019-04-14 17:37:30.71: SIM {TimeUS : 43335159, Roll : 0.0, Pitch : 0.0, Yaw : 359.99, Alt : 30.1000003815, Lat : 49.28357, Lng : -123.11502, Q1 : 1.0, Q2 : 0.0, Q3 : 0.0, Q4 : -1.31314436658e-06}
2019-04-14 17:37:30.81: SIM {TimeUS : 43435119, Roll : 0.0, Pitch : 0.0, Yaw : 359.99, Alt : 30.1100006104, Lat : 49.28357, Lng : -123.11502, Q1 : 1.0, Q2 : 0.0, Q3 : 0.0, Q4 : -1.50896858031e-06}
2019-04-14 17:37:30.91: SIM {TimeUS : 43535079, Roll : 0.0, Pitch : 0.0, Yaw : 359.99, Alt : 30.1399993896, Lat : 49.28357, Lng : -123.11502, Q1 : 1.0, Q2 : 0.0, Q3 : 0.0, Q4 : -1.71556064288e-06}
2019-04-14 17:37:31.01: SIM {TimeUS : 43635039, Roll : 0.0, Pitch : 0.0, Yaw : 359.99, Alt : 30.1599998474, Lat : 49.28357, Lng : -123.11502, Q1 : 1.0, Q2 : 0.0, Q3 : 0.0, Q4 : -1.98239013116e-06}
2019-04-14 17:37:31.11: SIM {TimeUS : 43734999, Roll : 0.0, Pitch : 0.0, Yaw : 359.99, Alt : 30.2000007629, Lat : 49.28357, Lng : -123.11502, Q1 : 1.0, Q2 : 0.0, Q3 : 0.0, Q4 : -2.21721143134e-06}
2019-04-14 17:37:31.21: SIM {TimeUS : 43834959, Roll : -0.1, Pitch : -0.08, Yaw : 359.99, Alt : 30.25, Lat : 49.28357, Lng : -123.11502, Q1 : 0.999999284744, Q2 : -0.000912581046578, Q3 : -0.000736632093322, Q4 : -8.90277988219e-06}
2019-04-14 17:37:31.31: SIM {TimeUS : 43934919, Roll : -0.4, Pitch : -0.33, Yaw : 359.99, Alt : 30.3400001526, Lat : 49.28357, Lng : -123.11502, Q1 : 0.999989330769, Q2 : -0.00357799394988, Q3 : -0.00292596663348, Q4 : -4.22274424636e-05}
2019-04-14 17:37:31.41: SIM {TimeUS : 44034879, Roll : -0.69, Pitch : -0.59, Yaw : 359.99, Alt : 30.4899997711, Lat : 49.28357, Lng : -123.11502, Q1 : 0.99996817112, Q2 : -0.00607418408617, Q3 : -0.00516585819423, Q4 : -0.000104244609247}
2019-04-14 17:37:31.51: SIM {TimeUS : 44134839, Roll : -0.84, Pitch : -0.74, Yaw : 359.98, Alt : 30.6499996185, Lat : 49.28357, Lng : -123.11502, Q1 : 0.999951899052, Q2 : -0.00737263914198, Q3 : -0.00646782666445, Q4 : -0.000187114768778}
2019-04-14 17:37:31.61: SIM {TimeUS : 44234799, Roll : -0.84, Pitch : -0.75, Yaw : 359.97, Alt : 30.7999992371, Lat : 49.28357, Lng : -123.11502, Q1 : 0.999951303005, Q2 : -0.00734357722104, Q3 : -0.00658105127513, Q4 : -0.000282093184069}
2019-04-14 17:37:31.71: SIM {TimeUS : 44334759, Roll : -0.7, Pitch : -0.63, Yaw : 359.96, Alt : 30.9599990845, Lat : 49.28357, Lng : -123.1150201, Q1 : 0.999965369701, Q2 : -0.00616291025653, Q3 : -0.00557909626514, Q4 : -0.000374497147277}
2019-04-14 17:37:31.81: SIM {TimeUS : 44435552, Roll : -0.47, Pitch : -0.46, Yaw : 359.94, Alt : 31.1100006104, Lat : 49.2835701, Lng : -123.1150202, Q1 : 0.99998319149, Q2 : -0.00411654124036, Q3 : -0.00405313447118, Q4 : -0.000455635978142}
2019-04-14 17:37:31.91: SIM {TimeUS : 44535512, Roll : -0.23, Pitch : -0.26, Yaw : 359.94, Alt : 31.2700004578, Lat : 49.2835701, Lng : -123.1150203, Q1 : 0.999995112419, Q2 : -0.00203181034885, Q3 : -0.00231250445358, Q4 : -0.000518368906341}
2019-04-14 17:37:32.01: SIM {TimeUS : 44635472, Roll : -0.06, Pitch : -0.08, Yaw : 359.93, Alt : 31.4400005341, Lat : 49.2835702, Lng : -123.1150204, Q1 : 0.999999403954, Q2 : -0.000528028409462, Q3 : -0.000778919784352, Q4 : -0.000562696310226}
2019-04-14 17:37:32.11: SIM {TimeUS : 44735432, Roll : 0.03, Pitch : 0.02, Yaw : 359.93, Alt : 31.6100006104, Lat : 49.2835702, Lng : -123.1150204, Q1 : 0.999999761581, Q2 : 0.000315277458867, Q3 : 0.000200137932552, Q4 : -0.000593427219428}
2019-04-14 17:37:32.21: SIM {TimeUS : 44835392, Roll : 0.06, Pitch : 0.06, Yaw : 359.93, Alt : 31.7900009155, Lat : 49.2835703, Lng : -123.1150205, Q1 : 0.999999463558, Q2 : 0.000593022734392, Q3 : 0.00057368009584, Q4 : -0.000611103721894}
2019-04-14 17:37:32.31: SIM {TimeUS : 44935352, Roll : 0.06, Pitch : 0.05, Yaw : 359.92, Alt : 31.9799995422, Lat : 49.2835703, Lng : -123.1150206, Q1 : 0.999999523163, Q2 : 0.000584256020375, Q3 : 0.000511326245032, Q4 : -0.000615876866505}
2019-04-14 17:37:32.41: SIM {TimeUS : 45035312, Roll : 0.06, Pitch : 0.03, Yaw : 359.93, Alt : 32.1599998474, Lat : 49.2835703, Lng : -123.1150206, Q1 : 0.999999582767, Q2 : 0.000582041917369, Q3 : 0.000301814056002, Q4 : -0.000609222683124}
2019-04-14 17:37:32.51: SIM {TimeUS : 45135272, Roll : 0.08, Pitch : 0.02, Yaw : 359.93, Alt : 32.3499984741, Lat : 49.2835703, Lng : -123.1150207, Q1 : 0.999999582767, Q2 : 0.000706037099008, Q3 : 0.000210421829252, Q4 : -0.0005929521285}
2019-04-14 17:37:32.61: SIM {TimeUS : 45235232, Roll : 0.09, Pitch : 0.04, Yaw : 359.93, Alt : 32.5499992371, Lat : 49.2835703, Lng : -123.1150207, Q1 : 0.999999403954, Q2 : 0.000856681668665, Q3 : 0.000422292767325, Q4 : -0.00055701227393}
2019-04-14 17:37:32.71: SIM {TimeUS : 45335192, Roll : 0.1, Pitch : 0.09, Yaw : 359.94, Alt : 32.7400016785, Lat : 49.2835703, Lng : -123.1150208, Q1 : 0.99999910593, Q2 : 0.000945254636463, Q3 : 0.000812272017356, Q4 : -0.00051190785598}
2019-04-14 17:37:32.81: SIM {TimeUS : 45435152, Roll : 0.11, Pitch : 0.14, Yaw : 359.94, Alt : 32.9399986267, Lat : 49.2835704, Lng : -123.1150208, Q1 : 0.999998688698, Q2 : 0.000965490238741, Q3 : 0.00122911762446, Q4 : -0.000473486114061}
2019-04-14 17:37:32.91: SIM {TimeUS : 45535112, Roll : 0.12, Pitch : 0.18, Yaw : 359.94, Alt : 33.1399993896, Lat : 49.2835704, Lng : -123.1150208, Q1 : 0.999997913837, Q2 : 0.00112315849401, Q3 : 0.00163809477817, Q4 : -0.000448629347375}
2019-04-14 17:37:33.01: SIM {TimeUS : 45635072, Roll : 0.16, Pitch : 0.2, Yaw : 359.94, Alt : 33.3499984741, Lat : 49.2835704, Lng : -123.1150209, Q1 : 0.999997258186, Q2 : 0.00140146689955, Q3 : 0.00182498025242, Q4 : -0.000441978161689}
2019-04-14 17:37:33.11: SIM {TimeUS : 45735032, Roll : 0.18, Pitch : 0.21, Yaw : 359.94, Alt : 33.5499992371, Lat : 49.2835704, Lng : -123.1150209, Q1 : 0.999996840954, Q2 : 0.00162492669187, Q3 : 0.00186207436491, Q4 : -0.000448360660812}
2019-04-14 17:37:33.21: SIM {TimeUS : 45834992, Roll : 0.19, Pitch : 0.2, Yaw : 359.94, Alt : 33.7599983215, Lat : 49.2835704, Lng : -123.1150209, Q1 : 0.999996781349, Q2 : 0.00169673061464, Q3 : 0.00182812102139, Q4 : -0.000461797550088}
2019-04-14 17:37:33.31: SIM {TimeUS : 45934952, Roll : 0.19, Pitch : 0.17, Yaw : 359.94, Alt : 33.9700012207, Lat : 49.2835704, Lng : -123.1150209, Q1 : 0.999997317791, Q2 : 0.00166339450516, Q3 : 0.00153514754493, Q4 : -0.000485962402308}
2019-04-14 17:37:33.41: SIM {TimeUS : 46034912, Roll : 0.17, Pitch : 0.13, Yaw : 359.94, Alt : 34.1800003052, Lat : 49.2835706, Lng : -123.1150209, Q1 : 0.999998092651, Q2 : 0.00150180316996, Q3 : 0.0011536719976, Q4 : -0.000506620446686}
2019-04-14 17:37:33.51: SIM {TimeUS : 46134872, Roll : 0.14, Pitch : 0.1, Yaw : 359.93, Alt : 34.3899993896, Lat : 49.2835706, Lng : -123.1150209, Q1 : 0.999998688698, Q2 : 0.00122876896057, Q3 : 0.000887478352524, Q4 : -0.000528326607309}
2019-04-14 17:37:33.61: SIM {TimeUS : 46234832, Roll : 0.11, Pitch : 0.08, Yaw : 359.93, Alt : 34.5999984741, Lat : 49.2835706, Lng : -123.1150209, Q1 : 0.99999910593, Q2 : 0.000972096400801, Q3 : 0.0007358310977, Q4 : -0.000559010892175}
2019-04-14 17:37:33.71: SIM {TimeUS : 46334792, Roll : 0.09, Pitch : 0.08, Yaw : 359.93, Alt : 34.8199996948, Lat : 49.2835704, Lng : -123.1150209, Q1 : 0.99999922514, Q2 : 0.000854688056279, Q3 : 0.000699753523804, Q4 : -0.00060144579038}
2019-04-14 17:37:33.81: SIM {TimeUS : 46434752, Roll : 0.08, Pitch : 0.06, Yaw : 359.92, Alt : 35.0299987793, Lat : 49.2835704, Lng : -123.1150208, Q1 : 0.999999403954, Q2 : 0.000739769660868, Q3 : 0.000541810877621, Q4 : -0.000640387821477}
2019-04-14 17:37:33.91: SIM {TimeUS : 46535545, Roll : 0.06, Pitch : 0.04, Yaw : 359.92, Alt : 35.25, Lat : 49.2835704, Lng : -123.1150208, Q1 : 0.999999523163, Q2 : 0.000567403563764, Q3 : 0.00039598334115, Q4 : -0.000675658113323}
2019-04-14 17:37:34.01: SIM {TimeUS : 46635505, Roll : 0.04, Pitch : 0.04, Yaw : 359.91, Alt : 35.4700012207, Lat : 49.2835704, Lng : -123.1150208, Q1 : 0.999999642372, Q2 : 0.000371152505977, Q3 : 0.000361466023605, Q4 : -0.000707171682734}
2019-04-14 17:37:34.11: SIM {TimeUS : 46735465, Roll : 0.02, Pitch : 0.04, Yaw : 359.91, Alt : 35.6899986267, Lat : 49.2835704, Lng : -123.1150208, Q1 : 0.999999642372, Q2 : 0.00017672420654, Q3 : 0.000424156052759, Q4 : -0.00073619018076}
2019-04-14 17:37:34.21: SIM {TimeUS : 46835425, Roll : 0.0, Pitch : 0.03, Yaw : 359.91, Alt : 35.9099998474, Lat : 49.2835704, Lng : -123.1150208, Q1 : 0.999999701977, Q2 : 8.19914203021e-05, Q3 : 0.000297844671877, Q4 : -0.00075489433948}
2019-04-14 17:37:34.31: SIM {TimeUS : 46935385, Roll : 0.0, Pitch : 0.02, Yaw : 359.91, Alt : 36.1300010681, Lat : 49.2835704, Lng : -123.1150207, Q1 : 0.999999701977, Q2 : 5.40060354979e-05, Q3 : 0.000174680666532, Q4 : -0.00076989736408}
2019-04-14 17:37:34.41: SIM {TimeUS : 47035345, Roll : 0.0, Pitch : 0.0, Yaw : 359.9, Alt : 36.3499984741, Lat : 49.2835704, Lng : -123.1150207, Q1 : 0.999999701977, Q2 : -3.43830151905e-06, Q3 : 7.8526987636e-05, Q4 : -0.00078985147411}
2019-04-14 17:37:34.51: SIM {TimeUS : 47135305, Roll : 0.0, Pitch : 0.0, Yaw : 359.9, Alt : 36.5699996948, Lat : 49.2835704, Lng : -123.1150207, Q1 : 0.999999701977, Q2 : 8.1427015175e-07, Q3 : 2.86860504275e-05, Q4 : -0.000810862402432}
2019-04-14 17:37:34.61: SIM {TimeUS : 47235265, Roll : 0.01, Pitch : 0.0, Yaw : 359.9, Alt : 36.7900009155, Lat : 49.2835704, Lng : -123.1150207, Q1 : 0.999999642372, Q2 : 0.000106645551568, Q3 : -5.8500940213e-05, Q4 : -0.000830477103591}
2019-04-14 17:37:34.71: SIM {TimeUS : 47335225, Roll : 0.0, Pitch : -0.02, Yaw : 359.9, Alt : 37.0200004578, Lat : 49.2835704, Lng : -123.1150207, Q1 : 0.999999642372, Q2 : 1.07016267066e-05, Q3 : -0.000223687864491, Q4 : -0.000849669158924}
2019-04-14 17:37:34.81: SIM {TimeUS : 47435185, Roll : -0.03, Pitch : -0.05, Yaw : 359.89, Alt : 37.2400016785, Lat : 49.2835704, Lng : -123.1150207, Q1 : 0.999999463558, Q2 : -0.00029603447183, Q3 : -0.000516440893989, Q4 : -0.000874493387528}
2019-04-14 17:37:34.91: SIM {TimeUS : 47535145, Roll : -0.07, Pitch : -0.08, Yaw : 359.89, Alt : 37.4700012207, Lat : 49.2835704, Lng : -123.1150207, Q1 : 0.99999910593, Q2 : -0.000684308179189, Q3 : -0.000772609608248, Q4 : -0.000900310347788}
2019-04-14 17:37:35.01: SIM {TimeUS : 47635105, Roll : -0.11, Pitch : -0.1, Yaw : 359.89, Alt : 37.6899986267, Lat : 49.2835704, Lng : -123.1150206, Q1 : 0.999998629093, Q2 : -0.00101393926889, Q3 : -0.0009130378603, Q4 : -0.000928964349441}
2019-04-14 17:37:35.11: SIM {TimeUS : 47735065, Roll : -0.13, Pitch : -0.11, Yaw : 359.88, Alt : 37.9199981689, Lat : 49.2835704, Lng : -123.1150206, Q1 : 0.999998390675, Q2 : -0.00119391514454, Q3 : -0.000968171923887, Q4 : -0.000962746737059}
2019-04-14 17:37:35.21: SIM {TimeUS : 47835025, Roll : -0.13, Pitch : -0.1, Yaw : 359.88, Alt : 38.1500015259, Lat : 49.2835704, Lng : -123.1150206, Q1 : 0.999998390675, Q2 : -0.00122118450236, Q3 : -0.000883068772964, Q4 : -0.000998938456178}
2019-04-14 17:37:35.31: SIM {TimeUS : 47934985, Roll : -0.11, Pitch : -0.06, Yaw : 359.88, Alt : 38.3699989319, Lat : 49.2835704, Lng : -123.1150206, Q1 : 0.999998748302, Q2 : -0.00104592216667, Q3 : -0.000588343886193, Q4 : -0.00102764053736}
2019-04-14 17:37:35.41: SIM {TimeUS : 48034945, Roll : -0.08, Pitch : -0.04, Yaw : 359.87, Alt : 38.5999984741, Lat : 49.2835704, Lng : -123.1150206, Q1 : 0.999999046326, Q2 : -0.000776765926275, Q3 : -0.000397586059989, Q4 : -0.00105447333772}
2019-04-14 17:37:35.51: SIM {TimeUS : 48134905, Roll : -0.07, Pitch : -0.03, Yaw : 359.87, Alt : 38.8300018311, Lat : 49.2835704, Lng : -123.1150206, Q1 : 0.999999165535, Q2 : -0.000651778827887, Q3 : -0.000344989064615, Q4 : -0.00108865043148}
2019-04-14 17:37:35.61: SIM {TimeUS : 48234865, Roll : -0.07, Pitch : -0.01, Yaw : 359.87, Alt : 39.0600013733, Lat : 49.2835704, Lng : -123.1150206, Q1 : 0.999999165535, Q2 : -0.000625607848633, Q3 : -0.000167878402863, Q4 : -0.00111543340608}
2019-04-14 17:37:35.71: SIM {TimeUS : 48334825, Roll : -0.08, Pitch : 0.0, Yaw : 359.86, Alt : 39.2900009155, Lat : 49.2835704, Lng : -123.1150206, Q1 : 0.99999910593, Q2 : -0.000751633779146, Q3 : 3.72046888515e-05, Q4 : -0.00113471178338}
2019-04-14 17:37:35.81: SIM {TimeUS : 48434785, Roll : -0.08, Pitch : 0.02, Yaw : 359.86, Alt : 39.5200004578, Lat : 49.2835704, Lng : -123.1150206, Q1 : 0.999999046326, Q2 : -0.0007508196868, Q3 : 0.000199995862204, Q4 : -0.00114678021055}
2019-04-14 17:37:35.91: SIM {TimeUS : 48534745, Roll : -0.07, Pitch : 0.04, Yaw : 359.86, Alt : 39.75, Lat : 49.2835704, Lng : -123.1150206, Q1 : 0.999999046326, Q2 : -0.00061445456231, Q3 : 0.000426695798524, Q4 : -0.00115397921763}
2019-04-14 17:37:36.01: SIM {TimeUS : 48635538, Roll : -0.04, Pitch : 0.04, Yaw : 359.86, Alt : 39.9799995422, Lat : 49.2835704, Lng : -123.1150206, Q1 : 0.999999165535, Q2 : -0.000390207540477, Q3 : 0.000402275763918, Q4 : -0.00115029676817}
2019-04-14 17:37:36.11: SIM {TimeUS : 48735498, Roll : -0.01, Pitch : 0.03, Yaw : 359.86, Alt : 40.2099990845, Lat : 49.2835706, Lng : -123.1150207, Q1 : 0.999999284744, Q2 : -0.000117001400213, Q3 : 0.000314828299452, Q4 : -0.00114716019016}
2019-04-14 17:37:36.21: SIM {TimeUS : 48835458, Roll : 0.02, Pitch : 0.05, Yaw : 359.86, Alt : 40.4500007629, Lat : 49.2835706, Lng : -123.1150207, Q1 : 0.99999922514, Q2 : 0.0002049444156, Q3 : 0.000436247617472, Q4 : -0.00114339927677}
2019-04-14 17:37:36.31: SIM {TimeUS : 48935418, Roll : 0.07, Pitch : 0.08, Yaw : 359.86, Alt : 40.6800003052, Lat : 49.2835706, Lng : -123.1150207, Q1 : 0.999998867512, Q2 : 0.000619318627287, Q3 : 0.000752875756007, Q4 : -0.00114432221744}
2019-04-14 17:37:36.41: SIM {TimeUS : 49035378, Roll : 0.1, Pitch : 0.12, Yaw : 359.86, Alt : 40.9099998474, Lat : 49.2835706, Lng : -123.1150207, Q1 : 0.99999833107, Q2 : 0.000899244623724, Q3 : 0.00107503193431, Q4 : -0.00115292018745}
2019-04-14 17:37:36.51: SIM {TimeUS : 49135338, Roll : 0.09, Pitch : 0.14, Yaw : 359.86, Alt : 41.1399993896, Lat : 49.2835706, Lng : -123.1150207, Q1 : 0.999998152256, Q2 : 0.000810017692856, Q3 : 0.00130022771191, Q4 : -0.00115540670231}
2019-04-14 17:37:36.61: SIM {TimeUS : 49235298, Roll : 0.04, Pitch : 0.16, Yaw : 359.86, Alt : 41.3800010681, Lat : 49.2835706, Lng : -123.1150207, Q1 : 0.999998152256, Q2 : 0.000380914338166, Q3 : 0.0014554701047, Q4 : -0.00116793543566}
2019-04-14 17:37:36.71: SIM {TimeUS : 49335258, Roll : 0.0, Pitch : 0.17, Yaw : 359.86, Alt : 41.6100006104, Lat : 49.2835706, Lng : -123.1150207, Q1 : 0.999998152256, Q2 : -1.46608645082e-05, Q3 : 0.00152765540406, Q4 : -0.00118590996135}
2019-04-14 17:37:36.81: SIM {TimeUS : 49435218, Roll : -0.02, Pitch : 0.15, Yaw : 359.86, Alt : 41.8400001526, Lat : 49.2835706, Lng : -123.1150207, Q1 : 0.999998390675, Q2 : -0.000209386635106, Q3 : 0.00132247293368, Q4 : -0.00120706658345}
2019-04-14 17:37:36.91: SIM {TimeUS : 49535178, Roll : -0.02, Pitch : 0.11, Yaw : 359.85, Alt : 42.0800018311, Lat : 49.2835706, Lng : -123.1150207, Q1 : 0.999998688698, Q2 : -0.000242113688728, Q3 : 0.00102087657433, Q4 : -0.00123449927196}
2019-04-14 17:37:37.01: SIM {TimeUS : 49635138, Roll : -0.01, Pitch : 0.11, Yaw : 359.85, Alt : 42.3100013733, Lat : 49.2835706, Lng : -123.1150207, Q1 : 0.999998688698, Q2 : -0.000138300529215, Q3 : 0.000984148238786, Q4 : -0.00127378688194}
2019-04-14 17:37:37.11: SIM {TimeUS : 49735098, Roll : 0.02, Pitch : 0.12, Yaw : 359.84, Alt : 42.5499992371, Lat : 49.2835706, Lng : -123.1150207, Q1 : 0.999998509884, Q2 : 0.000202644339879, Q3 : 0.00111409032252, Q4 : -0.00132606434636}
2019-04-14 17:37:37.21: SIM {TimeUS : 49835058, Roll : 0.07, Pitch : 0.14, Yaw : 359.84, Alt : 42.7799987793, Lat : 49.2835706, Lng : -123.1150207, Q1 : 0.999998092651, Q2 : 0.000679828226566, Q3 : 0.00123011972755, Q4 : -0.00137549452484}
2019-04-14 17:37:37.31: SIM {TimeUS : 49935018, Roll : 0.11, Pitch : 0.12, Yaw : 359.83, Alt : 43.0200004578, Lat : 49.2835706, Lng : -123.1150207, Q1 : 0.999997794628, Q2 : 0.00104119791649, Q3 : 0.00111905380618, Q4 : -0.0014266994549}
2019-04-14 17:37:37.41: SIM {TimeUS : 50034978, Roll : 0.11, Pitch : 0.1, Yaw : 359.83, Alt : 43.25, Lat : 49.2835706, Lng : -123.1150207, Q1 : 0.999997973442, Q2 : 0.0010418810416, Q3 : 0.000887734640855, Q4 : -0.00147427199408}
2019-04-14 17:37:37.51: SIM {TimeUS : 50134938, Roll : 0.07, Pitch : 0.08, Yaw : 359.82, Alt : 43.4900016785, Lat : 49.2835704, Lng : -123.1150207, Q1 : 0.999998390675, Q2 : 0.000676510680933, Q3 : 0.000720426498447, Q4 : -0.00149829790462}
2019-04-14 17:37:37.61: SIM {TimeUS : 50234898, Roll : 0.01, Pitch : 0.07, Yaw : 359.82, Alt : 43.7200012207, Lat : 49.2835704, Lng : -123.1150207, Q1 : 0.999998629093, Q2 : 0.000161151998327, Q3 : 0.000670756737236, Q4 : -0.00151633610949}
2019-04-14 17:37:37.71: SIM {TimeUS : 50334858, Roll : -0.02, Pitch : 0.08, Yaw : 359.82, Alt : 43.9599990845, Lat : 49.2835704, Lng : -123.1150207, Q1 : 0.999998509884, Q2 : -0.000198242021725, Q3 : 0.000769386126194, Q4 : -0.00153815001249}
2019-04-14 17:37:37.81: SIM {TimeUS : 50434818, Roll : -0.04, Pitch : 0.09, Yaw : 359.82, Alt : 44.1899986267, Lat : 49.2835704, Lng : -123.1150207, Q1 : 0.999998390675, Q2 : -0.000367515429389, Q3 : 0.0008140867576, Q4 : -0.00155725958757}
2019-04-14 17:37:37.91: SIM {TimeUS : 50534778, Roll : -0.03, Pitch : 0.08, Yaw : 359.81, Alt : 44.4300003052, Lat : 49.2835704, Lng : -123.1150206, Q1 : 0.999998450279, Q2 : -0.000344526139088, Q3 : 0.000710720370989, Q4 : -0.00157128379215}
2019-04-14 17:37:38.01: SIM {TimeUS : 50634738, Roll : -0.04, Pitch : 0.06, Yaw : 359.81, Alt : 44.6599998474, Lat : 49.2835704, Lng : -123.1150206, Q1 : 0.999998509884, Q2 : -0.000367879780242, Q3 : 0.000567377370317, Q4 : -0.00158674223348}
2019-04-14 17:37:38.11: SIM {TimeUS : 50735531, Roll : -0.03, Pitch : 0.04, Yaw : 359.81, Alt : 44.9000015259, Lat : 49.2835704, Lng : -123.1150206, Q1 : 0.999998569489, Q2 : -0.000323077605572, Q3 : 0.000383251317544, Q4 : -0.00160265387967}
2019-04-14 17:37:38.21: SIM {TimeUS : 50835491, Roll : -0.02, Pitch : 0.02, Yaw : 359.81, Alt : 45.1399993896, Lat : 49.2835704, Lng : -123.1150206, Q1 : 0.999998629093, Q2 : -0.000199595655431, Q3 : 0.000199522168259, Q4 : -0.00162496708799}
2019-04-14 17:37:38.31: SIM {TimeUS : 50935451, Roll : -0.02, Pitch : 0.01, Yaw : 359.81, Alt : 45.3699989319, Lat : 49.2835703, Lng : -123.1150206, Q1 : 0.999998629093, Q2 : -0.000176115063368, Q3 : 9.2651702289e-05, Q4 : -0.00164842361119}
2019-04-14 17:37:38.41: SIM {TimeUS : 51035411, Roll : -0.02, Pitch : 0.0, Yaw : 359.8, Alt : 45.6100006104, Lat : 49.2835703, Lng : -123.1150206, Q1 : 0.999998569489, Q2 : -0.000232604841585, Q3 : -6.01011342951e-05, Q4 : -0.00167451624293}
2019-04-14 17:37:38.51: SIM {TimeUS : 51135371, Roll : -0.03, Pitch : -0.03, Yaw : 359.8, Alt : 45.8400001526, Lat : 49.2835703, Lng : -123.1150206, Q1 : 0.999998450279, Q2 : -0.000309211725835, Q3 : -0.00028107201797, Q4 : -0.00170283566695}
2019-04-14 17:37:38.61: SIM {TimeUS : 51235331, Roll : -0.03, Pitch : -0.04, Yaw : 359.8, Alt : 46.0699996948, Lat : 49.2835703, Lng : -123.1150206, Q1 : 0.99999833107, Q2 : -0.000344237254467, Q3 : -0.00040479094605, Q4 : -0.00173233030364}
2019-04-14 17:37:38.71: SIM {TimeUS : 51335291, Roll : -0.03, Pitch : -0.04, Yaw : 359.79, Alt : 46.2999992371, Lat : 49.2835703, Lng : -123.1150206, Q1 : 0.99999833107, Q2 : -0.000270191958407, Q3 : -0.000432238623034, Q4 : -0.00176227593329}
2019-04-14 17:37:38.81: SIM {TimeUS : 51435251, Roll : -0.03, Pitch : -0.04, Yaw : 359.79, Alt : 46.5200004578, Lat : 49.2835703, Lng : -123.1150206, Q1 : 0.999998271465, Q2 : -0.000277754559647, Q3 : -0.000395100272726, Q4 : -0.00179046427365}
2019-04-14 17:37:38.91: SIM {TimeUS : 51535211, Roll : -0.05, Pitch : -0.03, Yaw : 359.79, Alt : 46.7400016785, Lat : 49.2835703, Lng : -123.1150206, Q1 : 0.999998152256, Q2 : -0.000452679232694, Q3 : -0.000336370576406, Q4 : -0.00182399759069}
2019-04-14 17:37:39.01: SIM {TimeUS : 51635171, Roll : -0.08, Pitch : -0.03, Yaw : 359.78, Alt : 46.9500007629, Lat : 49.2835703, Lng : -123.1150206, Q1 : 0.999997913837, Q2 : -0.000744212709833, Q3 : -0.000312677439069, Q4 : -0.00186020229012}
2019-04-14 17:37:39.11: SIM {TimeUS : 51735131, Roll : -0.1, Pitch : -0.03, Yaw : 359.78, Alt : 47.1599998474, Lat : 49.2835703, Lng : -123.1150205, Q1 : 0.999997735023, Q2 : -0.000937008706387, Q3 : -0.000315657205647, Q4 : -0.0018940953305}
2019-04-14 17:37:39.21: SIM {TimeUS : 51835091, Roll : -0.11, Pitch : -0.02, Yaw : 359.77, Alt : 47.3600006104, Lat : 49.2835703, Lng : -123.1150205, Q1 : 0.999997615814, Q2 : -0.000962182122748, Q3 : -0.000242358393734, Q4 : -0.00192756869365}
2019-04-14 17:37:39.31: SIM {TimeUS : 51935051, Roll : -0.09, Pitch : 0.0, Yaw : 359.77, Alt : 47.5499992371, Lat : 49.2835703, Lng : -123.1150205, Q1 : 0.999997735023, Q2 : -0.000835007522255, Q3 : -6.50932488497e-05, Q4 : -0.00195978558622}
2019-04-14 17:37:39.41: SIM {TimeUS : 52035011, Roll : -0.09, Pitch : -0.01, Yaw : 359.77, Alt : 47.7200012207, Lat : 49.2835703, Lng : -123.1150205, Q1 : 0.999997675419, Q2 : -0.000850496289786, Q3 : -9.24264604691e-05, Q4 : -0.00198616227135}
2019-04-14 17:37:39.51: SIM {TimeUS : 52134971, Roll : -0.1, Pitch : -0.03, Yaw : 359.76, Alt : 47.8899993896, Lat : 49.2835703, Lng : -123.1150206, Q1 : 0.999997496605, Q2 : -0.000923576124478, Q3 : -0.000261071952991, Q4 : -0.00200867187232}
2019-04-14 17:37:39.61: SIM {TimeUS : 52234931, Roll : -0.1, Pitch : -0.04, Yaw : 359.76, Alt : 48.0499992371, Lat : 49.2835703, Lng : -123.1150206, Q1 : 0.999997377396, Q2 : -0.000957657059189, Q3 : -0.000425189966336, Q4 : -0.00203041196801}
2019-04-14 17:37:39.71: SIM {TimeUS : 52334891, Roll : -0.09, Pitch : -0.06, Yaw : 359.76, Alt : 48.1899986267, Lat : 49.2835703, Lng : -123.1150206, Q1 : 0.999997377396, Q2 : -0.000849441625178, Q3 : -0.00054520968115, Q4 : -0.00205351714976}
2019-04-14 17:37:39.81: SIM {TimeUS : 52434851, Roll : -0.07, Pitch : -0.07, Yaw : 359.76, Alt : 48.3199996948, Lat : 49.2835703, Lng : -123.1150206, Q1 : 0.999997437, Q2 : -0.000620443199296, Q3 : -0.000625468266662, Q4 : -0.00207434571348}
2019-04-14 17:37:39.91: SIM {TimeUS : 52534811, Roll : -0.04, Pitch : -0.08, Yaw : 359.76, Alt : 48.4399986267, Lat : 49.2835703, Lng : -123.1150206, Q1 : 0.999997496605, Q2 : -0.000435366353486, Q3 : -0.000706641469151, Q4 : -0.00209338054992}
2019-04-14 17:37:40.01: SIM {TimeUS : 52634771, Roll : -0.04, Pitch : -0.08, Yaw : 359.75, Alt : 48.5499992371, Lat : 49.2835703, Lng : -123.1150206, Q1 : 0.999997377396, Q2 : -0.000365114276065, Q3 : -0.000776670698542, Q4 : -0.00211252109148}
2019-04-14 17:37:40.11: SIM {TimeUS : 52735564, Roll : -0.01, Pitch : -0.08, Yaw : 359.75, Alt : 48.6500015259, Lat : 49.2835703, Lng : -123.1150206, Q1 : 0.999997437, Q2 : -0.000131064167363, Q3 : -0.000720374519005, Q4 : -0.00213232147507}
2019-04-14 17:37:40.21: SIM {TimeUS : 52835524, Roll : 0.01, Pitch : -0.06, Yaw : 359.75, Alt : 48.7299995422, Lat : 49.2835703, Lng : -123.1150206, Q1 : 0.999997496605, Q2 : 0.00016513268929, Q3 : -0.000566555187106, Q4 : -0.00215288740583}
2019-04-14 17:37:40.31: SIM {TimeUS : 52935484, Roll : 0.05, Pitch : -0.04, Yaw : 359.75, Alt : 48.8100013733, Lat : 49.2835703, Lng : -123.1150206, Q1 : 0.999997496605, Q2 : 0.000441846903414, Q3 : -0.000377489253879, Q4 : -0.00217634136789}
2019-04-14 17:37:40.41: SIM {TimeUS : 53035444, Roll : 0.06, Pitch : -0.02, Yaw : 359.74, Alt : 48.8699989319, Lat : 49.2835703, Lng : -123.1150206, Q1 : 0.999997437, Q2 : 0.000530358753167, Q3 : -0.000207111268537, Q4 : -0.00220422446728}
2019-04-14 17:37:40.51: SIM {TimeUS : 53135404, Roll : 0.06, Pitch : -0.01, Yaw : 359.74, Alt : 48.9199981689, Lat : 49.2835703, Lng : -123.1150206, Q1 : 0.999997317791, Q2 : 0.000578978506383, Q3 : -0.000112647525384, Q4 : -0.00223563541658}
2019-04-14 17:37:40.61: SIM {TimeUS : 53235364, Roll : 0.06, Pitch : -0.02, Yaw : 359.74, Alt : 48.9700012207, Lat : 49.2835703, Lng : -123.1150207, Q1 : 0.999997258186, Q2 : 0.000546556490008, Q3 : -0.000210914819036, Q4 : -0.00226896558888}
2019-04-14 17:37:40.71: SIM {TimeUS : 53335324, Roll : 0.05, Pitch : -0.04, Yaw : 359.73, Alt : 49.0099983215, Lat : 49.2835703, Lng : -123.1150207, Q1 : 0.999997198582, Q2 : 0.000448718928965, Q3 : -0.00035430706339, Q4 : -0.0022990279831}
2019-04-14 17:37:40.81: SIM {TimeUS : 53435284, Roll : 0.13, Pitch : -0.1, Yaw : 359.73, Alt : 49.0499992371, Lat : 49.2835703, Lng : -123.1150207, Q1 : 0.999996185303, Q2 : 0.001154726604, Q3 : -0.000951079302467, Q4 : -0.00231854710728}
2019-04-14 17:37:40.91: SIM {TimeUS : 53535244, Roll : 0.41, Pitch : -0.3, Yaw : 359.73, Alt : 49.0800018311, Lat : 49.2835703, Lng : -123.1150207, Q1 : 0.999987363815, Q2 : 0.00358169293031, Q3 : -0.00264869444072, Q4 : -0.0023362073116}
2019-04-14 17:37:41.01: SIM {TimeUS : 53635204, Roll : 0.93, Pitch : -0.64, Yaw : 359.72, Alt : 49.0999984741, Lat : 49.2835703, Lng : -123.1150207, Q1 : 0.999948382378, Q2 : 0.00810365658253, Q3 : -0.00565733714029, Q4 : -0.00235086260363}
2019-04-14 17:37:41.11: SIM {TimeUS : 53735164, Roll : 1.66, Pitch : -1.11, Yaw : 359.71, Alt : 49.1199989319, Lat : 49.2835704, Lng : -123.1150206, Q1 : 0.999844670296, Q2 : 0.0144868679345, Q3 : -0.00976195652038, Q4 : -0.0023484393023}
2019-04-14 17:37:41.21: SIM {TimeUS : 53835124, Roll : 2.52, Pitch : -1.67, Yaw : 359.69, Alt : 49.1399993896, Lat : 49.2835704, Lng : -123.1150206, Q1 : 0.999647557735, Q2 : 0.0219998061657, Q3 : -0.0146782593802, Q4 : -0.00231766793877}
2019-04-14 17:37:41.31: SIM {TimeUS : 53935084, Roll : 3.38, Pitch : -2.27, Yaw : 359.67, Alt : 49.1599998474, Lat : 49.2835706, Lng : -123.1150205, Q1 : 0.999363839626, Q2 : 0.0294768270105, Q3 : -0.0199502129108, Q4 : -0.00223933300003}
2019-04-14 17:37:41.41: SIM {TimeUS : 54035044, Roll : 4.09, Pitch : -2.79, Yaw : 359.65, Alt : 49.1699981689, Lat : 49.2835706, Lng : -123.1150203, Q1 : 0.999060571194, Q2 : 0.0356708839536, Q3 : -0.0245191287249, Q4 : -0.00210144952871}
2019-04-14 17:37:41.51: SIM {TimeUS : 54135004, Roll : 4.62, Pitch : -3.21, Yaw : 359.65, Alt : 49.1800003052, Lat : 49.2835708, Lng : -123.11502, Q1 : 0.998792648315, Q2 : 0.0402318201959, Q3 : -0.0281257778406, Q4 : -0.00190928170923}
2019-04-14 17:37:41.61: SIM {TimeUS : 54234964, Roll : 5.0, Pitch : -3.51, Yaw : 359.65, Alt : 49.1899986267, Lat : 49.2835709, Lng : -123.1150198, Q1 : 0.998575866222, Q2 : 0.0435192249715, Q3 : -0.0308142751455, Q4 : -0.00166544073727}
2019-04-14 17:37:41.71: SIM {TimeUS : 54334924, Roll : 5.3, Pitch : -3.74, Yaw : 359.66, Alt : 49.2000007629, Lat : 49.283571, Lng : -123.1150193, Q1 : 0.998396396637, Q2 : 0.0461615882814, Q3 : -0.0327385887504, Q4 : -0.0013894175645}
2019-04-14 17:37:41.81: SIM {TimeUS : 54434884, Roll : 5.58, Pitch : -3.94, Yaw : 359.68, Alt : 49.2099990845, Lat : 49.2835714, Lng : -123.1150188, Q1 : 0.998221218586, Q2 : 0.0486139394343, Q3 : -0.0344941653311, Q4 : -0.00110204727389}
2019-04-14 17:37:41.91: SIM {TimeUS : 54534844, Roll : 5.9, Pitch : -4.15, Yaw : 359.69, Alt : 49.2200012207, Lat : 49.2835716, Lng : -123.1150182, Q1 : 0.998019695282, Q2 : 0.0513545535505, Q3 : -0.0363144502044, Q4 : -0.000823330599815}
2019-04-14 17:37:42.01: SIM {TimeUS : 54634804, Roll : 6.21, Pitch : -4.35, Yaw : 359.69, Alt : 49.2299995422, Lat : 49.283572, Lng : -123.1150174, Q1 : 0.997809886932, Q2 : 0.0540651939809, Q3 : -0.0381059870124, Q4 : -0.000558442727197}
2019-04-14 17:37:42.11: SIM {TimeUS : 54734764, Roll : 6.48, Pitch : -4.55, Yaw : 359.7, Alt : 49.2299995422, Lat : 49.2835724, Lng : -123.1150166, Q1 : 0.997615098953, Q2 : 0.0563814453781, Q3 : -0.0398148559034, Q4 : -0.000317951547913}
2019-04-14 17:37:42.21: SIM {TimeUS : 54835557, Roll : 6.68, Pitch : -4.71, Yaw : 359.71, Alt : 49.2400016785, Lat : 49.2835727, Lng : -123.1150157, Q1 : 0.997455716133, Q2 : 0.0581836178899, Q3 : -0.0411917828023, Q4 : -9.68061794993e-05}
2019-04-14 17:37:42.31: SIM {TimeUS : 54935517, Roll : 6.84, Pitch : -4.82, Yaw : 359.72, Alt : 49.2400016785, Lat : 49.2835733, Lng : -123.1150147, Q1 : 0.997335135937, Q2 : 0.0595355592668, Q3 : -0.0421678200364, Q4 : 8.88902941369e-05}
2019-04-14 17:37:42.41: SIM {TimeUS : 55035477, Roll : 6.95, Pitch : -4.89, Yaw : 359.72, Alt : 49.25, Lat : 49.2835738, Lng : -123.1150136, Q1 : 0.997254550457, Q2 : 0.06047398597, Q3 : -0.0427346602082, Q4 : 0.000235255356529}
2019-04-14 17:37:42.51: SIM {TimeUS : 55135437, Roll : 7.04, Pitch : -4.94, Yaw : 359.73, Alt : 49.25, Lat : 49.2835743, Lng : -123.1150124, Q1 : 0.997182548046, Q2 : 0.0612991712987, Q3 : -0.0432346127927, Q4 : 0.000332126161084}
2019-04-14 17:37:42.61: SIM {TimeUS : 55235397, Roll : 7.2, Pitch : -4.99, Yaw : 359.75, Alt : 49.25, Lat : 49.2835749, Lng : -123.1150111, Q1 : 0.997080683708, Q2 : 0.0626726150513, Q3 : -0.0436122231185, Q4 : 0.000567190058064}
2019-04-14 17:37:42.71: SIM {TimeUS : 55335357, Roll : 7.59, Pitch : -4.87, Yaw : 0.08, Alt : 49.2599983215, Lat : 49.2835755, Lng : -123.1150096, Q1 : 0.996902108192, Q2 : 0.0661581456661, Q3 : -0.042388677597, Q4 : 0.00353256613016}
2019-04-14 17:37:42.81: SIM {TimeUS : 55435317, Roll : 8.18, Pitch : -4.66, Yaw : 1.37, Alt : 49.2599983215, Lat : 49.2835762, Lng : -123.1150083, Q1 : 0.996516168118, Q2 : 0.0718157142401, Q3 : -0.0397110916674, Q4 : 0.0148674780503}
2019-04-14 17:37:42.91: SIM {TimeUS : 55535277, Roll : 8.75, Pitch : -4.72, Yaw : 4.16, Alt : 49.2599983215, Lat : 49.2835769, Lng : -123.1150067, Q1 : 0.995464622974, Q2 : 0.0777122527361, Q3 : -0.0382603481412, Q4 : 0.0393332280219}
2019-04-14 17:37:43.01: SIM {TimeUS : 55635237, Roll : 9.04, Pitch : -5.27, Yaw : 8.52, Alt : 49.2599983215, Lat : 49.2835776, Lng : -123.115005, Q1 : 0.992804527283, Q2 : 0.0819974839687, Q3 : -0.0398951172829, Q4 : 0.0776145383716}
2019-04-14 17:37:43.11: SIM {TimeUS : 55735197, Roll : 8.87, Pitch : -6.34, Yaw : 14.27, Alt : 49.2700004578, Lat : 49.2835782, Lng : -123.1150032, Q1 : 0.987224519253, Q2 : 0.0835348293185, Q3 : -0.0451525002718, Q4 : 0.127948999405}
2019-04-14 17:37:43.21: SIM {TimeUS : 55835157, Roll : 8.11, Pitch : -7.78, Yaw : 21.18, Alt : 49.2700004578, Lat : 49.2835789, Lng : -123.1150013, Q1 : 0.977360188961, Q2 : 0.0818187147379, Q3 : -0.0535782873631, Q4 : 0.187622219324}
2019-04-14 17:37:43.31: SIM {TimeUS : 55935117, Roll : 6.72, Pitch : -9.37, Yaw : 28.98, Alt : 49.2700004578, Lat : 49.2835798, Lng : -123.1149993, Q1 : 0.962085723877, Q2 : 0.0770268142223, Q3 : -0.0643682181835, Q4 : 0.253603368998}
2019-04-14 17:37:43.41: SIM {TimeUS : 56035077, Roll : 4.78, Pitch : -10.89, Yaw : 37.42, Alt : 49.2700004578, Lat : 49.2835806, Lng : -123.1149972, Q1 : 0.940777182579, Q2 : 0.0697825849056, Q3 : -0.0764646977186, Q4 : 0.322834134102}
2019-04-14 17:37:43.51: SIM {TimeUS : 56135037, Roll : 2.25, Pitch : -12.13, Yaw : 46.17, Alt : 49.2700004578, Lat : 49.2835813, Lng : -123.1149949, Q1 : 0.913761258125, Q2 : 0.0594075955451, Q3 : -0.0895162075758, Q4 : 0.391788125038}
2019-04-14 17:37:43.61: SIM {TimeUS : 56234997, Roll : -0.84, Pitch : -12.89, Yaw : 54.54, Alt : 49.2700004578, Lat : 49.2835822, Lng : -123.1149926, Q1 : 0.883563995361, Q2 : 0.0449482649565, Q3 : -0.103194020689, Q4 : 0.454582512379}
2019-04-14 17:37:43.71: SIM {TimeUS : 56334957, Roll : -3.98, Pitch : -13.11, Yaw : 61.63, Alt : 49.2700004578, Lat : 49.2835831, Lng : -123.1149901, Q1 : 0.854696452618, Q2 : 0.0288329198956, Q3 : -0.115734435618, Q4 : 0.505240678787}
2019-04-14 17:37:43.81: SIM {TimeUS : 56434917, Roll : -6.5, Pitch : -12.95, Yaw : 66.8, Alt : 49.2700004578, Lat : 49.2835842, Lng : -123.1149876, Q1 : 0.831689476967, Q2 : 0.0149363838136, Q3 : -0.125048756599, Q4 : 0.540770113468}
2019-04-14 17:37:43.91: SIM {TimeUS : 56534877, Roll : -7.99, Pitch : -12.69, Yaw : 69.87, Alt : 49.2700004578, Lat : 49.2835853, Lng : -123.1149851, Q1 : 0.817207217216, Q2 : 0.00632609520108, Q3 : -0.130085036159, Q4 : 0.561435878277}
2019-04-14 17:37:44.01: SIM {TimeUS : 56634837, Roll : -8.4, Pitch : -12.56, Yaw : 71.02, Alt : 49.2700004578, Lat : 49.2835865, Lng : -123.1149825, Q1 : 0.811601579189, Q2 : 0.00409879349172, Q3 : -0.13115054369, Q4 : 0.569285213947}
2019-04-14 17:37:44.11: SIM {TimeUS : 56734797, Roll : -7.87, Pitch : -12.7, Yaw : 70.59, Alt : 49.2700004578, Lat : 49.2835879, Lng : -123.1149798, Q1 : 0.813626170158, Q2 : 0.00804080069065, Q3 : -0.129507303238, Q4 : 0.566723644733}
2019-04-14 17:37:44.21: SIM {TimeUS : 56834757, Roll : -6.65, Pitch : -13.12, Yaw : 68.96, Alt : 49.2799987793, Lat : 49.2835892, Lng : -123.1149772, Q1 : 0.821292281151, Q2 : 0.0170078538358, Q3 : -0.126692175865, Q4 : 0.556002557278}
2019-04-14 17:37:44.31: SIM {TimeUS : 56935550, Roll : -4.99, Pitch : -13.75, Yaw : 66.44, Alt : 49.2799987793, Lat : 49.2835908, Lng : -123.1149744, Q1 : 0.832625508308, Q2 : 0.029323251918, Q3 : -0.123760610819, Q4 : 0.539034485817}
2019-04-14 17:37:44.41: SIM {TimeUS : 57035510, Roll : -3.11, Pitch : -14.44, Yaw : 63.39, Alt : 49.2799987793, Lat : 49.2835923, Lng : -123.1149715, Q1 : 0.845563292503, Q2 : 0.0430827140808, Q3 : -0.121122956276, Q4 : 0.518165826797}
2019-04-14 17:37:44.51: SIM {TimeUS : 57135470, Roll : -1.21, Pitch : -15.08, Yaw : 60.12, Alt : 49.2799987793, Lat : 49.283594, Lng : -123.1149686, Q1 : 0.858643293381, Q2 : 0.056678622961, Q3 : -0.118861094117, Q4 : 0.495369821787}
2019-04-14 17:37:44.61: SIM {TimeUS : 57235430, Roll : 0.54, Pitch : -15.55, Yaw : 56.95, Alt : 49.2799987793, Lat : 49.2835957, Lng : -123.1149656, Q1 : 0.870615124702, Q2 : 0.0686496272683, Q3 : -0.11672796309, Q4 : 0.472959935665}
2019-04-14 17:37:44.71: SIM {TimeUS : 57335390, Roll : 1.99, Pitch : -15.8, Yaw : 54.2, Alt : 49.2799987793, Lat : 49.2835972, Lng : -123.1149624, Q1 : 0.880530118942, Q2 : 0.0779453888535, Q3 : -0.114537894726, Q4 : 0.453290522099}
2019-04-14 17:37:44.81: SIM {TimeUS : 57435350, Roll : 3.01, Pitch : -15.87, Yaw : 52.11, Alt : 49.2799987793, Lat : 49.2835989, Lng : -123.1149591, Q1 : 0.887847840786, Q2 : 0.0840428173542, Q3 : -0.112575732172, Q4 : 0.438166379929}
2019-04-14 17:37:44.91: SIM {TimeUS : 57535310, Roll : 3.56, Pitch : -15.83, Yaw : 50.81, Alt : 49.2799987793, Lat : 49.2836006, Lng : -123.1149557, Q1 : 0.89240437746, Q2 : 0.0869298353791, Q3 : -0.111161597073, Q4 : 0.428603291512}
2019-04-14 17:37:45.01: SIM {TimeUS : 57635270, Roll : 3.65, Pitch : -15.77, Yaw : 50.3, Alt : 49.2799987793, Lat : 49.2836023, Lng : -123.1149522, Q1 : 0.894301891327, Q2 : 0.0869188979268, Q3 : -0.110727898777, Q4 : 0.424745351076}
2019-04-14 17:37:45.11: SIM {TimeUS : 57735230, Roll : 3.33, Pitch : -15.75, Yaw : 50.5, Alt : 49.2799987793, Lat : 49.2836039, Lng : -123.1149485, Q1 : 0.893811881542, Q2 : 0.0845484435558, Q3 : -0.111612968147, Q4 : 0.426021695137}
2019-04-14 17:37:45.21: SIM {TimeUS : 57835190, Roll : 2.71, Pitch : -15.81, Yaw : 51.27, Alt : 49.2900009155, Lat : 49.2836056, Lng : -123.1149448, Q1 : 0.891323804855, Q2 : 0.0806741863489, Q3 : -0.113802991807, Q4 : 0.431372761726}
2019-04-14 17:37:45.31: SIM {TimeUS : 57935150, Roll : 1.91, Pitch : -15.94, Yaw : 52.42, Alt : 49.2900009155, Lat : 49.2836074, Lng : -123.1149409, Q1 : 0.887345016003, Q2 : 0.0760599002242, Q3 : -0.117101699114, Q4 : 0.439455240965}
2019-04-14 17:37:45.41: SIM {TimeUS : 58035110, Roll : 1.02, Pitch : -16.1, Yaw : 53.77, Alt : 49.2900009155, Lat : 49.2836091, Lng : -123.114937, Q1 : 0.882502019405, Q2 : 0.0712845996022, Q3 : -0.120937615633, Q4 : 0.448868334293}
2019-04-14 17:37:45.51: SIM {TimeUS : 58135070, Roll : 0.16, Pitch : -16.27, Yaw : 55.13, Alt : 49.2900009155, Lat : 49.2836108, Lng : -123.114933, Q1 : 0.877443313599, Q2 : 0.0667881444097, Q3 : -0.124797187746, Q4 : 0.458321064711}
2019-04-14 17:37:45.61: SIM {TimeUS : 58235030, Roll : -0.57, Pitch : -16.38, Yaw : 56.36, Alt : 49.2900009155, Lat : 49.2836126, Lng : -123.1149289, Q1 : 0.872793197632, Q2 : 0.0629499927163, Q3 : -0.127924740314, Q4 : 0.466802567244}
2019-04-14 17:37:45.71: SIM {TimeUS : 58334990, Roll : -1.1, Pitch : -16.43, Yaw : 57.33, Alt : 49.2900009155, Lat : 49.2836144, Lng : -123.1149248, Q1 : 0.869016587734, Q2 : 0.0602156482637, Q3 : -0.129989624023, Q4 : 0.473589450121}
2019-04-14 17:37:45.81: SIM {TimeUS : 58434950, Roll : -1.43, Pitch : -16.45, Yaw : 58.0, Alt : 49.2900009155, Lat : 49.2836163, Lng : -123.1149206, Q1 : 0.866415023804, Q2 : 0.0585543513298, Q3 : -0.13115824759, Q4 : 0.478219568729}
2019-04-14 17:37:45.91: SIM {TimeUS : 58534910, Roll : -1.53, Pitch : -16.46, Yaw : 58.33, Alt : 49.2900009155, Lat : 49.2836181, Lng : -123.1149164, Q1 : 0.865073680878, Q2 : 0.0581916086376, Q3 : -0.131524264812, Q4 : 0.480585753918}
2019-04-14 17:37:46.01: SIM {TimeUS : 58634870, Roll : -1.43, Pitch : -16.46, Yaw : 58.34, Alt : 49.2900009155, Lat : 49.2836201, Lng : -123.1149122, Q1 : 0.864944934845, Q2 : 0.0590119510889, Q3 : -0.131058424711, Q4 : 0.48084461689}
2019-04-14 17:37:46.11: SIM {TimeUS : 58734830, Roll : -1.18, Pitch : -16.46, Yaw : 58.1, Alt : 49.2900009155, Lat : 49.283622, Lng : -123.1149079, Q1 : 0.86582249403, Q2 : 0.0606358647346, Q3 : -0.130148604512, Q4 : 0.479307919741}
2019-04-14 17:37:46.21: SIM {TimeUS : 58834790, Roll : -0.85, Pitch : -16.5, Yaw : 57.67, Alt : 49.2900009155, Lat : 49.2836239, Lng : -123.1149035, Q1 : 0.867403507233, Q2 : 0.0627285465598, Q3 : -0.129290342331, Q4 : 0.476403564215}
2019-04-14 17:37:46.31: SIM {TimeUS : 58934750, Roll : -0.51, Pitch : -16.56, Yaw : 57.13, Alt : 49.2900009155, Lat : 49.283626, Lng : -123.1148991, Q1 : 0.869378268719, Q2 : 0.0650171115994, Q3 : -0.128630131483, Q4 : 0.472661167383}
2019-04-14 17:37:46.41: SIM {TimeUS : 59035543, Roll : -0.16, Pitch : -16.65, Yaw : 56.55, Alt : 49.2900009155, Lat : 49.283628, Lng : -123.1148947, Q1 : 0.871464848518, Q2 : 0.0673228055239, Q3 : -0.128211423755, Q4 : 0.468592047691}
2019-04-14 17:37:46.51: SIM {TimeUS : 59135503, Roll : 0.12, Pitch : -16.71, Yaw : 56.01, Alt : 49.2900009155, Lat : 49.2836299, Lng : -123.1148902, Q1 : 0.873423874378, Q2 : 0.0692367404699, Q3 : -0.12778185308, Q4 : 0.464767515659}
2019-04-14 17:37:46.61: SIM {TimeUS : 59235463, Roll : 0.37, Pitch : -16.75, Yaw : 55.56, Alt : 49.2900009155, Lat : 49.2836321, Lng : -123.1148856, Q1 : 0.875066459179, Q2 : 0.0707523152232, Q3 : -0.127421140671, Q4 : 0.461537241936}
2019-04-14 17:37:46.71: SIM {TimeUS : 59335423, Roll : 0.53, Pitch : -16.79, Yaw : 55.22, Alt : 49.2900009155, Lat : 49.2836341, Lng : -123.1148811, Q1 : 0.876268327236, Q2 : 0.071809925139, Q3 : -0.127264738083, Q4 : 0.459130495787}
2019-04-14 17:37:46.81: SIM {TimeUS : 59435383, Roll : 0.63, Pitch : -16.83, Yaw : 55.02, Alt : 49.2900009155, Lat : 49.2836361, Lng : -123.1148765, Q1 : 0.876982867718, Q2 : 0.0724493935704, Q3 : -0.127321392298, Q4 : 0.457647681236}
2019-04-14 17:37:46.91: SIM {TimeUS : 59535343, Roll : 0.64, Pitch : -16.86, Yaw : 54.94, Alt : 49.2900009155, Lat : 49.2836382, Lng : -123.1148719, Q1 : 0.877240538597, Q2 : 0.0725988596678, Q3 : -0.127540379763, Q4 : 0.457068830729}
2019-04-14 17:37:47.01: SIM {TimeUS : 59635303, Roll : 0.6, Pitch : -16.88, Yaw : 54.98, Alt : 49.2900009155, Lat : 49.2836402, Lng : -123.1148672, Q1 : 0.877093791962, Q2 : 0.0723890289664, Q3 : -0.127871483564, Q4 : 0.457291215658}
2019-04-14 17:37:47.11: SIM {TimeUS : 59735263, Roll : 0.49, Pitch : -16.9, Yaw : 55.1, Alt : 49.2900009155, Lat : 49.2836424, Lng : -123.1148624, Q1 : 0.876643300056, Q2 : 0.0718204975128, Q3 : -0.128326430917, Q4 : 0.458116441965}
2019-04-14 17:37:47.21: SIM {TimeUS : 59835223, Roll : 0.35, Pitch : -16.93, Yaw : 55.28, Alt : 49.2999992371, Lat : 49.2836445, Lng : -123.1148576, Q1 : 0.875975191593, Q2 : 0.071046680212, Q3 : -0.128978222609, Q4 : 0.459330409765}
2019-04-14 17:37:47.31: SIM {TimeUS : 59935183, Roll : 0.19, Pitch : -16.96, Yaw : 55.49, Alt : 49.2999992371, Lat : 49.2836466, Lng : -123.1148529, Q1 : 0.875200390816, Q2 : 0.0702124089003, Q3 : -0.129779040813, Q4 : 0.460708022118}
2019-04-14 17:37:47.41: SIM {TimeUS : 60035143, Roll : 0.04, Pitch : -17.01, Yaw : 55.69, Alt : 49.2999992371, Lat : 49.2836487, Lng : -123.1148481, Q1 : 0.874425590038, Q2 : 0.0694545283914, Q3 : -0.130655661225, Q4 : 0.46204444766}
2019-04-14 17:37:47.51: SIM {TimeUS : 60135103, Roll : -0.09, Pitch : -17.05, Yaw : 55.87, Alt : 49.2999992371, Lat : 49.2836507, Lng : -123.1148432, Q1 : 0.873761475086, Q2 : 0.0687268972397, Q3 : -0.131433904171, Q4 : 0.463187515736}
2019-04-14 17:37:47.61: SIM {TimeUS : 60235063, Roll : -0.21, Pitch : -17.07, Yaw : 56.0, Alt : 49.2999992371, Lat : 49.283653, Lng : -123.1148384, Q1 : 0.873276054859, Q2 : 0.0681011676788, Q3 : -0.131949469447, Q4 : 0.464048027992}
2019-04-14 17:37:47.71: SIM {TimeUS : 60335023, Roll : -0.28, Pitch : -17.1, Yaw : 56.08, Alt : 49.2999992371, Lat : 49.2836551, Lng : -123.1148335, Q1 : 0.872970223427, Q2 : 0.0677096769214, Q3 : -0.132403567433, Q4 : 0.464551091194}
2019-04-14 17:37:47.81: SIM {TimeUS : 60434983, Roll : -0.3, Pitch : -17.14, Yaw : 56.1, Alt : 49.2999992371, Lat : 49.2836572, Lng : -123.1148286, Q1 : 0.872831702232, Q2 : 0.0677706748247, Q3 : -0.132745802402, Q4 : 0.464704781771}
2019-04-14 17:37:47.91: SIM {TimeUS : 60534943, Roll : -0.27, Pitch : -17.18, Yaw : 56.08, Alt : 49.2999992371, Lat : 49.2836595, Lng : -123.1148236, Q1 : 0.872870147228, Q2 : 0.068114168942, Q3 : -0.132953360677, Q4 : 0.464522957802}
2019-04-14 17:37:48.01: SIM {TimeUS : 60634903, Roll : -0.2, Pitch : -17.22, Yaw : 56.01, Alt : 49.2999992371, Lat : 49.2836616, Lng : -123.1148187, Q1 : 0.873046219349, Q2 : 0.0687564983964, Q3 : -0.133004754782, Q4 : 0.464082539082}
2019-04-14 17:37:48.11: SIM {TimeUS : 60734863, Roll : -0.1, Pitch : -17.26, Yaw : 55.92, Alt : 49.2999992371, Lat : 49.2836639, Lng : -123.1148137, Q1 : 0.873319685459, Q2 : 0.0695697814226, Q3 : -0.132958188653, Q4 : 0.463459730148}
2019-04-14 17:37:48.21: SIM {TimeUS : 60834823, Roll : -0.01, Pitch : -17.29, Yaw : 55.81, Alt : 49.3100013733, Lat : 49.2836661, Lng : -123.1148087, Q1 : 0.873670935631, Q2 : 0.0702733546495, Q3 : -0.132901385427, Q4 : 0.462707221508}
2019-04-14 17:37:48.31: SIM {TimeUS : 60934783, Roll : 0.05, Pitch : -17.3, Yaw : 55.7, Alt : 49.3100013733, Lat : 49.2836682, Lng : -123.1148037, Q1 : 0.874069929123, Q2 : 0.070682041347, Q3 : -0.132785961032, Q4 : 0.461923927069}
2019-04-14 17:37:48.41: SIM {TimeUS : 61034743, Roll : 0.08, Pitch : -17.3, Yaw : 55.59, Alt : 49.3100013733, Lat : 49.2836706, Lng : -123.1147987, Q1 : 0.87446552515, Q2 : 0.0708258226514, Q3 : -0.132747039199, Q4 : 0.461163729429}
2019-04-14 17:37:48.51: SIM {TimeUS : 61135536, Roll : 0.12, Pitch : -17.31, Yaw : 55.5, Alt : 49.3100013733, Lat : 49.2836728, Lng : -123.1147936, Q1 : 0.874804198742, Q2 : 0.0710067301989, Q3 : -0.132700636983, Q4 : 0.460506498814}
2019-04-14 17:37:48.61: SIM {TimeUS : 61235496, Roll : 0.15, Pitch : -17.32, Yaw : 55.43, Alt : 49.3100013733, Lat : 49.283675, Lng : -123.1147885, Q1 : 0.875051856041, Q2 : 0.0712101981044, Q3 : -0.132736891508, Q4 : 0.459993839264}
2019-04-14 17:37:48.71: SIM {TimeUS : 61335456, Roll : 0.18, Pitch : -17.36, Yaw : 55.38, Alt : 49.3100013733, Lat : 49.2836773, Lng : -123.1147834, Q1 : 0.875170528889, Q2 : 0.0715952515602, Q3 : -0.132928207517, Q4 : 0.459652781487}
2019-04-14 17:37:48.81: SIM {TimeUS : 61435416, Roll : 0.21, Pitch : -17.42, Yaw : 55.36, Alt : 49.3100013733, Lat : 49.2836796, Lng : -123.1147783, Q1 : 0.875181913376, Q2 : 0.0720115080476, Q3 : -0.133313640952, Q4 : 0.459454447031}
2019-04-14 17:37:48.91: SIM {TimeUS : 61535376, Roll : 0.21, Pitch : -17.46, Yaw : 55.35, Alt : 49.3100013733, Lat : 49.2836819, Lng : -123.1147731, Q1 : 0.875157356262, Q2 : 0.0721864849329, Q3 : -0.133587583899, Q4 : 0.459394335747}
2019-04-14 17:37:49.01: SIM {TimeUS : 61635336, Roll : 0.2, Pitch : -17.46, Yaw : 55.36, Alt : 49.3100013733, Lat : 49.283684, Lng : -123.114768, Q1 : 0.875121355057, Q2 : 0.0721470564604, Q3 : -0.133641436696, Q4 : 0.459453374147}
2019-04-14 17:37:49.11: SIM {TimeUS : 61735296, Roll : 0.18, Pitch : -17.47, Yaw : 55.38, Alt : 49.3100013733, Lat : 49.2836864, Lng : -123.1147629, Q1 : 0.875053822994, Q2 : 0.072045519948, Q3 : -0.133748874068, Q4 : 0.459566652775}
2019-04-14 17:37:49.21: SIM {TimeUS : 61835256, Roll : 0.14, Pitch : -17.49, Yaw : 55.4, Alt : 49.3100013733, Lat : 49.2836887, Lng : -123.1147577, Q1 : 0.874971568584, Q2 : 0.0717743784189, Q3 : -0.134067952633, Q4 : 0.459672749043}
2019-04-14 17:37:49.31: SIM {TimeUS : 61935216, Roll : 0.1, Pitch : -17.5, Yaw : 55.43, Alt : 49.3199996948, Lat : 49.283691, Lng : -123.1147525, Q1 : 0.874889433384, Q2 : 0.0715770944953, Q3 : -0.134331181645, Q4 : 0.459782928228}
2019-04-14 17:37:49.41: SIM {TimeUS : 62035176, Roll : 0.07, Pitch : -17.53, Yaw : 55.44, Alt : 49.3199996948, Lat : 49.2836932, Lng : -123.1147473, Q1 : 0.874827265739, Q2 : 0.0714304223657, Q3 : -0.134606108069, Q4 : 0.459843665361}
2019-04-14 17:37:49.51: SIM {TimeUS : 62135136, Roll : 0.05, Pitch : -17.54, Yaw : 55.45, Alt : 49.3199996948, Lat : 49.2836955, Lng : -123.1147421, Q1 : 0.874790728092, Q2 : 0.0713617801666, Q3 : -0.134822547436, Q4 : 0.459860444069}
2019-04-14 17:37:49.61: SIM {TimeUS : 62235096, Roll : 0.04, Pitch : -17.57, Yaw : 55.45, Alt : 49.3199996948, Lat : 49.2836979, Lng : -123.1147369, Q1 : 0.874769032001, Q2 : 0.0714478343725, Q3 : -0.13503459096, Q4 : 0.459826052189}
2019-04-14 17:37:49.71: SIM {TimeUS : 62335056, Roll : 0.06, Pitch : -17.59, Yaw : 55.43, Alt : 49.3199996948, Lat : 49.2837002, Lng : -123.1147317, Q1 : 0.874780356884, Q2 : 0.0716190561652, Q3 : -0.135123729706, Q4 : 0.459751695395}
2019-04-14 17:37:49.81: SIM {TimeUS : 62435016, Roll : 0.09, Pitch : -17.61, Yaw : 55.42, Alt : 49.3199996948, Lat : 49.2837026, Lng : -123.1147264, Q1 : 0.87480533123, Q2 : 0.0719127655029, Q3 : -0.135191857815, Q4 : 0.459638297558}
2019-04-14 17:37:49.91: SIM {TimeUS : 62534976, Roll : 0.12, Pitch : -17.63, Yaw : 55.39, Alt : 49.3199996948, Lat : 49.2837048, Lng : -123.1147212, Q1 : 0.874856114388, Q2 : 0.0722058787942, Q3 : -0.135253831744, Q4 : 0.459477394819}
2019-04-14 17:37:50.01: SIM {TimeUS : 62634936, Roll : 0.13, Pitch : -17.66, Yaw : 55.36, Alt : 49.3199996948, Lat : 49.2837071, Lng : -123.1147159, Q1 : 0.874931037426, Q2 : 0.07236944139, Q3 : -0.135465398431, Q4 : 0.459246695042}
2019-04-14 17:37:50.11: SIM {TimeUS : 62734896, Roll : 0.13, Pitch : -17.7, Yaw : 55.33, Alt : 49.3199996948, Lat : 49.2837095, Lng : -123.1147107, Q1 : 0.875009894371, Q2 : 0.0724809765816, Q3 : -0.13579146564, Q4 : 0.458982467651}
2019-04-14 17:37:50.21: SIM {TimeUS : 62834856, Roll : 0.12, Pitch : -17.75, Yaw : 55.3, Alt : 49.3199996948, Lat : 49.2837119, Lng : -123.1147054, Q1 : 0.875086724758, Q2 : 0.0725689232349, Q3 : -0.136181056499, Q4 : 0.458706557751}
2019-04-14 17:37:50.31: SIM {TimeUS : 62934816, Roll : 0.13, Pitch : -17.78, Yaw : 55.27, Alt : 49.3199996948, Lat : 49.2837143, Lng : -123.1147001, Q1 : 0.875164628029, Q2 : 0.0727444663644, Q3 : -0.136392101645, Q4 : 0.458467334509}
2019-04-14 17:37:50.41: SIM {TimeUS : 63034776, Roll : 0.15, Pitch : -17.79, Yaw : 55.24, Alt : 49.3199996948, Lat : 49.2837166, Lng : -123.1146948, Q1 : 0.875259995461, Q2 : 0.0728705450892, Q3 : -0.136396288872, Q4 : 0.45826408267}
2019-04-14 17:37:50.51: SIM {TimeUS : 63134736, Roll : 0.16, Pitch : -17.77, Yaw : 55.22, Alt : 49.3199996948, Lat : 49.283719, Lng : -123.1146894, Q1 : 0.875366687775, Q2 : 0.0728968381882, Q3 : -0.1362195611, Q4 : 0.458108603954}
2019-04-14 17:37:50.61: SIM {TimeUS : 63235529, Roll : 0.16, Pitch : -17.75, Yaw : 55.2, Alt : 49.3199996948, Lat : 49.2837214, Lng : -123.1146841, Q1 : 0.875464975834, Q2 : 0.0727657601237, Q3 : -0.136061877012, Q4 : 0.457988381386}
2019-04-14 17:37:50.71: SIM {TimeUS : 63335489, Roll : 0.15, Pitch : -17.72, Yaw : 55.19, Alt : 49.3199996948, Lat : 49.2837238, Lng : -123.1146787, Q1 : 0.875551223755, Q2 : 0.0725776851177, Q3 : -0.135915532708, Q4 : 0.457896918058}
2019-04-14 17:37:50.81: SIM {TimeUS : 63435449, Roll : 0.14, Pitch : -17.71, Yaw : 55.18, Alt : 49.3199996948, Lat : 49.283726, Lng : -123.1146734, Q1 : 0.875601887703, Q2 : 0.0724593475461, Q3 : -0.135859712958, Q4 : 0.457835227251}
2019-04-14 17:37:50.91: SIM {TimeUS : 63535409, Roll : 0.14, Pitch : -17.72, Yaw : 55.17, Alt : 49.3300018311, Lat : 49.2837284, Lng : -123.114668, Q1 : 0.875612914562, Q2 : 0.0724402219057, Q3 : -0.136004030704, Q4 : 0.457774341106}
2019-04-14 17:37:51.01: SIM {TimeUS : 63635369, Roll : 0.13, Pitch : -17.74, Yaw : 55.17, Alt : 49.3300018311, Lat : 49.2837308, Lng : -123.1146626, Q1 : 0.875609576702, Q2 : 0.0725027322769, Q3 : -0.136179894209, Q4 : 0.457718580961}
2019-04-14 17:37:51.11: SIM {TimeUS : 63735329, Roll : 0.12, Pitch : -17.79, Yaw : 55.16, Alt : 49.3300018311, Lat : 49.2837332, Lng : -123.1146573, Q1 : 0.875583469868, Q2 : 0.0726018771529, Q3 : -0.136557981372, Q4 : 0.457640081644}
2019-04-14 17:37:51.21: SIM {TimeUS : 63835289, Roll : 0.12, Pitch : -17.84, Yaw : 55.16, Alt : 49.3300018311, Lat : 49.2837357, Lng : -123.1146519, Q1 : 0.875552773476, Q2 : 0.0727524906397, Q3 : -0.136968612671, Q4 : 0.457552284002}
2019-04-14 17:37:51.31: SIM {TimeUS : 63935249, Roll : 0.13, Pitch : -17.88, Yaw : 55.15, Alt : 49.3300018311, Lat : 49.2837381, Lng : -123.1146465, Q1 : 0.875533759594, Q2 : 0.0729778259993, Q3 : -0.137246549129, Q4 : 0.457469463348}
2019-04-14 17:37:51.41: SIM {TimeUS : 64035209, Roll : 0.13, Pitch : -17.91, Yaw : 55.14, Alt : 49.3300018311, Lat : 49.2837405, Lng : -123.1146411, Q1 : 0.875536978245, Q2 : 0.0730845779181, Q3 : -0.137519165874, Q4 : 0.457364320755}
2019-04-14 17:37:51.51: SIM {TimeUS : 64135169, Roll : 0.13, Pitch : -17.93, Yaw : 55.13, Alt : 49.3300018311, Lat : 49.2837429, Lng : -123.1146357, Q1 : 0.875562489033, Q2 : 0.0731385573745, Q3 : -0.13767375052, Q4 : 0.457260400057}
2019-04-14 17:37:51.61: SIM {TimeUS : 64235129, Roll : 0.15, Pitch : -17.93, Yaw : 55.11, Alt : 49.3300018311, Lat : 49.2837453, Lng : -123.1146302, Q1 : 0.87561070919, Q2 : 0.0732478275895, Q3 : -0.137558221817, Q4 : 0.457185328007}
2019-04-14 17:37:51.71: SIM {TimeUS : 64335089, Roll : 0.17, Pitch : -17.93, Yaw : 55.1, Alt : 49.3300018311, Lat : 49.2837477, Lng : -123.1146249, Q1 : 0.875647842884, Q2 : 0.0734556317329, Q3 : -0.13750205934, Q4 : 0.457097709179}
2019-04-14 17:37:51.81: SIM {TimeUS : 64435049, Roll : 0.18, Pitch : -17.95, Yaw : 55.08, Alt : 49.3300018311, Lat : 49.2837501, Lng : -123.1146195, Q1 : 0.87568116188, Q2 : 0.0735969170928, Q3 : -0.137601092458, Q4 : 0.456981420517}
2019-04-14 17:37:51.91: SIM {TimeUS : 64535009, Roll : 0.19, Pitch : -17.96, Yaw : 55.07, Alt : 49.3300018311, Lat : 49.2837525, Lng : -123.114614, Q1 : 0.875727236271, Q2 : 0.0736766755581, Q3 : -0.137644201517, Q4 : 0.456867277622}
2019-04-14 17:37:52.01: SIM {TimeUS : 64634969, Roll : 0.19, Pitch : -17.95, Yaw : 55.05, Alt : 49.3300018311, Lat : 49.2837549, Lng : -123.1146086, Q1 : 0.875792264938, Q2 : 0.0736572220922, Q3 : -0.137599214911, Q4 : 0.456759333611}
2019-04-14 17:37:52.11: SIM {TimeUS : 64734929, Roll : 0.19, Pitch : -17.95, Yaw : 55.04, Alt : 49.3300018311, Lat : 49.2837574, Lng : -123.1146032, Q1 : 0.87585324049, Q2 : 0.0736020505428, Q3 : -0.13760098815, Q4 : 0.456650674343}
2019-04-14 17:37:52.21: SIM {TimeUS : 64834889, Roll : 0.17, Pitch : -17.97, Yaw : 55.02, Alt : 49.3400001526, Lat : 49.2837598, Lng : -123.1145977, Q1 : 0.875895500183, Q2 : 0.0734855234623, Q3 : -0.137852370739, Q4 : 0.456512540579}
2019-04-14 17:37:52.31: SIM {TimeUS : 64934849, Roll : 0.13, Pitch : -18.01, Yaw : 55.01, Alt : 49.3400001526, Lat : 49.2837622, Lng : -123.1145923, Q1 : 0.875915884972, Q2 : 0.0733698308468, Q3 : -0.138280153275, Q4 : 0.456362694502}
2019-04-14 17:37:52.41: SIM {TimeUS : 65034809, Roll : 0.12, Pitch : -18.01, Yaw : 55.0, Alt : 49.3400001526, Lat : 49.2837647, Lng : -123.1145868, Q1 : 0.875958263874, Q2 : 0.0732572004199, Q3 : -0.138396695256, Q4 : 0.456264048815}
2019-04-14 17:37:52.51: SIM {TimeUS : 65134769, Roll : 0.13, Pitch : -18.0, Yaw : 54.99, Alt : 49.3400001526, Lat : 49.2837671, Lng : -123.1145813, Q1 : 0.876004040241, Q2 : 0.0732827484608, Q3 : -0.138252288103, Q4 : 0.456215798855}
2019-04-14 17:37:52.61: SIM {TimeUS : 65235562, Roll : 0.15, Pitch : -17.99, Yaw : 54.98, Alt : 49.3400001526, Lat : 49.2837696, Lng : -123.1145758, Q1 : 0.876039028168, Q2 : 0.073399476707, Q3 : -0.138097822666, Q4 : 0.456176698208}
2019-04-14 17:37:52.71: SIM {TimeUS : 65335522, Roll : 0.17, Pitch : -17.99, Yaw : 54.97, Alt : 49.3400001526, Lat : 49.283772, Lng : -123.1145703, Q1 : 0.87606215477, Q2 : 0.0735214501619, Q3 : -0.1380854249, Q4 : 0.456116259098}
2019-04-14 17:37:52.81: SIM {TimeUS : 65435482, Roll : 0.16, Pitch : -18.01, Yaw : 54.97, Alt : 49.3400001526, Lat : 49.2837745, Lng : -123.1145649, Q1 : 0.876091003418, Q2 : 0.0734984949231, Q3 : -0.1382124722, Q4 : 0.456026136875}
2019-04-14 17:37:52.91: SIM {TimeUS : 65535442, Roll : 0.13, Pitch : -18.03, Yaw : 54.96, Alt : 49.3400001526, Lat : 49.2837769, Lng : -123.1145594, Q1 : 0.876119852066, Q2 : 0.0733647122979, Q3 : -0.138491764665, Q4 : 0.455907523632}
2019-04-14 17:37:53.01: SIM {TimeUS : 65635402, Roll : 0.12, Pitch : -18.06, Yaw : 54.95, Alt : 49.3400001526, Lat : 49.2837793, Lng : -123.1145539, Q1 : 0.876138091087, Q2 : 0.073347106576, Q3 : -0.138765066862, Q4 : 0.455792218447}
2019-04-14 17:37:53.11: SIM {TimeUS : 65735362, Roll : 0.12, Pitch : -18.08, Yaw : 54.93, Alt : 49.3400001526, Lat : 49.2837818, Lng : -123.1145484, Q1 : 0.876148641109, Q2 : 0.0734743922949, Q3 : -0.138948068023, Q4 : 0.45569562912}
2019-04-14 17:37:53.21: SIM {TimeUS : 65835322, Roll : 0.13, Pitch : -18.1, Yaw : 54.92, Alt : 49.3400001526, Lat : 49.2837843, Lng : -123.1145429, Q1 : 0.876158475876, Q2 : 0.0736294090748, Q3 : -0.139076963067, Q4 : 0.455612361431}
2019-04-14 17:37:53.31: SIM {TimeUS : 65935282, Roll : 0.16, Pitch : -18.11, Yaw : 54.91, Alt : 49.3400001526, Lat : 49.2837867, Lng : -123.1145374, Q1 : 0.876171410084, Q2 : 0.0738499611616, Q3 : -0.139064207673, Q4 : 0.455555766821}
2019-04-14 17:37:53.41: SIM {TimeUS : 66035242, Roll : 0.17, Pitch : -18.12, Yaw : 54.9, Alt : 49.3400001526, Lat : 49.2837892, Lng : -123.1145319, Q1 : 0.876184940338, Q2 : 0.0740032345057, Q3 : -0.139079764485, Q4 : 0.45550006628}
2019-04-14 17:37:53.51: SIM {TimeUS : 66135202, Roll : 0.19, Pitch : -18.13, Yaw : 54.89, Alt : 49.3400001526, Lat : 49.2837916, Lng : -123.1145264, Q1 : 0.876197516918, Q2 : 0.0741453245282, Q3 : -0.139105096459, Q4 : 0.455445051193}
