2019-04-14 17:33:46.00: SIM {TimeUS : 40416327, Roll : 0.0, Pitch : 0.0, Yaw : 0.0, Alt : 30.1000003815, Lat : 49.28357, Lng : -123.11502, Q1 : 1.0, Q2 : 0.0, Q3 : 0.0, Q4 : 0.0}
2019-04-14 17:33:46.11: SIM {TimeUS : 40535446, Roll : 0.0, Pitch : 0.0, Yaw : 0.0, Alt : 30.1000003815, Lat : 49.28357, Lng : -123.11502, Q1 : 1.0, Q2 : 0.0, Q3 : 0.0, Q4 : 0.0}
2019-04-14 17:33:46.21: SIM {TimeUS : 40635406, Roll : 0.0, Pitch : 0.0, Yaw : 0.0, Alt : 30.1000003815, Lat : 49.28357, Lng : -123.11502, Q1 : 1.0, Q2 : 0.0, Q3 : 0.0, Q4 : 0.0}
2019-04-14 17:33:46.31: SIM {TimeUS : 40735366, Roll : 0.0, Pitch : 0.0, Yaw : 0.0, Alt : 30.1000003815, Lat : 49.28357, Lng : -123.11502, Q1 : 1.0, Q2 : 0.0, Q3 : 0.0, Q4 : 0.0}
2019-04-14 17:33:46.41: SIM {TimeUS : 40835326, Roll : 0.0, Pitch : 0.0, Yaw : 0.0, Alt : 30.1000003815, Lat : 49.28357, Lng : -123.11502, Q1 : 1.0, Q2 : 0.0, Q3 : 0.0, Q4 : 0.0}
2019-04-14 17:33:46.51: SIM {TimeUS : 40935286, Roll : 0.0, Pitch : 0.0, Yaw : 0.0, Alt : 30.1000003815, Lat : 49.28357, Lng : -123.11502, Q1 : 1.0, Q2 : 0.0, Q3 : 0.0, Q4 : 0.0}
2019-04-14 17:33:46.61: SIM {TimeUS : 41035246, Roll : 0.0, Pitch : 0.0, Yaw : 0.0, Alt : 30.1000003815, Lat : 49.28357, Lng : -123.11502, Q1 : 1.0, Q2 : 0.0, Q3 : 0.0, Q4 : 0.0}
2019-04-14 17:33:46.71: SIM {TimeUS : 41135206, Roll : 0.0, Pitch : 0.0, Yaw : 0.0, Alt : 30.1000003815, Lat : 49.28357, Lng : -123.11502, Q1 : 1.0, Q2 : 0.0, Q3 : 0.0, Q4 : 0.0}
2019-04-14 17:33:46.81: SIM {TimeUS : 41235166, Roll : 0.0, Pitch : 0.0, Yaw : 0.0, Alt : 30.1000003815, Lat : 49.28357, Lng : -123.11502, Q1 : 1.0, Q2 : 0.0, Q3 : 0.0, Q4 : 0.0}
2019-04-14 17:33:46.91: SIM {TimeUS : 41335126, Roll : 0.0, Pitch : 0.0, Yaw : 0.0, Alt : 30.1000003815, Lat : 49.28357, Lng : -123.11502, Q1 : 1.0, Q2 : 0.0, Q3 : 0.0, Q4 : 0.0}
2019-04-14 17:33:47.01: SIM {TimeUS : 41435086, Roll : 0.0, Pitch : 0.0, Yaw : 0.0, Alt : 30.1000003815, Lat : 49.28357, Lng : -123.11502, Q1 : 1.0, Q2 : 0.0, Q3 : 0.0, Q4 : 0.0}
2019-04-14 17:33:47.11: SIM {TimeUS : 41535046, Roll : 0.0, Pitch : 0.0, Yaw : 0.0, Alt : 30.1000003815, Lat : 49.28357, Lng : -123.11502, Q1 : 1.0, Q2 : 0.0, Q3 : 0.0, Q4 : 0.0}
2019-04-14 17:33:47.21: SIM {TimeUS : 41635006, Roll : 0.0, Pitch : 0.0, Yaw : 0.0, Alt : 30.1000003815, Lat : 49.28357, Lng : -123.11502, Q1 : 1.0, Q2 : 0.0, Q3 : 0.0, Q4 : 0.0}
2019-04-14 17:33:47.31: SIM {TimeUS : 41734966, Roll : 0.0, Pitch : 0.0, Yaw : 0.0, Alt : 30.1000003815, Lat : 49.28357, Lng : -123.11502, Q1 : 1.0, Q2 : 0.0, Q3 : 0.0, Q4 : 0.0}
2019-04-14 17:33:47.41: SIM {TimeUS : 41834926, Roll : 0.0, Pitch : 0.0, Yaw : 0.0, Alt : 30.1000003815, Lat : 49.28357, Lng : -123.11502, Q1 : 1.0, Q2 : 0.0, Q3 : 0.0, Q4 : 0.0}
2019-04-14 17:33:47.51: SIM {TimeUS : 41934886, Roll : 0.0, Pitch : 0.0, Yaw : 0.0, Alt : 30.1000003815, Lat : 49.28357, Lng : -123.11502, Q1 : 1.0, Q2 : 0.0, Q3 : 0.0, Q4 : 0.0}
2019-04-14 17:33:47.61: SIM {TimeUS : 42034846, Roll : 0.0, Pitch : 0.0, Yaw : 0.0, Alt : 30.1000003815, Lat : 49.28357, Lng : -123.11502, Q1 : 1.0, Q2 : 0.0, Q3 : 0.0, Q4 : 0.0}
2019-04-14 17:33:47.71: SIM {TimeUS : 42134806, Roll : 0.0, Pitch : 0.0, Yaw : 0.0, Alt : 30.1000003815, Lat : 49.28357, Lng : -123.11502, Q1 : 1.0, Q2 : 0.0, Q3 : 0.0, Q4 : 0.0}
2019-04-14 17:33:47.81: SIM {TimeUS : 42234766, Roll : 0.0, Pitch : 0.0, Yaw : 0.0, Alt : 30.1000003815, Lat : 49.28357, Lng : -123.11502, Q1 : 1.0, Q2 : 0.0, Q3 : 0.0, Q4 : 0.0}
2019-04-14 17:33:47.91: SIM {TimeUS : 42334726, Roll : 0.0, Pitch : 0.0, Yaw : 0.0, Alt : 30.1000003815, Lat : 49.28357, Lng : -123.11502, Q1 : 1.0, Q2 : 0.0, Q3 : 0.0, Q4 : 0.0}
2019-04-14 17:33:48.01: SIM {TimeUS : 42434686, Roll : 0.0, Pitch : 0.0, Yaw : 0.0, Alt : 30.1000003815, Lat : 49.28357, Lng : -123.11502, Q1 : 1.0, Q2 : 0.0, Q3 : 0.0, Q4 : 0.0}
2019-04-14 17:33:48.11: SIM {TimeUS : 42535479, Roll : 0.0, Pitch : 0.0, Yaw : 0.0, Alt : 30.1000003815, Lat : 49.28357, Lng : -123.11502, Q1 : 1.0, Q2 : 0.0, Q3 : 0.0, Q4 : 0.0}
2019-04-14 17:33:48.21: SIM {TimeUS : 42635439, Roll : 0.0, Pitch : 0.0, Yaw : 0.0, Alt : 30.1000003815, Lat : 49.28357, Lng : -123.11502, Q1 : 1.0, Q2 : 0.0, Q3 : 0.0, Q4 : 0.0}
2019-04-14 17:33:48.31: SIM {TimeUS : 42735399, Roll : 0.0, Pitch : 0.0, Yaw : 0.0, Alt : 30.1000003815, Lat : 49.28357, Lng : -123.11502, Q1 : 1.0, Q2 : 0.0, Q3 : 0.0, Q4 : 6.82903594784e-11}
2019-04-14 17:33:48.41: SIM {TimeUS : 42835359, Roll : 0.0, Pitch : 0.0, Yaw : 0.0, Alt : 30.1000003815, Lat : 49.28357, Lng : -123.11502, Q1 : 1.0, Q2 : 0.0, Q3 : 0.0, Q4 : 2.50326148699e-10}
2019-04-14 17:33:48.51: SIM {TimeUS : 42935319, Roll : 0.0, Pitch : 0.0, Yaw : 360.0, Alt : 30.1000003815, Lat : 49.28357, Lng : -123.11502, Q1 : 1.0, Q2 : 0.0, Q3 : 0.0, Q4 : -1.69380413695e-07}
2019-04-14 17:33:48.61: SIM {TimeUS : 43035279, Roll : 0.0, Pitch : 0.0, Yaw : 359.99, Alt : 30.1000003815, Lat : 49.28357, Lng : -123.11502, Q1 : 1.0, Q2 : 0.0, Q3 : 0.0, Q4 : -3.49062133864e-07}
2019-04-14 17:33:48.71: SIM {TimeUS : 43135239, Roll : 0.0, Pitch : 0.0, Yaw : 359.99, Alt : 30.1000003815, Lat : 49.28357, Lng : -123.11502, Q1 : 1.0, Q2 : 0.0, Q3 : 0.0, Q4 : -5.74616706217e-07}
2019-04-14 17:33:48.81: SIM {TimeUS : 43235199, Roll : 0.0, Pitch : 0.0, Yaw : 359.99, Alt : 30.1000003815, Lat : 49.28357, Lng : -123.11502, Q1 : 1.0, Q2 : 0.0, Q3 : 0.0, Q4 : -7.51579136704e-07}
2019-04-14 17:33:48.91: SIM {TimeUS : 43335159, Roll : 0.0, Pitch : 0.0, Yaw : 359.99, Alt : 30.1000003815, Lat : 49.28357, Lng : -123.11502, Q1 : 1.0, Q2 : 0.0, Q3 : 0.0, Q4 : -9.35930643209e-07}
2019-04-14 17:33:49.01: SIM {TimeUS : 43435119, Roll : 0.0, Pitch : 0.0, Yaw : 359.99, Alt : 30.1000003815, Lat : 49.28357, Lng : -123.11502, Q1 : 1.0, Q2 : 0.0, Q3 : 0.0, Q4 : -1.15681962143e-06}
2019-04-14 17:33:49.11: SIM {TimeUS : 43535079, Roll : 0.0, Pitch : 0.0, Yaw : 359.99, Alt : 30.1000003815, Lat : 49.28357, Lng : -123.11502, Q1 : 1.0, Q2 : 0.0, Q3 : 0.0, Q4 : -1.37093627472e-06}
2019-04-14 17:33:49.21: SIM {TimeUS : 43635039, Roll : 0.0, Pitch : 0.0, Yaw : 359.99, Alt : 30.1100006104, Lat : 49.28357, Lng : -123.11502, Q1 : 1.0, Q2 : 0.0, Q3 : 0.0, Q4 : -1.5812034917e-06}
2019-04-14 17:33:49.31: SIM {TimeUS : 43734999, Roll : 0.0, Pitch : 0.0, Yaw : 359.99, Alt : 30.1399993896, Lat : 49.28357, Lng : -123.11502, Q1 : 1.0, Q2 : 0.0, Q3 : 0.0, Q4 : -1.8087710032e-06}
2019-04-14 17:33:49.41: SIM {TimeUS : 43834959, Roll : 0.0, Pitch : 0.0, Yaw : 359.99, Alt : 30.1700000763, Lat : 49.28357, Lng : -123.11502, Q1 : 1.0, Q2 : 0.0, Q3 : 0.0, Q4 : -1.99264854928e-06}
2019-04-14 17:33:49.51: SIM {TimeUS : 43934919, Roll : 0.0, Pitch : 0.0, Yaw : 359.99, Alt : 30.2000007629, Lat : 49.28357, Lng : -123.11502, Q1 : 1.0, Q2 : 0.0, Q3 : 0.0, Q4 : -2.1992375423e-06}
2019-04-14 17:33:49.61: SIM {TimeUS : 44034879, Roll : -0.1, Pitch : -0.09, Yaw : 359.99, Alt : 30.25, Lat : 49.28357, Lng : -123.11502, Q1 : 0.999999284744, Q2 : -0.000883506494574, Q3 : -0.000815397710539, Q4 : -9.38822358876e-06}
2019-04-14 17:33:49.71: SIM {TimeUS : 44134839, Roll : -0.4, Pitch : -0.36, Yaw : 359.99, Alt : 30.3400001526, Lat : 49.28357, Lng : -123.11502, Q1 : 0.999988436699, Q2 : -0.0035680369474, Q3 : -0.00322285387665, Q4 : -4.12879380747e-05}
2019-04-14 17:33:49.81: SIM {TimeUS : 44234799, Roll : -0.72, Pitch : -0.63, Yaw : 359.99, Alt : 30.4899997711, Lat : 49.28357, Lng : -123.11502, Q1 : 0.99996471405, Q2 : -0.00629493920133, Q3 : -0.0055642593652, Q4 : -9.85257720458e-05}
2019-04-14 17:33:49.91: SIM {TimeUS : 44334759, Roll : -0.89, Pitch : -0.77, Yaw : 359.98, Alt : 30.6499996185, Lat : 49.28357, Lng : -123.11502, Q1 : 0.999946951866, Q2 : -0.00776753714308, Q3 : -0.00676488643512, Q4 : -0.000177734706085}
2019-04-14 17:33:50.01: SIM {TimeUS : 44434719, Roll : -0.86, Pitch : -0.77, Yaw : 359.97, Alt : 30.8099994659, Lat : 49.28357, Lng : -123.11502, Q1 : 0.999948859215, Q2 : -0.00750842643902, Q3 : -0.0067653353326, Q4 : -0.000263892492512}
2019-04-14 17:33:50.11: SIM {TimeUS : 44534679, Roll : -0.69, Pitch : -0.64, Yaw : 359.96, Alt : 30.9599990845, Lat : 49.28357, Lng : -123.1150201, Q1 : 0.999965727329, Q2 : -0.00606576167047, Q3 : -0.00562226912007, Q4 : -0.000348746136297}
2019-04-14 17:33:50.21: SIM {TimeUS : 44635472, Roll : -0.47, Pitch : -0.43, Yaw : 359.95, Alt : 31.1100006104, Lat : 49.2835701, Lng : -123.1150202, Q1 : 0.99998408556, Q2 : -0.00416002329439, Q3 : -0.00377930421382, Q4 : -0.000426683953265}
2019-04-14 17:33:50.31: SIM {TimeUS : 44735432, Roll : -0.26, Pitch : -0.22, Yaw : 359.94, Alt : 31.2700004578, Lat : 49.2835701, Lng : -123.1150203, Q1 : 0.999995410442, Q2 : -0.00227125012316, Q3 : -0.00193785654847, Q4 : -0.000489639642183}
2019-04-14 17:33:50.41: SIM {TimeUS : 44835392, Roll : -0.08, Pitch : -0.05, Yaw : 359.93, Alt : 31.4400005341, Lat : 49.2835702, Lng : -123.1150203, Q1 : 0.999999463558, Q2 : -0.000716312730219, Q3 : -0.000513862585649, Q4 : -0.000532148464117}
2019-04-14 17:33:50.51: SIM {TimeUS : 44935352, Roll : 0.03, Pitch : 0.03, Yaw : 359.93, Alt : 31.6200008392, Lat : 49.2835702, Lng : -123.1150204, Q1 : 0.999999761581, Q2 : 0.000291618896881, Q3 : 0.000300977379084, Q4 : -0.000554526108317}
2019-04-14 17:33:50.61: SIM {TimeUS : 45035312, Roll : 0.09, Pitch : 0.06, Yaw : 359.93, Alt : 31.7900009155, Lat : 49.2835703, Lng : -123.1150205, Q1 : 0.999999403954, Q2 : 0.000790088903159, Q3 : 0.000536590174306, Q4 : -0.000549415126443}
2019-04-14 17:33:50.71: SIM {TimeUS : 45135272, Roll : 0.1, Pitch : 0.04, Yaw : 359.93, Alt : 31.9799995422, Lat : 49.2835703, Lng : -123.1150206, Q1 : 0.999999344349, Q2 : 0.000943457649555, Q3 : 0.000410254026065, Q4 : -0.000525766285136}
2019-04-14 17:33:50.81: SIM {TimeUS : 45235232, Roll : 0.1, Pitch : 0.03, Yaw : 359.94, Alt : 32.1699981689, Lat : 49.2835703, Lng : -123.1150206, Q1 : 0.999999403954, Q2 : 0.000910313450731, Q3 : 0.000272724311799, Q4 : -0.000495153886732}
2019-04-14 17:33:50.91: SIM {TimeUS : 45335192, Roll : 0.09, Pitch : 0.03, Yaw : 359.94, Alt : 32.3600006104, Lat : 49.2835703, Lng : -123.1150207, Q1 : 0.999999523163, Q2 : 0.000790516030975, Q3 : 0.000291256088531, Q4 : -0.000460762938019}
2019-04-14 17:33:51.01: SIM {TimeUS : 45435152, Roll : 0.06, Pitch : 0.07, Yaw : 359.94, Alt : 32.5499992371, Lat : 49.2835703, Lng : -123.1150207, Q1 : 0.999999523163, Q2 : 0.000582758802921, Q3 : 0.000624436128419, Q4 : -0.000446939986432}
2019-04-14 17:33:51.11: SIM {TimeUS : 45535112, Roll : 0.07, Pitch : 0.12, Yaw : 359.94, Alt : 32.75, Lat : 49.2835703, Lng : -123.1150208, Q1 : 0.99999910593, Q2 : 0.000623710104264, Q3 : 0.00111784983892, Q4 : -0.000442804186605}
2019-04-14 17:33:51.21: SIM {TimeUS : 45635072, Roll : 0.1, Pitch : 0.17, Yaw : 359.94, Alt : 32.9399986267, Lat : 49.2835704, Lng : -123.1150208, Q1 : 0.99999833107, Q2 : 0.000904918357264, Q3 : 0.00154289952479, Q4 : -0.000446584163001}
2019-04-14 17:33:51.31: SIM {TimeUS : 45735032, Roll : 0.13, Pitch : 0.2, Yaw : 359.94, Alt : 33.1500015259, Lat : 49.2835704, Lng : -123.1150208, Q1 : 0.99999755621, Q2 : 0.00120418460574, Q3 : 0.00180408416782, Q4 : -0.000445525307441}
2019-04-14 17:33:51.41: SIM {TimeUS : 45834992, Roll : 0.15, Pitch : 0.22, Yaw : 359.94, Alt : 33.3499984741, Lat : 49.2835704, Lng : -123.1150208, Q1 : 0.999997138977, Q2 : 0.00132461020257, Q3 : 0.00193424802274, Q4 : -0.000449047132861}
2019-04-14 17:33:51.51: SIM {TimeUS : 45934952, Roll : 0.15, Pitch : 0.19, Yaw : 359.94, Alt : 33.5499992371, Lat : 49.2835704, Lng : -123.1150209, Q1 : 0.99999755621, Q2 : 0.00137733633164, Q3 : 0.00168622320052, Q4 : -0.000477708497783}
2019-04-14 17:33:51.61: SIM {TimeUS : 46034912, Roll : 0.15, Pitch : 0.15, Yaw : 359.94, Alt : 33.7599983215, Lat : 49.2835704, Lng : -123.1150209, Q1 : 0.999998092651, Q2 : 0.00137507019099, Q3 : 0.00131134467665, Q4 : -0.000518844462931}
2019-04-14 17:33:51.71: SIM {TimeUS : 46134872, Roll : 0.15, Pitch : 0.11, Yaw : 359.93, Alt : 33.9700012207, Lat : 49.2835704, Lng : -123.1150209, Q1 : 0.999998390675, Q2 : 0.00132959126495, Q3 : 0.00104534148704, Q4 : -0.00056062155636}
2019-04-14 17:33:51.81: SIM {TimeUS : 46234832, Roll : 0.14, Pitch : 0.1, Yaw : 359.93, Alt : 34.1800003052, Lat : 49.2835704, Lng : -123.1150209, Q1 : 0.999998569489, Q2 : 0.00130004622042, Q3 : 0.000914706615731, Q4 : -0.000599724240601}
2019-04-14 17:33:51.91: SIM {TimeUS : 46334792, Roll : 0.15, Pitch : 0.1, Yaw : 359.92, Alt : 34.3899993896, Lat : 49.2835704, Lng : -123.1150209, Q1 : 0.999998509884, Q2 : 0.00132694037165, Q3 : 0.000924816005863, Q4 : -0.000634459313005}
2019-04-14 17:33:52.01: SIM {TimeUS : 46434752, Roll : 0.14, Pitch : 0.09, Yaw : 359.92, Alt : 34.6100006104, Lat : 49.2835704, Lng : -123.1150209, Q1 : 0.999998688698, Q2 : 0.00122939515859, Q3 : 0.000801005226094, Q4 : -0.000650032307021}
2019-04-14 17:33:52.11: SIM {TimeUS : 46534712, Roll : 0.11, Pitch : 0.07, Yaw : 359.92, Alt : 34.8199996948, Lat : 49.2835704, Lng : -123.1150209, Q1 : 0.999999046326, Q2 : 0.00100558297709, Q3 : 0.00068484590156, Q4 : -0.000657178927213}
2019-04-14 17:33:52.21: SIM {TimeUS : 46634672, Roll : 0.08, Pitch : 0.06, Yaw : 359.92, Alt : 35.0400009155, Lat : 49.2835704, Lng : -123.1150208, Q1 : 0.999999284744, Q2 : 0.000763382238802, Q3 : 0.000598040467594, Q4 : -0.000664661405608}
2019-04-14 17:33:52.31: SIM {TimeUS : 46735465, Roll : 0.06, Pitch : 0.05, Yaw : 359.92, Alt : 35.25, Lat : 49.2835704, Lng : -123.1150208, Q1 : 0.999999523163, Q2 : 0.000527983764187, Q3 : 0.000485645112349, Q4 : -0.000668792810757}
2019-04-14 17:33:52.41: SIM {TimeUS : 46835425, Roll : 0.04, Pitch : 0.01, Yaw : 359.92, Alt : 35.4700012207, Lat : 49.2835704, Lng : -123.1150208, Q1 : 0.999999642372, Q2 : 0.000418679963332, Q3 : 0.000169549719431, Q4 : -0.000667107873596}
2019-04-14 17:33:52.51: SIM {TimeUS : 46935385, Roll : 0.04, Pitch : 0.0, Yaw : 359.92, Alt : 35.6899986267, Lat : 49.2835704, Lng : -123.1150208, Q1 : 0.999999701977, Q2 : 0.000354177784175, Q3 : -7.0276822953e-05, Q4 : -0.000671788409818}
2019-04-14 17:33:52.61: SIM {TimeUS : 47035345, Roll : 0.01, Pitch : -0.01, Yaw : 359.92, Alt : 35.9099998474, Lat : 49.2835704, Lng : -123.1150208, Q1 : 0.999999761581, Q2 : 0.000163779724971, Q3 : -0.000158222435857, Q4 : -0.000688065832946}
2019-04-14 17:33:52.71: SIM {TimeUS : 47135305, Roll : 0.01, Pitch : -0.01, Yaw : 359.91, Alt : 36.1300010681, Lat : 49.2835704, Lng : -123.1150207, Q1 : 0.999999761581, Q2 : 0.000104572325654, Q3 : -0.000137290888233, Q4 : -0.00070323899854}
2019-04-14 17:33:52.81: SIM {TimeUS : 47235265, Roll : 0.01, Pitch : 0.0, Yaw : 359.91, Alt : 36.3499984741, Lat : 49.2835704, Lng : -123.1150207, Q1 : 0.999999701977, Q2 : 0.000153831802891, Q3 : -8.17734544398e-05, Q4 : -0.000719183241017}
2019-04-14 17:33:52.91: SIM {TimeUS : 47335225, Roll : 0.0, Pitch : -0.01, Yaw : 359.91, Alt : 36.5699996948, Lat : 49.2835704, Lng : -123.1150207, Q1 : 0.999999701977, Q2 : 2.8994269087e-05, Q3 : -0.000169102204381, Q4 : -0.000738974253181}
2019-04-14 17:33:53.01: SIM {TimeUS : 47435185, Roll : -0.03, Pitch : -0.04, Yaw : 359.91, Alt : 36.7999992371, Lat : 49.2835704, Lng : -123.1150207, Q1 : 0.999999582767, Q2 : -0.000267048133537, Q3 : -0.000427214748925, Q4 : -0.000768315163441}
2019-04-14 17:33:53.11: SIM {TimeUS : 47535145, Roll : -0.06, Pitch : -0.07, Yaw : 359.9, Alt : 37.0200004578, Lat : 49.2835704, Lng : -123.1150207, Q1 : 0.999999284744, Q2 : -0.000607846595813, Q3 : -0.00064458406996, Q4 : -0.000802117283456}
2019-04-14 17:33:53.21: SIM {TimeUS : 47635105, Roll : -0.1, Pitch : -0.09, Yaw : 359.9, Alt : 37.25, Lat : 49.2835704, Lng : -123.1150207, Q1 : 0.999998867512, Q2 : -0.000939050223678, Q3 : -0.000849091389682, Q4 : -0.000835458398797}
2019-04-14 17:33:53.31: SIM {TimeUS : 47735065, Roll : -0.11, Pitch : -0.1, Yaw : 359.9, Alt : 37.4700012207, Lat : 49.2835704, Lng : -123.1150207, Q1 : 0.999998629093, Q2 : -0.00104342028499, Q3 : -0.000930497946683, Q4 : -0.00087231915677}
2019-04-14 17:33:53.41: SIM {TimeUS : 47835025, Roll : -0.11, Pitch : -0.09, Yaw : 359.89, Alt : 37.7000007629, Lat : 49.2835704, Lng : -123.1150206, Q1 : 0.999998748302, Q2 : -0.000976958544925, Q3 : -0.000851023709401, Q4 : -0.000910484581254}
2019-04-14 17:33:53.51: SIM {TimeUS : 47934985, Roll : -0.09, Pitch : -0.06, Yaw : 359.89, Alt : 37.9199981689, Lat : 49.2835704, Lng : -123.1150206, Q1 : 0.999999046326, Q2 : -0.000811763980892, Q3 : -0.000548457785044, Q4 : -0.00094328756677}
2019-04-14 17:33:53.61: SIM {TimeUS : 48034945, Roll : -0.07, Pitch : -0.03, Yaw : 359.88, Alt : 38.1500015259, Lat : 49.2835704, Lng : -123.1150206, Q1 : 0.999999284744, Q2 : -0.00063761009369, Q3 : -0.000285802379949, Q4 : -0.000976864248514}
2019-04-14 17:33:53.71: SIM {TimeUS : 48134905, Roll : -0.06, Pitch : -0.02, Yaw : 359.88, Alt : 38.3800010681, Lat : 49.2835704, Lng : -123.1150206, Q1 : 0.999999284744, Q2 : -0.000592668482568, Q3 : -0.000219465247937, Q4 : -0.00100855587516}
2019-04-14 17:33:53.81: SIM {TimeUS : 48234865, Roll : -0.07, Pitch : -0.01, Yaw : 359.88, Alt : 38.6100006104, Lat : 49.2835704, Lng : -123.1150206, Q1 : 0.999999284744, Q2 : -0.000625453772955, Q3 : -0.000101713725599, Q4 : -0.00103468028829}
2019-04-14 17:33:53.91: SIM {TimeUS : 48334825, Roll : -0.08, Pitch : 0.0, Yaw : 359.87, Alt : 38.8300018311, Lat : 49.2835704, Lng : -123.1150206, Q1 : 0.999999165535, Q2 : -0.000774961139541, Q3 : 1.11782719614e-05, Q4 : -0.00105349905789}
2019-04-14 17:33:54.01: SIM {TimeUS : 48434785, Roll : -0.08, Pitch : 0.01, Yaw : 359.87, Alt : 39.0600013733, Lat : 49.2835704, Lng : -123.1150206, Q1 : 0.999999165535, Q2 : -0.000765427656006, Q3 : 0.00011190839723, Q4 : -0.00106120260898}
2019-04-14 17:33:54.11: SIM {TimeUS : 48534745, Roll : -0.06, Pitch : 0.03, Yaw : 359.87, Alt : 39.2900009155, Lat : 49.2835706, Lng : -123.1150206, Q1 : 0.999999165535, Q2 : -0.000610270362813, Q3 : 0.000320691091474, Q4 : -0.00106749811675}
2019-04-14 17:33:54.21: SIM {TimeUS : 48634705, Roll : -0.04, Pitch : 0.03, Yaw : 359.87, Alt : 39.5200004578, Lat : 49.2835706, Lng : -123.1150206, Q1 : 0.999999284744, Q2 : -0.000409955129726, Q3 : 0.00030417877133, Q4 : -0.00106755353045}
2019-04-14 17:33:54.31: SIM {TimeUS : 48734665, Roll : -0.01, Pitch : 0.02, Yaw : 359.87, Alt : 39.75, Lat : 49.2835706, Lng : -123.1150207, Q1 : 0.999999403954, Q2 : -0.000167075413628, Q3 : 0.00025643009576, Q4 : -0.00106672279071}
2019-04-14 17:33:54.41: SIM {TimeUS : 48835458, Roll : 0.01, Pitch : 0.04, Yaw : 359.87, Alt : 39.9900016785, Lat : 49.2835706, Lng : -123.1150207, Q1 : 0.999999344349, Q2 : 0.000160610929015, Q3 : 0.000418614275986, Q4 : -0.00106512382627}
2019-04-14 17:33:54.51: SIM {TimeUS : 48935418, Roll : 0.05, Pitch : 0.07, Yaw : 359.87, Alt : 40.2200012207, Lat : 49.2835706, Lng : -123.1150207, Q1 : 0.999999046326, Q2 : 0.000512150465511, Q3 : 0.000687980791554, Q4 : -0.00106694828719}
2019-04-14 17:33:54.61: SIM {TimeUS : 49035378, Roll : 0.09, Pitch : 0.11, Yaw : 359.87, Alt : 40.4500007629, Lat : 49.2835706, Lng : -123.1150207, Q1 : 0.999998569489, Q2 : 0.000797894084826, Q3 : 0.000994415604509, Q4 : -0.00107686093543}
2019-04-14 17:33:54.71: SIM {TimeUS : 49135338, Roll : 0.08, Pitch : 0.14, Yaw : 359.87, Alt : 40.6800003052, Lat : 49.2835706, Lng : -123.1150207, Q1 : 0.99999833107, Q2 : 0.00073470902862, Q3 : 0.00130225392058, Q4 : -0.00108182046097}
2019-04-14 17:33:54.81: SIM {TimeUS : 49235298, Roll : 0.03, Pitch : 0.17, Yaw : 359.87, Alt : 40.9099998474, Lat : 49.2835706, Lng : -123.1150207, Q1 : 0.999998092651, Q2 : 0.000311312265694, Q3 : 0.00155866076238, Q4 : -0.00110543449409}
2019-04-14 17:33:54.91: SIM {TimeUS : 49335258, Roll : 0.0, Pitch : 0.19, Yaw : 359.87, Alt : 41.1500015259, Lat : 49.2835706, Lng : -123.1150207, Q1 : 0.999997973442, Q2 : -8.22146175778e-05, Q3 : 0.00167807633989, Q4 : -0.00112898962107}
2019-04-14 17:33:55.01: SIM {TimeUS : 49435218, Roll : -0.03, Pitch : 0.17, Yaw : 359.86, Alt : 41.3800010681, Lat : 49.2835706, Lng : -123.1150207, Q1 : 0.999998152256, Q2 : -0.000291832169751, Q3 : 0.00150602671783, Q4 : -0.00115481484681}
2019-04-14 17:33:55.11: SIM {TimeUS : 49535178, Roll : -0.03, Pitch : 0.13, Yaw : 359.86, Alt : 41.6100006104, Lat : 49.2835706, Lng : -123.1150207, Q1 : 0.999998509884, Q2 : -0.000339962891303, Q3 : 0.00121290318202, Q4 : -0.001191235031}
2019-04-14 17:33:55.21: SIM {TimeUS : 49635138, Roll : -0.02, Pitch : 0.12, Yaw : 359.85, Alt : 41.8499984741, Lat : 49.2835706, Lng : -123.1150207, Q1 : 0.999998569489, Q2 : -0.000186018733075, Q3 : 0.00112437957432, Q4 : -0.00123420765158}
2019-04-14 17:33:55.31: SIM {TimeUS : 49735098, Roll : 0.02, Pitch : 0.13, Yaw : 359.85, Alt : 42.0800018311, Lat : 49.2835706, Lng : -123.1150207, Q1 : 0.999998450279, Q2 : 0.000195166168851, Q3 : 0.00119452364743, Q4 : -0.00128192745615}
2019-04-14 17:33:55.41: SIM {TimeUS : 49835058, Roll : 0.07, Pitch : 0.14, Yaw : 359.84, Alt : 42.3100013733, Lat : 49.2835706, Lng : -123.1150207, Q1 : 0.999998152256, Q2 : 0.000647601264063, Q3 : 0.00123057770543, Q4 : -0.00133128080051}
2019-04-14 17:33:55.51: SIM {TimeUS : 49935018, Roll : 0.11, Pitch : 0.11, Yaw : 359.84, Alt : 42.5499992371, Lat : 49.2835706, Lng : -123.1150207, Q1 : 0.999998033047, Q2 : 0.00096829951508, Q3 : 0.00103484943975, Q4 : -0.00137850968167}
2019-04-14 17:33:55.61: SIM {TimeUS : 50034978, Roll : 0.11, Pitch : 0.08, Yaw : 359.83, Alt : 42.7799987793, Lat : 49.2835706, Lng : -123.1150207, Q1 : 0.999998211861, Q2 : 0.000990252825432, Q3 : 0.000723027158529, Q4 : -0.00142111512832}
2019-04-14 17:33:55.71: SIM {TimeUS : 50134938, Roll : 0.07, Pitch : 0.06, Yaw : 359.83, Alt : 43.0200004578, Lat : 49.2835706, Lng : -123.1150207, Q1 : 0.999998629093, Q2 : 0.000625621411018, Q3 : 0.000536482490133, Q4 : -0.00145080464426}
2019-04-14 17:33:55.81: SIM {TimeUS : 50234898, Roll : 0.01, Pitch : 0.05, Yaw : 359.83, Alt : 43.25, Lat : 49.2835706, Lng : -123.1150207, Q1 : 0.999998807907, Q2 : 0.000123618272482, Q3 : 0.000515964988153, Q4 : -0.00147058721632}
2019-04-14 17:33:55.91: SIM {TimeUS : 50334858, Roll : -0.02, Pitch : 0.08, Yaw : 359.82, Alt : 43.4900016785, Lat : 49.2835704, Lng : -123.1150207, Q1 : 0.999998569489, Q2 : -0.000244365539402, Q3 : 0.000718166702427, Q4 : -0.00148379779421}
2019-04-14 17:33:56.01: SIM {TimeUS : 50434818, Roll : -0.04, Pitch : 0.09, Yaw : 359.82, Alt : 43.7200012207, Lat : 49.2835704, Lng : -123.1150207, Q1 : 0.999998450279, Q2 : -0.000419356190832, Q3 : 0.000834112637676, Q4 : -0.00149493222125}
2019-04-14 17:33:56.11: SIM {TimeUS : 50534778, Roll : -0.04, Pitch : 0.08, Yaw : 359.82, Alt : 43.9599990845, Lat : 49.2835704, Lng : -123.1150206, Q1 : 0.999998509884, Q2 : -0.000379730103305, Q3 : 0.000725416000932, Q4 : -0.00150572438724}
2019-04-14 17:33:56.21: SIM {TimeUS : 50634738, Roll : -0.04, Pitch : 0.06, Yaw : 359.82, Alt : 44.1899986267, Lat : 49.2835704, Lng : -123.1150206, Q1 : 0.999998569489, Q2 : -0.00041749686352, Q3 : 0.000577642524149, Q4 : -0.00152181426529}
2019-04-14 17:33:56.31: SIM {TimeUS : 50734698, Roll : -0.04, Pitch : 0.04, Yaw : 359.82, Alt : 44.4300003052, Lat : 49.2835704, Lng : -123.1150206, Q1 : 0.999998629093, Q2 : -0.000393927301047, Q3 : 0.000411957415054, Q4 : -0.00154321873561}
2019-04-14 17:33:56.41: SIM {TimeUS : 50834658, Roll : -0.02, Pitch : 0.03, Yaw : 359.82, Alt : 44.6699981689, Lat : 49.2835704, Lng : -123.1150206, Q1 : 0.999998688698, Q2 : -0.0002538751869, Q3 : 0.000332350929966, Q4 : -0.0015697227791}
2019-04-14 17:33:56.51: SIM {TimeUS : 50935451, Roll : -0.01, Pitch : 0.03, Yaw : 359.81, Alt : 44.9000015259, Lat : 49.2835704, Lng : -123.1150206, Q1 : 0.999998629093, Q2 : -0.000137195369462, Q3 : 0.00033428936149, Q4 : -0.00159570749383}
2019-04-14 17:33:56.61: SIM {TimeUS : 51035411, Roll : -0.01, Pitch : 0.02, Yaw : 359.81, Alt : 45.1399993896, Lat : 49.2835704, Lng : -123.1150206, Q1 : 0.999998688698, Q2 : -0.000151939631905, Q3 : 0.000211127990042, Q4 : -0.00162000698037}
2019-04-14 17:33:56.71: SIM {TimeUS : 51135371, Roll : -0.02, Pitch : 0.0, Yaw : 359.81, Alt : 45.3800010681, Lat : 49.2835703, Lng : -123.1150206, Q1 : 0.999998629093, Q2 : -0.00021510424267, Q3 : -8.65184847498e-05, Q4 : -0.00164001004305}
2019-04-14 17:33:56.81: SIM {TimeUS : 51235331, Roll : -0.03, Pitch : -0.03, Yaw : 359.81, Alt : 45.6100006104, Lat : 49.2835703, Lng : -123.1150206, Q1 : 0.999998569489, Q2 : -0.00026437555789, Q3 : -0.000321434927173, Q4 : -0.0016578148352}
2019-04-14 17:33:56.91: SIM {TimeUS : 51335291, Roll : -0.02, Pitch : -0.05, Yaw : 359.8, Alt : 45.8400001526, Lat : 49.2835703, Lng : -123.1150206, Q1 : 0.999998450279, Q2 : -0.000241898771492, Q3 : -0.00048092121142, Q4 : -0.00167761708144}
2019-04-14 17:33:57.01: SIM {TimeUS : 51435251, Roll : -0.03, Pitch : -0.06, Yaw : 359.8, Alt : 46.0699996948, Lat : 49.2835703, Lng : -123.1150206, Q1 : 0.999998390675, Q2 : -0.000316890684189, Q3 : -0.00052897259593, Q4 : -0.00169645424467}
2019-04-14 17:33:57.11: SIM {TimeUS : 51535211, Roll : -0.05, Pitch : -0.05, Yaw : 359.8, Alt : 46.2999992371, Lat : 49.2835703, Lng : -123.1150206, Q1 : 0.999998271465, Q2 : -0.00051708513638, Q3 : -0.000447294500191, Q4 : -0.00171914231032}
2019-04-14 17:33:57.21: SIM {TimeUS : 51635171, Roll : -0.09, Pitch : -0.03, Yaw : 359.8, Alt : 46.5299987793, Lat : 49.2835703, Lng : -123.1150206, Q1 : 0.999998092651, Q2 : -0.000809796911199, Q3 : -0.000341014296282, Q4 : -0.0017448872095}
2019-04-14 17:33:57.31: SIM {TimeUS : 51735131, Roll : -0.11, Pitch : -0.03, Yaw : 359.79, Alt : 46.7400016785, Lat : 49.2835703, Lng : -123.1150206, Q1 : 0.999997913837, Q2 : -0.00100029876921, Q3 : -0.000294044526527, Q4 : -0.00177124445327}
2019-04-14 17:33:57.41: SIM {TimeUS : 51835091, Roll : -0.11, Pitch : -0.02, Yaw : 359.79, Alt : 46.9599990845, Lat : 49.2835703, Lng : -123.1150206, Q1 : 0.999997854233, Q2 : -0.00102554750629, Q3 : -0.000181177601917, Q4 : -0.00179991114419}
2019-04-14 17:33:57.51: SIM {TimeUS : 51935051, Roll : -0.1, Pitch : 0.0, Yaw : 359.79, Alt : 47.1599998474, Lat : 49.2835703, Lng : -123.1150206, Q1 : 0.999997913837, Q2 : -0.000917239463888, Q3 : 2.25869698625e-05, Q4 : -0.00183218263555}
2019-04-14 17:33:57.61: SIM {TimeUS : 52035011, Roll : -0.08, Pitch : 0.01, Yaw : 359.78, Alt : 47.3600006104, Lat : 49.2835703, Lng : -123.1150206, Q1 : 0.999997973442, Q2 : -0.000717434391845, Q3 : 0.000112131638161, Q4 : -0.00186512153596}
2019-04-14 17:33:57.71: SIM {TimeUS : 52134971, Roll : -0.06, Pitch : 0.0, Yaw : 359.78, Alt : 47.5499992371, Lat : 49.2835703, Lng : -123.1150206, Q1 : 0.999998033047, Q2 : -0.000523481052369, Q3 : 8.66711270646e-05, Q4 : -0.00189970666543}
2019-04-14 17:33:57.81: SIM {TimeUS : 52234931, Roll : -0.06, Pitch : -0.01, Yaw : 359.77, Alt : 47.7299995422, Lat : 49.2835703, Lng : -123.1150206, Q1 : 0.999997973442, Q2 : -0.000529774231836, Q3 : -9.73699134192e-05, Q4 : -0.00193414313253}
2019-04-14 17:33:57.91: SIM {TimeUS : 52334891, Roll : -0.06, Pitch : -0.04, Yaw : 359.77, Alt : 47.8899993896, Lat : 49.2835703, Lng : -123.1150206, Q1 : 0.999997854233, Q2 : -0.000530794088263, Q3 : -0.000388948858017, Q4 : -0.00196410575882}
2019-04-14 17:33:58.01: SIM {TimeUS : 52434851, Roll : -0.04, Pitch : -0.07, Yaw : 359.77, Alt : 48.0499992371, Lat : 49.2835703, Lng : -123.1150206, Q1 : 0.999997735023, Q2 : -0.000409314699937, Q3 : -0.000648049637675, Q4 : -0.00199042982422}
2019-04-14 17:33:58.11: SIM {TimeUS : 52534811, Roll : -0.03, Pitch : -0.09, Yaw : 359.76, Alt : 48.1899986267, Lat : 49.2835703, Lng : -123.1150206, Q1 : 0.99999755621, Q2 : -0.000309651164571, Q3 : -0.000832462043036, Q4 : -0.00201565935276}
2019-04-14 17:33:58.21: SIM {TimeUS : 52634771, Roll : -0.03, Pitch : -0.1, Yaw : 359.76, Alt : 48.3300018311, Lat : 49.2835703, Lng : -123.1150206, Q1 : 0.999997437, Q2 : -0.000292457931209, Q3 : -0.000928394962102, Q4 : -0.00203728955239}
2019-04-14 17:33:58.31: SIM {TimeUS : 52734731, Roll : 0.0, Pitch : -0.1, Yaw : 359.76, Alt : 48.4500007629, Lat : 49.2835703, Lng : -123.1150206, Q1 : 0.999997496605, Q2 : -5.67581628275e-05, Q3 : -0.000874695717357, Q4 : -0.00205760309473}
2019-04-14 17:33:58.41: SIM {TimeUS : 52834691, Roll : 0.02, Pitch : -0.07, Yaw : 359.76, Alt : 48.5499992371, Lat : 49.2835703, Lng : -123.1150206, Q1 : 0.99999755621, Q2 : 0.000240365130594, Q3 : -0.000694699177984, Q4 : -0.00207799486816}
2019-04-14 17:33:58.51: SIM {TimeUS : 52935484, Roll : 0.05, Pitch : -0.05, Yaw : 359.75, Alt : 48.6500015259, Lat : 49.2835703, Lng : -123.1150206, Q1 : 0.99999755621, Q2 : 0.000496795692015, Q3 : -0.000446117919637, Q4 : -0.00210115080699}
2019-04-14 17:33:58.61: SIM {TimeUS : 53035444, Roll : 0.06, Pitch : -0.02, Yaw : 359.75, Alt : 48.7299995422, Lat : 49.2835703, Lng : -123.1150206, Q1 : 0.99999755621, Q2 : 0.000603483582381, Q3 : -0.00024977340945, Q4 : -0.00213087163866}
2019-04-14 17:33:58.71: SIM {TimeUS : 53135404, Roll : 0.07, Pitch : -0.01, Yaw : 359.75, Alt : 48.8100013733, Lat : 49.2835703, Lng : -123.1150206, Q1 : 0.999997437, Q2 : 0.000680743192788, Q3 : -0.000147965867654, Q4 : -0.0021607875824}
2019-04-14 17:33:58.81: SIM {TimeUS : 53235364, Roll : 0.06, Pitch : -0.02, Yaw : 359.74, Alt : 48.8699989319, Lat : 49.2835703, Lng : -123.1150206, Q1 : 0.999997377396, Q2 : 0.000605104083661, Q3 : -0.000246197276283, Q4 : -0.00219372403808}
2019-04-14 17:33:58.91: SIM {TimeUS : 53335324, Roll : 0.03, Pitch : -0.03, Yaw : 359.74, Alt : 48.9300003052, Lat : 49.2835703, Lng : -123.1150207, Q1 : 0.999997377396, Q2 : 0.000340286205756, Q3 : -0.000331872899551, Q4 : -0.00222434359603}
2019-04-14 17:33:59.01: SIM {TimeUS : 53435284, Roll : 0.07, Pitch : -0.07, Yaw : 359.74, Alt : 48.9700012207, Lat : 49.2835703, Lng : -123.1150207, Q1 : 0.999997019768, Q2 : 0.000646323489491, Q3 : -0.000656540913042, Q4 : -0.00224769464694}
2019-04-14 17:33:59.11: SIM {TimeUS : 53535244, Roll : 0.28, Pitch : -0.21, Yaw : 359.73, Alt : 49.0099983215, Lat : 49.2835703, Lng : -123.1150207, Q1 : 0.999992489815, Q2 : 0.00247262511402, Q3 : -0.00192091299687, Q4 : -0.00226839142852}
2019-04-14 17:33:59.21: SIM {TimeUS : 53635204, Roll : 0.72, Pitch : -0.51, Yaw : 359.73, Alt : 49.0499992371, Lat : 49.2835703, Lng : -123.1150207, Q1 : 0.999967157841, Q2 : 0.00635124929249, Q3 : -0.00448837410659, Q4 : -0.00227986043319}
2019-04-14 17:33:59.31: SIM {TimeUS : 53735164, Roll : 1.4, Pitch : -0.94, Yaw : 359.72, Alt : 49.0800018311, Lat : 49.2835704, Lng : -123.1150206, Q1 : 0.999888062477, Q2 : 0.0122597320005, Q3 : -0.00826590228826, Q4 : -0.0022779556457}
2019-04-14 17:33:59.41: SIM {TimeUS : 53835124, Roll : 2.24, Pitch : -1.48, Yaw : 359.71, Alt : 49.0999984741, Lat : 49.2835704, Lng : -123.1150206, Q1 : 0.999721288681, Q2 : 0.0195509996265, Q3 : -0.0130379442126, Q4 : -0.00225153006613}
2019-04-14 17:33:59.51: SIM {TimeUS : 53935084, Roll : 3.12, Pitch : -2.09, Yaw : 359.69, Alt : 49.1199989319, Lat : 49.2835704, Lng : -123.1150205, Q1 : 0.999458730221, Q2 : 0.0271915718913, Q3 : -0.0183885283768, Q4 : -0.00218633655459}
2019-04-14 17:33:59.61: SIM {TimeUS : 54035044, Roll : 3.89, Pitch : -2.65, Yaw : 359.67, Alt : 49.1399993896, Lat : 49.2835706, Lng : -123.1150203, Q1 : 0.999152958393, Q2 : 0.0338905788958, Q3 : -0.0232517719269, Q4 : -0.0020587828476}
2019-04-14 17:33:59.71: SIM {TimeUS : 54135004, Roll : 4.47, Pitch : -3.1, Yaw : 359.66, Alt : 49.1599998474, Lat : 49.2835707, Lng : -123.1150201, Q1 : 0.998869419098, Q2 : 0.0389369986951, Q3 : -0.0272082630545, Q4 : -0.00186976569239}
2019-04-14 17:33:59.81: SIM {TimeUS : 54234964, Roll : 4.89, Pitch : -3.44, Yaw : 359.66, Alt : 49.1699981689, Lat : 49.2835709, Lng : -123.1150199, Q1 : 0.998634576797, Q2 : 0.0425986796618, Q3 : -0.0301943644881, Q4 : -0.00163172243629}
2019-04-14 17:33:59.91: SIM {TimeUS : 54334924, Roll : 5.21, Pitch : -3.68, Yaw : 359.67, Alt : 49.1800003052, Lat : 49.283571, Lng : -123.1150195, Q1 : 0.998447716236, Q2 : 0.0453618206084, Q3 : -0.0322901047766, Q4 : -0.00135692371987}
2019-04-14 17:34:00.01: SIM {TimeUS : 54434884, Roll : 5.49, Pitch : -3.89, Yaw : 359.68, Alt : 49.1899986267, Lat : 49.2835713, Lng : -123.115019, Q1 : 0.998273789883, Q2 : 0.047815721482, Q3 : -0.0340888053179, Q4 : -0.00107374484651}
2019-04-14 17:34:00.11: SIM {TimeUS : 54534844, Roll : 5.79, Pitch : -4.09, Yaw : 359.7, Alt : 49.2000007629, Lat : 49.2835715, Lng : -123.1150184, Q1 : 0.998084425926, Q2 : 0.0504245944321, Q3 : -0.0358354412019, Q4 : -0.000802849594038}
2019-04-14 17:34:00.21: SIM {TimeUS : 54634804, Roll : 6.1, Pitch : -4.3, Yaw : 359.7, Alt : 49.2099990845, Lat : 49.2835719, Lng : -123.1150177, Q1 : 0.997877776623, Q2 : 0.0531356036663, Q3 : -0.0376329906285, Q4 : -0.000541333283763}
2019-04-14 17:34:00.31: SIM {TimeUS : 54734764, Roll : 6.38, Pitch : -4.5, Yaw : 359.71, Alt : 49.2200012207, Lat : 49.2835722, Lng : -123.1150169, Q1 : 0.997675418854, Q2 : 0.0555869229138, Q3 : -0.0394175313413, Q4 : -0.000304177083308}
2019-04-14 17:34:00.41: SIM {TimeUS : 54834724, Roll : 6.62, Pitch : -4.68, Yaw : 359.71, Alt : 49.2299995422, Lat : 49.2835727, Lng : -123.115016, Q1 : 0.99749904871, Q2 : 0.0576080940664, Q3 : -0.0409521795809, Q4 : -9.43150589592e-05}
2019-04-14 17:34:00.51: SIM {TimeUS : 54934684, Roll : 6.8, Pitch : -4.8, Yaw : 359.72, Alt : 49.2299995422, Lat : 49.2835731, Lng : -123.115015, Q1 : 0.997360765934, Q2 : 0.0592077709734, Q3 : -0.0420230031013, Q4 : 9.54322167672e-05}
2019-04-14 17:34:00.61: SIM {TimeUS : 55035477, Roll : 6.93, Pitch : -4.87, Yaw : 359.73, Alt : 49.2400016785, Lat : 49.2835735, Lng : -123.1150139, Q1 : 0.99727076292, Q2 : 0.0602974183857, Q3 : -0.0426059812307, Q4 : 0.000257183390204}
2019-04-14 17:34:00.71: SIM {TimeUS : 55135437, Roll : 7.01, Pitch : -4.92, Yaw : 359.74, Alt : 49.2400016785, Lat : 49.283574, Lng : -123.1150128, Q1 : 0.997207641602, Q2 : 0.0610467158258, Q3 : -0.0430131480098, Q4 : 0.000370019726688}
2019-04-14 17:34:00.81: SIM {TimeUS : 55235397, Roll : 7.12, Pitch : -4.98, Yaw : 359.74, Alt : 49.25, Lat : 49.2835746, Lng : -123.1150115, Q1 : 0.99712908268, Q2 : 0.0619650073349, Q3 : -0.0435171537101, Q4 : 0.000461740070023}
2019-04-14 17:34:00.91: SIM {TimeUS : 55335357, Roll : 7.42, Pitch : -4.92, Yaw : 359.91, Alt : 49.25, Lat : 49.2835752, Lng : -123.1150102, Q1 : 0.996980547905, Q2 : 0.0646930634975, Q3 : -0.0429020822048, Q4 : 0.00202679773793}
2019-04-14 17:34:01.01: SIM {TimeUS : 55435317, Roll : 7.98, Pitch : -4.71, Yaw : 0.81, Alt : 49.25, Lat : 49.2835759, Lng : -123.1150087, Q1 : 0.99668431282, Q2 : 0.0698224827647, Q3 : -0.0405698604882, Q4 : 0.00996428448707}
2019-04-14 17:34:01.11: SIM {TimeUS : 55535277, Roll : 8.59, Pitch : -4.66, Yaw : 3.09, Alt : 49.2599983215, Lat : 49.2835767, Lng : -123.1150072, Q1 : 0.99591678381, Q2 : 0.0759569481015, Q3 : -0.0385417044163, Q4 : 0.0299149360508}
2019-04-14 17:34:01.21: SIM {TimeUS : 55635237, Roll : 9.01, Pitch : -5.05, Yaw : 6.95, Alt : 49.2599983215, Lat : 49.2835774, Lng : -123.1150056, Q1 : 0.993896126747, Q2 : 0.0810236483812, Q3 : -0.03909522295, Q4 : 0.063852712512}
2019-04-14 17:34:01.31: SIM {TimeUS : 55735197, Roll : 9.02, Pitch : -5.96, Yaw : 12.28, Alt : 49.2599983215, Lat : 49.2835781, Lng : -123.1150038, Q1 : 0.989402413368, Q2 : 0.0836276859045, Q3 : -0.0431739464402, Q4 : 0.110567986965}
2019-04-14 17:34:01.41: SIM {TimeUS : 55835157, Roll : 8.45, Pitch : -7.29, Yaw : 18.84, Alt : 49.2599983215, Lat : 49.2835788, Lng : -123.115002, Q1 : 0.981061398983, Q2 : 0.0829999223351, Q3 : -0.0505687482655, Q4 : 0.167548075318}
2019-04-14 17:34:01.51: SIM {TimeUS : 55935117, Roll : 7.26, Pitch : -8.85, Yaw : 26.38, Alt : 49.2599983215, Lat : 49.2835794, Lng : -123.115, Q1 : 0.967641830444, Q2 : 0.0790801271796, Q3 : -0.0606209821999, Q4 : 0.231820628047}
2019-04-14 17:34:01.61: SIM {TimeUS : 56035077, Roll : 5.48, Pitch : -10.41, Yaw : 34.64, Alt : 49.2700004578, Lat : 49.2835802, Lng : -123.1149979, Q1 : 0.948323190212, Q2 : 0.0724738761783, Q3 : -0.0723897591233, Q4 : 0.300317257643}
2019-04-14 17:34:01.71: SIM {TimeUS : 56135037, Roll : 3.15, Pitch : -11.77, Yaw : 43.34, Alt : 49.2700004578, Lat : 49.2835811, Lng : -123.1149956, Q1 : 0.923008739948, Q2 : 0.063322506845, Q3 : -0.0851611867547, Q4 : 0.369854956865}
2019-04-14 17:34:01.81: SIM {TimeUS : 56234997, Roll : 0.19, Pitch : -12.72, Yaw : 51.93, Alt : 49.2700004578, Lat : 49.2835818, Lng : -123.1149933, Q1 : 0.893410265446, Q2 : 0.050044618547, Q3 : -0.0988620892167, Q4 : 0.435361802578}
2019-04-14 17:34:01.91: SIM {TimeUS : 56334957, Roll : -3.01, Pitch : -13.11, Yaw : 59.52, Alt : 49.2700004578, Lat : 49.2835829, Lng : -123.1149909, Q1 : 0.8635815382, Q2 : 0.0339996404946, Q3 : -0.112100452185, Q4 : 0.490412592888}
2019-04-14 17:34:02.01: SIM {TimeUS : 56434917, Roll : -5.8, Pitch : -13.04, Yaw : 65.36, Alt : 49.2700004578, Lat : 49.2835837, Lng : -123.1149884, Q1 : 0.838276147842, Q2 : 0.0189536567777, Q3 : -0.12265137583, Q4 : 0.530933558941}
2019-04-14 17:34:02.11: SIM {TimeUS : 56534877, Roll : -7.64, Pitch : -12.78, Yaw : 69.09, Alt : 49.2700004578, Lat : 49.2835849, Lng : -123.1149859, Q1 : 0.820897877216, Q2 : 0.00846630614251, Q3 : -0.129077866673, Q4 : 0.556231856346}
2019-04-14 17:34:02.21: SIM {TimeUS : 56634837, Roll : -8.38, Pitch : -12.59, Yaw : 70.83, Alt : 49.2700004578, Lat : 49.2835861, Lng : -123.1149833, Q1 : 0.812503576279, Q2 : 0.00415137177333, Q3 : -0.131266310811, Q4 : 0.567969977856}
2019-04-14 17:34:02.31: SIM {TimeUS : 56734797, Roll : -8.13, Pitch : -12.63, Yaw : 70.88, Alt : 49.2700004578, Lat : 49.2835873, Lng : -123.1149807, Q1 : 0.812254965305, Q2 : 0.00623695319518, Q3 : -0.130305379629, Q4 : 0.568527519703}
2019-04-14 17:34:02.41: SIM {TimeUS : 56834757, Roll : -7.1, Pitch : -12.96, Yaw : 69.59, Alt : 49.2700004578, Lat : 49.2835887, Lng : -123.114978, Q1 : 0.81832498312, Q2 : 0.0137574095279, Q3 : -0.127706423402, Q4 : 0.5602196455}
2019-04-14 17:34:02.51: SIM {TimeUS : 56934717, Roll : -5.57, Pitch : -13.53, Yaw : 67.34, Alt : 49.2700004578, Lat : 49.2835903, Lng : -123.1149753, Q1 : 0.82861828804, Q2 : 0.0250575076789, Q3 : -0.1247093454, Q4 : 0.545171022415}
2019-04-14 17:34:02.61: SIM {TimeUS : 57034677, Roll : -3.75, Pitch : -14.22, Yaw : 64.44, Alt : 49.2799987793, Lat : 49.2835919, Lng : -123.1149725, Q1 : 0.841166436672, Q2 : 0.0384920090437, Q3 : -0.12198202312, Q4 : 0.525431036949}
2019-04-14 17:34:02.71: SIM {TimeUS : 57135470, Roll : -1.82, Pitch : -14.9, Yaw : 61.19, Alt : 49.2799987793, Lat : 49.2835934, Lng : -123.1149695, Q1 : 0.854436457157, Q2 : 0.0524266511202, Q3 : -0.119673497975, Q4 : 0.502859890461}
2019-04-14 17:34:02.81: SIM {TimeUS : 57235430, Roll : 0.0, Pitch : -15.43, Yaw : 57.95, Alt : 49.2799987793, Lat : 49.2835951, Lng : -123.1149665, Q1 : 0.866885900497, Q2 : 0.0650029629469, Q3 : -0.117531076074, Q4 : 0.480072766542}
2019-04-14 17:34:02.91: SIM {TimeUS : 57335390, Roll : 1.55, Pitch : -15.75, Yaw : 55.03, Alt : 49.2799987793, Lat : 49.2835968, Lng : -123.1149634, Q1 : 0.877545237541, Q2 : 0.0752472057939, Q3 : -0.115280650556, Q4 : 0.459306627512}
2019-04-14 17:34:03.01: SIM {TimeUS : 57435350, Roll : 2.73, Pitch : -15.87, Yaw : 52.71, Alt : 49.2799987793, Lat : 49.2835983, Lng : -123.1149602, Q1 : 0.885729968548, Q2 : 0.0824224874377, Q3 : -0.113189123571, Q4 : 0.442580163479}
2019-04-14 17:34:03.11: SIM {TimeUS : 57535310, Roll : 3.43, Pitch : -15.85, Yaw : 51.15, Alt : 49.2799987793, Lat : 49.2836001, Lng : -123.1149567, Q1 : 0.891174376011, Q2 : 0.0863262563944, Q3 : -0.11153434962, Q4 : 0.431179970503}
2019-04-14 17:34:03.21: SIM {TimeUS : 57635270, Roll : 3.66, Pitch : -15.78, Yaw : 50.4, Alt : 49.2799987793, Lat : 49.2836018, Lng : -123.1149533, Q1 : 0.893916010857, Q2 : 0.0871446505189, Q3 : -0.110715977848, Q4 : 0.425513803959}
2019-04-14 17:34:03.31: SIM {TimeUS : 57735230, Roll : 3.46, Pitch : -15.74, Yaw : 50.38, Alt : 49.2799987793, Lat : 49.2836035, Lng : -123.1149497, Q1 : 0.894167602062, Q2 : 0.085416585207, Q3 : -0.111151941121, Q4 : 0.425221800804}
2019-04-14 17:34:03.41: SIM {TimeUS : 57835190, Roll : 2.93, Pitch : -15.77, Yaw : 50.98, Alt : 49.2799987793, Lat : 49.283605, Lng : -123.114946, Q1 : 0.892274260521, Q2 : 0.0819598063827, Q3 : -0.112935096025, Q4 : 0.429389029741}
2019-04-14 17:34:03.51: SIM {TimeUS : 57935150, Roll : 2.17, Pitch : -15.89, Yaw : 52.03, Alt : 49.2799987793, Lat : 49.2836068, Lng : -123.1149421, Q1 : 0.888711929321, Q2 : 0.0775572806597, Q3 : -0.11595685035, Q4 : 0.436726510525}
2019-04-14 17:34:03.61: SIM {TimeUS : 58035110, Roll : 1.3, Pitch : -16.05, Yaw : 53.33, Alt : 49.2799987793, Lat : 49.2836086, Lng : -123.1149382, Q1 : 0.884081184864, Q2 : 0.0727956816554, Q3 : -0.119714155793, Q4 : 0.445836097002}
2019-04-14 17:34:03.71: SIM {TimeUS : 58135070, Roll : 0.43, Pitch : -16.22, Yaw : 54.71, Alt : 49.2900009155, Lat : 49.2836103, Lng : -123.1149342, Q1 : 0.879029095173, Q2 : 0.0681631490588, Q3 : -0.123657666147, Q4 : 0.455379396677}
2019-04-14 17:34:03.81: SIM {TimeUS : 58235030, Roll : -0.35, Pitch : -16.35, Yaw : 55.99, Alt : 49.2900009155, Lat : 49.283612, Lng : -123.1149302, Q1 : 0.87420296669, Q2 : 0.0640628710389, Q3 : -0.127008855343, Q4 : 0.464256286621}
2019-04-14 17:34:03.91: SIM {TimeUS : 58334990, Roll : -0.94, Pitch : -16.41, Yaw : 57.05, Alt : 49.2900009155, Lat : 49.2836138, Lng : -123.1149261, Q1 : 0.870109200478, Q2 : 0.0609961934388, Q3 : -0.129367694259, Q4 : 0.471649765968}
2019-04-14 17:34:04.01: SIM {TimeUS : 58434950, Roll : -1.34, Pitch : -16.44, Yaw : 57.82, Alt : 49.2900009155, Lat : 49.2836157, Lng : -123.114922, Q1 : 0.867107331753, Q2 : 0.0589720383286, Q3 : -0.130845889449, Q4 : 0.476997345686}
2019-04-14 17:34:04.11: SIM {TimeUS : 58534910, Roll : -1.51, Pitch : -16.46, Yaw : 58.26, Alt : 49.2900009155, Lat : 49.2836175, Lng : -123.1149178, Q1 : 0.865346431732, Q2 : 0.0582858063281, Q3 : -0.13144685328, Q4 : 0.480104207993}
2019-04-14 17:34:04.21: SIM {TimeUS : 58634870, Roll : -1.46, Pitch : -16.46, Yaw : 58.37, Alt : 49.2900009155, Lat : 49.2836194, Lng : -123.1149135, Q1 : 0.86483591795, Q2 : 0.058801125735, Q3 : -0.131112188101, Q4 : 0.481051892042}
2019-04-14 17:34:04.31: SIM {TimeUS : 58734830, Roll : -1.25, Pitch : -16.45, Yaw : 58.21, Alt : 49.2900009155, Lat : 49.2836214, Lng : -123.1149092, Q1 : 0.86541312933, Q2 : 0.0601171031594, Q3 : -0.130315408111, Q4 : 0.480066597462}
2019-04-14 17:34:04.41: SIM {TimeUS : 58834790, Roll : -0.97, Pitch : -16.48, Yaw : 57.84, Alt : 49.2900009155, Lat : 49.2836232, Lng : -123.1149049, Q1 : 0.866788208485, Q2 : 0.0620083920658, Q3 : -0.129547998309, Q4 : 0.477546364069}
2019-04-14 17:34:04.51: SIM {TimeUS : 58934750, Roll : -0.63, Pitch : -16.55, Yaw : 57.33, Alt : 49.2900009155, Lat : 49.2836253, Lng : -123.1149005, Q1 : 0.86865657568, Q2 : 0.0642114877701, Q3 : -0.128929689527, Q4 : 0.474014550447}
2019-04-14 17:34:04.61: SIM {TimeUS : 59034710, Roll : -0.29, Pitch : -16.63, Yaw : 56.76, Alt : 49.2900009155, Lat : 49.2836273, Lng : -123.1148961, Q1 : 0.870711147785, Q2 : 0.0665126666427, Q3 : -0.128519833088, Q4 : 0.470022171736}
2019-04-14 17:34:04.71: SIM {TimeUS : 59134670, Roll : 0.01, Pitch : -16.71, Yaw : 56.2, Alt : 49.2900009155, Lat : 49.2836293, Lng : -123.1148916, Q1 : 0.872725367546, Q2 : 0.0685480311513, Q3 : -0.128122240305, Q4 : 0.466086179018}
2019-04-14 17:34:04.81: SIM {TimeUS : 59235463, Roll : 0.27, Pitch : -16.76, Yaw : 55.71, Alt : 49.2900009155, Lat : 49.2836314, Lng : -123.1148871, Q1 : 0.874493002892, Q2 : 0.0702690780163, Q3 : -0.127790078521, Q4 : 0.46259483695}
2019-04-14 17:34:04.91: SIM {TimeUS : 59335423, Roll : 0.47, Pitch : -16.8, Yaw : 55.33, Alt : 49.2900009155, Lat : 49.2836334, Lng : -123.1148825, Q1 : 0.875851690769, Q2 : 0.0715342238545, Q3 : -0.127519220114, Q4 : 0.459897339344}
2019-04-14 17:34:05.01: SIM {TimeUS : 59435383, Roll : 0.6, Pitch : -16.83, Yaw : 55.08, Alt : 49.2900009155, Lat : 49.2836354, Lng : -123.1148779, Q1 : 0.876746177673, Q2 : 0.072305880487, Q3 : -0.127344980836, Q4 : 0.458117067814}
2019-04-14 17:34:05.11: SIM {TimeUS : 59535343, Roll : 0.65, Pitch : -16.85, Yaw : 54.96, Alt : 49.2900009155, Lat : 49.2836376, Lng : -123.1148733, Q1 : 0.877165973186, Q2 : 0.0726004391909, Q3 : -0.127396449447, Q4 : 0.457251816988}
2019-04-14 17:34:05.21: SIM {TimeUS : 59635303, Roll : 0.61, Pitch : -16.87, Yaw : 54.97, Alt : 49.2900009155, Lat : 49.2836396, Lng : -123.1148686, Q1 : 0.877154827118, Q2 : 0.0724187120795, Q3 : -0.127697765827, Q4 : 0.457217872143}
2019-04-14 17:34:05.31: SIM {TimeUS : 59735263, Roll : 0.51, Pitch : -16.89, Yaw : 55.07, Alt : 49.2900009155, Lat : 49.2836416, Lng : -123.1148639, Q1 : 0.876790881157, Q2 : 0.0718714147806, Q3 : -0.128173008561, Q4 : 0.45786896348}
2019-04-14 17:34:05.41: SIM {TimeUS : 59835223, Roll : 0.38, Pitch : -16.91, Yaw : 55.23, Alt : 49.2900009155, Lat : 49.2836438, Lng : -123.1148592, Q1 : 0.876176714897, Q2 : 0.0711244344711, Q3 : -0.128788203001, Q4 : 0.458987295628}
2019-04-14 17:34:05.51: SIM {TimeUS : 59935183, Roll : 0.23, Pitch : -16.95, Yaw : 55.44, Alt : 49.2900009155, Lat : 49.2836458, Lng : -123.1148544, Q1 : 0.87541103363, Q2 : 0.0703569427133, Q3 : -0.12955275178, Q4 : 0.460349351168}
2019-04-14 17:34:05.61: SIM {TimeUS : 60035143, Roll : 0.08, Pitch : -16.99, Yaw : 55.65, Alt : 49.2999992371, Lat : 49.283648, Lng : -123.1148496, Q1 : 0.874612867832, Q2 : 0.0696079879999, Q3 : -0.130386605859, Q4 : 0.461742848158}
2019-04-14 17:34:05.71: SIM {TimeUS : 60135103, Roll : -0.06, Pitch : -17.04, Yaw : 55.83, Alt : 49.2999992371, Lat : 49.2836501, Lng : -123.1148448, Q1 : 0.873889505863, Q2 : 0.0688971951604, Q3 : -0.131196424365, Q4 : 0.46298789978}
2019-04-14 17:34:05.81: SIM {TimeUS : 60235063, Roll : -0.18, Pitch : -17.07, Yaw : 55.98, Alt : 49.2999992371, Lat : 49.2836523, Lng : -123.1148399, Q1 : 0.873329162598, Q2 : 0.0682561025023, Q3 : -0.131827101111, Q4 : 0.463960021734}
2019-04-14 17:34:05.91: SIM {TimeUS : 60335023, Roll : -0.28, Pitch : -17.1, Yaw : 56.08, Alt : 49.2999992371, Lat : 49.2836545, Lng : -123.114835, Q1 : 0.872955739498, Q2 : 0.0677592381835, Q3 : -0.132374867797, Q4 : 0.464579254389}
2019-04-14 17:34:06.01: SIM {TimeUS : 60434983, Roll : -0.31, Pitch : -17.13, Yaw : 56.12, Alt : 49.2999992371, Lat : 49.2836566, Lng : -123.1148301, Q1 : 0.872763812542, Q2 : 0.0676889270544, Q3 : -0.132754921913, Q4 : 0.464841544628}
2019-04-14 17:34:06.11: SIM {TimeUS : 60534943, Roll : -0.29, Pitch : -17.17, Yaw : 56.11, Alt : 49.2999992371, Lat : 49.2836588, Lng : -123.1148252, Q1 : 0.87275660038, Q2 : 0.0679542943835, Q3 : -0.132962718606, Q4 : 0.464756965637}
2019-04-14 17:34:06.21: SIM {TimeUS : 60634903, Roll : -0.23, Pitch : -17.21, Yaw : 56.06, Alt : 49.2999992371, Lat : 49.2836609, Lng : -123.1148202, Q1 : 0.872903585434, Q2 : 0.0685457065701, Q3 : -0.133013486862, Q4 : 0.464379400015}
2019-04-14 17:34:06.31: SIM {TimeUS : 60734863, Roll : -0.12, Pitch : -17.25, Yaw : 55.96, Alt : 49.2999992371, Lat : 49.2836632, Lng : -123.1148153, Q1 : 0.87315839529, Q2 : 0.0694161504507, Q3 : -0.132968783379, Q4 : 0.463783442974}
2019-04-14 17:34:06.41: SIM {TimeUS : 60834823, Roll : -0.02, Pitch : -17.28, Yaw : 55.85, Alt : 49.2999992371, Lat : 49.2836653, Lng : -123.1148102, Q1 : 0.873510718346, Q2 : 0.0701852217317, Q3 : -0.132851928473, Q4 : 0.463037222624}
2019-04-14 17:34:06.51: SIM {TimeUS : 60934783, Roll : 0.05, Pitch : -17.29, Yaw : 55.74, Alt : 49.2999992371, Lat : 49.2836676, Lng : -123.1148053, Q1 : 0.873916327953, Q2 : 0.070689946413, Q3 : -0.132696434855, Q4 : 0.462238907814}
2019-04-14 17:34:06.61: SIM {TimeUS : 61034743, Roll : 0.09, Pitch : -17.3, Yaw : 55.63, Alt : 49.3100013733, Lat : 49.2836699, Lng : -123.1148002, Q1 : 0.874324023724, Q2 : 0.0708975195885, Q3 : -0.132652550936, Q4 : 0.461448073387}
2019-04-14 17:34:06.71: SIM {TimeUS : 61134703, Roll : 0.12, Pitch : -17.3, Yaw : 55.53, Alt : 49.3100013733, Lat : 49.283672, Lng : -123.1147952, Q1 : 0.874684393406, Q2 : 0.0710570067167, Q3 : -0.132641404867, Q4 : 0.460743367672}
2019-04-14 17:34:06.81: SIM {TimeUS : 61234663, Roll : 0.14, Pitch : -17.32, Yaw : 55.46, Alt : 49.3100013733, Lat : 49.2836743, Lng : -123.1147901, Q1 : 0.874954760075, Q2 : 0.0712309628725, Q3 : -0.132754951715, Q4 : 0.460169970989}
2019-04-14 17:34:06.91: SIM {TimeUS : 61335456, Roll : 0.17, Pitch : -17.37, Yaw : 55.4, Alt : 49.3100013733, Lat : 49.2836766, Lng : -123.114785, Q1 : 0.875102043152, Q2 : 0.071547575295, Q3 : -0.133005619049, Q4 : 0.459768265486}
2019-04-14 17:34:07.01: SIM {TimeUS : 61435416, Roll : 0.19, Pitch : -17.43, Yaw : 55.37, Alt : 49.3100013733, Lat : 49.2836789, Lng : -123.1147798, Q1 : 0.875138521194, Q2 : 0.0718993768096, Q3 : -0.133392348886, Q4 : 0.459531843662}
2019-04-14 17:34:07.11: SIM {TimeUS : 61535376, Roll : 0.19, Pitch : -17.46, Yaw : 55.36, Alt : 49.3100013733, Lat : 49.2836811, Lng : -123.1147748, Q1 : 0.875134527683, Q2 : 0.0720497444272, Q3 : -0.133632436395, Q4 : 0.459446161985}
2019-04-14 17:34:07.21: SIM {TimeUS : 61635336, Roll : 0.19, Pitch : -17.46, Yaw : 55.37, Alt : 49.3100013733, Lat : 49.2836834, Lng : -123.1147696, Q1 : 0.875114142895, Q2 : 0.0720069333911, Q3 : -0.13363686204, Q4 : 0.459490448236}
2019-04-14 17:34:07.31: SIM {TimeUS : 61735296, Roll : 0.17, Pitch : -17.46, Yaw : 55.39, Alt : 49.3100013733, Lat : 49.2836857, Lng : -123.1147645, Q1 : 0.875059962273, Q2 : 0.0719127357006, Q3 : -0.133693754673, Q4 : 0.459591805935}
2019-04-14 17:34:07.41: SIM {TimeUS : 61835256, Roll : 0.13, Pitch : -17.48, Yaw : 55.41, Alt : 49.3100013733, Lat : 49.283688, Lng : -123.1147593, Q1 : 0.874982714653, Q2 : 0.0716635659337, Q3 : -0.134005710483, Q4 : 0.459686905146}
2019-04-14 17:34:07.51: SIM {TimeUS : 61935216, Roll : 0.09, Pitch : -17.49, Yaw : 55.43, Alt : 49.3100013733, Lat : 49.2836902, Lng : -123.1147542, Q1 : 0.874902427197, Q2 : 0.0714888870716, Q3 : -0.134279876947, Q4 : 0.459786951542}
2019-04-14 17:34:07.61: SIM {TimeUS : 62035176, Roll : 0.06, Pitch : -17.52, Yaw : 55.44, Alt : 49.3100013733, Lat : 49.2836925, Lng : -123.114749, Q1 : 0.874831259251, Q2 : 0.0713930279016, Q3 : -0.134585171938, Q4 : 0.459847956896}
2019-04-14 17:34:07.71: SIM {TimeUS : 62135136, Roll : 0.05, Pitch : -17.54, Yaw : 55.45, Alt : 49.3199996948, Lat : 49.2836949, Lng : -123.1147438, Q1 : 0.874789595604, Q2 : 0.0713459923863, Q3 : -0.134811654687, Q4 : 0.459868192673}
2019-04-14 17:34:07.81: SIM {TimeUS : 62235096, Roll : 0.04, Pitch : -17.57, Yaw : 55.45, Alt : 49.3199996948, Lat : 49.2836972, Lng : -123.1147385, Q1 : 0.874770879745, Q2 : 0.0714158117771, Q3 : -0.135005816817, Q4 : 0.459836006165}
2019-04-14 17:34:07.91: SIM {TimeUS : 62335056, Roll : 0.06, Pitch : -17.58, Yaw : 55.44, Alt : 49.3199996948, Lat : 49.2836995, Lng : -123.1147333, Q1 : 0.874786555767, Q2 : 0.0715607330203, Q3 : -0.13505345583, Q4 : 0.459769576788}
2019-04-14 17:34:08.01: SIM {TimeUS : 62435016, Roll : 0.09, Pitch : -17.59, Yaw : 55.42, Alt : 49.3199996948, Lat : 49.2837017, Lng : -123.1147281, Q1 : 0.874811053276, Q2 : 0.0718430802226, Q3 : -0.13506603241, Q4 : 0.459675312042}
2019-04-14 17:34:08.11: SIM {TimeUS : 62534976, Roll : 0.12, Pitch : -17.62, Yaw : 55.4, Alt : 49.3199996948, Lat : 49.2837041, Lng : -123.1147228, Q1 : 0.87484651804, Q2 : 0.0721795111895, Q3 : -0.135137975216, Q4 : 0.459533989429}
2019-04-14 17:34:08.21: SIM {TimeUS : 62634936, Roll : 0.13, Pitch : -17.66, Yaw : 55.37, Alt : 49.3199996948, Lat : 49.2837065, Lng : -123.1147176, Q1 : 0.874901533127, Q2 : 0.0723769515753, Q3 : -0.13540841639, Q4 : 0.459318488836}
2019-04-14 17:34:08.31: SIM {TimeUS : 62734896, Roll : 0.13, Pitch : -17.7, Yaw : 55.34, Alt : 49.3199996948, Lat : 49.2837089, Lng : -123.1147123, Q1 : 0.87496483326, Q2 : 0.0724885314703, Q3 : -0.135796561837, Q4 : 0.459065645933}
2019-04-14 17:34:08.41: SIM {TimeUS : 62834856, Roll : 0.11, Pitch : -17.75, Yaw : 55.31, Alt : 49.3199996948, Lat : 49.2837112, Lng : -123.114707, Q1 : 0.87503528595, Q2 : 0.0725449323654, Q3 : -0.136193573475, Q4 : 0.458804756403}
2019-04-14 17:34:08.51: SIM {TimeUS : 62934816, Roll : 0.12, Pitch : -17.78, Yaw : 55.29, Alt : 49.3199996948, Lat : 49.2837135, Lng : -123.1147017, Q1 : 0.875111997128, Q2 : 0.0726509392262, Q3 : -0.136408135295, Q4 : 0.458577901125}
2019-04-14 17:34:08.61: SIM {TimeUS : 63034776, Roll : 0.13, Pitch : -17.78, Yaw : 55.26, Alt : 49.3199996948, Lat : 49.2837159, Lng : -123.1146964, Q1 : 0.875202715397, Q2 : 0.0727287456393, Q3 : -0.136427283287, Q4 : 0.458386689425}
2019-04-14 17:34:08.71: SIM {TimeUS : 63134736, Roll : 0.15, Pitch : -17.76, Yaw : 55.24, Alt : 49.3199996948, Lat : 49.2837182, Lng : -123.114691, Q1 : 0.875310242176, Q2 : 0.0727573931217, Q3 : -0.136209249496, Q4 : 0.458241581917}
2019-04-14 17:34:08.81: SIM {TimeUS : 63234696, Roll : 0.15, Pitch : -17.74, Yaw : 55.22, Alt : 49.3199996948, Lat : 49.2837205, Lng : -123.1146858, Q1 : 0.875404000282, Q2 : 0.0726696923375, Q3 : -0.136064857244, Q4 : 0.458119392395}
2019-04-14 17:34:08.91: SIM {TimeUS : 63334656, Roll : 0.15, Pitch : -17.73, Yaw : 55.2, Alt : 49.3199996948, Lat : 49.2837229, Lng : -123.1146804, Q1 : 0.875485241413, Q2 : 0.0725614503026, Q3 : -0.135964557528, Q4 : 0.458011031151}
2019-04-14 17:34:09.01: SIM {TimeUS : 63435449, Roll : 0.14, Pitch : -17.71, Yaw : 55.19, Alt : 49.3199996948, Lat : 49.2837253, Lng : -123.114675, Q1 : 0.875543475151, Q2 : 0.0724654123187, Q3 : -0.135893091559, Q4 : 0.457936108112}
2019-04-14 17:34:09.11: SIM {TimeUS : 63535409, Roll : 0.13, Pitch : -17.72, Yaw : 55.19, Alt : 49.3199996948, Lat : 49.2837278, Lng : -123.1146697, Q1 : 0.875568568707, Q2 : 0.0724304392934, Q3 : -0.136004239321, Q4 : 0.457860708237}
2019-04-14 17:34:09.21: SIM {TimeUS : 63635369, Roll : 0.13, Pitch : -17.74, Yaw : 55.18, Alt : 49.3199996948, Lat : 49.2837302, Lng : -123.1146643, Q1 : 0.875574827194, Q2 : 0.0725084543228, Q3 : -0.136138156056, Q4 : 0.457796573639}
2019-04-14 17:34:09.31: SIM {TimeUS : 63735329, Roll : 0.13, Pitch : -17.78, Yaw : 55.17, Alt : 49.3300018311, Lat : 49.2837326, Lng : -123.114659, Q1 : 0.875558972359, Q2 : 0.0725933536887, Q3 : -0.13649725914, Q4 : 0.457706451416}
2019-04-14 17:34:09.41: SIM {TimeUS : 63835289, Roll : 0.12, Pitch : -17.83, Yaw : 55.16, Alt : 49.3300018311, Lat : 49.2837349, Lng : -123.1146536, Q1 : 0.875533163548, Q2 : 0.0727427527308, Q3 : -0.136898085475, Q4 : 0.457612365484}
2019-04-14 17:34:09.51: SIM {TimeUS : 63935249, Roll : 0.13, Pitch : -17.87, Yaw : 55.16, Alt : 49.3300018311, Lat : 49.2837373, Lng : -123.1146482, Q1 : 0.87551343441, Q2 : 0.0729657188058, Q3 : -0.137174412608, Q4 : 0.457531839609}
2019-04-14 17:34:09.61: SIM {TimeUS : 64035209, Roll : 0.13, Pitch : -17.91, Yaw : 55.15, Alt : 49.3300018311, Lat : 49.2837397, Lng : -123.1146428, Q1 : 0.875510752201, Q2 : 0.0730975493789, Q3 : -0.13743892312, Q4 : 0.457436531782}
2019-04-14 17:34:09.71: SIM {TimeUS : 64135169, Roll : 0.13, Pitch : -17.93, Yaw : 55.14, Alt : 49.3300018311, Lat : 49.2837421, Lng : -123.1146374, Q1 : 0.875528931618, Q2 : 0.0731509551406, Q3 : -0.137621849775, Q4 : 0.457338213921}
2019-04-14 17:34:09.81: SIM {TimeUS : 64235129, Roll : 0.14, Pitch : -17.92, Yaw : 55.12, Alt : 49.3300018311, Lat : 49.2837445, Lng : -123.114632, Q1 : 0.875572144985, Q2 : 0.0732181444764, Q3 : -0.137528315187, Q4 : 0.457272917032}
2019-04-14 17:34:09.91: SIM {TimeUS : 64335089, Roll : 0.17, Pitch : -17.93, Yaw : 55.11, Alt : 49.3300018311, Lat : 49.283747, Lng : -123.1146266, Q1 : 0.875603497028, Q2 : 0.0734071731567, Q3 : -0.137476190925, Q4 : 0.45719820261}
2019-04-14 17:34:10.01: SIM {TimeUS : 64435049, Roll : 0.18, Pitch : -17.94, Yaw : 55.1, Alt : 49.3300018311, Lat : 49.2837494, Lng : -123.1146211, Q1 : 0.875635623932, Q2 : 0.0735148191452, Q3 : -0.137558937073, Q4 : 0.457094550133}
2019-04-14 17:34:10.11: SIM {TimeUS : 64535009, Roll : 0.18, Pitch : -17.95, Yaw : 55.08, Alt : 49.3300018311, Lat : 49.2837518, Lng : -123.1146156, Q1 : 0.875675320625, Q2 : 0.0735762566328, Q3 : -0.137627676129, Q4 : 0.456987798214}
2019-04-14 17:34:10.21: SIM {TimeUS : 64634969, Roll : 0.18, Pitch : -17.95, Yaw : 55.07, Alt : 49.3300018311, Lat : 49.2837542, Lng : -123.1146103, Q1 : 0.875729382038, Q2 : 0.0735840126872, Q3 : -0.137592151761, Q4 : 0.456893742085}
2019-04-14 17:34:10.31: SIM {TimeUS : 64734929, Roll : 0.18, Pitch : -17.95, Yaw : 55.06, Alt : 49.3300018311, Lat : 49.2837565, Lng : -123.1146049, Q1 : 0.875784873962, Q2 : 0.0735510736704, Q3 : -0.137588173151, Q4 : 0.4567938447}
2019-04-14 17:34:10.41: SIM {TimeUS : 64834889, Roll : 0.16, Pitch : -17.96, Yaw : 55.04, Alt : 49.3300018311, Lat : 49.2837591, Lng : -123.1145994, Q1 : 0.875822246075, Q2 : 0.073462665081, Q3 : -0.137823373079, Q4 : 0.456665545702}
2019-04-14 17:34:10.51: SIM {TimeUS : 64934849, Roll : 0.13, Pitch : -18.0, Yaw : 55.03, Alt : 49.3300018311, Lat : 49.2837615, Lng : -123.114594, Q1 : 0.875841796398, Q2 : 0.0733556821942, Q3 : -0.138269945979, Q4 : 0.456510186195}
2019-04-14 17:34:10.61: SIM {TimeUS : 65034809, Roll : 0.12, Pitch : -18.02, Yaw : 55.02, Alt : 49.3300018311, Lat : 49.2837638, Lng : -123.1145885, Q1 : 0.875881791115, Q2 : 0.07328235358, Q3 : -0.138409033418, Q4 : 0.456403106451}
2019-04-14 17:34:10.71: SIM {TimeUS : 65134769, Roll : 0.13, Pitch : -18.0, Yaw : 55.01, Alt : 49.3300018311, Lat : 49.2837664, Lng : -123.114583, Q1 : 0.875933468342, Q2 : 0.0733157321811, Q3 : -0.138260886073, Q4 : 0.456343412399}
2019-04-14 17:34:10.81: SIM {TimeUS : 65234729, Roll : 0.15, Pitch : -17.99, Yaw : 55.0, Alt : 49.3400001526, Lat : 49.2837688, Lng : -123.1145776, Q1 : 0.87597900629, Q2 : 0.0734144225717, Q3 : -0.138080134988, Q4 : 0.456294894218}
2019-04-14 17:34:10.91: SIM {TimeUS : 65334689, Roll : 0.16, Pitch : -17.99, Yaw : 54.99, Alt : 49.3400001526, Lat : 49.2837711, Lng : -123.1145721, Q1 : 0.876010894775, Q2 : 0.0734993442893, Q3 : -0.138083398342, Q4 : 0.456218957901}
2019-04-14 17:34:11.01: SIM {TimeUS : 65435482, Roll : 0.15, Pitch : -18.01, Yaw : 54.98, Alt : 49.3400001526, Lat : 49.2837737, Lng : -123.1145666, Q1 : 0.876037180424, Q2 : 0.073484160006, Q3 : -0.138257592916, Q4 : 0.456118255854}
2019-04-14 17:34:11.11: SIM {TimeUS : 65535442, Roll : 0.13, Pitch : -18.03, Yaw : 54.97, Alt : 49.3400001526, Lat : 49.2837762, Lng : -123.1145611, Q1 : 0.876063525677, Q2 : 0.0733714848757, Q3 : -0.138531252742, Q4 : 0.456002682447}
2019-04-14 17:34:11.21: SIM {TimeUS : 65635402, Roll : 0.12, Pitch : -18.05, Yaw : 54.96, Alt : 49.3400001526, Lat : 49.2837786, Lng : -123.1145556, Q1 : 0.876091122627, Q2 : 0.0733322501183, Q3 : -0.138704583049, Q4 : 0.455903202295}
2019-04-14 17:34:11.31: SIM {TimeUS : 65735362, Roll : 0.12, Pitch : -18.06, Yaw : 54.95, Alt : 49.3400001526, Lat : 49.2837811, Lng : -123.1145501, Q1 : 0.876111626625, Q2 : 0.073411680758, Q3 : -0.138824373484, Q4 : 0.455814629793}
2019-04-14 17:34:11.41: SIM {TimeUS : 65835322, Roll : 0.13, Pitch : -18.08, Yaw : 54.94, Alt : 49.3400001526, Lat : 49.2837835, Lng : -123.1145445, Q1 : 0.87612426281, Q2 : 0.0735614597797, Q3 : -0.138904169202, Q4 : 0.455741882324}
2019-04-14 17:34:11.51: SIM {TimeUS : 65935282, Roll : 0.16, Pitch : -18.09, Yaw : 54.93, Alt : 49.3400001526, Lat : 49.283786, Lng : -123.114539, Q1 : 0.876129627228, Q2 : 0.073806412518, Q3 : -0.138892188668, Q4 : 0.455695599318}
2019-04-14 17:34:11.61: SIM {TimeUS : 66035242, Roll : 0.17, Pitch : -18.11, Yaw : 54.92, Alt : 49.3400001526, Lat : 49.2837884, Lng : -123.1145336, Q1 : 0.876135587692, Q2 : 0.0739680826664, Q3 : -0.138975664973, Q4 : 0.455632567406}
2019-04-14 17:34:11.71: SIM {TimeUS : 66135202, Roll : 0.19, Pitch : -18.13, Yaw : 54.91, Alt : 49.3400001526, Lat : 49.2837909, Lng : -123.1145281, Q1 : 0.876139879227, Q2 : 0.0741267204285, Q3 : -0.139070168138, Q4 : 0.455569624901}
2019-04-14 17:34:11.81: SIM {TimeUS : 66235162, Roll : 0.2, Pitch : -18.14, Yaw : 54.9, Alt : 49.3400001526, Lat : 49.2837933, Lng : -123.1145226, Q1 : 0.876138806343, Q2 : 0.0743102952838, Q3 : -0.139128103852, Q4 : 0.455524027348}
2019-04-14 17:34:11.91: SIM {TimeUS : 66335122, Roll : 0.23, Pitch : -18.15, Yaw : 54.9, Alt : 49.3400001526, Lat : 49.2837958, Lng : -123.1145171, Q1 : 0.876130521297, Q2 : 0.0745769664645, Q3 : -0.139093413949, Q4 : 0.455506950617}
