2019-04-14 19:20:48.50: SIM {TimeUS : 40116447, Roll : 0.0, Pitch : 0.0, Yaw : 0.0, Alt : 30.1000003815, Lat : 49.28357, Lng : -123.11502, Q1 : 1.0, Q2 : 0.0, Q3 : 0.0, Q4 : 0.0}
2019-04-14 19:20:48.61: SIM {TimeUS : 40235566, Roll : 0.0, Pitch : 0.0, Yaw : 0.0, Alt : 30.1000003815, Lat : 49.28357, Lng : -123.11502, Q1 : 1.0, Q2 : 0.0, Q3 : 0.0, Q4 : 0.0}
2019-04-14 19:20:48.71: SIM {TimeUS : 40335526, Roll : 0.0, Pitch : 0.0, Yaw : 0.0, Alt : 30.1000003815, Lat : 49.28357, Lng : -123.11502, Q1 : 1.0, Q2 : 0.0, Q3 : 0.0, Q4 : 0.0}
2019-04-14 19:20:48.81: SIM {TimeUS : 40435486, Roll : 0.0, Pitch : 0.0, Yaw : 0.0, Alt : 30.1000003815, Lat : 49.28357, Lng : -123.11502, Q1 : 1.0, Q2 : 0.0, Q3 : 0.0, Q4 : 0.0}
2019-04-14 19:20:48.91: SIM {TimeUS : 40535446, Roll : 0.0, Pitch : 0.0, Yaw : 0.0, Alt : 30.1000003815, Lat : 49.28357, Lng : -123.11502, Q1 : 1.0, Q2 : 0.0, Q3 : 0.0, Q4 : 0.0}
2019-04-14 19:20:49.01: SIM {TimeUS : 40635406, Roll : 0.0, Pitch : 0.0, Yaw : 0.0, Alt : 30.1000003815, Lat : 49.28357, Lng : -123.11502, Q1 : 1.0, Q2 : 0.0, Q3 : 0.0, Q4 : 0.0}
2019-04-14 19:20:49.11: SIM {TimeUS : 40735366, Roll : 0.0, Pitch : 0.0, Yaw : 0.0, Alt : 30.1000003815, Lat : 49.28357, Lng : -123.11502, Q1 : 1.0, Q2 : 0.0, Q3 : 0.0, Q4 : 0.0}
2019-04-14 19:20:49.21: SIM {TimeUS : 40835326, Roll : 0.0, Pitch : 0.0, Yaw : 0.0, Alt : 30.1000003815, Lat : 49.28357, Lng : -123.11502, Q1 : 1.0, Q2 : 0.0, Q3 : 0.0, Q4 : 0.0}
2019-04-14 19:20:49.31: SIM {TimeUS : 40935286, Roll : 0.0, Pitch : 0.0, Yaw : 0.0, Alt : 30.1000003815, Lat : 49.28357, Lng : -123.11502, Q1 : 1.0, Q2 : 0.0, Q3 : 0.0, Q4 : 0.0}
2019-04-14 19:20:49.41: SIM {TimeUS : 41035246, Roll : 0.0, Pitch : 0.0, Yaw : 0.0, Alt : 30.1000003815, Lat : 49.28357, Lng : -123.11502, Q1 : 1.0, Q2 : 0.0, Q3 : 0.0, Q4 : 0.0}
2019-04-14 19:20:49.51: SIM {TimeUS : 41135206, Roll : 0.0, Pitch : 0.0, Yaw : 0.0, Alt : 30.1000003815, Lat : 49.28357, Lng : -123.11502, Q1 : 1.0, Q2 : 0.0, Q3 : 0.0, Q4 : 0.0}
2019-04-14 19:20:49.61: SIM {TimeUS : 41235166, Roll : 0.0, Pitch : 0.0, Yaw : 0.0, Alt : 30.1000003815, Lat : 49.28357, Lng : -123.11502, Q1 : 1.0, Q2 : 0.0, Q3 : 0.0, Q4 : 0.0}
2019-04-14 19:20:49.71: SIM {TimeUS : 41335126, Roll : 0.0, Pitch : 0.0, Yaw : 0.0, Alt : 30.1000003815, Lat : 49.28357, Lng : -123.11502, Q1 : 1.0, Q2 : 0.0, Q3 : 0.0, Q4 : 0.0}
2019-04-14 19:20:49.81: SIM {TimeUS : 41435086, Roll : 0.0, Pitch : 0.0, Yaw : 0.0, Alt : 30.1000003815, Lat : 49.28357, Lng : -123.11502, Q1 : 1.0, Q2 : 0.0, Q3 : 0.0, Q4 : 0.0}
2019-04-14 19:20:49.91: SIM {TimeUS : 41535046, Roll : 0.0, Pitch : 0.0, Yaw : 0.0, Alt : 30.1000003815, Lat : 49.28357, Lng : -123.11502, Q1 : 1.0, Q2 : 0.0, Q3 : 0.0, Q4 : 0.0}
2019-04-14 19:20:50.01: SIM {TimeUS : 41635006, Roll : 0.0, Pitch : 0.0, Yaw : 0.0, Alt : 30.1000003815, Lat : 49.28357, Lng : -123.11502, Q1 : 1.0, Q2 : 0.0, Q3 : 0.0, Q4 : 0.0}
2019-04-14 19:20:50.11: SIM {TimeUS : 41734966, Roll : 0.0, Pitch : 0.0, Yaw : 0.0, Alt : 30.1000003815, Lat : 49.28357, Lng : -123.11502, Q1 : 1.0, Q2 : 0.0, Q3 : 0.0, Q4 : 0.0}
2019-04-14 19:20:50.21: SIM {TimeUS : 41834926, Roll : 0.0, Pitch : 0.0, Yaw : 0.0, Alt : 30.1000003815, Lat : 49.28357, Lng : -123.11502, Q1 : 1.0, Q2 : 0.0, Q3 : 0.0, Q4 : 0.0}
2019-04-14 19:20:50.31: SIM {TimeUS : 41934886, Roll : 0.0, Pitch : 0.0, Yaw : 0.0, Alt : 30.1000003815, Lat : 49.28357, Lng : -123.11502, Q1 : 1.0, Q2 : 0.0, Q3 : 0.0, Q4 : 0.0}
2019-04-14 19:20:50.41: SIM {TimeUS : 42034846, Roll : 0.0, Pitch : 0.0, Yaw : 0.0, Alt : 30.1000003815, Lat : 49.28357, Lng : -123.11502, Q1 : 1.0, Q2 : 0.0, Q3 : 0.0, Q4 : 0.0}
2019-04-14 19:20:50.51: SIM {TimeUS : 42134806, Roll : 0.0, Pitch : 0.0, Yaw : 0.0, Alt : 30.1000003815, Lat : 49.28357, Lng : -123.11502, Q1 : 1.0, Q2 : 0.0, Q3 : 0.0, Q4 : 0.0}
2019-04-14 19:20:50.62: SIM {TimeUS : 42235599, Roll : 0.0, Pitch : 0.0, Yaw : 0.0, Alt : 30.1000003815, Lat : 49.28357, Lng : -123.11502, Q1 : 1.0, Q2 : 0.0, Q3 : 0.0, Q4 : 0.0}
2019-04-14 19:20:50.71: SIM {TimeUS : 42335559, Roll : 0.0, Pitch : 0.0, Yaw : 0.0, Alt : 30.1000003815, Lat : 49.28357, Lng : -123.11502, Q1 : 1.0, Q2 : 0.0, Q3 : 0.0, Q4 : 0.0}
2019-04-14 19:20:50.81: SIM {TimeUS : 42435519, Roll : 0.0, Pitch : 0.0, Yaw : 0.0, Alt : 30.1000003815, Lat : 49.28357, Lng : -123.11502, Q1 : 1.0, Q2 : 0.0, Q3 : 0.0, Q4 : 7.85094975142e-11}
2019-04-14 19:20:50.91: SIM {TimeUS : 42535479, Roll : 0.0, Pitch : 0.0, Yaw : 360.0, Alt : 30.1000003815, Lat : 49.28357, Lng : -123.11502, Q1 : 1.0, Q2 : 0.0, Q3 : 0.0, Q4 : -3.19978958885e-08}
2019-04-14 19:20:51.01: SIM {TimeUS : 42635439, Roll : 0.0, Pitch : 0.0, Yaw : 359.99, Alt : 30.1000003815, Lat : 49.28357, Lng : -123.11502, Q1 : 1.0, Q2 : 0.0, Q3 : 0.0, Q4 : -2.01371705089e-07}
2019-04-14 19:20:51.11: SIM {TimeUS : 42735399, Roll : 0.0, Pitch : 0.0, Yaw : 359.99, Alt : 30.1000003815, Lat : 49.28357, Lng : -123.11502, Q1 : 1.0, Q2 : 0.0, Q3 : 0.0, Q4 : -3.85383856383e-07}
2019-04-14 19:20:51.21: SIM {TimeUS : 42835359, Roll : 0.0, Pitch : 0.0, Yaw : 359.99, Alt : 30.1000003815, Lat : 49.28357, Lng : -123.11502, Q1 : 1.0, Q2 : 0.0, Q3 : 0.0, Q4 : -5.60659884741e-07}
2019-04-14 19:20:51.31: SIM {TimeUS : 42935319, Roll : 0.0, Pitch : 0.0, Yaw : 359.99, Alt : 30.1000003815, Lat : 49.28357, Lng : -123.11502, Q1 : 1.0, Q2 : 0.0, Q3 : 0.0, Q4 : -7.3944062251e-07}
2019-04-14 19:20:51.41: SIM {TimeUS : 43035279, Roll : 0.0, Pitch : 0.0, Yaw : 359.99, Alt : 30.1000003815, Lat : 49.28357, Lng : -123.11502, Q1 : 1.0, Q2 : 0.0, Q3 : 0.0, Q4 : -9.52871573645e-07}
2019-04-14 19:20:51.51: SIM {TimeUS : 43135239, Roll : 0.0, Pitch : 0.0, Yaw : 359.99, Alt : 30.1000003815, Lat : 49.28357, Lng : -123.11502, Q1 : 1.0, Q2 : 0.0, Q3 : 0.0, Q4 : -1.17808588129e-06}
2019-04-14 19:20:51.61: SIM {TimeUS : 43235199, Roll : 0.0, Pitch : 0.0, Yaw : 359.99, Alt : 30.1000003815, Lat : 49.28357, Lng : -123.11502, Q1 : 1.0, Q2 : 0.0, Q3 : 0.0, Q4 : -1.39510530062e-06}
2019-04-14 19:20:51.71: SIM {TimeUS : 43335159, Roll : 0.0, Pitch : 0.0, Yaw : 359.99, Alt : 30.1200008392, Lat : 49.28357, Lng : -123.11502, Q1 : 1.0, Q2 : 0.0, Q3 : 0.0, Q4 : -1.60320212217e-06}
2019-04-14 19:20:51.81: SIM {TimeUS : 43435119, Roll : 0.0, Pitch : 0.0, Yaw : 359.99, Alt : 30.1399993896, Lat : 49.28357, Lng : -123.11502, Q1 : 1.0, Q2 : 0.0, Q3 : 0.0, Q4 : -1.82272378879e-06}
2019-04-14 19:20:51.91: SIM {TimeUS : 43535079, Roll : 0.0, Pitch : 0.0, Yaw : 359.99, Alt : 30.1800003052, Lat : 49.28357, Lng : -123.11502, Q1 : 1.0, Q2 : 0.0, Q3 : 0.0, Q4 : -2.05393826036e-06}
2019-04-14 19:20:52.01: SIM {TimeUS : 43635039, Roll : 0.0, Pitch : 0.0, Yaw : 359.99, Alt : 30.2099990845, Lat : 49.28357, Lng : -123.11502, Q1 : 1.0, Q2 : -5.65526033824e-06, Q3 : -5.64536685488e-06, Q4 : -2.2559675017e-06}
2019-04-14 19:20:52.11: SIM {TimeUS : 43734999, Roll : -0.17, Pitch : -0.17, Yaw : 359.99, Alt : 30.2700004578, Lat : 49.28357, Lng : -123.11502, Q1 : 0.999997615814, Q2 : -0.00156344589777, Q3 : -0.00151631876361, Q4 : -1.87022651517e-05}
2019-04-14 19:20:52.21: SIM {TimeUS : 43834959, Roll : -0.49, Pitch : -0.44, Yaw : 359.99, Alt : 30.3899993896, Lat : 49.28357, Lng : -123.11502, Q1 : 0.999982893467, Q2 : -0.00436337431893, Q3 : -0.00389429624192, Q4 : -6.33871750324e-05}
2019-04-14 19:20:52.31: SIM {TimeUS : 43934919, Roll : -0.76, Pitch : -0.63, Yaw : 359.98, Alt : 30.5400009155, Lat : 49.28357, Lng : -123.11502, Q1 : 0.999962806702, Q2 : -0.00664254324511, Q3 : -0.00550630595535, Q4 : -0.000134491026984}
2019-04-14 19:20:52.41: SIM {TimeUS : 44034879, Roll : -0.85, Pitch : -0.68, Yaw : 359.98, Alt : 30.7000007629, Lat : 49.28357, Lng : -123.11502, Q1 : 0.99995392561, Q2 : -0.00750518217683, Q3 : -0.00597837287933, Q4 : -0.000217952154344}
2019-04-14 19:20:52.51: SIM {TimeUS : 44134839, Roll : -0.8, Pitch : -0.63, Yaw : 359.96, Alt : 30.8500003815, Lat : 49.28357, Lng : -123.1150201, Q1 : 0.999960184097, Q2 : -0.00701440591365, Q3 : -0.00550811411813, Q4 : -0.000301530060824}
2019-04-14 19:20:52.61: SIM {TimeUS : 44234799, Roll : -0.64, Pitch : -0.5, Yaw : 359.95, Alt : 31.0100002289, Lat : 49.2835701, Lng : -123.1150201, Q1 : 0.999974489212, Q2 : -0.00561754498631, Q3 : -0.00440074503422, Q4 : -0.000381328631192}
2019-04-14 19:20:52.72: SIM {TimeUS : 44335592, Roll : -0.42, Pitch : -0.34, Yaw : 359.94, Alt : 31.1599998474, Lat : 49.2835701, Lng : -123.1150202, Q1 : 0.999988436699, Q2 : -0.00373789016157, Q3 : -0.0029908225406, Q4 : -0.000451025756774}
2019-04-14 19:20:52.81: SIM {TimeUS : 44435552, Roll : -0.19, Pitch : -0.2, Yaw : 359.94, Alt : 31.3199996948, Lat : 49.2835702, Lng : -123.1150203, Q1 : 0.999996781349, Q2 : -0.00172996951733, Q3 : -0.00177107623313, Q4 : -0.000503882998601}
2019-04-14 19:20:52.91: SIM {TimeUS : 44535512, Roll : -0.02, Pitch : -0.08, Yaw : 359.93, Alt : 31.4899997711, Lat : 49.2835702, Lng : -123.1150204, Q1 : 0.999999582767, Q2 : -0.000204383948585, Q3 : -0.00074575439794, Q4 : -0.000543999834917}
2019-04-14 19:20:53.01: SIM {TimeUS : 44635472, Roll : 0.06, Pitch : 0.0, Yaw : 359.93, Alt : 31.6700000763, Lat : 49.2835702, Lng : -123.1150205, Q1 : 0.999999701977, Q2 : 0.000527483702172, Q3 : -1.47144437506e-05, Q4 : -0.000570278323721}
2019-04-14 19:20:53.11: SIM {TimeUS : 44735432, Roll : 0.08, Pitch : 0.04, Yaw : 359.93, Alt : 31.8500003815, Lat : 49.2835703, Lng : -123.1150205, Q1 : 0.999999523163, Q2 : 0.000726624450181, Q3 : 0.000385641556932, Q4 : -0.000577825994696}
2019-04-14 19:20:53.21: SIM {TimeUS : 44835392, Roll : 0.07, Pitch : 0.06, Yaw : 359.93, Alt : 32.0299987793, Lat : 49.2835703, Lng : -123.1150206, Q1 : 0.999999463558, Q2 : 0.000659043726046, Q3 : 0.00054654100677, Q4 : -0.000575543555897}
2019-04-14 19:20:53.31: SIM {TimeUS : 44935352, Roll : 0.06, Pitch : 0.05, Yaw : 359.93, Alt : 32.2200012207, Lat : 49.2835703, Lng : -123.1150207, Q1 : 0.999999582767, Q2 : 0.000545772141777, Q3 : 0.000505706237163, Q4 : -0.00056195538491}
2019-04-14 19:20:53.41: SIM {TimeUS : 45035312, Roll : 0.06, Pitch : 0.04, Yaw : 359.93, Alt : 32.4099998474, Lat : 49.2835703, Lng : -123.1150207, Q1 : 0.999999582767, Q2 : 0.000594543642364, Q3 : 0.000391450361349, Q4 : -0.000545657647308}
2019-04-14 19:20:53.51: SIM {TimeUS : 45135272, Roll : 0.09, Pitch : 0.03, Yaw : 359.93, Alt : 32.5999984741, Lat : 49.2835703, Lng : -123.1150208, Q1 : 0.999999403954, Q2 : 0.000856341270264, Q3 : 0.000345671287505, Q4 : -0.000528355885763}
2019-04-14 19:20:53.61: SIM {TimeUS : 45235232, Roll : 0.12, Pitch : 0.05, Yaw : 359.94, Alt : 32.7999992371, Lat : 49.2835704, Lng : -123.1150208, Q1 : 0.99999910593, Q2 : 0.00112413347233, Q3 : 0.000506167474668, Q4 : -0.000508752418682}
2019-04-14 19:20:53.71: SIM {TimeUS : 45335192, Roll : 0.15, Pitch : 0.08, Yaw : 359.94, Alt : 33.0, Lat : 49.2835704, Lng : -123.1150208, Q1 : 0.999998688698, Q2 : 0.00131309416611, Q3 : 0.000763254880439, Q4 : -0.000501374655869}
2019-04-14 19:20:53.81: SIM {TimeUS : 45435152, Roll : 0.14, Pitch : 0.12, Yaw : 359.94, Alt : 33.2000007629, Lat : 49.2835704, Lng : -123.1150209, Q1 : 0.999998450279, Q2 : 0.00125321734231, Q3 : 0.00111380277667, Q4 : -0.0005177896237}
2019-04-14 19:20:53.91: SIM {TimeUS : 45535112, Roll : 0.15, Pitch : 0.16, Yaw : 359.93, Alt : 33.4000015259, Lat : 49.2835704, Lng : -123.1150209, Q1 : 0.999997913837, Q2 : 0.00133143295534, Q3 : 0.00146668206435, Q4 : -0.000544343143702}
2019-04-14 19:20:54.01: SIM {TimeUS : 45635072, Roll : 0.16, Pitch : 0.19, Yaw : 359.93, Alt : 33.6100006104, Lat : 49.2835704, Lng : -123.1150209, Q1 : 0.999997377396, Q2 : 0.00144882116001, Q3 : 0.00169227435254, Q4 : -0.000571195036173}
2019-04-14 19:20:54.11: SIM {TimeUS : 45735032, Roll : 0.17, Pitch : 0.2, Yaw : 359.93, Alt : 33.8100013733, Lat : 49.2835704, Lng : -123.1150209, Q1 : 0.999997138977, Q2 : 0.00151434727013, Q3 : 0.00176651892252, Q4 : -0.000595236604568}
2019-04-14 19:20:54.21: SIM {TimeUS : 45834992, Roll : 0.16, Pitch : 0.19, Yaw : 359.92, Alt : 34.0200004578, Lat : 49.2835706, Lng : -123.1150209, Q1 : 0.999997258186, Q2 : 0.00145882857032, Q3 : 0.00171978224535, Q4 : -0.000618881487753}
2019-04-14 19:20:54.31: SIM {TimeUS : 45934952, Roll : 0.15, Pitch : 0.15, Yaw : 359.92, Alt : 34.2299995422, Lat : 49.2835706, Lng : -123.1150209, Q1 : 0.999997913837, Q2 : 0.00135720137041, Q3 : 0.0013742914889, Q4 : -0.000644578656647}
2019-04-14 19:20:54.41: SIM {TimeUS : 46034912, Roll : 0.13, Pitch : 0.09, Yaw : 359.92, Alt : 34.4500007629, Lat : 49.2835706, Lng : -123.1150209, Q1 : 0.999998688698, Q2 : 0.00118152052164, Q3 : 0.000871564610861, Q4 : -0.000656718853861}
2019-04-14 19:20:54.51: SIM {TimeUS : 46134872, Roll : 0.1, Pitch : 0.06, Yaw : 359.92, Alt : 34.6599998474, Lat : 49.2835706, Lng : -123.1150209, Q1 : 0.99999922514, Q2 : 0.000915403710678, Q3 : 0.000546778261196, Q4 : -0.000661470054183}
2019-04-14 19:20:54.61: SIM {TimeUS : 46234832, Roll : 0.08, Pitch : 0.05, Yaw : 359.92, Alt : 34.8699989319, Lat : 49.2835706, Lng : -123.1150209, Q1 : 0.999999463558, Q2 : 0.000702872057445, Q3 : 0.000435929570813, Q4 : -0.000665493949782}
2019-04-14 19:20:54.71: SIM {TimeUS : 46334792, Roll : 0.07, Pitch : 0.05, Yaw : 359.92, Alt : 35.0900001526, Lat : 49.2835706, Lng : -123.1150209, Q1 : 0.999999463558, Q2 : 0.000612717471085, Q3 : 0.000451188825537, Q4 : -0.000675102346577}
2019-04-14 19:20:54.82: SIM {TimeUS : 46435585, Roll : 0.06, Pitch : 0.04, Yaw : 359.92, Alt : 35.3100013733, Lat : 49.2835706, Lng : -123.1150208, Q1 : 0.999999523163, Q2 : 0.000526430783793, Q3 : 0.000422094657551, Q4 : -0.000685854174662}
2019-04-14 19:20:54.91: SIM {TimeUS : 46535545, Roll : 0.04, Pitch : 0.04, Yaw : 359.91, Alt : 35.5299987793, Lat : 49.2835706, Lng : -123.1150208, Q1 : 0.999999642372, Q2 : 0.000388046406442, Q3 : 0.000387473934097, Q4 : -0.000699352181982}
2019-04-14 19:20:55.01: SIM {TimeUS : 46635505, Roll : 0.03, Pitch : 0.04, Yaw : 359.91, Alt : 35.7400016785, Lat : 49.2835706, Lng : -123.1150208, Q1 : 0.999999642372, Q2 : 0.000268908886937, Q3 : 0.000430451560533, Q4 : -0.000714155030437}
2019-04-14 19:20:55.11: SIM {TimeUS : 46735465, Roll : 0.01, Pitch : 0.06, Yaw : 359.91, Alt : 35.9599990845, Lat : 49.2835706, Lng : -123.1150208, Q1 : 0.999999582767, Q2 : 0.000172165455297, Q3 : 0.000577944156248, Q4 : -0.000732819142286}
2019-04-14 19:20:55.21: SIM {TimeUS : 46835425, Roll : 0.0, Pitch : 0.06, Yaw : 359.91, Alt : 36.1899986267, Lat : 49.2835704, Lng : -123.1150208, Q1 : 0.999999582767, Q2 : 7.80736882007e-05, Q3 : 0.000582930748351, Q4 : -0.000752042047679}
2019-04-14 19:20:55.31: SIM {TimeUS : 46935385, Roll : 0.0, Pitch : 0.05, Yaw : 359.91, Alt : 36.4099998474, Lat : 49.2835704, Lng : -123.1150208, Q1 : 0.999999582767, Q2 : -2.02459104912e-05, Q3 : 0.000487696146592, Q4 : -0.00077219150262}
2019-04-14 19:20:55.41: SIM {TimeUS : 47035345, Roll : -0.01, Pitch : 0.03, Yaw : 359.9, Alt : 36.6300010681, Lat : 49.2835704, Lng : -123.1150207, Q1 : 0.999999642372, Q2 : -0.000150490624947, Q3 : 0.0003429200151, Q4 : -0.000793607265223}
2019-04-14 19:20:55.51: SIM {TimeUS : 47135305, Roll : -0.02, Pitch : 0.02, Yaw : 359.9, Alt : 36.8499984741, Lat : 49.2835704, Lng : -123.1150207, Q1 : 0.999999582767, Q2 : -0.000241665911744, Q3 : 0.000182023795787, Q4 : -0.000823223323096}
2019-04-14 19:20:55.61: SIM {TimeUS : 47235265, Roll : -0.01, Pitch : 0.0, Yaw : 359.9, Alt : 37.0800018311, Lat : 49.2835704, Lng : -123.1150207, Q1 : 0.999999642372, Q2 : -0.000166493991856, Q3 : 3.88445514545e-05, Q4 : -0.000856398022734}
2019-04-14 19:20:55.71: SIM {TimeUS : 47335225, Roll : -0.02, Pitch : -0.01, Yaw : 359.89, Alt : 37.2999992371, Lat : 49.2835704, Lng : -123.1150207, Q1 : 0.999999582767, Q2 : -0.000197086425032, Q3 : -0.000145356112625, Q4 : -0.000883145083208}
2019-04-14 19:20:55.81: SIM {TimeUS : 47435185, Roll : -0.04, Pitch : -0.04, Yaw : 359.89, Alt : 37.5299987793, Lat : 49.2835704, Lng : -123.1150207, Q1 : 0.999999403954, Q2 : -0.000360667851055, Q3 : -0.00043318993994, Q4 : -0.000903346692212}
2019-04-14 19:20:55.91: SIM {TimeUS : 47535145, Roll : -0.06, Pitch : -0.07, Yaw : 359.89, Alt : 37.75, Lat : 49.2835704, Lng : -123.1150207, Q1 : 0.999999165535, Q2 : -0.000597336504143, Q3 : -0.000664775026962, Q4 : -0.000924651569221}
2019-04-14 19:20:56.01: SIM {TimeUS : 47635105, Roll : -0.1, Pitch : -0.08, Yaw : 359.89, Alt : 37.9799995422, Lat : 49.2835704, Lng : -123.1150207, Q1 : 0.999998867512, Q2 : -0.000874977034982, Q3 : -0.000781750015449, Q4 : -0.000948789645918}
2019-04-14 19:20:56.11: SIM {TimeUS : 47735065, Roll : -0.12, Pitch : -0.09, Yaw : 359.88, Alt : 38.2099990845, Lat : 49.2835704, Lng : -123.1150207, Q1 : 0.999998629093, Q2 : -0.0010696441168, Q3 : -0.000830856268294, Q4 : -0.000972391513642}
2019-04-14 19:20:56.21: SIM {TimeUS : 47835025, Roll : -0.12, Pitch : -0.09, Yaw : 359.88, Alt : 38.4300003052, Lat : 49.2835704, Lng : -123.1150206, Q1 : 0.999998569489, Q2 : -0.00112301809713, Q3 : -0.000787067634519, Q4 : -0.000992241548374}
2019-04-14 19:20:56.31: SIM {TimeUS : 47934985, Roll : -0.11, Pitch : -0.06, Yaw : 359.88, Alt : 38.6599998474, Lat : 49.2835704, Lng : -123.1150206, Q1 : 0.999998807907, Q2 : -0.000984444050118, Q3 : -0.000584979075938, Q4 : -0.00101088895462}
2019-04-14 19:20:56.41: SIM {TimeUS : 48034945, Roll : -0.08, Pitch : -0.06, Yaw : 359.88, Alt : 38.8899993896, Lat : 49.2835704, Lng : -123.1150206, Q1 : 0.999999046326, Q2 : -0.000726545811631, Q3 : -0.000524389848579, Q4 : -0.00103061157279}
2019-04-14 19:20:56.51: SIM {TimeUS : 48134905, Roll : -0.06, Pitch : -0.05, Yaw : 359.87, Alt : 39.1199989319, Lat : 49.2835704, Lng : -123.1150206, Q1 : 0.999999165535, Q2 : -0.000574984354898, Q3 : -0.000502147653606, Q4 : -0.00105872319546}
2019-04-14 19:20:56.61: SIM {TimeUS : 48234865, Roll : -0.05, Pitch : -0.03, Yaw : 359.87, Alt : 39.3499984741, Lat : 49.2835704, Lng : -123.1150206, Q1 : 0.999999284744, Q2 : -0.000476964341942, Q3 : -0.000340208003763, Q4 : -0.00107839191332}
2019-04-14 19:20:56.71: SIM {TimeUS : 48334825, Roll : -0.06, Pitch : 0.0, Yaw : 359.87, Alt : 39.5800018311, Lat : 49.2835704, Lng : -123.1150206, Q1 : 0.99999922514, Q2 : -0.000562220870052, Q3 : -6.31073853583e-05, Q4 : -0.00110067811329}
2019-04-14 19:20:56.81: SIM {TimeUS : 48434785, Roll : -0.06, Pitch : 0.01, Yaw : 359.87, Alt : 39.8100013733, Lat : 49.2835704, Lng : -123.1150207, Q1 : 0.99999922514, Q2 : -0.000543844129425, Q3 : 0.000173193824594, Q4 : -0.00112326012459}
2019-04-14 19:20:56.92: SIM {TimeUS : 48535578, Roll : -0.04, Pitch : 0.05, Yaw : 359.86, Alt : 40.0499992371, Lat : 49.2835704, Lng : -123.1150207, Q1 : 0.99999910593, Q2 : -0.0004164717393, Q3 : 0.00047403757344, Q4 : -0.00115090794861}
2019-04-14 19:20:57.01: SIM {TimeUS : 48635538, Roll : -0.02, Pitch : 0.06, Yaw : 359.86, Alt : 40.2799987793, Lat : 49.2835704, Lng : -123.1150207, Q1 : 0.999999165535, Q2 : -0.000236616906477, Q3 : 0.000533556274604, Q4 : -0.00117197493091}
2019-04-14 19:20:57.11: SIM {TimeUS : 48735498, Roll : 0.0, Pitch : 0.05, Yaw : 359.86, Alt : 40.5099983215, Lat : 49.2835704, Lng : -123.1150207, Q1 : 0.999999165535, Q2 : 9.3950320661e-06, Q3 : 0.000515226100106, Q4 : -0.00118498958182}
2019-04-14 19:20:57.21: SIM {TimeUS : 48835458, Roll : 0.03, Pitch : 0.06, Yaw : 359.86, Alt : 40.7400016785, Lat : 49.2835704, Lng : -123.1150207, Q1 : 0.999999046326, Q2 : 0.000331801507855, Q3 : 0.000606872257777, Q4 : -0.00119739281945}
2019-04-14 19:20:57.31: SIM {TimeUS : 48935418, Roll : 0.08, Pitch : 0.09, Yaw : 359.86, Alt : 40.9700012207, Lat : 49.2835706, Lng : -123.1150207, Q1 : 0.999998629093, Q2 : 0.000777731300332, Q3 : 0.000844750029501, Q4 : -0.00121007976122}
2019-04-14 19:20:57.41: SIM {TimeUS : 49035378, Roll : 0.11, Pitch : 0.12, Yaw : 359.85, Alt : 41.2099990845, Lat : 49.2835706, Lng : -123.1150207, Q1 : 0.999998152256, Q2 : 0.0010251053609, Q3 : 0.00108349358197, Q4 : -0.00122684240341}
2019-04-14 19:20:57.51: SIM {TimeUS : 49135338, Roll : 0.1, Pitch : 0.14, Yaw : 359.85, Alt : 41.4399986267, Lat : 49.2835706, Lng : -123.1150207, Q1 : 0.999998092651, Q2 : 0.0008784669335, Q3 : 0.00124378595501, Q4 : -0.00123608019203}
2019-04-14 19:20:57.61: SIM {TimeUS : 49235298, Roll : 0.04, Pitch : 0.15, Yaw : 359.85, Alt : 41.6699981689, Lat : 49.2835706, Lng : -123.1150207, Q1 : 0.999998271465, Q2 : 0.000412858353229, Q3 : 0.0013193191262, Q4 : -0.00124800798949}
2019-04-14 19:20:57.71: SIM {TimeUS : 49335258, Roll : 0.0, Pitch : 0.15, Yaw : 359.85, Alt : 41.9099998474, Lat : 49.2835706, Lng : -123.1150207, Q1 : 0.99999833107, Q2 : -2.88890278171e-05, Q3 : 0.00131427845918, Q4 : -0.00127115682699}
2019-04-14 19:20:57.81: SIM {TimeUS : 49435218, Roll : -0.02, Pitch : 0.12, Yaw : 359.85, Alt : 42.1399993896, Lat : 49.2835706, Lng : -123.1150207, Q1 : 0.999998569489, Q2 : -0.000174181521288, Q3 : 0.00107087998185, Q4 : -0.00129780732095}
2019-04-14 19:20:57.91: SIM {TimeUS : 49535178, Roll : -0.01, Pitch : 0.08, Yaw : 359.84, Alt : 42.3800010681, Lat : 49.2835706, Lng : -123.1150207, Q1 : 0.999998807907, Q2 : -0.000162223688676, Q3 : 0.000770650105551, Q4 : -0.0013260965934}
2019-04-14 19:20:58.01: SIM {TimeUS : 49635138, Roll : 0.0, Pitch : 0.09, Yaw : 359.84, Alt : 42.6100006104, Lat : 49.2835706, Lng : -123.1150207, Q1 : 0.999998748302, Q2 : -5.85209490964e-05, Q3 : 0.000800962734502, Q4 : -0.00135669263545}
2019-04-14 19:20:58.11: SIM {TimeUS : 49735098, Roll : 0.02, Pitch : 0.11, Yaw : 359.84, Alt : 42.8499984741, Lat : 49.2835706, Lng : -123.1150207, Q1 : 0.999998509884, Q2 : 0.000219454756007, Q3 : 0.00100302568171, Q4 : -0.00139632564969}
2019-04-14 19:20:58.21: SIM {TimeUS : 49835058, Roll : 0.07, Pitch : 0.13, Yaw : 359.83, Alt : 43.0800018311, Lat : 49.2835706, Lng : -123.1150207, Q1 : 0.999998033047, Q2 : 0.000652892515063, Q3 : 0.00120223930571, Q4 : -0.00142839225009}
2019-04-14 19:20:58.31: SIM {TimeUS : 49935018, Roll : 0.11, Pitch : 0.13, Yaw : 359.83, Alt : 43.3199996948, Lat : 49.2835706, Lng : -123.1150207, Q1 : 0.999997794628, Q2 : 0.000989850959741, Q3 : 0.00115510856267, Q4 : -0.00145950727165}
2019-04-14 19:20:58.41: SIM {TimeUS : 50034978, Roll : 0.11, Pitch : 0.11, Yaw : 359.82, Alt : 43.5499992371, Lat : 49.2835704, Lng : -123.1150207, Q1 : 0.999997913837, Q2 : 0.000994087778963, Q3 : 0.00100268702954, Q4 : -0.00148852460552}
2019-04-14 19:20:58.51: SIM {TimeUS : 50134938, Roll : 0.07, Pitch : 0.09, Yaw : 359.82, Alt : 43.7900009155, Lat : 49.2835704, Lng : -123.1150207, Q1 : 0.99999833107, Q2 : 0.000628715381026, Q3 : 0.000859253981616, Q4 : -0.00149770092685}
2019-04-14 19:20:58.61: SIM {TimeUS : 50234898, Roll : 0.01, Pitch : 0.08, Yaw : 359.82, Alt : 44.0200004578, Lat : 49.2835704, Lng : -123.1150207, Q1 : 0.999998569489, Q2 : 9.90747212199e-05, Q3 : 0.00075773143908, Q4 : -0.00149947823957}
2019-04-14 19:20:58.71: SIM {TimeUS : 50334858, Roll : -0.03, Pitch : 0.08, Yaw : 359.82, Alt : 44.2599983215, Lat : 49.2835704, Lng : -123.1150207, Q1 : 0.999998569489, Q2 : -0.000288317678496, Q3 : 0.000759361020755, Q4 : -0.00150644080713}
2019-04-14 19:20:58.81: SIM {TimeUS : 50434818, Roll : -0.05, Pitch : 0.07, Yaw : 359.82, Alt : 44.4900016785, Lat : 49.2835704, Lng : -123.1150206, Q1 : 0.999998509884, Q2 : -0.000472359010018, Q3 : 0.000687274266966, Q4 : -0.00152186013293}
2019-04-14 19:20:58.91: SIM {TimeUS : 50534778, Roll : -0.04, Pitch : 0.05, Yaw : 359.82, Alt : 44.7299995422, Lat : 49.2835704, Lng : -123.1150206, Q1 : 0.999998569489, Q2 : -0.000410068605561, Q3 : 0.000501767033711, Q4 : -0.00154842541087}
2019-04-14 19:20:59.01: SIM {TimeUS : 50635571, Roll : -0.04, Pitch : 0.03, Yaw : 359.81, Alt : 44.9700012207, Lat : 49.2835704, Lng : -123.1150206, Q1 : 0.999998629093, Q2 : -0.000409233354731, Q3 : 0.000306164467474, Q4 : -0.00158435222693}
2019-04-14 19:20:59.11: SIM {TimeUS : 50735531, Roll : -0.04, Pitch : 0.01, Yaw : 359.81, Alt : 45.2099990845, Lat : 49.2835704, Lng : -123.1150206, Q1 : 0.999998629093, Q2 : -0.000359571218723, Q3 : 0.00010502441728, Q4 : -0.0016236808151}
2019-04-14 19:20:59.21: SIM {TimeUS : 50835491, Roll : -0.02, Pitch : 0.0, Yaw : 359.8, Alt : 45.4399986267, Lat : 49.2835704, Lng : -123.1150206, Q1 : 0.999998569489, Q2 : -0.000220294197788, Q3 : -9.45321426116e-06, Q4 : -0.00166570243891}
2019-04-14 19:20:59.31: SIM {TimeUS : 50935451, Roll : -0.01, Pitch : 0.0, Yaw : 359.8, Alt : 45.6800003052, Lat : 49.2835703, Lng : -123.1150206, Q1 : 0.999998569489, Q2 : -0.000166518031619, Q3 : -6.51274513075e-06, Q4 : -0.00170393357985}
2019-04-14 19:20:59.41: SIM {TimeUS : 51035411, Roll : -0.02, Pitch : 0.0, Yaw : 359.8, Alt : 45.9099998474, Lat : 49.2835703, Lng : -123.1150206, Q1 : 0.999998450279, Q2 : -0.000207184450119, Q3 : -4.68709913548e-05, Q4 : -0.0017407448031}
2019-04-14 19:20:59.51: SIM {TimeUS : 51135371, Roll : -0.03, Pitch : -0.01, Yaw : 359.79, Alt : 46.1399993896, Lat : 49.2835703, Lng : -123.1150206, Q1 : 0.999998390675, Q2 : -0.000263561407337, Q3 : -0.000165216682944, Q4 : -0.00177538546268}
2019-04-14 19:20:59.61: SIM {TimeUS : 51235331, Roll : -0.02, Pitch : -0.02, Yaw : 359.79, Alt : 46.3600006104, Lat : 49.2835703, Lng : -123.1150206, Q1 : 0.999998271465, Q2 : -0.000260398810497, Q3 : -0.000229300800129, Q4 : -0.00181264174171}
2019-04-14 19:20:59.71: SIM {TimeUS : 51335291, Roll : -0.02, Pitch : -0.03, Yaw : 359.78, Alt : 46.5900001526, Lat : 49.2835703, Lng : -123.1150206, Q1 : 0.999998211861, Q2 : -0.000206633412745, Q3 : -0.000281953049125, Q4 : -0.00184839707799}
2019-04-14 19:20:59.81: SIM {TimeUS : 51435251, Roll : -0.02, Pitch : -0.03, Yaw : 359.78, Alt : 46.7999992371, Lat : 49.2835703, Lng : -123.1150205, Q1 : 0.999998152256, Q2 : -0.000243650603807, Q3 : -0.000304513057927, Q4 : -0.00187740754336}
2019-04-14 19:20:59.91: SIM {TimeUS : 51535211, Roll : -0.04, Pitch : -0.03, Yaw : 359.78, Alt : 47.0099983215, Lat : 49.2835703, Lng : -123.1150205, Q1 : 0.999998092651, Q2 : -0.0004187595041, Q3 : -0.0002745615202, Q4 : -0.0019033519784}
2019-04-14 19:21:00.01: SIM {TimeUS : 51635171, Roll : -0.07, Pitch : -0.02, Yaw : 359.77, Alt : 47.2200012207, Lat : 49.2835703, Lng : -123.1150205, Q1 : 0.999997854233, Q2 : -0.000693495909218, Q3 : -0.000228521006647, Q4 : -0.00192695227452}
2019-04-14 19:21:00.11: SIM {TimeUS : 51735131, Roll : -0.1, Pitch : -0.02, Yaw : 359.77, Alt : 47.4099998474, Lat : 49.2835703, Lng : -123.1150205, Q1 : 0.999997675419, Q2 : -0.000898624304682, Q3 : -0.000202771101613, Q4 : -0.00195079366677}
2019-04-14 19:21:00.21: SIM {TimeUS : 51835091, Roll : -0.11, Pitch : -0.01, Yaw : 359.77, Alt : 47.5999984741, Lat : 49.2835703, Lng : -123.1150205, Q1 : 0.99999755621, Q2 : -0.000967712840065, Q3 : -0.000130757776788, Q4 : -0.00196902966127}
2019-04-14 19:21:00.31: SIM {TimeUS : 51935051, Roll : -0.13, Pitch : -0.02, Yaw : 359.77, Alt : 47.7700004578, Lat : 49.2835703, Lng : -123.1150205, Q1 : 0.999997258186, Q2 : -0.00118982687127, Q3 : -0.00022345976322, Q4 : -0.00198741559871}
2019-04-14 19:21:00.41: SIM {TimeUS : 52035011, Roll : -0.14, Pitch : -0.03, Yaw : 359.76, Alt : 47.9399986267, Lat : 49.2835703, Lng : -123.1150205, Q1 : 0.999997079372, Q2 : -0.00129488424864, Q3 : -0.00032003223896, Q4 : -0.00200977339409}
2019-04-14 19:21:00.51: SIM {TimeUS : 52134971, Roll : -0.14, Pitch : -0.04, Yaw : 359.76, Alt : 48.0900001526, Lat : 49.2835703, Lng : -123.1150205, Q1 : 0.999997079372, Q2 : -0.00125869107433, Q3 : -0.000375860545319, Q4 : -0.00203644367866}
2019-04-14 19:21:00.61: SIM {TimeUS : 52234931, Roll : -0.12, Pitch : -0.04, Yaw : 359.76, Alt : 48.2299995422, Lat : 49.2835703, Lng : -123.1150205, Q1 : 0.999997138977, Q2 : -0.00111895764712, Q3 : -0.000427315302659, Q4 : -0.00206252629869}
2019-04-14 19:21:00.71: SIM {TimeUS : 52334891, Roll : -0.09, Pitch : -0.05, Yaw : 359.76, Alt : 48.3600006104, Lat : 49.2835703, Lng : -123.1150205, Q1 : 0.999997317791, Q2 : -0.000867256778292, Q3 : -0.000496328633744, Q4 : -0.0020842384547}
2019-04-14 19:21:00.81: SIM {TimeUS : 52434851, Roll : -0.06, Pitch : -0.06, Yaw : 359.75, Alt : 48.4799995422, Lat : 49.2835703, Lng : -123.1150206, Q1 : 0.999997437, Q2 : -0.000530654506292, Q3 : -0.000574144010898, Q4 : -0.00210535130464}
2019-04-14 19:21:00.91: SIM {TimeUS : 52534811, Roll : -0.04, Pitch : -0.07, Yaw : 359.75, Alt : 48.5800018311, Lat : 49.2835703, Lng : -123.1150206, Q1 : 0.999997437, Q2 : -0.000356426433427, Q3 : -0.000664751743898, Q4 : -0.00213089119643}
2019-04-14 19:21:01.02: SIM {TimeUS : 52635604, Roll : -0.03, Pitch : -0.08, Yaw : 359.75, Alt : 48.6699981689, Lat : 49.2835703, Lng : -123.1150206, Q1 : 0.999997377396, Q2 : -0.000344661995769, Q3 : -0.000718926428817, Q4 : -0.00215708883479}
2019-04-14 19:21:01.11: SIM {TimeUS : 52735564, Roll : -0.01, Pitch : -0.07, Yaw : 359.75, Alt : 48.75, Lat : 49.2835703, Lng : -123.1150206, Q1 : 0.999997437, Q2 : -0.00012951552344, Q3 : -0.00061419949634, Q4 : -0.00217929063365}
2019-04-14 19:21:01.21: SIM {TimeUS : 52835524, Roll : 0.01, Pitch : -0.05, Yaw : 359.74, Alt : 48.8199996948, Lat : 49.2835703, Lng : -123.1150206, Q1 : 0.999997496605, Q2 : 0.000134445013828, Q3 : -0.000454210792668, Q4 : -0.00220291968435}
2019-04-14 19:21:01.31: SIM {TimeUS : 52935484, Roll : 0.03, Pitch : -0.03, Yaw : 359.74, Alt : 48.8800010681, Lat : 49.2835703, Lng : -123.1150206, Q1 : 0.999997437, Q2 : 0.000337768811733, Q3 : -0.000275447324384, Q4 : -0.0022297212854}
2019-04-14 19:21:01.41: SIM {TimeUS : 53035444, Roll : 0.04, Pitch : -0.01, Yaw : 359.74, Alt : 48.9399986267, Lat : 49.2835703, Lng : -123.1150206, Q1 : 0.999997377396, Q2 : 0.000423531048, Q3 : -0.00012253341265, Q4 : -0.00225266674533}
2019-04-14 19:21:01.51: SIM {TimeUS : 53135404, Roll : 0.06, Pitch : -0.01, Yaw : 359.73, Alt : 48.9799995422, Lat : 49.2835703, Lng : -123.1150206, Q1 : 0.999997198582, Q2 : 0.000603557040449, Q3 : -0.000130012645968, Q4 : -0.00227370811626}
2019-04-14 19:21:01.61: SIM {TimeUS : 53235364, Roll : 0.16, Pitch : -0.09, Yaw : 359.73, Alt : 49.0200004578, Lat : 49.2835703, Lng : -123.1150206, Q1 : 0.999995946884, Q2 : 0.00145814602729, Q3 : -0.000845602131449, Q4 : -0.00229835347272}
2019-04-14 19:21:01.71: SIM {TimeUS : 53335324, Roll : 0.43, Pitch : -0.3, Yaw : 359.73, Alt : 49.0499992371, Lat : 49.2835703, Lng : -123.1150207, Q1 : 0.999986350536, Q2 : 0.0038270172663, Q3 : -0.0026851228904, Q4 : -0.00233121565543}
2019-04-14 19:21:01.81: SIM {TimeUS : 53435284, Roll : 0.94, Pitch : -0.65, Yaw : 359.72, Alt : 49.0800018311, Lat : 49.2835703, Lng : -123.1150206, Q1 : 0.999946892262, Q2 : 0.00820650532842, Q3 : -0.00576858827844, Q4 : -0.00236367085017}
2019-04-14 19:21:01.91: SIM {TimeUS : 53535244, Roll : 1.63, Pitch : -1.13, Yaw : 359.71, Alt : 49.1100006104, Lat : 49.2835704, Lng : -123.1150206, Q1 : 0.99984562397, Q2 : 0.0142651656643, Q3 : -0.00998094957322, Q4 : -0.00237838621251}
2019-04-14 19:21:02.01: SIM {TimeUS : 53635204, Roll : 2.46, Pitch : -1.7, Yaw : 359.69, Alt : 49.1300010681, Lat : 49.2835704, Lng : -123.1150206, Q1 : 0.999655067921, Q2 : 0.0214763134718, Q3 : -0.0149327656254, Q4 : -0.002358001424}
2019-04-14 19:21:02.11: SIM {TimeUS : 53735164, Roll : 3.32, Pitch : -2.26, Yaw : 359.67, Alt : 49.1500015259, Lat : 49.2835704, Lng : -123.1150204, Q1 : 0.999380528927, Q2 : 0.0289784669876, Q3 : -0.0198393762112, Q4 : -0.00228014891036}
2019-04-14 19:21:02.21: SIM {TimeUS : 53835124, Roll : 4.08, Pitch : -2.74, Yaw : 359.65, Alt : 49.1599998474, Lat : 49.2835706, Lng : -123.1150203, Q1 : 0.999076128006, Q2 : 0.0355476625264, Q3 : -0.0240569226444, Q4 : -0.00213324534707}
2019-04-14 19:21:02.31: SIM {TimeUS : 53935084, Roll : 4.64, Pitch : -3.14, Yaw : 359.64, Alt : 49.1699981689, Lat : 49.2835708, Lng : -123.11502, Q1 : 0.99880105257, Q2 : 0.0404491350055, Q3 : -0.0275062266737, Q4 : -0.00193995761219}
2019-04-14 19:21:02.41: SIM {TimeUS : 54035044, Roll : 5.03, Pitch : -3.43, Yaw : 359.65, Alt : 49.1899986267, Lat : 49.2835709, Lng : -123.1150198, Q1 : 0.998585343361, Q2 : 0.0438064746559, Q3 : -0.0300906002522, Q4 : -0.00170266651548}
2019-04-14 19:21:02.51: SIM {TimeUS : 54135004, Roll : 5.31, Pitch : -3.68, Yaw : 359.66, Alt : 49.2000007629, Lat : 49.283571, Lng : -123.1150193, Q1 : 0.998408436775, Q2 : 0.0462621115148, Q3 : -0.0322231166065, Q4 : -0.00144315185025}
2019-04-14 19:21:02.61: SIM {TimeUS : 54234964, Roll : 5.57, Pitch : -3.91, Yaw : 359.67, Alt : 49.2099990845, Lat : 49.2835714, Lng : -123.1150188, Q1 : 0.998232185841, Q2 : 0.0485483109951, Q3 : -0.0342676900327, Q4 : -0.00116361526307}
2019-04-14 19:21:02.71: SIM {TimeUS : 54334924, Roll : 5.88, Pitch : -4.14, Yaw : 359.68, Alt : 49.2099990845, Lat : 49.2835716, Lng : -123.1150182, Q1 : 0.998029589653, Q2 : 0.0512082390487, Q3 : -0.036247882992, Q4 : -0.00086398300482}
2019-04-14 19:21:02.81: SIM {TimeUS : 54434884, Roll : 6.21, Pitch : -4.37, Yaw : 359.69, Alt : 49.2200012207, Lat : 49.283572, Lng : -123.1150175, Q1 : 0.997806847095, Q2 : 0.0540384724736, Q3 : -0.0382240712643, Q4 : -0.000579882471357}
2019-04-14 19:21:02.91: SIM {TimeUS : 54534844, Roll : 6.49, Pitch : -4.56, Yaw : 359.7, Alt : 49.2299995422, Lat : 49.2835724, Lng : -123.1150166, Q1 : 0.99760299921, Q2 : 0.0565339252353, Q3 : -0.0399011559784, Q4 : -0.000310302275466}
2019-04-14 19:21:03.01: SIM {TimeUS : 54634804, Roll : 6.7, Pitch : -4.69, Yaw : 359.71, Alt : 49.2299995422, Lat : 49.2835727, Lng : -123.1150157, Q1 : 0.997454226017, Q2 : 0.0583002343774, Q3 : -0.0410643294454, Q4 : -8.30568969832e-05}
2019-04-14 19:21:03.12: SIM {TimeUS : 54735597, Roll : 6.83, Pitch : -4.8, Yaw : 359.72, Alt : 49.2400016785, Lat : 49.2835733, Lng : -123.1150147, Q1 : 0.997344970703, Q2 : 0.0594959370792, Q3 : -0.0419909693301, Q4 : 8.66941627464e-05}
2019-04-14 19:21:03.21: SIM {TimeUS : 54835557, Roll : 6.94, Pitch : -4.88, Yaw : 359.72, Alt : 49.2400016785, Lat : 49.2835738, Lng : -123.1150136, Q1 : 0.99726074934, Q2 : 0.0603858307004, Q3 : -0.0427150242031, Q4 : 0.00020266554202}
2019-04-14 19:21:03.31: SIM {TimeUS : 54935517, Roll : 7.05, Pitch : -4.96, Yaw : 359.72, Alt : 49.25, Lat : 49.2835743, Lng : -123.1150124, Q1 : 0.997174322605, Q2 : 0.0613366998732, Q3 : -0.0433730520308, Q4 : 0.000276406994089}
2019-04-14 19:21:03.41: SIM {TimeUS : 55035477, Roll : 7.22, Pitch : -4.99, Yaw : 359.74, Alt : 49.25, Lat : 49.2835749, Lng : -123.1150111, Q1 : 0.99706953764, Q2 : 0.0628187805414, Q3 : -0.0436570867896, Q4 : 0.000497764674947}
2019-04-14 19:21:03.51: SIM {TimeUS : 55135437, Roll : 7.61, Pitch : -4.88, Yaw : 0.05, Alt : 49.25, Lat : 49.2835755, Lng : -123.1150098, Q1 : 0.996886074543, Q2 : 0.0663389489055, Q3 : -0.0424996092916, Q4 : 0.00333776511252}
2019-04-14 19:21:03.61: SIM {TimeUS : 55235397, Roll : 8.2, Pitch : -4.68, Yaw : 1.31, Alt : 49.2599983215, Lat : 49.2835762, Lng : -123.1150083, Q1 : 0.996504724026, Q2 : 0.0719304159284, Q3 : -0.0399659126997, Q4 : 0.0143942311406}
2019-04-14 19:21:03.71: SIM {TimeUS : 55335357, Roll : 8.77, Pitch : -4.73, Yaw : 4.06, Alt : 49.2599983215, Lat : 49.2835768, Lng : -123.1150068, Q1 : 0.995476841927, Q2 : 0.0778696537018, Q3 : -0.0384455174208, Q4 : 0.0385243184865}
2019-04-14 19:21:03.81: SIM {TimeUS : 55435317, Roll : 9.06, Pitch : -5.26, Yaw : 8.39, Alt : 49.2599983215, Lat : 49.2835775, Lng : -123.1150051, Q1 : 0.992885351181, Q2 : 0.0820933282375, Q3 : -0.0398725345731, Q4 : 0.0764820128679}
2019-04-14 19:21:03.91: SIM {TimeUS : 55535277, Roll : 8.87, Pitch : -6.3, Yaw : 14.11, Alt : 49.2599983215, Lat : 49.2835782, Lng : -123.1150033, Q1 : 0.987428963184, Q2 : 0.083399400115, Q3 : -0.044916447252, Q4 : 0.126534685493}
2019-04-14 19:21:04.01: SIM {TimeUS : 55635237, Roll : 8.09, Pitch : -7.73, Yaw : 20.99, Alt : 49.2599983215, Lat : 49.2835789, Lng : -123.1150014, Q1 : 0.977712869644, Q2 : 0.0814965441823, Q3 : -0.0532820448279, Q4 : 0.18600256741}
2019-04-14 19:21:04.11: SIM {TimeUS : 55735197, Roll : 6.72, Pitch : -9.33, Yaw : 28.77, Alt : 49.2599983215, Lat : 49.2835797, Lng : -123.1149993, Q1 : 0.962570309639, Q2 : 0.0768345072865, Q3 : -0.0641896501184, Q4 : 0.251862347126}
2019-04-14 19:21:04.21: SIM {TimeUS : 55835157, Roll : 4.81, Pitch : -10.87, Yaw : 37.2, Alt : 49.2700004578, Lat : 49.2835805, Lng : -123.1149972, Q1 : 0.941383600235, Q2 : 0.0698642656207, Q3 : -0.0763901472092, Q4 : 0.321061402559}
2019-04-14 19:21:04.31: SIM {TimeUS : 55935117, Roll : 2.31, Pitch : -12.11, Yaw : 45.95, Alt : 49.2700004578, Lat : 49.2835812, Lng : -123.114995, Q1 : 0.91448366642, Q2 : 0.0596940740943, Q3 : -0.0892720967531, Q4 : 0.39011117816}
2019-04-14 19:21:04.41: SIM {TimeUS : 56035077, Roll : -0.76, Pitch : -12.85, Yaw : 54.35, Alt : 49.2700004578, Lat : 49.2835822, Lng : -123.1149926, Q1 : 0.884349167347, Q2 : 0.0451829396188, Q3 : -0.102609559894, Q4 : 0.453162610531}
2019-04-14 19:21:04.51: SIM {TimeUS : 56135037, Roll : -3.89, Pitch : -13.05, Yaw : 61.47, Alt : 49.2700004578, Lat : 49.2835831, Lng : -123.1149902, Q1 : 0.855415046215, Q2 : 0.0290474817157, Q3 : -0.114934809506, Q4 : 0.504193723202}
2019-04-14 19:21:04.61: SIM {TimeUS : 56234997, Roll : -6.41, Pitch : -12.9, Yaw : 66.69, Alt : 49.2700004578, Lat : 49.2835841, Lng : -123.1149877, Q1 : 0.832221210003, Q2 : 0.0152130424976, Q3 : -0.124284334481, Q4 : 0.540120184422}
2019-04-14 19:21:04.71: SIM {TimeUS : 56334957, Roll : -7.94, Pitch : -12.66, Yaw : 69.81, Alt : 49.2700004578, Lat : 49.2835852, Lng : -123.1149852, Q1 : 0.817505896091, Q2 : 0.00647386070341, Q3 : -0.129634156823, Q4 : 0.561103582382}
2019-04-14 19:21:04.81: SIM {TimeUS : 56434917, Roll : -8.41, Pitch : -12.54, Yaw : 71.0, Alt : 49.2700004578, Lat : 49.2835865, Lng : -123.1149826, Q1 : 0.81169885397, Q2 : 0.00394160766155, Q3 : -0.131051525474, Q4 : 0.569170415401}
2019-04-14 19:21:04.91: SIM {TimeUS : 56534877, Roll : -7.92, Pitch : -12.68, Yaw : 70.6, Alt : 49.2700004578, Lat : 49.2835878, Lng : -123.1149799, Q1 : 0.813569307327, Q2 : 0.00764524238184, Q3 : -0.129662558436, Q4 : 0.566775262356}
2019-04-14 19:21:05.01: SIM {TimeUS : 56634837, Roll : -6.73, Pitch : -13.09, Yaw : 68.99, Alt : 49.2700004578, Lat : 49.2835891, Lng : -123.1149772, Q1 : 0.821146905422, Q2 : 0.0164026133716, Q3 : -0.126881569624, Q4 : 0.556192219257}
2019-04-14 19:21:05.11: SIM {TimeUS : 56734797, Roll : -5.07, Pitch : -13.72, Yaw : 66.51, Alt : 49.2700004578, Lat : 49.2835907, Lng : -123.1149745, Q1 : 0.832313120365, Q2 : 0.0287557188421, Q3 : -0.123924635351, Q4 : 0.53950971365}
2019-04-14 19:21:05.22: SIM {TimeUS : 56835590, Roll : -3.15, Pitch : -14.46, Yaw : 63.45, Alt : 49.2799987793, Lat : 49.2835922, Lng : -123.1149716, Q1 : 0.845292925835, Q2 : 0.042972613126, Q3 : -0.121401391923, Q4 : 0.518550813198}
2019-04-14 19:21:05.31: SIM {TimeUS : 56935550, Roll : -1.23, Pitch : -15.12, Yaw : 60.18, Alt : 49.2799987793, Lat : 49.2835939, Lng : -123.1149687, Q1 : 0.858367502689, Q2 : 0.0567546412349, Q3 : -0.119165048003, Q4 : 0.495765924454}
2019-04-14 19:21:05.41: SIM {TimeUS : 57035510, Roll : 0.54, Pitch : -15.58, Yaw : 57.0, Alt : 49.2799987793, Lat : 49.2835956, Lng : -123.1149657, Q1 : 0.870374023914, Q2 : 0.0688469856977, Q3 : -0.116892158985, Q4 : 0.473334342241}
2019-04-14 19:21:05.51: SIM {TimeUS : 57135470, Roll : 2.01, Pitch : -15.82, Yaw : 54.24, Alt : 49.2799987793, Lat : 49.2835971, Lng : -123.1149625, Q1 : 0.880336642265, Q2 : 0.0782347545028, Q3 : -0.11457965523, Q4 : 0.453605771065}
2019-04-14 19:21:05.61: SIM {TimeUS : 57235430, Roll : 3.04, Pitch : -15.88, Yaw : 52.14, Alt : 49.2799987793, Lat : 49.2835989, Lng : -123.1149593, Q1 : 0.88771623373, Q2 : 0.0843412727118, Q3 : -0.112468235195, Q4 : 0.438403218985}
2019-04-14 19:21:05.71: SIM {TimeUS : 57335390, Roll : 3.6, Pitch : -15.82, Yaw : 50.82, Alt : 49.2799987793, Lat : 49.2836006, Lng : -123.1149559, Q1 : 0.892343580723, Q2 : 0.0871494188905, Q3 : -0.110930427909, Q4 : 0.428745180368}
2019-04-14 19:21:05.81: SIM {TimeUS : 57435350, Roll : 3.67, Pitch : -15.76, Yaw : 50.3, Alt : 49.2799987793, Lat : 49.2836022, Lng : -123.1149523, Q1 : 0.894298553467, Q2 : 0.0870003849268, Q3 : -0.110566936433, Q4 : 0.424777597189}
2019-04-14 19:21:05.91: SIM {TimeUS : 57535310, Roll : 3.34, Pitch : -15.75, Yaw : 50.49, Alt : 49.2799987793, Lat : 49.2836038, Lng : -123.1149487, Q1 : 0.893849670887, Q2 : 0.0845574736595, Q3 : -0.111570969224, Q4 : 0.425951600075}
2019-04-14 19:21:06.01: SIM {TimeUS : 57635270, Roll : 2.69, Pitch : -15.81, Yaw : 51.25, Alt : 49.2799987793, Lat : 49.2836055, Lng : -123.1149449, Q1 : 0.891407430172, Q2 : 0.0805096998811, Q3 : -0.11388412863, Q4 : 0.431209206581}
2019-04-14 19:21:06.11: SIM {TimeUS : 57735230, Roll : 1.86, Pitch : -15.92, Yaw : 52.4, Alt : 49.2900009155, Lat : 49.2836073, Lng : -123.1149411, Q1 : 0.887488007545, Q2 : 0.0756331905723, Q3 : -0.11712551862, Q4 : 0.439233750105}
2019-04-14 19:21:06.21: SIM {TimeUS : 57835190, Roll : 0.98, Pitch : -16.06, Yaw : 53.74, Alt : 49.2900009155, Lat : 49.283609, Lng : -123.1149371, Q1 : 0.88267916441, Q2 : 0.0707613304257, Q3 : -0.120777651668, Q4 : 0.448645830154}
2019-04-14 19:21:06.31: SIM {TimeUS : 57935150, Roll : 0.15, Pitch : -16.22, Yaw : 55.11, Alt : 49.2900009155, Lat : 49.2836108, Lng : -123.114933, Q1 : 0.877606272697, Q2 : 0.0664801597595, Q3 : -0.124442741275, Q4 : 0.458150237799}
2019-04-14 19:21:06.41: SIM {TimeUS : 58035110, Roll : -0.54, Pitch : -16.35, Yaw : 56.33, Alt : 49.2900009155, Lat : 49.2836124, Lng : -123.1149291, Q1 : 0.872895121574, Q2 : 0.0630028173327, Q3 : -0.127631381154, Q4 : 0.466685116291}
2019-04-14 19:21:06.51: SIM {TimeUS : 58135070, Roll : -1.08, Pitch : -16.46, Yaw : 57.32, Alt : 49.2900009155, Lat : 49.2836142, Lng : -123.114925, Q1 : 0.869041860104, Q2 : 0.0604348666966, Q3 : -0.130124151707, Q4 : 0.473478198051}
2019-04-14 19:21:06.61: SIM {TimeUS : 58235030, Roll : -1.42, Pitch : -16.5, Yaw : 57.99, Alt : 49.2900009155, Lat : 49.2836162, Lng : -123.1149208, Q1 : 0.866397857666, Q2 : 0.0588024780154, Q3 : -0.131494611502, Q4 : 0.478127807379}
2019-04-14 19:21:06.71: SIM {TimeUS : 58334990, Roll : -1.53, Pitch : -16.49, Yaw : 58.32, Alt : 49.2900009155, Lat : 49.283618, Lng : -123.1149166, Q1 : 0.865059256554, Q2 : 0.0582958571613, Q3 : -0.131744608283, Q4 : 0.480538725853}
2019-04-14 19:21:06.81: SIM {TimeUS : 58434950, Roll : -1.47, Pitch : -16.48, Yaw : 58.35, Alt : 49.2900009155, Lat : 49.28362, Lng : -123.1149123, Q1 : 0.864939153194, Q2 : 0.0587773621082, Q3 : -0.131389930844, Q4 : 0.480793267488}
2019-04-14 19:21:06.91: SIM {TimeUS : 58534910, Roll : -1.24, Pitch : -16.49, Yaw : 58.11, Alt : 49.2900009155, Lat : 49.2836219, Lng : -123.114908, Q1 : 0.8657990098, Q2 : 0.0602951161563, Q3 : -0.130640491843, Q4 : 0.479259490967}
2019-04-14 19:21:07.01: SIM {TimeUS : 58634870, Roll : -0.89, Pitch : -16.52, Yaw : 57.68, Alt : 49.2900009155, Lat : 49.2836238, Lng : -123.1149037, Q1 : 0.867372989655, Q2 : 0.0625491961837, Q3 : -0.129565253854, Q4 : 0.476408004761}
2019-04-14 19:21:07.11: SIM {TimeUS : 58734830, Roll : -0.5, Pitch : -16.55, Yaw : 57.14, Alt : 49.2900009155, Lat : 49.2836258, Lng : -123.1148993, Q1 : 0.869361460209, Q2 : 0.0650041997433, Q3 : -0.128509178758, Q4 : 0.472726643085}
2019-04-14 19:21:07.21: SIM {TimeUS : 58834790, Roll : -0.14, Pitch : -16.6, Yaw : 56.56, Alt : 49.2900009155, Lat : 49.2836279, Lng : -123.1148949, Q1 : 0.871457338333, Q2 : 0.0673345401883, Q3 : -0.127770751715, Q4 : 0.468724668026}
2019-04-14 19:21:07.32: SIM {TimeUS : 58935583, Roll : 0.16, Pitch : -16.67, Yaw : 56.02, Alt : 49.2900009155, Lat : 49.2836299, Lng : -123.1148904, Q1 : 0.873424887657, Q2 : 0.0693830773234, Q3 : -0.127360150218, Q4 : 0.464859515429}
2019-04-14 19:21:07.41: SIM {TimeUS : 59035543, Roll : 0.4, Pitch : -16.74, Yaw : 55.56, Alt : 49.2900009155, Lat : 49.283632, Lng : -123.1148858, Q1 : 0.875057995319, Q2 : 0.0709558799863, Q3 : -0.127174884081, Q4 : 0.461590021849}
2019-04-14 19:21:07.51: SIM {TimeUS : 59135503, Roll : 0.55, Pitch : -16.79, Yaw : 55.22, Alt : 49.2900009155, Lat : 49.283634, Lng : -123.1148813, Q1 : 0.876264095306, Q2 : 0.0719464272261, Q3 : -0.12717872858, Q4 : 0.459141075611}
2019-04-14 19:21:07.61: SIM {TimeUS : 59235463, Roll : 0.63, Pitch : -16.83, Yaw : 55.02, Alt : 49.2900009155, Lat : 49.283636, Lng : -123.1148767, Q1 : 0.876984477043, Q2 : 0.0724764242768, Q3 : -0.127332851291, Q4 : 0.457637131214}
2019-04-14 19:21:07.71: SIM {TimeUS : 59335423, Roll : 0.63, Pitch : -16.87, Yaw : 54.94, Alt : 49.2900009155, Lat : 49.2836381, Lng : -123.114872, Q1 : 0.877238333225, Q2 : 0.072554089129, Q3 : -0.127655074, Q4 : 0.457048177719}
2019-04-14 19:21:07.81: SIM {TimeUS : 59435383, Roll : 0.57, Pitch : -16.89, Yaw : 54.98, Alt : 49.2900009155, Lat : 49.2836402, Lng : -123.1148673, Q1 : 0.87708902359, Q2 : 0.0722402781248, Q3 : -0.128053233027, Q4 : 0.457272976637}
2019-04-14 19:21:07.91: SIM {TimeUS : 59535343, Roll : 0.46, Pitch : -16.91, Yaw : 55.11, Alt : 49.2900009155, Lat : 49.2836422, Lng : -123.1148626, Q1 : 0.876627206802, Q2 : 0.0716455280781, Q3 : -0.128541812301, Q4 : 0.458114296198}
2019-04-14 19:21:08.01: SIM {TimeUS : 59635303, Roll : 0.33, Pitch : -16.94, Yaw : 55.29, Alt : 49.2900009155, Lat : 49.2836444, Lng : -123.1148579, Q1 : 0.875951886177, Q2 : 0.0709199011326, Q3 : -0.129130616784, Q4 : 0.459351688623}
2019-04-14 19:21:08.11: SIM {TimeUS : 59735263, Roll : 0.18, Pitch : -16.96, Yaw : 55.5, Alt : 49.2999992371, Lat : 49.2836464, Lng : -123.1148531, Q1 : 0.875182688236, Q2 : 0.070100158453, Q3 : -0.129761770368, Q4 : 0.460763663054}
2019-04-14 19:21:08.21: SIM {TimeUS : 59835223, Roll : 0.04, Pitch : -16.99, Yaw : 55.7, Alt : 49.2999992371, Lat : 49.2836486, Lng : -123.1148483, Q1 : 0.874408781528, Q2 : 0.0693984776735, Q3 : -0.130440205336, Q4 : 0.462145537138}
2019-04-14 19:21:08.31: SIM {TimeUS : 59935183, Roll : -0.07, Pitch : -17.03, Yaw : 55.88, Alt : 49.2999992371, Lat : 49.2836507, Lng : -123.1148434, Q1 : 0.873720347881, Q2 : 0.0688416734338, Q3 : -0.131112903357, Q4 : 0.463338941336}
2019-04-14 19:21:08.41: SIM {TimeUS : 60035143, Roll : -0.15, Pitch : -17.07, Yaw : 56.01, Alt : 49.2999992371, Lat : 49.2836529, Lng : -123.1148386, Q1 : 0.873185515404, Q2 : 0.0685002431273, Q3 : -0.131689622998, Q4 : 0.464233487844}
2019-04-14 19:21:08.51: SIM {TimeUS : 60135103, Roll : -0.22, Pitch : -17.1, Yaw : 56.1, Alt : 49.2999992371, Lat : 49.2836551, Lng : -123.1148337, Q1 : 0.872849106789, Q2 : 0.0682397708297, Q3 : -0.132185101509, Q4 : 0.464763253927}
2019-04-14 19:21:08.61: SIM {TimeUS : 60235063, Roll : -0.26, Pitch : -17.13, Yaw : 56.12, Alt : 49.2999992371, Lat : 49.2836572, Lng : -123.1148287, Q1 : 0.872733592987, Q2 : 0.0680630803108, Q3 : -0.132526308298, Q4 : 0.464908927679}
2019-04-14 19:21:08.71: SIM {TimeUS : 60335023, Roll : -0.28, Pitch : -17.16, Yaw : 56.1, Alt : 49.2999992371, Lat : 49.2836594, Lng : -123.1148238, Q1 : 0.872807621956, Q2 : 0.0680350288749, Q3 : -0.132814839482, Q4 : 0.464691668749}
2019-04-14 19:21:08.81: SIM {TimeUS : 60434983, Roll : -0.23, Pitch : -17.19, Yaw : 56.03, Alt : 49.2999992371, Lat : 49.2836615, Lng : -123.1148189, Q1 : 0.873006999493, Q2 : 0.0684235095978, Q3 : -0.13296765089, Q4 : 0.464216202497}
2019-04-14 19:21:08.91: SIM {TimeUS : 60534943, Roll : -0.15, Pitch : -17.23, Yaw : 55.94, Alt : 49.2999992371, Lat : 49.2836638, Lng : -123.1148139, Q1 : 0.873307347298, Q2 : 0.0690610259771, Q3 : -0.132972255349, Q4 : 0.463555067778}
2019-04-14 19:21:09.01: SIM {TimeUS : 60634903, Roll : -0.06, Pitch : -17.27, Yaw : 55.83, Alt : 49.2999992371, Lat : 49.2836659, Lng : -123.1148089, Q1 : 0.873653233051, Q2 : 0.0698467642069, Q3 : -0.132958486676, Q4 : 0.462788879871}
2019-04-14 19:21:09.11: SIM {TimeUS : 60734863, Roll : 0.04, Pitch : -17.31, Yaw : 55.71, Alt : 49.3100013733, Lat : 49.2836682, Lng : -123.1148039, Q1 : 0.874016344547, Q2 : 0.0706382617354, Q3 : -0.132913887501, Q4 : 0.461995214224}
2019-04-14 19:21:09.21: SIM {TimeUS : 60834823, Roll : 0.11, Pitch : -17.34, Yaw : 55.6, Alt : 49.3100013733, Lat : 49.2836705, Lng : -123.1147988, Q1 : 0.874373674393, Q2 : 0.071204431355, Q3 : -0.132918804884, Q4 : 0.461230158806}
2019-04-14 19:21:09.31: SIM {TimeUS : 60934783, Roll : 0.15, Pitch : -17.35, Yaw : 55.51, Alt : 49.3100013733, Lat : 49.2836726, Lng : -123.1147938, Q1 : 0.874709308147, Q2 : 0.0714221596718, Q3 : -0.132901504636, Q4 : 0.460564613342}
2019-04-14 19:21:09.42: SIM {TimeUS : 61035576, Roll : 0.15, Pitch : -17.36, Yaw : 55.44, Alt : 49.3100013733, Lat : 49.2836749, Lng : -123.1147887, Q1 : 0.874983906746, Q2 : 0.0713980272412, Q3 : -0.132970944047, Q4 : 0.460026353598}
2019-04-14 19:21:09.51: SIM {TimeUS : 61135536, Roll : 0.16, Pitch : -17.35, Yaw : 55.39, Alt : 49.3100013733, Lat : 49.2836772, Lng : -123.1147836, Q1 : 0.87516528368, Q2 : 0.0714315026999, Q3 : -0.132936686277, Q4 : 0.459685832262}
2019-04-14 19:21:09.61: SIM {TimeUS : 61235496, Roll : 0.17, Pitch : -17.36, Yaw : 55.37, Alt : 49.3100013733, Lat : 49.2836795, Lng : -123.1147785, Q1 : 0.875247955322, Q2 : 0.0714700445533, Q3 : -0.133006930351, Q4 : 0.459502130747}
2019-04-14 19:21:09.71: SIM {TimeUS : 61335456, Roll : 0.18, Pitch : -17.4, Yaw : 55.36, Alt : 49.3100013733, Lat : 49.2836817, Lng : -123.1147734, Q1 : 0.875214874744, Q2 : 0.0716933310032, Q3 : -0.133242547512, Q4 : 0.459462076426}
2019-04-14 19:21:09.81: SIM {TimeUS : 61435416, Roll : 0.19, Pitch : -17.46, Yaw : 55.37, Alt : 49.3100013733, Lat : 49.283684, Lng : -123.1147682, Q1 : 0.875101327896, Q2 : 0.0720051825047, Q3 : -0.133669406176, Q4 : 0.459505677223}
2019-04-14 19:21:09.91: SIM {TimeUS : 61535376, Roll : 0.18, Pitch : -17.49, Yaw : 55.39, Alt : 49.3100013733, Lat : 49.2836863, Lng : -123.1147631, Q1 : 0.874995291233, Q2 : 0.0720992982388, Q3 : -0.133939489722, Q4 : 0.459614157677}
2019-04-14 19:21:10.01: SIM {TimeUS : 61635336, Roll : 0.15, Pitch : -17.5, Yaw : 55.41, Alt : 49.3100013733, Lat : 49.2836886, Lng : -123.1147579, Q1 : 0.87492197752, Q2 : 0.071944668889, Q3 : -0.13404558599, Q4 : 0.459746956825}
2019-04-14 19:21:10.11: SIM {TimeUS : 61735296, Roll : 0.12, Pitch : -17.5, Yaw : 55.43, Alt : 49.3100013733, Lat : 49.2836908, Lng : -123.1147527, Q1 : 0.874853849411, Q2 : 0.0717177391052, Q3 : -0.134240090847, Q4 : 0.459855318069}
2019-04-14 19:21:10.21: SIM {TimeUS : 61835256, Roll : 0.08, Pitch : -17.53, Yaw : 55.45, Alt : 49.3199996948, Lat : 49.2836931, Lng : -123.1147475, Q1 : 0.874787211418, Q2 : 0.0715217962861, Q3 : -0.134581983089, Q4 : 0.459912598133}
2019-04-14 19:21:10.31: SIM {TimeUS : 61935216, Roll : 0.06, Pitch : -17.55, Yaw : 55.46, Alt : 49.3199996948, Lat : 49.2836955, Lng : -123.1147423, Q1 : 0.874733328819, Q2 : 0.0714841559529, Q3 : -0.134859800339, Q4 : 0.459939599037}
2019-04-14 19:21:10.41: SIM {TimeUS : 62035176, Roll : 0.04, Pitch : -17.58, Yaw : 55.46, Alt : 49.3199996948, Lat : 49.2836978, Lng : -123.1147371, Q1 : 0.874717414379, Q2 : 0.0714656189084, Q3 : -0.135128870606, Q4 : 0.459893852472}
2019-04-14 19:21:10.51: SIM {TimeUS : 62135136, Roll : 0.03, Pitch : -17.6, Yaw : 55.44, Alt : 49.3199996948, Lat : 49.2837001, Lng : -123.1147319, Q1 : 0.874748528004, Q2 : 0.0714727416635, Q3 : -0.135282054543, Q4 : 0.459788441658}
2019-04-14 19:21:10.61: SIM {TimeUS : 62235096, Roll : 0.04, Pitch : -17.61, Yaw : 55.42, Alt : 49.3199996948, Lat : 49.2837024, Lng : -123.1147266, Q1 : 0.874807775021, Q2 : 0.0715624988079, Q3 : -0.135388985276, Q4 : 0.459630310535}
2019-04-14 19:21:10.71: SIM {TimeUS : 62335056, Roll : 0.06, Pitch : -17.62, Yaw : 55.4, Alt : 49.3199996948, Lat : 49.2837047, Lng : -123.1147214, Q1 : 0.874891400337, Q2 : 0.0717274621129, Q3 : -0.135413616896, Q4 : 0.459438055754}
2019-04-14 19:21:10.81: SIM {TimeUS : 62435016, Roll : 0.09, Pitch : -17.64, Yaw : 55.37, Alt : 49.3199996948, Lat : 49.2837071, Lng : -123.1147161, Q1 : 0.874971807003, Q2 : 0.0719932541251, Q3 : -0.135413512588, Q4 : 0.459243446589}
2019-04-14 19:21:10.91: SIM {TimeUS : 62534976, Roll : 0.12, Pitch : -17.67, Yaw : 55.34, Alt : 49.3199996948, Lat : 49.2837095, Lng : -123.1147108, Q1 : 0.875043511391, Q2 : 0.0722973868251, Q3 : -0.135533705354, Q4 : 0.459023535252}
2019-04-14 19:21:11.01: SIM {TimeUS : 62634936, Roll : 0.14, Pitch : -17.71, Yaw : 55.3, Alt : 49.3199996948, Lat : 49.2837118, Lng : -123.1147056, Q1 : 0.875116109848, Q2 : 0.0725266262889, Q3 : -0.135795876384, Q4 : 0.458771377802}
2019-04-14 19:21:11.11: SIM {TimeUS : 62734896, Roll : 0.13, Pitch : -17.75, Yaw : 55.27, Alt : 49.3199996948, Lat : 49.2837142, Lng : -123.1147003, Q1 : 0.875187933445, Q2 : 0.0726497992873, Q3 : -0.136137038469, Q4 : 0.458513736725}
2019-04-14 19:21:11.21: SIM {TimeUS : 62834856, Roll : 0.13, Pitch : -17.79, Yaw : 55.25, Alt : 49.3199996948, Lat : 49.2837165, Lng : -123.114695, Q1 : 0.875258207321, Q2 : 0.0727325305343, Q3 : -0.136462271214, Q4 : 0.458269655704}
2019-04-14 19:21:11.31: SIM {TimeUS : 62934816, Roll : 0.15, Pitch : -17.81, Yaw : 55.22, Alt : 49.3199996948, Lat : 49.2837188, Lng : -123.1146897, Q1 : 0.875318944454, Q2 : 0.0729153975844, Q3 : -0.136608079076, Q4 : 0.458081156015}
2019-04-14 19:21:11.41: SIM {TimeUS : 63034776, Roll : 0.17, Pitch : -17.82, Yaw : 55.2, Alt : 49.3199996948, Lat : 49.2837212, Lng : -123.1146843, Q1 : 0.875380575657, Q2 : 0.0731340423226, Q3 : -0.136539652944, Q4 : 0.457948923111}
2019-04-14 19:21:11.51: SIM {TimeUS : 63135569, Roll : 0.19, Pitch : -17.79, Yaw : 55.18, Alt : 49.3199996948, Lat : 49.2837235, Lng : -123.1146789, Q1 : 0.875462710857, Q2 : 0.0731673762202, Q3 : -0.136302486062, Q4 : 0.457857310772}
2019-04-14 19:21:11.61: SIM {TimeUS : 63235529, Roll : 0.19, Pitch : -17.77, Yaw : 55.17, Alt : 49.3199996948, Lat : 49.2837259, Lng : -123.1146736, Q1 : 0.875539660454, Q2 : 0.073013715446, Q3 : -0.136144116521, Q4 : 0.457781672478}
2019-04-14 19:21:11.71: SIM {TimeUS : 63335489, Roll : 0.17, Pitch : -17.75, Yaw : 55.16, Alt : 49.3300018311, Lat : 49.2837284, Lng : -123.1146682, Q1 : 0.875606894493, Q2 : 0.0727685466409, Q3 : -0.13607648015, Q4 : 0.457712292671}
2019-04-14 19:21:11.81: SIM {TimeUS : 63435449, Roll : 0.15, Pitch : -17.74, Yaw : 55.16, Alt : 49.3300018311, Lat : 49.2837308, Lng : -123.1146629, Q1 : 0.875641286373, Q2 : 0.0726181045175, Q3 : -0.136111721396, Q4 : 0.457659929991}
2019-04-14 19:21:11.91: SIM {TimeUS : 63535409, Roll : 0.13, Pitch : -17.76, Yaw : 55.16, Alt : 49.3300018311, Lat : 49.2837332, Lng : -123.1146575, Q1 : 0.87564510107, Q2 : 0.0725596696138, Q3 : -0.136304885149, Q4 : 0.457604378462}
2019-04-14 19:21:12.01: SIM {TimeUS : 63635369, Roll : 0.13, Pitch : -17.79, Yaw : 55.15, Alt : 49.3300018311, Lat : 49.2837356, Lng : -123.1146521, Q1 : 0.875630915165, Q2 : 0.0726348608732, Q3 : -0.136523604393, Q4 : 0.457554399967}
2019-04-14 19:21:12.11: SIM {TimeUS : 63735329, Roll : 0.13, Pitch : -17.83, Yaw : 55.15, Alt : 49.3300018311, Lat : 49.283738, Lng : -123.1146467, Q1 : 0.875603199005, Q2 : 0.0727541148663, Q3 : -0.136871755123, Q4 : 0.457484424114}
2019-04-14 19:21:12.21: SIM {TimeUS : 63835289, Roll : 0.13, Pitch : -17.88, Yaw : 55.14, Alt : 49.3300018311, Lat : 49.2837404, Lng : -123.1146413, Q1 : 0.875569283962, Q2 : 0.0729394033551, Q3 : -0.137246802449, Q4 : 0.45740750432}
2019-04-14 19:21:12.31: SIM {TimeUS : 63935249, Roll : 0.14, Pitch : -17.91, Yaw : 55.13, Alt : 49.3300018311, Lat : 49.2837428, Lng : -123.1146359, Q1 : 0.875552475452, Q2 : 0.0731659382582, Q3 : -0.137450501323, Q4 : 0.457342267036}
2019-04-14 19:21:12.41: SIM {TimeUS : 64035209, Roll : 0.14, Pitch : -17.94, Yaw : 55.12, Alt : 49.3300018311, Lat : 49.2837452, Lng : -123.1146305, Q1 : 0.875559210777, Q2 : 0.0732697620988, Q3 : -0.137664616108, Q4 : 0.457248359919}
2019-04-14 19:21:12.51: SIM {TimeUS : 64135169, Roll : 0.14, Pitch : -17.95, Yaw : 55.11, Alt : 49.3300018311, Lat : 49.2837476, Lng : -123.1146251, Q1 : 0.875587105751, Q2 : 0.0732993036509, Q3 : -0.137811988592, Q4 : 0.45714583993}
2019-04-14 19:21:12.61: SIM {TimeUS : 64235129, Roll : 0.15, Pitch : -17.95, Yaw : 55.1, Alt : 49.3300018311, Lat : 49.28375, Lng : -123.1146197, Q1 : 0.875640451908, Q2 : 0.0733409821987, Q3 : -0.137733832002, Q4 : 0.457060545683}
2019-04-14 19:21:12.71: SIM {TimeUS : 64335089, Roll : 0.16, Pitch : -17.96, Yaw : 55.08, Alt : 49.3300018311, Lat : 49.2837524, Lng : -123.1146143, Q1 : 0.875685811043, Q2 : 0.0734798908234, Q3 : -0.137740761042, Q4 : 0.456949174404}
2019-04-14 19:21:12.81: SIM {TimeUS : 64435049, Roll : 0.16, Pitch : -17.98, Yaw : 55.06, Alt : 49.3300018311, Lat : 49.2837547, Lng : -123.1146088, Q1 : 0.875732243061, Q2 : 0.0735339075327, Q3 : -0.137890547514, Q4 : 0.456806331873}
2019-04-14 19:21:12.91: SIM {TimeUS : 64535009, Roll : 0.17, Pitch : -17.98, Yaw : 55.05, Alt : 49.3300018311, Lat : 49.2837573, Lng : -123.1146034, Q1 : 0.875790178776, Q2 : 0.0735962837934, Q3 : -0.137926027179, Q4 : 0.456674426794}
2019-04-14 19:21:13.01: SIM {TimeUS : 64634969, Roll : 0.18, Pitch : -17.98, Yaw : 55.03, Alt : 49.3300018311, Lat : 49.2837597, Lng : -123.1145979, Q1 : 0.87585991621, Q2 : 0.0736119374633, Q3 : -0.137865155935, Q4 : 0.456556618214}
2019-04-14 19:21:13.11: SIM {TimeUS : 64734929, Roll : 0.18, Pitch : -17.97, Yaw : 55.01, Alt : 49.3400001526, Lat : 49.283762, Lng : -123.1145925, Q1 : 0.875928997993, Q2 : 0.0735979005694, Q3 : -0.137817069888, Q4 : 0.456440806389}
2019-04-14 19:21:13.21: SIM {TimeUS : 64834889, Roll : 0.17, Pitch : -17.99, Yaw : 55.0, Alt : 49.3400001526, Lat : 49.2837646, Lng : -123.114587, Q1 : 0.875976622105, Q2 : 0.073529727757, Q3 : -0.138013020158, Q4 : 0.456301152706}
2019-04-14 19:21:13.31: SIM {TimeUS : 64934849, Roll : 0.14, Pitch : -18.03, Yaw : 54.99, Alt : 49.3400001526, Lat : 49.283767, Lng : -123.1145816, Q1 : 0.875994443893, Q2 : 0.0734810531139, Q3 : -0.138407945633, Q4 : 0.456155121326}
2019-04-14 19:21:13.41: SIM {TimeUS : 65034809, Roll : 0.13, Pitch : -18.03, Yaw : 54.98, Alt : 49.3400001526, Lat : 49.2837694, Lng : -123.1145761, Q1 : 0.876032888889, Q2 : 0.0733769014478, Q3 : -0.138522341847, Q4 : 0.456063389778}
2019-04-14 19:21:13.52: SIM {TimeUS : 65135602, Roll : 0.14, Pitch : -18.02, Yaw : 54.97, Alt : 49.3400001526, Lat : 49.2837719, Lng : -123.1145706, Q1 : 0.876075387001, Q2 : 0.0734044462442, Q3 : -0.138348355889, Q4 : 0.456030130386}
2019-04-14 19:21:13.61: SIM {TimeUS : 65235562, Roll : 0.16, Pitch : -18.0, Yaw : 54.96, Alt : 49.3400001526, Lat : 49.2837743, Lng : -123.1145651, Q1 : 0.87610989809, Q2 : 0.0734844133258, Q3 : -0.138164967299, Q4 : 0.456006497145}
2019-04-14 19:21:13.71: SIM {TimeUS : 65335522, Roll : 0.18, Pitch : -18.0, Yaw : 54.95, Alt : 49.3400001526, Lat : 49.2837768, Lng : -123.1145596, Q1 : 0.876129508018, Q2 : 0.0735970586538, Q3 : -0.138115659356, Q4 : 0.455965608358}
2019-04-14 19:21:13.81: SIM {TimeUS : 65435482, Roll : 0.17, Pitch : -18.02, Yaw : 54.95, Alt : 49.3400001526, Lat : 49.2837792, Lng : -123.1145541, Q1 : 0.876145660877, Q2 : 0.0735879167914, Q3 : -0.138274475932, Q4 : 0.455887943506}
2019-04-14 19:21:13.91: SIM {TimeUS : 65535442, Roll : 0.14, Pitch : -18.05, Yaw : 54.94, Alt : 49.3400001526, Lat : 49.2837817, Lng : -123.1145486, Q1 : 0.876159667969, Q2 : 0.0734800845385, Q3 : -0.138596877456, Q4 : 0.455780446529}
2019-04-14 19:21:14.01: SIM {TimeUS : 65635402, Roll : 0.12, Pitch : -18.07, Yaw : 54.93, Alt : 49.3400001526, Lat : 49.2837841, Lng : -123.1145431, Q1 : 0.876172423363, Q2 : 0.073450833559, Q3 : -0.138874053955, Q4 : 0.455676287413}
2019-04-14 19:21:14.11: SIM {TimeUS : 65735362, Roll : 0.13, Pitch : -18.1, Yaw : 54.92, Alt : 49.3400001526, Lat : 49.2837866, Lng : -123.1145376, Q1 : 0.876181125641, Q2 : 0.073542304337, Q3 : -0.139062196016, Q4 : 0.45558744669}
2019-04-14 19:21:14.21: SIM {TimeUS : 65835322, Roll : 0.13, Pitch : -18.12, Yaw : 54.91, Alt : 49.3400001526, Lat : 49.2837891, Lng : -123.1145321, Q1 : 0.876189112663, Q2 : 0.073676712811, Q3 : -0.139188438654, Q4 : 0.455511748791}
2019-04-14 19:21:14.31: SIM {TimeUS : 65935282, Roll : 0.16, Pitch : -18.13, Yaw : 54.9, Alt : 49.3400001526, Lat : 49.2837915, Lng : -123.1145266, Q1 : 0.876200258732, Q2 : 0.0739129707217, Q3 : -0.139159753919, Q4 : 0.455460846424}
2019-04-14 19:21:14.41: SIM {TimeUS : 66035242, Roll : 0.18, Pitch : -18.14, Yaw : 54.89, Alt : 49.3400001526, Lat : 49.283794, Lng : -123.1145211, Q1 : 0.876213610172, Q2 : 0.0740809589624, Q3 : -0.139181792736, Q4 : 0.45540112257}
