2019-04-14 16:27:14.80: SIM {TimeUS : 40216407, Roll : 0.0, Pitch : 0.0, Yaw : 0.0, Alt : 30.1000003815, Lat : 49.28357, Lng : -123.11502, Q1 : 1.0, Q2 : 0.0, Q3 : 0.0, Q4 : 0.0}
2019-04-14 16:27:14.91: SIM {TimeUS : 40335526, Roll : 0.0, Pitch : 0.0, Yaw : 0.0, Alt : 30.1000003815, Lat : 49.28357, Lng : -123.11502, Q1 : 1.0, Q2 : 0.0, Q3 : 0.0, Q4 : 0.0}
2019-04-14 16:27:15.01: SIM {TimeUS : 40435486, Roll : 0.0, Pitch : 0.0, Yaw : 0.0, Alt : 30.1000003815, Lat : 49.28357, Lng : -123.11502, Q1 : 1.0, Q2 : 0.0, Q3 : 0.0, Q4 : 0.0}
2019-04-14 16:27:15.11: SIM {TimeUS : 40535446, Roll : 0.0, Pitch : 0.0, Yaw : 0.0, Alt : 30.1000003815, Lat : 49.28357, Lng : -123.11502, Q1 : 1.0, Q2 : 0.0, Q3 : 0.0, Q4 : 0.0}
2019-04-14 16:27:15.21: SIM {TimeUS : 40635406, Roll : 0.0, Pitch : 0.0, Yaw : 0.0, Alt : 30.1000003815, Lat : 49.28357, Lng : -123.11502, Q1 : 1.0, Q2 : 0.0, Q3 : 0.0, Q4 : 0.0}
2019-04-14 16:27:15.31: SIM {TimeUS : 40735366, Roll : 0.0, Pitch : 0.0, Yaw : 0.0, Alt : 30.1000003815, Lat : 49.28357, Lng : -123.11502, Q1 : 1.0, Q2 : 0.0, Q3 : 0.0, Q4 : 0.0}
2019-04-14 16:27:15.41: SIM {TimeUS : 40835326, Roll : 0.0, Pitch : 0.0, Yaw : 0.0, Alt : 30.1000003815, Lat : 49.28357, Lng : -123.11502, Q1 : 1.0, Q2 : 0.0, Q3 : 0.0, Q4 : 0.0}
2019-04-14 16:27:15.51: SIM {TimeUS : 40935286, Roll : 0.0, Pitch : 0.0, Yaw : 0.0, Alt : 30.1000003815, Lat : 49.28357, Lng : -123.11502, Q1 : 1.0, Q2 : 0.0, Q3 : 0.0, Q4 : 0.0}
2019-04-14 16:27:15.61: SIM {TimeUS : 41035246, Roll : 0.0, Pitch : 0.0, Yaw : 0.0, Alt : 30.1000003815, Lat : 49.28357, Lng : -123.11502, Q1 : 1.0, Q2 : 0.0, Q3 : 0.0, Q4 : 0.0}
2019-04-14 16:27:15.71: SIM {TimeUS : 41135206, Roll : 0.0, Pitch : 0.0, Yaw : 0.0, Alt : 30.1000003815, Lat : 49.28357, Lng : -123.11502, Q1 : 1.0, Q2 : 0.0, Q3 : 0.0, Q4 : 0.0}
2019-04-14 16:27:15.81: SIM {TimeUS : 41235166, Roll : 0.0, Pitch : 0.0, Yaw : 0.0, Alt : 30.1000003815, Lat : 49.28357, Lng : -123.11502, Q1 : 1.0, Q2 : 0.0, Q3 : 0.0, Q4 : 0.0}
2019-04-14 16:27:15.91: SIM {TimeUS : 41335126, Roll : 0.0, Pitch : 0.0, Yaw : 0.0, Alt : 30.1000003815, Lat : 49.28357, Lng : -123.11502, Q1 : 1.0, Q2 : 0.0, Q3 : 0.0, Q4 : 0.0}
2019-04-14 16:27:16.01: SIM {TimeUS : 41435086, Roll : 0.0, Pitch : 0.0, Yaw : 0.0, Alt : 30.1000003815, Lat : 49.28357, Lng : -123.11502, Q1 : 1.0, Q2 : 0.0, Q3 : 0.0, Q4 : 0.0}
2019-04-14 16:27:16.11: SIM {TimeUS : 41535046, Roll : 0.0, Pitch : 0.0, Yaw : 0.0, Alt : 30.1000003815, Lat : 49.28357, Lng : -123.11502, Q1 : 1.0, Q2 : 0.0, Q3 : 0.0, Q4 : 0.0}
2019-04-14 16:27:16.21: SIM {TimeUS : 41635006, Roll : 0.0, Pitch : 0.0, Yaw : 0.0, Alt : 30.1000003815, Lat : 49.28357, Lng : -123.11502, Q1 : 1.0, Q2 : 0.0, Q3 : 0.0, Q4 : 0.0}
2019-04-14 16:27:16.31: SIM {TimeUS : 41734966, Roll : 0.0, Pitch : 0.0, Yaw : 0.0, Alt : 30.1000003815, Lat : 49.28357, Lng : -123.11502, Q1 : 1.0, Q2 : 0.0, Q3 : 0.0, Q4 : 0.0}
2019-04-14 16:27:16.41: SIM {TimeUS : 41834926, Roll : 0.0, Pitch : 0.0, Yaw : 0.0, Alt : 30.1000003815, Lat : 49.28357, Lng : -123.11502, Q1 : 1.0, Q2 : 0.0, Q3 : 0.0, Q4 : 0.0}
2019-04-14 16:27:16.51: SIM {TimeUS : 41934886, Roll : 0.0, Pitch : 0.0, Yaw : 0.0, Alt : 30.1000003815, Lat : 49.28357, Lng : -123.11502, Q1 : 1.0, Q2 : 0.0, Q3 : 0.0, Q4 : 0.0}
2019-04-14 16:27:16.61: SIM {TimeUS : 42034846, Roll : 0.0, Pitch : 0.0, Yaw : 0.0, Alt : 30.1000003815, Lat : 49.28357, Lng : -123.11502, Q1 : 1.0, Q2 : 0.0, Q3 : 0.0, Q4 : 0.0}
2019-04-14 16:27:16.71: SIM {TimeUS : 42134806, Roll : 0.0, Pitch : 0.0, Yaw : 0.0, Alt : 30.1000003815, Lat : 49.28357, Lng : -123.11502, Q1 : 1.0, Q2 : 0.0, Q3 : 0.0, Q4 : 0.0}
2019-04-14 16:27:16.81: SIM {TimeUS : 42234766, Roll : 0.0, Pitch : 0.0, Yaw : 0.0, Alt : 30.1000003815, Lat : 49.28357, Lng : -123.11502, Q1 : 1.0, Q2 : 0.0, Q3 : 0.0, Q4 : 0.0}
2019-04-14 16:27:16.91: SIM {TimeUS : 42335559, Roll : 0.0, Pitch : 0.0, Yaw : 0.0, Alt : 30.1000003815, Lat : 49.28357, Lng : -123.11502, Q1 : 1.0, Q2 : 0.0, Q3 : 0.0, Q4 : 0.0}
2019-04-14 16:27:17.01: SIM {TimeUS : 42435519, Roll : 0.0, Pitch : 0.0, Yaw : 0.0, Alt : 30.1000003815, Lat : 49.28357, Lng : -123.11502, Q1 : 1.0, Q2 : 0.0, Q3 : 0.0, Q4 : 0.0}
2019-04-14 16:27:17.11: SIM {TimeUS : 42535479, Roll : 0.0, Pitch : 0.0, Yaw : 360.0, Alt : 30.1000003815, Lat : 49.28357, Lng : -123.11502, Q1 : 1.0, Q2 : 0.0, Q3 : 0.0, Q4 : -1.4079991513e-12}
2019-04-14 16:27:17.21: SIM {TimeUS : 42635439, Roll : 0.0, Pitch : 0.0, Yaw : 0.0, Alt : 30.1000003815, Lat : 49.28357, Lng : -123.11502, Q1 : 1.0, Q2 : 0.0, Q3 : 0.0, Q4 : 2.27504577677e-11}
2019-04-14 16:27:17.31: SIM {TimeUS : 42735399, Roll : 0.0, Pitch : 0.0, Yaw : 360.0, Alt : 30.1000003815, Lat : 49.28357, Lng : -123.11502, Q1 : 1.0, Q2 : 0.0, Q3 : 0.0, Q4 : -1.51769285139e-07}
2019-04-14 16:27:17.41: SIM {TimeUS : 42835359, Roll : 0.0, Pitch : 0.0, Yaw : 359.99, Alt : 30.1000003815, Lat : 49.28357, Lng : -123.11502, Q1 : 1.0, Q2 : 0.0, Q3 : 0.0, Q4 : -3.19486787248e-07}
2019-04-14 16:27:17.51: SIM {TimeUS : 42935319, Roll : 0.0, Pitch : 0.0, Yaw : 359.99, Alt : 30.1000003815, Lat : 49.28357, Lng : -123.11502, Q1 : 1.0, Q2 : 0.0, Q3 : 0.0, Q4 : -5.3840341252e-07}
2019-04-14 16:27:17.61: SIM {TimeUS : 43035279, Roll : 0.0, Pitch : 0.0, Yaw : 359.99, Alt : 30.1000003815, Lat : 49.28357, Lng : -123.11502, Q1 : 1.0, Q2 : 0.0, Q3 : 0.0, Q4 : -7.1894589837e-07}
2019-04-14 16:27:17.71: SIM {TimeUS : 43135239, Roll : 0.0, Pitch : 0.0, Yaw : 359.99, Alt : 30.1000003815, Lat : 49.28357, Lng : -123.11502, Q1 : 1.0, Q2 : 0.0, Q3 : 0.0, Q4 : -9.28150143409e-07}
2019-04-14 16:27:17.81: SIM {TimeUS : 43235199, Roll : 0.0, Pitch : 0.0, Yaw : 359.99, Alt : 30.1000003815, Lat : 49.28357, Lng : -123.11502, Q1 : 1.0, Q2 : 0.0, Q3 : 0.0, Q4 : -1.12912380246e-06}
2019-04-14 16:27:17.91: SIM {TimeUS : 43335159, Roll : 0.0, Pitch : 0.0, Yaw : 359.99, Alt : 30.1000003815, Lat : 49.28357, Lng : -123.11502, Q1 : 1.0, Q2 : 0.0, Q3 : 0.0, Q4 : -1.31314436658e-06}
2019-04-14 16:27:18.01: SIM {TimeUS : 43435119, Roll : 0.0, Pitch : 0.0, Yaw : 359.99, Alt : 30.1100006104, Lat : 49.28357, Lng : -123.11502, Q1 : 1.0, Q2 : 0.0, Q3 : 0.0, Q4 : -1.50896858031e-06}
2019-04-14 16:27:18.11: SIM {TimeUS : 43535079, Roll : 0.0, Pitch : 0.0, Yaw : 359.99, Alt : 30.1399993896, Lat : 49.28357, Lng : -123.11502, Q1 : 1.0, Q2 : 0.0, Q3 : 0.0, Q4 : -1.71556064288e-06}
2019-04-14 16:27:18.21: SIM {TimeUS : 43635039, Roll : 0.0, Pitch : 0.0, Yaw : 359.99, Alt : 30.1599998474, Lat : 49.28357, Lng : -123.11502, Q1 : 1.0, Q2 : 0.0, Q3 : 0.0, Q4 : -1.98239013116e-06}
2019-04-14 16:27:18.31: SIM {TimeUS : 43734999, Roll : 0.0, Pitch : 0.0, Yaw : 359.99, Alt : 30.2000007629, Lat : 49.28357, Lng : -123.11502, Q1 : 1.0, Q2 : 0.0, Q3 : 0.0, Q4 : -2.21721143134e-06}
2019-04-14 16:27:18.41: SIM {TimeUS : 43834959, Roll : -0.1, Pitch : -0.08, Yaw : 359.99, Alt : 30.25, Lat : 49.28357, Lng : -123.11502, Q1 : 0.999999284744, Q2 : -0.000912581046578, Q3 : -0.000736632093322, Q4 : -8.90277988219e-06}
2019-04-14 16:27:18.51: SIM {TimeUS : 43934919, Roll : -0.4, Pitch : -0.33, Yaw : 359.99, Alt : 30.3400001526, Lat : 49.28357, Lng : -123.11502, Q1 : 0.999989330769, Q2 : -0.00357799394988, Q3 : -0.00292596663348, Q4 : -4.22274424636e-05}
2019-04-14 16:27:18.61: SIM {TimeUS : 44034879, Roll : -0.69, Pitch : -0.59, Yaw : 359.99, Alt : 30.4899997711, Lat : 49.28357, Lng : -123.11502, Q1 : 0.99996817112, Q2 : -0.00607418408617, Q3 : -0.00516585819423, Q4 : -0.000104244609247}
2019-04-14 16:27:18.71: SIM {TimeUS : 44134839, Roll : -0.84, Pitch : -0.74, Yaw : 359.98, Alt : 30.6499996185, Lat : 49.28357, Lng : -123.11502, Q1 : 0.999951899052, Q2 : -0.00737263914198, Q3 : -0.00646782666445, Q4 : -0.000187114768778}
2019-04-14 16:27:18.81: SIM {TimeUS : 44234799, Roll : -0.84, Pitch : -0.75, Yaw : 359.97, Alt : 30.7999992371, Lat : 49.28357, Lng : -123.11502, Q1 : 0.999951303005, Q2 : -0.00734357722104, Q3 : -0.00658105127513, Q4 : -0.000282093184069}
2019-04-14 16:27:18.91: SIM {TimeUS : 44334759, Roll : -0.7, Pitch : -0.63, Yaw : 359.96, Alt : 30.9599990845, Lat : 49.28357, Lng : -123.1150201, Q1 : 0.999965369701, Q2 : -0.00616291025653, Q3 : -0.00557909626514, Q4 : -0.000374497147277}
2019-04-14 16:27:19.01: SIM {TimeUS : 44435552, Roll : -0.47, Pitch : -0.46, Yaw : 359.94, Alt : 31.1100006104, Lat : 49.2835701, Lng : -123.1150202, Q1 : 0.99998319149, Q2 : -0.00411654124036, Q3 : -0.00405313447118, Q4 : -0.000455635978142}
2019-04-14 16:27:19.11: SIM {TimeUS : 44535512, Roll : -0.23, Pitch : -0.26, Yaw : 359.94, Alt : 31.2700004578, Lat : 49.2835701, Lng : -123.1150203, Q1 : 0.999995112419, Q2 : -0.00203181034885, Q3 : -0.00231250445358, Q4 : -0.000518368906341}
2019-04-14 16:27:19.21: SIM {TimeUS : 44635472, Roll : -0.06, Pitch : -0.08, Yaw : 359.93, Alt : 31.4400005341, Lat : 49.2835702, Lng : -123.1150204, Q1 : 0.999999403954, Q2 : -0.000528028409462, Q3 : -0.000778919784352, Q4 : -0.000562696310226}
2019-04-14 16:27:19.31: SIM {TimeUS : 44735432, Roll : 0.03, Pitch : 0.02, Yaw : 359.93, Alt : 31.6100006104, Lat : 49.2835702, Lng : -123.1150204, Q1 : 0.999999761581, Q2 : 0.000315277458867, Q3 : 0.000200137932552, Q4 : -0.000593427219428}
2019-04-14 16:27:19.41: SIM {TimeUS : 44835392, Roll : 0.06, Pitch : 0.06, Yaw : 359.93, Alt : 31.7900009155, Lat : 49.2835703, Lng : -123.1150205, Q1 : 0.999999463558, Q2 : 0.000593022734392, Q3 : 0.00057368009584, Q4 : -0.000611103721894}
2019-04-14 16:27:19.51: SIM {TimeUS : 44935352, Roll : 0.06, Pitch : 0.05, Yaw : 359.92, Alt : 31.9799995422, Lat : 49.2835703, Lng : -123.1150206, Q1 : 0.999999523163, Q2 : 0.000584256020375, Q3 : 0.000511326245032, Q4 : -0.000615876866505}
2019-04-14 16:27:19.61: SIM {TimeUS : 45035312, Roll : 0.06, Pitch : 0.03, Yaw : 359.93, Alt : 32.1599998474, Lat : 49.2835703, Lng : -123.1150206, Q1 : 0.999999582767, Q2 : 0.000582041917369, Q3 : 0.000301814056002, Q4 : -0.000609222683124}
2019-04-14 16:27:19.71: SIM {TimeUS : 45135272, Roll : 0.08, Pitch : 0.02, Yaw : 359.93, Alt : 32.3499984741, Lat : 49.2835703, Lng : -123.1150207, Q1 : 0.999999582767, Q2 : 0.000706037099008, Q3 : 0.000210421829252, Q4 : -0.0005929521285}
2019-04-14 16:27:19.81: SIM {TimeUS : 45235232, Roll : 0.09, Pitch : 0.04, Yaw : 359.93, Alt : 32.5499992371, Lat : 49.2835703, Lng : -123.1150207, Q1 : 0.999999403954, Q2 : 0.000856681668665, Q3 : 0.000422292767325, Q4 : -0.00055701227393}
2019-04-14 16:27:19.91: SIM {TimeUS : 45335192, Roll : 0.1, Pitch : 0.09, Yaw : 359.94, Alt : 32.7400016785, Lat : 49.2835703, Lng : -123.1150208, Q1 : 0.99999910593, Q2 : 0.000945254636463, Q3 : 0.000812272017356, Q4 : -0.00051190785598}
2019-04-14 16:27:20.01: SIM {TimeUS : 45435152, Roll : 0.11, Pitch : 0.14, Yaw : 359.94, Alt : 32.9399986267, Lat : 49.2835704, Lng : -123.1150208, Q1 : 0.999998688698, Q2 : 0.000965490238741, Q3 : 0.00122911762446, Q4 : -0.000473486114061}
2019-04-14 16:27:20.11: SIM {TimeUS : 45535112, Roll : 0.12, Pitch : 0.18, Yaw : 359.94, Alt : 33.1399993896, Lat : 49.2835704, Lng : -123.1150208, Q1 : 0.999997913837, Q2 : 0.00112315849401, Q3 : 0.00163809477817, Q4 : -0.000448629347375}
2019-04-14 16:27:20.21: SIM {TimeUS : 45635072, Roll : 0.16, Pitch : 0.2, Yaw : 359.94, Alt : 33.3499984741, Lat : 49.2835704, Lng : -123.1150209, Q1 : 0.999997258186, Q2 : 0.00140146689955, Q3 : 0.00182498025242, Q4 : -0.000441978161689}
2019-04-14 16:27:20.31: SIM {TimeUS : 45735032, Roll : 0.18, Pitch : 0.21, Yaw : 359.94, Alt : 33.5499992371, Lat : 49.2835704, Lng : -123.1150209, Q1 : 0.999996840954, Q2 : 0.00162492669187, Q3 : 0.00186207436491, Q4 : -0.000448360660812}
2019-04-14 16:27:20.41: SIM {TimeUS : 45834992, Roll : 0.19, Pitch : 0.2, Yaw : 359.94, Alt : 33.7599983215, Lat : 49.2835704, Lng : -123.1150209, Q1 : 0.999996781349, Q2 : 0.00169673061464, Q3 : 0.00182812102139, Q4 : -0.000461797550088}
2019-04-14 16:27:20.51: SIM {TimeUS : 45934952, Roll : 0.19, Pitch : 0.17, Yaw : 359.94, Alt : 33.9700012207, Lat : 49.2835704, Lng : -123.1150209, Q1 : 0.999997317791, Q2 : 0.00166339450516, Q3 : 0.00153514754493, Q4 : -0.000485962402308}
2019-04-14 16:27:20.61: SIM {TimeUS : 46034912, Roll : 0.17, Pitch : 0.13, Yaw : 359.94, Alt : 34.1800003052, Lat : 49.2835706, Lng : -123.1150209, Q1 : 0.999998092651, Q2 : 0.00150180316996, Q3 : 0.0011536719976, Q4 : -0.000506620446686}
2019-04-14 16:27:20.71: SIM {TimeUS : 46134872, Roll : 0.14, Pitch : 0.1, Yaw : 359.93, Alt : 34.3899993896, Lat : 49.2835706, Lng : -123.1150209, Q1 : 0.999998688698, Q2 : 0.00122876896057, Q3 : 0.000887478352524, Q4 : -0.000528326607309}
2019-04-14 16:27:20.81: SIM {TimeUS : 46234832, Roll : 0.11, Pitch : 0.08, Yaw : 359.93, Alt : 34.5999984741, Lat : 49.2835706, Lng : -123.1150209, Q1 : 0.99999910593, Q2 : 0.000972096400801, Q3 : 0.0007358310977, Q4 : -0.000559010892175}
2019-04-14 16:27:20.91: SIM {TimeUS : 46334792, Roll : 0.09, Pitch : 0.08, Yaw : 359.93, Alt : 34.8199996948, Lat : 49.2835704, Lng : -123.1150209, Q1 : 0.99999922514, Q2 : 0.000854688056279, Q3 : 0.000699753523804, Q4 : -0.00060144579038}
2019-04-14 16:27:21.01: SIM {TimeUS : 46434752, Roll : 0.08, Pitch : 0.06, Yaw : 359.92, Alt : 35.0299987793, Lat : 49.2835704, Lng : -123.1150208, Q1 : 0.999999403954, Q2 : 0.000739769660868, Q3 : 0.000541810877621, Q4 : -0.000640387821477}
2019-04-14 16:27:21.11: SIM {TimeUS : 46535545, Roll : 0.06, Pitch : 0.04, Yaw : 359.92, Alt : 35.25, Lat : 49.2835704, Lng : -123.1150208, Q1 : 0.999999523163, Q2 : 0.000567403563764, Q3 : 0.00039598334115, Q4 : -0.000675658113323}
2019-04-14 16:27:21.21: SIM {TimeUS : 46635505, Roll : 0.04, Pitch : 0.04, Yaw : 359.91, Alt : 35.4700012207, Lat : 49.2835704, Lng : -123.1150208, Q1 : 0.999999642372, Q2 : 0.000371152505977, Q3 : 0.000361466023605, Q4 : -0.000707171682734}
2019-04-14 16:27:21.31: SIM {TimeUS : 46735465, Roll : 0.02, Pitch : 0.04, Yaw : 359.91, Alt : 35.6899986267, Lat : 49.2835704, Lng : -123.1150208, Q1 : 0.999999642372, Q2 : 0.00017672420654, Q3 : 0.000424156052759, Q4 : -0.00073619018076}
2019-04-14 16:27:21.41: SIM {TimeUS : 46835425, Roll : 0.0, Pitch : 0.03, Yaw : 359.91, Alt : 35.9099998474, Lat : 49.2835704, Lng : -123.1150208, Q1 : 0.999999701977, Q2 : 8.19914203021e-05, Q3 : 0.000297844671877, Q4 : -0.00075489433948}
2019-04-14 16:27:21.51: SIM {TimeUS : 46935385, Roll : 0.0, Pitch : 0.02, Yaw : 359.91, Alt : 36.1300010681, Lat : 49.2835704, Lng : -123.1150207, Q1 : 0.999999701977, Q2 : 5.40060354979e-05, Q3 : 0.000174680666532, Q4 : -0.00076989736408}
2019-04-14 16:27:21.61: SIM {TimeUS : 47035345, Roll : 0.0, Pitch : 0.0, Yaw : 359.9, Alt : 36.3499984741, Lat : 49.2835704, Lng : -123.1150207, Q1 : 0.999999701977, Q2 : -3.43830151905e-06, Q3 : 7.8526987636e-05, Q4 : -0.00078985147411}
2019-04-14 16:27:21.71: SIM {TimeUS : 47135305, Roll : 0.0, Pitch : 0.0, Yaw : 359.9, Alt : 36.5699996948, Lat : 49.2835704, Lng : -123.1150207, Q1 : 0.999999701977, Q2 : 8.1427015175e-07, Q3 : 2.86860504275e-05, Q4 : -0.000810862402432}
2019-04-14 16:27:21.81: SIM {TimeUS : 47235265, Roll : 0.01, Pitch : 0.0, Yaw : 359.9, Alt : 36.7900009155, Lat : 49.2835704, Lng : -123.1150207, Q1 : 0.999999642372, Q2 : 0.000106645551568, Q3 : -5.8500940213e-05, Q4 : -0.000830477103591}
2019-04-14 16:27:21.91: SIM {TimeUS : 47335225, Roll : 0.0, Pitch : -0.02, Yaw : 359.9, Alt : 37.0200004578, Lat : 49.2835704, Lng : -123.1150207, Q1 : 0.999999642372, Q2 : 1.07016267066e-05, Q3 : -0.000223687864491, Q4 : -0.000849669158924}
2019-04-14 16:27:22.01: SIM {TimeUS : 47435185, Roll : -0.03, Pitch : -0.05, Yaw : 359.89, Alt : 37.2400016785, Lat : 49.2835704, Lng : -123.1150207, Q1 : 0.999999463558, Q2 : -0.00029603447183, Q3 : -0.000516440893989, Q4 : -0.000874493387528}
2019-04-14 16:27:22.11: SIM {TimeUS : 47535145, Roll : -0.07, Pitch : -0.08, Yaw : 359.89, Alt : 37.4700012207, Lat : 49.2835704, Lng : -123.1150207, Q1 : 0.99999910593, Q2 : -0.000684308179189, Q3 : -0.000772609608248, Q4 : -0.000900310347788}
2019-04-14 16:27:22.21: SIM {TimeUS : 47635105, Roll : -0.11, Pitch : -0.1, Yaw : 359.89, Alt : 37.6899986267, Lat : 49.2835704, Lng : -123.1150206, Q1 : 0.999998629093, Q2 : -0.00101393926889, Q3 : -0.0009130378603, Q4 : -0.000928964349441}
2019-04-14 16:27:22.31: SIM {TimeUS : 47735065, Roll : -0.13, Pitch : -0.11, Yaw : 359.88, Alt : 37.9199981689, Lat : 49.2835704, Lng : -123.1150206, Q1 : 0.999998390675, Q2 : -0.00119391514454, Q3 : -0.000968171923887, Q4 : -0.000962746737059}
2019-04-14 16:27:22.41: SIM {TimeUS : 47835025, Roll : -0.13, Pitch : -0.1, Yaw : 359.88, Alt : 38.1500015259, Lat : 49.2835704, Lng : -123.1150206, Q1 : 0.999998390675, Q2 : -0.00122118450236, Q3 : -0.000883068772964, Q4 : -0.000998938456178}
2019-04-14 16:27:22.51: SIM {TimeUS : 47934985, Roll : -0.11, Pitch : -0.06, Yaw : 359.88, Alt : 38.3699989319, Lat : 49.2835704, Lng : -123.1150206, Q1 : 0.999998748302, Q2 : -0.00104592216667, Q3 : -0.000588343886193, Q4 : -0.00102764053736}
2019-04-14 16:27:22.61: SIM {TimeUS : 48034945, Roll : -0.08, Pitch : -0.04, Yaw : 359.87, Alt : 38.5999984741, Lat : 49.2835704, Lng : -123.1150206, Q1 : 0.999999046326, Q2 : -0.000776765926275, Q3 : -0.000397586059989, Q4 : -0.00105447333772}
2019-04-14 16:27:22.71: SIM {TimeUS : 48134905, Roll : -0.07, Pitch : -0.03, Yaw : 359.87, Alt : 38.8300018311, Lat : 49.2835704, Lng : -123.1150206, Q1 : 0.999999165535, Q2 : -0.000651778827887, Q3 : -0.000344989064615, Q4 : -0.00108865043148}
2019-04-14 16:27:22.81: SIM {TimeUS : 48234865, Roll : -0.07, Pitch : -0.01, Yaw : 359.87, Alt : 39.0600013733, Lat : 49.2835704, Lng : -123.1150206, Q1 : 0.999999165535, Q2 : -0.000625607848633, Q3 : -0.000167878402863, Q4 : -0.00111543340608}
2019-04-14 16:27:22.91: SIM {TimeUS : 48334825, Roll : -0.08, Pitch : 0.0, Yaw : 359.86, Alt : 39.2900009155, Lat : 49.2835704, Lng : -123.1150206, Q1 : 0.99999910593, Q2 : -0.000751633779146, Q3 : 3.72046888515e-05, Q4 : -0.00113471178338}
2019-04-14 16:27:23.01: SIM {TimeUS : 48434785, Roll : -0.08, Pitch : 0.02, Yaw : 359.86, Alt : 39.5200004578, Lat : 49.2835704, Lng : -123.1150206, Q1 : 0.999999046326, Q2 : -0.0007508196868, Q3 : 0.000199995862204, Q4 : -0.00114678021055}
2019-04-14 16:27:23.11: SIM {TimeUS : 48534745, Roll : -0.07, Pitch : 0.04, Yaw : 359.86, Alt : 39.75, Lat : 49.2835704, Lng : -123.1150206, Q1 : 0.999999046326, Q2 : -0.00061445456231, Q3 : 0.000426695798524, Q4 : -0.00115397921763}
2019-04-14 16:27:23.21: SIM {TimeUS : 48635538, Roll : -0.04, Pitch : 0.04, Yaw : 359.86, Alt : 39.9799995422, Lat : 49.2835704, Lng : -123.1150206, Q1 : 0.999999165535, Q2 : -0.000390207540477, Q3 : 0.000402275763918, Q4 : -0.00115029676817}
2019-04-14 16:27:23.31: SIM {TimeUS : 48735498, Roll : -0.01, Pitch : 0.03, Yaw : 359.86, Alt : 40.2099990845, Lat : 49.2835706, Lng : -123.1150207, Q1 : 0.999999284744, Q2 : -0.000117001400213, Q3 : 0.000314828299452, Q4 : -0.00114716019016}
2019-04-14 16:27:23.41: SIM {TimeUS : 48835458, Roll : 0.02, Pitch : 0.05, Yaw : 359.86, Alt : 40.4500007629, Lat : 49.2835706, Lng : -123.1150207, Q1 : 0.99999922514, Q2 : 0.0002049444156, Q3 : 0.000436247617472, Q4 : -0.00114339927677}
2019-04-14 16:27:23.51: SIM {TimeUS : 48935418, Roll : 0.07, Pitch : 0.08, Yaw : 359.86, Alt : 40.6800003052, Lat : 49.2835706, Lng : -123.1150207, Q1 : 0.999998867512, Q2 : 0.000619318627287, Q3 : 0.000752875756007, Q4 : -0.00114432221744}
2019-04-14 16:27:23.61: SIM {TimeUS : 49035378, Roll : 0.1, Pitch : 0.12, Yaw : 359.86, Alt : 40.9099998474, Lat : 49.2835706, Lng : -123.1150207, Q1 : 0.99999833107, Q2 : 0.000899244623724, Q3 : 0.00107503193431, Q4 : -0.00115292018745}
2019-04-14 16:27:23.71: SIM {TimeUS : 49135338, Roll : 0.09, Pitch : 0.14, Yaw : 359.86, Alt : 41.1399993896, Lat : 49.2835706, Lng : -123.1150207, Q1 : 0.999998152256, Q2 : 0.000810017692856, Q3 : 0.00130022771191, Q4 : -0.00115540670231}
2019-04-14 16:27:23.81: SIM {TimeUS : 49235298, Roll : 0.04, Pitch : 0.16, Yaw : 359.86, Alt : 41.3800010681, Lat : 49.2835706, Lng : -123.1150207, Q1 : 0.999998152256, Q2 : 0.000380914338166, Q3 : 0.0014554701047, Q4 : -0.00116793543566}
2019-04-14 16:27:23.91: SIM {TimeUS : 49335258, Roll : 0.0, Pitch : 0.17, Yaw : 359.86, Alt : 41.6100006104, Lat : 49.2835706, Lng : -123.1150207, Q1 : 0.999998152256, Q2 : -1.46608645082e-05, Q3 : 0.00152765540406, Q4 : -0.00118590996135}
2019-04-14 16:27:24.01: SIM {TimeUS : 49435218, Roll : -0.02, Pitch : 0.15, Yaw : 359.86, Alt : 41.8400001526, Lat : 49.2835706, Lng : -123.1150207, Q1 : 0.999998390675, Q2 : -0.000209386635106, Q3 : 0.00132247293368, Q4 : -0.00120706658345}
2019-04-14 16:27:24.11: SIM {TimeUS : 49535178, Roll : -0.02, Pitch : 0.11, Yaw : 359.85, Alt : 42.0800018311, Lat : 49.2835706, Lng : -123.1150207, Q1 : 0.999998688698, Q2 : -0.000242113688728, Q3 : 0.00102087657433, Q4 : -0.00123449927196}
2019-04-14 16:27:24.21: SIM {TimeUS : 49635138, Roll : -0.01, Pitch : 0.11, Yaw : 359.85, Alt : 42.3100013733, Lat : 49.2835706, Lng : -123.1150207, Q1 : 0.999998688698, Q2 : -0.000138300529215, Q3 : 0.000984148238786, Q4 : -0.00127378688194}
2019-04-14 16:27:24.31: SIM {TimeUS : 49735098, Roll : 0.02, Pitch : 0.12, Yaw : 359.84, Alt : 42.5499992371, Lat : 49.2835706, Lng : -123.1150207, Q1 : 0.999998509884, Q2 : 0.000202644339879, Q3 : 0.00111409032252, Q4 : -0.00132606434636}
2019-04-14 16:27:24.41: SIM {TimeUS : 49835058, Roll : 0.07, Pitch : 0.14, Yaw : 359.84, Alt : 42.7799987793, Lat : 49.2835706, Lng : -123.1150207, Q1 : 0.999998092651, Q2 : 0.000679828226566, Q3 : 0.00123011972755, Q4 : -0.00137549452484}
2019-04-14 16:27:24.51: SIM {TimeUS : 49935018, Roll : 0.11, Pitch : 0.12, Yaw : 359.83, Alt : 43.0200004578, Lat : 49.2835706, Lng : -123.1150207, Q1 : 0.999997794628, Q2 : 0.00104119791649, Q3 : 0.00111905380618, Q4 : -0.0014266994549}
2019-04-14 16:27:24.61: SIM {TimeUS : 50034978, Roll : 0.11, Pitch : 0.1, Yaw : 359.83, Alt : 43.25, Lat : 49.2835706, Lng : -123.1150207, Q1 : 0.999997973442, Q2 : 0.0010418810416, Q3 : 0.000887734640855, Q4 : -0.00147427199408}
2019-04-14 16:27:24.71: SIM {TimeUS : 50134938, Roll : 0.07, Pitch : 0.08, Yaw : 359.82, Alt : 43.4900016785, Lat : 49.2835704, Lng : -123.1150207, Q1 : 0.999998390675, Q2 : 0.000676510680933, Q3 : 0.000720426498447, Q4 : -0.00149829790462}
2019-04-14 16:27:24.81: SIM {TimeUS : 50234898, Roll : 0.01, Pitch : 0.07, Yaw : 359.82, Alt : 43.7200012207, Lat : 49.2835704, Lng : -123.1150207, Q1 : 0.999998629093, Q2 : 0.000161151998327, Q3 : 0.000670756737236, Q4 : -0.00151633610949}
2019-04-14 16:27:24.91: SIM {TimeUS : 50334858, Roll : -0.02, Pitch : 0.08, Yaw : 359.82, Alt : 43.9599990845, Lat : 49.2835704, Lng : -123.1150207, Q1 : 0.999998509884, Q2 : -0.000198242021725, Q3 : 0.000769386126194, Q4 : -0.00153815001249}
2019-04-14 16:27:25.01: SIM {TimeUS : 50434818, Roll : -0.04, Pitch : 0.09, Yaw : 359.82, Alt : 44.1899986267, Lat : 49.2835704, Lng : -123.1150207, Q1 : 0.999998390675, Q2 : -0.000367515429389, Q3 : 0.0008140867576, Q4 : -0.00155725958757}
2019-04-14 16:27:25.11: SIM {TimeUS : 50534778, Roll : -0.03, Pitch : 0.08, Yaw : 359.81, Alt : 44.4300003052, Lat : 49.2835704, Lng : -123.1150206, Q1 : 0.999998450279, Q2 : -0.000344526139088, Q3 : 0.000710720370989, Q4 : -0.00157128379215}
2019-04-14 16:27:25.21: SIM {TimeUS : 50634738, Roll : -0.04, Pitch : 0.06, Yaw : 359.81, Alt : 44.6599998474, Lat : 49.2835704, Lng : -123.1150206, Q1 : 0.999998509884, Q2 : -0.000367879780242, Q3 : 0.000567377370317, Q4 : -0.00158674223348}
2019-04-14 16:27:25.31: SIM {TimeUS : 50735531, Roll : -0.03, Pitch : 0.04, Yaw : 359.81, Alt : 44.9000015259, Lat : 49.2835704, Lng : -123.1150206, Q1 : 0.999998569489, Q2 : -0.000323077605572, Q3 : 0.000383251317544, Q4 : -0.00160265387967}
2019-04-14 16:27:25.41: SIM {TimeUS : 50835491, Roll : -0.02, Pitch : 0.02, Yaw : 359.81, Alt : 45.1399993896, Lat : 49.2835704, Lng : -123.1150206, Q1 : 0.999998629093, Q2 : -0.000199595655431, Q3 : 0.000199522168259, Q4 : -0.00162496708799}
2019-04-14 16:27:25.51: SIM {TimeUS : 50935451, Roll : -0.02, Pitch : 0.01, Yaw : 359.81, Alt : 45.3699989319, Lat : 49.2835703, Lng : -123.1150206, Q1 : 0.999998629093, Q2 : -0.000176115063368, Q3 : 9.2651702289e-05, Q4 : -0.00164842361119}
2019-04-14 16:27:25.61: SIM {TimeUS : 51035411, Roll : -0.02, Pitch : 0.0, Yaw : 359.8, Alt : 45.6100006104, Lat : 49.2835703, Lng : -123.1150206, Q1 : 0.999998569489, Q2 : -0.000232604841585, Q3 : -6.01011342951e-05, Q4 : -0.00167451624293}
2019-04-14 16:27:25.71: SIM {TimeUS : 51135371, Roll : -0.03, Pitch : -0.03, Yaw : 359.8, Alt : 45.8400001526, Lat : 49.2835703, Lng : -123.1150206, Q1 : 0.999998450279, Q2 : -0.000309211725835, Q3 : -0.00028107201797, Q4 : -0.00170283566695}
2019-04-14 16:27:25.81: SIM {TimeUS : 51235331, Roll : -0.03, Pitch : -0.04, Yaw : 359.8, Alt : 46.0699996948, Lat : 49.2835703, Lng : -123.1150206, Q1 : 0.99999833107, Q2 : -0.000344237254467, Q3 : -0.00040479094605, Q4 : -0.00173233030364}
2019-04-14 16:27:25.91: SIM {TimeUS : 51335291, Roll : -0.03, Pitch : -0.04, Yaw : 359.79, Alt : 46.2999992371, Lat : 49.2835703, Lng : -123.1150206, Q1 : 0.99999833107, Q2 : -0.000270191958407, Q3 : -0.000432238623034, Q4 : -0.00176227593329}
2019-04-14 16:27:26.01: SIM {TimeUS : 51435251, Roll : -0.03, Pitch : -0.04, Yaw : 359.79, Alt : 46.5200004578, Lat : 49.2835703, Lng : -123.1150206, Q1 : 0.999998271465, Q2 : -0.000277754559647, Q3 : -0.000395100272726, Q4 : -0.00179046427365}
2019-04-14 16:27:26.11: SIM {TimeUS : 51535211, Roll : -0.05, Pitch : -0.03, Yaw : 359.79, Alt : 46.7400016785, Lat : 49.2835703, Lng : -123.1150206, Q1 : 0.999998152256, Q2 : -0.000452679232694, Q3 : -0.000336370576406, Q4 : -0.00182399759069}
2019-04-14 16:27:26.21: SIM {TimeUS : 51635171, Roll : -0.08, Pitch : -0.03, Yaw : 359.78, Alt : 46.9500007629, Lat : 49.2835703, Lng : -123.1150206, Q1 : 0.999997913837, Q2 : -0.000744212709833, Q3 : -0.000312677439069, Q4 : -0.00186020229012}
2019-04-14 16:27:26.31: SIM {TimeUS : 51735131, Roll : -0.1, Pitch : -0.03, Yaw : 359.78, Alt : 47.1599998474, Lat : 49.2835703, Lng : -123.1150205, Q1 : 0.999997735023, Q2 : -0.000937008706387, Q3 : -0.000315657205647, Q4 : -0.0018940953305}
2019-04-14 16:27:26.41: SIM {TimeUS : 51835091, Roll : -0.11, Pitch : -0.02, Yaw : 359.77, Alt : 47.3600006104, Lat : 49.2835703, Lng : -123.1150205, Q1 : 0.999997615814, Q2 : -0.000962182122748, Q3 : -0.000242358393734, Q4 : -0.00192756869365}
2019-04-14 16:27:26.51: SIM {TimeUS : 51935051, Roll : -0.09, Pitch : 0.0, Yaw : 359.77, Alt : 47.5499992371, Lat : 49.2835703, Lng : -123.1150205, Q1 : 0.999997735023, Q2 : -0.000835007522255, Q3 : -6.50932488497e-05, Q4 : -0.00195978558622}
2019-04-14 16:27:26.61: SIM {TimeUS : 52035011, Roll : -0.09, Pitch : -0.01, Yaw : 359.77, Alt : 47.7200012207, Lat : 49.2835703, Lng : -123.1150205, Q1 : 0.999997675419, Q2 : -0.000850496289786, Q3 : -9.24264604691e-05, Q4 : -0.00198616227135}
2019-04-14 16:27:26.71: SIM {TimeUS : 52134971, Roll : -0.1, Pitch : -0.03, Yaw : 359.76, Alt : 47.8899993896, Lat : 49.2835703, Lng : -123.1150206, Q1 : 0.999997496605, Q2 : -0.000923576124478, Q3 : -0.000261071952991, Q4 : -0.00200867187232}
2019-04-14 16:27:26.81: SIM {TimeUS : 52234931, Roll : -0.1, Pitch : -0.04, Yaw : 359.76, Alt : 48.0499992371, Lat : 49.2835703, Lng : -123.1150206, Q1 : 0.999997377396, Q2 : -0.000957657059189, Q3 : -0.000425189966336, Q4 : -0.00203041196801}
2019-04-14 16:27:26.91: SIM {TimeUS : 52334891, Roll : -0.09, Pitch : -0.06, Yaw : 359.76, Alt : 48.1899986267, Lat : 49.2835703, Lng : -123.1150206, Q1 : 0.999997377396, Q2 : -0.000849441625178, Q3 : -0.00054520968115, Q4 : -0.00205351714976}
2019-04-14 16:27:27.01: SIM {TimeUS : 52434851, Roll : -0.07, Pitch : -0.07, Yaw : 359.76, Alt : 48.3199996948, Lat : 49.2835703, Lng : -123.1150206, Q1 : 0.999997437, Q2 : -0.000620443199296, Q3 : -0.000625468266662, Q4 : -0.00207434571348}
2019-04-14 16:27:27.11: SIM {TimeUS : 52534811, Roll : -0.04, Pitch : -0.08, Yaw : 359.76, Alt : 48.4399986267, Lat : 49.2835703, Lng : -123.1150206, Q1 : 0.999997496605, Q2 : -0.000435366353486, Q3 : -0.000706641469151, Q4 : -0.00209338054992}
2019-04-14 16:27:27.21: SIM {TimeUS : 52634771, Roll : -0.04, Pitch : -0.08, Yaw : 359.75, Alt : 48.5499992371, Lat : 49.2835703, Lng : -123.1150206, Q1 : 0.999997377396, Q2 : -0.000365114276065, Q3 : -0.000776670698542, Q4 : -0.00211252109148}
2019-04-14 16:27:27.31: SIM {TimeUS : 52735564, Roll : -0.01, Pitch : -0.08, Yaw : 359.75, Alt : 48.6500015259, Lat : 49.2835703, Lng : -123.1150206, Q1 : 0.999997437, Q2 : -0.000131064167363, Q3 : -0.000720374519005, Q4 : -0.00213232147507}
2019-04-14 16:27:27.41: SIM {TimeUS : 52835524, Roll : 0.01, Pitch : -0.06, Yaw : 359.75, Alt : 48.7299995422, Lat : 49.2835703, Lng : -123.1150206, Q1 : 0.999997496605, Q2 : 0.00016513268929, Q3 : -0.000566555187106, Q4 : -0.00215288740583}
2019-04-14 16:27:27.51: SIM {TimeUS : 52935484, Roll : 0.05, Pitch : -0.04, Yaw : 359.75, Alt : 48.8100013733, Lat : 49.2835703, Lng : -123.1150206, Q1 : 0.999997496605, Q2 : 0.000441846903414, Q3 : -0.000377489253879, Q4 : -0.00217634136789}
2019-04-14 16:27:27.61: SIM {TimeUS : 53035444, Roll : 0.06, Pitch : -0.02, Yaw : 359.74, Alt : 48.8699989319, Lat : 49.2835703, Lng : -123.1150206, Q1 : 0.999997437, Q2 : 0.000530358753167, Q3 : -0.000207111268537, Q4 : -0.00220422446728}
2019-04-14 16:27:27.71: SIM {TimeUS : 53135404, Roll : 0.06, Pitch : -0.01, Yaw : 359.74, Alt : 48.9199981689, Lat : 49.2835703, Lng : -123.1150206, Q1 : 0.999997317791, Q2 : 0.000574449368287, Q3 : -0.000110520086309, Q4 : -0.00223544100299}
2019-04-14 16:27:27.81: SIM {TimeUS : 53235364, Roll : 0.06, Pitch : -0.02, Yaw : 359.73, Alt : 48.9700012207, Lat : 49.2835703, Lng : -123.1150207, Q1 : 0.999997198582, Q2 : 0.000601014180575, Q3 : -0.000245121773332, Q4 : -0.00227032066323}
2019-04-14 16:27:27.91: SIM {TimeUS : 53335324, Roll : 0.14, Pitch : -0.1, Yaw : 359.73, Alt : 49.0099983215, Lat : 49.2835703, Lng : -123.1150207, Q1 : 0.999996125698, Q2 : 0.00128886080347, Q3 : -0.000912412942853, Q4 : -0.00230314023793}
2019-04-14 16:27:28.01: SIM {TimeUS : 53435284, Roll : 0.42, Pitch : -0.3, Yaw : 359.73, Alt : 49.0499992371, Lat : 49.2835703, Lng : -123.1150207, Q1 : 0.999987065792, Q2 : 0.00367060443386, Q3 : -0.0026520662941, Q4 : -0.00232522469014}
2019-04-14 16:27:28.11: SIM {TimeUS : 53535244, Roll : 0.92, Pitch : -0.65, Yaw : 359.72, Alt : 49.0800018311, Lat : 49.2835703, Lng : -123.1150207, Q1 : 0.999948561192, Q2 : 0.00804596766829, Q3 : -0.00571420043707, Q4 : -0.002341712825}
2019-04-14 16:27:28.21: SIM {TimeUS : 53635204, Roll : 1.62, Pitch : -1.13, Yaw : 359.71, Alt : 49.0999984741, Lat : 49.2835704, Lng : -123.1150206, Q1 : 0.999847412109, Q2 : 0.0141968615353, Q3 : -0.00990863889456, Q4 : -0.00234084390104}
2019-04-14 16:27:28.31: SIM {TimeUS : 53735164, Roll : 2.48, Pitch : -1.68, Yaw : 359.69, Alt : 49.1199989319, Lat : 49.2835704, Lng : -123.1150206, Q1 : 0.999653339386, Q2 : 0.0216815341264, Q3 : -0.0147584201768, Q4 : -0.00230176304467}
2019-04-14 16:27:28.41: SIM {TimeUS : 53835124, Roll : 3.36, Pitch : -2.25, Yaw : 359.68, Alt : 49.1399993896, Lat : 49.2835706, Lng : -123.1150205, Q1 : 0.99937158823, Q2 : 0.0293345991522, Q3 : -0.0197750460356, Q4 : -0.00221118307672}
2019-04-14 16:27:28.51: SIM {TimeUS : 53935084, Roll : 4.11, Pitch : -2.77, Yaw : 359.66, Alt : 49.1599998474, Lat : 49.2835706, Lng : -123.1150203, Q1 : 0.999060451984, Q2 : 0.0358019061387, Q3 : -0.0243354383856, Q4 : -0.00207295804285}
2019-04-14 16:27:28.61: SIM {TimeUS : 54035044, Roll : 4.64, Pitch : -3.18, Yaw : 359.65, Alt : 49.1699981689, Lat : 49.2835708, Lng : -123.11502, Q1 : 0.998790502548, Q2 : 0.0404632650316, Q3 : -0.0278712958097, Q4 : -0.00187566271052}
2019-04-14 16:27:28.71: SIM {TimeUS : 54135004, Roll : 5.01, Pitch : -3.49, Yaw : 359.65, Alt : 49.1800003052, Lat : 49.2835709, Lng : -123.1150198, Q1 : 0.99857634306, Q2 : 0.0436793677509, Q3 : -0.0305741466582, Q4 : -0.00164162227884}
2019-04-14 16:27:28.81: SIM {TimeUS : 54234964, Roll : 5.3, Pitch : -3.74, Yaw : 359.66, Alt : 49.1899986267, Lat : 49.283571, Lng : -123.1150193, Q1 : 0.998395681381, Q2 : 0.0461786985397, Q3 : -0.0327360257506, Q4 : -0.00137914565857}
2019-04-14 16:27:28.91: SIM {TimeUS : 54334924, Roll : 5.58, Pitch : -3.94, Yaw : 359.68, Alt : 49.2000007629, Lat : 49.2835714, Lng : -123.1150188, Q1 : 0.998222589493, Q2 : 0.0485760904849, Q3 : -0.0345092304051, Q4 : -0.0010845818324}
2019-04-14 16:27:29.01: SIM {TimeUS : 54434884, Roll : 5.88, Pitch : -4.16, Yaw : 359.69, Alt : 49.2099990845, Lat : 49.2835716, Lng : -123.1150182, Q1 : 0.998023509979, Q2 : 0.05121441558, Q3 : -0.0364070832729, Q4 : -0.00080117455218}
2019-04-14 16:27:29.11: SIM {TimeUS : 54534844, Roll : 6.19, Pitch : -4.38, Yaw : 359.7, Alt : 49.2200012207, Lat : 49.283572, Lng : -123.1150175, Q1 : 0.997809171677, Q2 : 0.0539326444268, Q3 : -0.0383131206036, Q4 : -0.000529614277184}
2019-04-14 16:27:29.21: SIM {TimeUS : 54634804, Roll : 6.46, Pitch : -4.56, Yaw : 359.71, Alt : 49.2299995422, Lat : 49.2835724, Lng : -123.1150166, Q1 : 0.997617423534, Q2 : 0.0562764704227, Q3 : -0.0399041883647, Q4 : -0.000277079379885}
2019-04-14 16:27:29.31: SIM {TimeUS : 54734764, Roll : 6.67, Pitch : -4.71, Yaw : 359.71, Alt : 49.2299995422, Lat : 49.2835727, Lng : -123.1150157, Q1 : 0.997463405132, Q2 : 0.0580377653241, Q3 : -0.0412121154368, Q4 : -6.15015233052e-05}
2019-04-14 16:27:29.41: SIM {TimeUS : 54835557, Roll : 6.82, Pitch : -4.84, Yaw : 359.72, Alt : 49.2400016785, Lat : 49.2835733, Lng : -123.1150147, Q1 : 0.997339069843, Q2 : 0.0593789629638, Q3 : -0.0422958396375, Q4 : 0.000118546027807}
2019-04-14 16:27:29.51: SIM {TimeUS : 54935517, Roll : 6.94, Pitch : -4.92, Yaw : 359.73, Alt : 49.2400016785, Lat : 49.2835738, Lng : -123.1150136, Q1 : 0.997243463993, Q2 : 0.0604561790824, Q3 : -0.0430178381503, Q4 : 0.00026519986568}
2019-04-14 16:27:29.61: SIM {TimeUS : 55035477, Roll : 7.05, Pitch : -4.97, Yaw : 359.73, Alt : 49.25, Lat : 49.2835743, Lng : -123.1150124, Q1 : 0.997170090675, Q2 : 0.0613299459219, Q3 : -0.0434780791402, Q4 : 0.000358102144673}
2019-04-14 16:27:29.71: SIM {TimeUS : 55135437, Roll : 7.22, Pitch : -5.01, Yaw : 359.75, Alt : 49.25, Lat : 49.2835749, Lng : -123.1150111, Q1 : 0.99706107378, Q2 : 0.0628526285291, Q3 : -0.0438006408513, Q4 : 0.000590647570789}
2019-04-14 16:27:29.81: SIM {TimeUS : 55235397, Roll : 7.6, Pitch : -4.9, Yaw : 0.07, Alt : 49.25, Lat : 49.2835755, Lng : -123.1150098, Q1 : 0.996879220009, Q2 : 0.0663221329451, Q3 : -0.0426691658795, Q4 : 0.00353649398312}
2019-04-14 16:27:29.91: SIM {TimeUS : 55335357, Roll : 8.21, Pitch : -4.69, Yaw : 1.37, Alt : 49.2599983215, Lat : 49.2835762, Lng : -123.1150083, Q1 : 0.996489405632, Q2 : 0.0720168948174, Q3 : -0.0400203764439, Q4 : 0.0148592963815}
2019-04-14 16:27:30.01: SIM {TimeUS : 55435317, Roll : 8.78, Pitch : -4.74, Yaw : 4.16, Alt : 49.2599983215, Lat : 49.2835769, Lng : -123.1150067, Q1 : 0.995436787605, Q2 : 0.0779772996902, Q3 : -0.0384445413947, Q4 : 0.039333589375}
2019-04-14 16:27:30.11: SIM {TimeUS : 55535277, Roll : 9.06, Pitch : -5.28, Yaw : 8.52, Alt : 49.2599983215, Lat : 49.2835776, Lng : -123.1150051, Q1 : 0.992787480354, Q2 : 0.0821691006422, Q3 : -0.0399717278779, Q4 : 0.0776113197207}
2019-04-14 16:27:30.21: SIM {TimeUS : 55635237, Roll : 8.87, Pitch : -6.34, Yaw : 14.27, Alt : 49.2599983215, Lat : 49.2835782, Lng : -123.1150033, Q1 : 0.987232446671, Q2 : 0.0834734663367, Q3 : -0.0451130457222, Q4 : 0.127942189574}
2019-04-14 16:27:30.31: SIM {TimeUS : 55735197, Roll : 8.09, Pitch : -7.78, Yaw : 21.18, Alt : 49.2599983215, Lat : 49.2835789, Lng : -123.1150014, Q1 : 0.977373659611, Q2 : 0.0816774591804, Q3 : -0.0535759367049, Q4 : 0.187614277005}
2019-04-14 16:27:30.41: SIM {TimeUS : 55835157, Roll : 6.71, Pitch : -9.38, Yaw : 28.98, Alt : 49.2700004578, Lat : 49.2835798, Lng : -123.1149993, Q1 : 0.962087094784, Q2 : 0.0769629701972, Q3 : -0.0644521936774, Q4 : 0.253596305847}
2019-04-14 16:27:30.51: SIM {TimeUS : 55935117, Roll : 4.78, Pitch : -10.9, Yaw : 37.42, Alt : 49.2700004578, Lat : 49.2835806, Lng : -123.1149972, Q1 : 0.940766453743, Q2 : 0.0697779878974, Q3 : -0.0766002759337, Q4 : 0.322834193707}
2019-04-14 16:27:30.61: SIM {TimeUS : 56035077, Roll : 2.24, Pitch : -12.12, Yaw : 46.17, Alt : 49.2700004578, Lat : 49.2835813, Lng : -123.114995, Q1 : 0.91375875473, Q2 : 0.0593330748379, Q3 : -0.0895315185189, Q4 : 0.391801714897}
2019-04-14 16:27:30.71: SIM {TimeUS : 56135037, Roll : -0.86, Pitch : -12.87, Yaw : 54.54, Alt : 49.2700004578, Lat : 49.2835822, Lng : -123.1149926, Q1 : 0.883587598801, Q2 : 0.0447222366929, Q3 : -0.103073433042, Q4 : 0.454586327076}
2019-04-14 16:27:30.81: SIM {TimeUS : 56234997, Roll : -3.98, Pitch : -13.09, Yaw : 61.63, Alt : 49.2700004578, Lat : 49.2835831, Lng : -123.1149902, Q1 : 0.854735732079, Q2 : 0.0286984704435, Q3 : -0.115523777902, Q4 : 0.50523018837}
2019-04-14 16:27:30.91: SIM {TimeUS : 56334957, Roll : -6.49, Pitch : -12.93, Yaw : 66.79, Alt : 49.2700004578, Lat : 49.2835842, Lng : -123.1149877, Q1 : 0.831742405891, Q2 : 0.0149350818247, Q3 : -0.124905176461, Q4 : 0.540721952915}
2019-04-14 16:27:31.01: SIM {TimeUS : 56434917, Roll : -7.99, Pitch : -12.68, Yaw : 69.85, Alt : 49.2700004578, Lat : 49.2835853, Lng : -123.1149851, Q1 : 0.817289710045, Q2 : 0.00627959752455, Q3 : -0.130033627152, Q4 : 0.561328291893}
2019-04-14 16:27:31.11: SIM {TimeUS : 56534877, Roll : -8.4, Pitch : -12.57, Yaw : 71.0, Alt : 49.2700004578, Lat : 49.2835865, Lng : -123.1149825, Q1 : 0.811700165272, Q2 : 0.00410498259589, Q3 : -0.131186380982, Q4 : 0.56913626194}
2019-04-14 16:27:31.21: SIM {TimeUS : 56634837, Roll : -7.87, Pitch : -12.7, Yaw : 70.57, Alt : 49.2700004578, Lat : 49.2835879, Lng : -123.1149799, Q1 : 0.813732743263, Q2 : 0.00803406629711, Q3 : -0.12956802547, Q4 : 0.566556811333}
2019-04-14 16:27:31.31: SIM {TimeUS : 56734797, Roll : -6.65, Pitch : -13.12, Yaw : 68.93, Alt : 49.2700004578, Lat : 49.2835892, Lng : -123.1149772, Q1 : 0.821402430534, Q2 : 0.0170251969248, Q3 : -0.126672610641, Q4 : 0.555843651295}
2019-04-14 16:27:31.41: SIM {TimeUS : 56834757, Roll : -4.98, Pitch : -13.75, Yaw : 66.44, Alt : 49.2799987793, Lat : 49.2835908, Lng : -123.1149744, Q1 : 0.832603633404, Q2 : 0.0294554438442, Q3 : -0.123729296029, Q4 : 0.539068341255}
2019-04-14 16:27:31.51: SIM {TimeUS : 56935550, Roll : -3.08, Pitch : -14.47, Yaw : 63.37, Alt : 49.2799987793, Lat : 49.2835923, Lng : -123.1149716, Q1 : 0.845600128174, Q2 : 0.0434351414442, Q3 : -0.121202088892, Q4 : 0.518057763577}
2019-04-14 16:27:31.61: SIM {TimeUS : 57035510, Roll : -1.17, Pitch : -15.11, Yaw : 60.11, Alt : 49.2799987793, Lat : 49.283594, Lng : -123.1149687, Q1 : 0.858653485775, Q2 : 0.0570534095168, Q3 : -0.118909500539, Q4 : 0.49529749155}
2019-04-14 16:27:31.71: SIM {TimeUS : 57135470, Roll : 0.58, Pitch : -15.56, Yaw : 56.94, Alt : 49.2799987793, Lat : 49.2835957, Lng : -123.1149656, Q1 : 0.870602369308, Q2 : 0.0690085887909, Q3 : -0.11666201055, Q4 : 0.472947537899}
2019-04-14 16:27:31.81: SIM {TimeUS : 57235430, Roll : 2.02, Pitch : -15.8, Yaw : 54.2, Alt : 49.2799987793, Lat : 49.2835972, Lng : -123.1149625, Q1 : 0.880492687225, Q2 : 0.0782492309809, Q3 : -0.114419281483, Q4 : 0.453340888023}
2019-04-14 16:27:31.91: SIM {TimeUS : 57335390, Roll : 3.04, Pitch : -15.86, Yaw : 52.12, Alt : 49.2799987793, Lat : 49.2835989, Lng : -123.1149592, Q1 : 0.887790441513, Q2 : 0.0842684358358, Q3 : -0.112325049937, Q4 : 0.438303649426}
2019-04-14 16:27:32.01: SIM {TimeUS : 57435350, Roll : 3.58, Pitch : -15.82, Yaw : 50.83, Alt : 49.2799987793, Lat : 49.2836007, Lng : -123.1149558, Q1 : 0.892325937748, Q2 : 0.0870343595743, Q3 : -0.110963158309, Q4 : 0.428796708584}
2019-04-14 16:27:32.11: SIM {TimeUS : 57535310, Roll : 3.65, Pitch : -15.77, Yaw : 50.33, Alt : 49.2799987793, Lat : 49.2836023, Lng : -123.1149522, Q1 : 0.894198358059, Q2 : 0.0869247168303, Q3 : -0.110672973096, Q4 : 0.424976378679}
2019-04-14 16:27:32.21: SIM {TimeUS : 57635270, Roll : 3.32, Pitch : -15.76, Yaw : 50.54, Alt : 49.2799987793, Lat : 49.2836039, Lng : -123.1149486, Q1 : 0.893690884113, Q2 : 0.0844684690237, Q3 : -0.111671946943, Q4 : 0.426275879145}
2019-04-14 16:27:32.31: SIM {TimeUS : 57735230, Roll : 2.67, Pitch : -15.81, Yaw : 51.31, Alt : 49.2799987793, Lat : 49.2836056, Lng : -123.1149448, Q1 : 0.89120900631, Q2 : 0.0803911089897, Q3 : -0.113950498402, Q4 : 0.431623756886}
2019-04-14 16:27:32.41: SIM {TimeUS : 57835190, Roll : 1.85, Pitch : -15.92, Yaw : 52.46, Alt : 49.2900009155, Lat : 49.2836074, Lng : -123.1149409, Q1 : 0.887255132198, Q2 : 0.0756083279848, Q3 : -0.117150343955, Q4 : 0.439701646566}
2019-04-14 16:27:32.51: SIM {TimeUS : 57935150, Roll : 0.98, Pitch : -16.08, Yaw : 53.8, Alt : 49.2900009155, Lat : 49.2836091, Lng : -123.114937, Q1 : 0.882420480251, Q2 : 0.0708646923304, Q3 : -0.120902359486, Q4 : 0.449104577303}
2019-04-14 16:27:32.61: SIM {TimeUS : 58035110, Roll : 0.15, Pitch : -16.24, Yaw : 55.16, Alt : 49.2900009155, Lat : 49.2836108, Lng : -123.114933, Q1 : 0.877361953259, Q2 : 0.066579580307, Q3 : -0.124617643654, Q4 : 0.458556085825}
2019-04-14 16:27:32.71: SIM {TimeUS : 58135070, Roll : -0.56, Pitch : -16.38, Yaw : 56.38, Alt : 49.2900009155, Lat : 49.2836126, Lng : -123.114929, Q1 : 0.872689306736, Q2 : 0.0629869475961, Q3 : -0.127897366881, Q4 : 0.466999202967}
2019-04-14 16:27:32.81: SIM {TimeUS : 58235030, Roll : -1.11, Pitch : -16.46, Yaw : 57.35, Alt : 49.2900009155, Lat : 49.2836144, Lng : -123.1149249, Q1 : 0.868912935257, Q2 : 0.0602820888162, Q3 : -0.130192145705, Q4 : 0.473715573549}
2019-04-14 16:27:32.91: SIM {TimeUS : 58334990, Roll : -1.41, Pitch : -16.48, Yaw : 58.01, Alt : 49.2900009155, Lat : 49.2836163, Lng : -123.1149207, Q1 : 0.866321504116, Q2 : 0.0588014274836, Q3 : -0.131302028894, Q4 : 0.478319197893}
2019-04-14 16:27:33.01: SIM {TimeUS : 58434950, Roll : -1.52, Pitch : -16.48, Yaw : 58.33, Alt : 49.2900009155, Lat : 49.2836181, Lng : -123.1149165, Q1 : 0.865027368069, Q2 : 0.0583295114338, Q3 : -0.13156375289, Q4 : 0.480641573668}
2019-04-14 16:27:33.11: SIM {TimeUS : 58534910, Roll : -1.43, Pitch : -16.48, Yaw : 58.35, Alt : 49.2900009155, Lat : 49.2836201, Lng : -123.1149122, Q1 : 0.864919781685, Q2 : 0.0590217784047, Q3 : -0.131218761206, Q4 : 0.480844914913}
2019-04-14 16:27:33.21: SIM {TimeUS : 58634870, Roll : -1.18, Pitch : -16.48, Yaw : 58.1, Alt : 49.2900009155, Lat : 49.283622, Lng : -123.1149079, Q1 : 0.865810394287, Q2 : 0.0606589950621, Q3 : -0.130310460925, Q4 : 0.479282915592}
2019-04-14 16:27:33.31: SIM {TimeUS : 58734830, Roll : -0.84, Pitch : -16.5, Yaw : 57.67, Alt : 49.2900009155, Lat : 49.2836239, Lng : -123.1149036, Q1 : 0.867414236069, Q2 : 0.0627977102995, Q3 : -0.129225388169, Q4 : 0.476392567158}
2019-04-14 16:27:33.41: SIM {TimeUS : 58834790, Roll : -0.48, Pitch : -16.54, Yaw : 57.13, Alt : 49.2900009155, Lat : 49.283626, Lng : -123.1148992, Q1 : 0.869402348995, Q2 : 0.0650885179639, Q3 : -0.128377705812, Q4 : 0.472675591707}
2019-04-14 16:27:33.51: SIM {TimeUS : 58934750, Roll : -0.14, Pitch : -16.61, Yaw : 56.56, Alt : 49.2900009155, Lat : 49.283628, Lng : -123.1148947, Q1 : 0.871480464935, Q2 : 0.0673335790634, Q3 : -0.127814859152, Q4 : 0.46866980195}
2019-04-14 16:27:33.61: SIM {TimeUS : 59035543, Roll : 0.15, Pitch : -16.69, Yaw : 56.02, Alt : 49.2900009155, Lat : 49.2836299, Lng : -123.1148902, Q1 : 0.873417675495, Q2 : 0.0693714469671, Q3 : -0.127522304654, Q4 : 0.464830309153}
2019-04-14 16:27:33.71: SIM {TimeUS : 59135503, Roll : 0.38, Pitch : -16.74, Yaw : 55.56, Alt : 49.2900009155, Lat : 49.283632, Lng : -123.1148856, Q1 : 0.875047147274, Q2 : 0.0708067119122, Q3 : -0.127284690738, Q4 : 0.461603224277}
2019-04-14 16:27:33.81: SIM {TimeUS : 59235463, Roll : 0.53, Pitch : -16.78, Yaw : 55.23, Alt : 49.2900009155, Lat : 49.2836341, Lng : -123.1148812, Q1 : 0.876242995262, Q2 : 0.0717882215977, Q3 : -0.127207860351, Q4 : 0.459197998047}
2019-04-14 16:27:33.91: SIM {TimeUS : 59335423, Roll : 0.61, Pitch : -16.82, Yaw : 55.03, Alt : 49.2900009155, Lat : 49.283636, Lng : -123.1148765, Q1 : 0.876957833767, Q2 : 0.0723133608699, Q3 : -0.127267628908, Q4 : 0.45773217082}
2019-04-14 16:27:34.01: SIM {TimeUS : 59435383, Roll : 0.62, Pitch : -16.85, Yaw : 54.96, Alt : 49.2900009155, Lat : 49.2836382, Lng : -123.1148719, Q1 : 0.877205789089, Q2 : 0.0724199637771, Q3 : -0.127497598529, Q4 : 0.457175850868}
2019-04-14 16:27:34.11: SIM {TimeUS : 59535343, Roll : 0.58, Pitch : -16.87, Yaw : 55.0, Alt : 49.2900009155, Lat : 49.2836402, Lng : -123.1148672, Q1 : 0.877049088478, Q2 : 0.0722015202045, Q3 : -0.127816483378, Q4 : 0.45742186904}
2019-04-14 16:27:34.21: SIM {TimeUS : 59635303, Roll : 0.48, Pitch : -16.9, Yaw : 55.12, Alt : 49.2900009155, Lat : 49.2836424, Lng : -123.1148625, Q1 : 0.876562058926, Q2 : 0.0717564076185, Q3 : -0.128344744444, Q4 : 0.458276808262}
2019-04-14 16:27:34.31: SIM {TimeUS : 59735263, Roll : 0.35, Pitch : -16.93, Yaw : 55.31, Alt : 49.2900009155, Lat : 49.2836445, Lng : -123.1148576, Q1 : 0.875867962837, Q2 : 0.0710389539599, Q3 : -0.129022017121, Q4 : 0.459523797035}
2019-04-14 16:27:34.41: SIM {TimeUS : 59835223, Roll : 0.19, Pitch : -16.96, Yaw : 55.52, Alt : 49.2999992371, Lat : 49.2836466, Lng : -123.114853, Q1 : 0.875080168247, Q2 : 0.0702486112714, Q3 : -0.129744499922, Q4 : 0.460940569639}
2019-04-14 16:27:34.51: SIM {TimeUS : 59935183, Roll : 0.05, Pitch : -17.0, Yaw : 55.73, Alt : 49.2999992371, Lat : 49.2836487, Lng : -123.1148481, Q1 : 0.87429279089, Q2 : 0.069523692131, Q3 : -0.130495786667, Q4 : 0.462330490351}
2019-04-14 16:27:34.61: SIM {TimeUS : 60035143, Roll : -0.07, Pitch : -17.04, Yaw : 55.91, Alt : 49.2999992371, Lat : 49.2836507, Lng : -123.1148433, Q1 : 0.873599231243, Q2 : 0.0689057633281, Q3 : -0.131230711937, Q4 : 0.46352443099}
2019-04-14 16:27:34.71: SIM {TimeUS : 60135103, Roll : -0.19, Pitch : -17.08, Yaw : 56.04, Alt : 49.2999992371, Lat : 49.283653, Lng : -123.1148384, Q1 : 0.873088777065, Q2 : 0.0683126375079, Q3 : -0.131901443005, Q4 : 0.464382827282}
2019-04-14 16:27:34.81: SIM {TimeUS : 60235063, Roll : -0.28, Pitch : -17.11, Yaw : 56.12, Alt : 49.2999992371, Lat : 49.2836551, Lng : -123.1148335, Q1 : 0.872790813446, Q2 : 0.0678376927972, Q3 : -0.132435142994, Q4 : 0.464860379696}
2019-04-14 16:27:34.91: SIM {TimeUS : 60335023, Roll : -0.32, Pitch : -17.14, Yaw : 56.14, Alt : 49.2999992371, Lat : 49.2836572, Lng : -123.1148286, Q1 : 0.872703135014, Q2 : 0.0676318928599, Q3 : -0.13283161819, Q4 : 0.464941889048}
2019-04-14 16:27:35.01: SIM {TimeUS : 60434983, Roll : -0.31, Pitch : -17.17, Yaw : 56.11, Alt : 49.2999992371, Lat : 49.2836595, Lng : -123.1148237, Q1 : 0.872786283493, Q2 : 0.067847840488, Q3 : -0.133013859391, Q4 : 0.464702099562}
2019-04-14 16:27:35.11: SIM {TimeUS : 60534943, Roll : -0.24, Pitch : -17.2, Yaw : 56.03, Alt : 49.2999992371, Lat : 49.2836616, Lng : -123.1148187, Q1 : 0.87300401926, Q2 : 0.068392381072, Q3 : -0.133078098297, Q4 : 0.464194744825}
2019-04-14 16:27:35.21: SIM {TimeUS : 60634903, Roll : -0.15, Pitch : -17.24, Yaw : 55.93, Alt : 49.2999992371, Lat : 49.2836639, Lng : -123.1148138, Q1 : 0.873314619064, Q2 : 0.0691586434841, Q3 : -0.13306696713, Q4 : 0.463499605656}
2019-04-14 16:27:35.31: SIM {TimeUS : 60734863, Roll : -0.04, Pitch : -17.29, Yaw : 55.81, Alt : 49.2999992371, Lat : 49.2836661, Lng : -123.1148088, Q1 : 0.873673796654, Q2 : 0.0700610727072, Q3 : -0.133033201098, Q4 : 0.462696164846}
2019-04-14 16:27:35.41: SIM {TimeUS : 60834823, Roll : 0.04, Pitch : -17.32, Yaw : 55.69, Alt : 49.3100013733, Lat : 49.2836682, Lng : -123.1148037, Q1 : 0.874067306519, Q2 : 0.0707538798451, Q3 : -0.133004337549, Q4 : 0.461855083704}
2019-04-14 16:27:35.51: SIM {TimeUS : 60934783, Roll : 0.1, Pitch : -17.34, Yaw : 55.58, Alt : 49.3100013733, Lat : 49.2836705, Lng : -123.1147987, Q1 : 0.874461710453, Q2 : 0.0711467787623, Q3 : -0.13298162818, Q4 : 0.461053967476}
2019-04-14 16:27:35.61: SIM {TimeUS : 61034743, Roll : 0.13, Pitch : -17.35, Yaw : 55.48, Alt : 49.3100013733, Lat : 49.2836728, Lng : -123.1147937, Q1 : 0.874819099903, Q2 : 0.0712752565742, Q3 : -0.132973998785, Q4 : 0.460357815027}
2019-04-14 16:27:35.71: SIM {TimeUS : 61135536, Roll : 0.16, Pitch : -17.35, Yaw : 55.41, Alt : 49.3100013733, Lat : 49.283675, Lng : -123.1147885, Q1 : 0.875097632408, Q2 : 0.0713831856847, Q3 : -0.132899552584, Q4 : 0.45983299613}
2019-04-14 16:27:35.81: SIM {TimeUS : 61235496, Roll : 0.17, Pitch : -17.35, Yaw : 55.36, Alt : 49.3100013733, Lat : 49.2836773, Lng : -123.1147835, Q1 : 0.875276207924, Q2 : 0.0714093968272, Q3 : -0.132895290852, Q4 : 0.459490090609}
2019-04-14 16:27:35.91: SIM {TimeUS : 61335456, Roll : 0.18, Pitch : -17.38, Yaw : 55.34, Alt : 49.3100013733, Lat : 49.2836796, Lng : -123.1147783, Q1 : 0.875320196152, Q2 : 0.0715878158808, Q3 : -0.13311098516, Q4 : 0.459316074848}
2019-04-14 16:27:36.01: SIM {TimeUS : 61435416, Roll : 0.19, Pitch : -17.44, Yaw : 55.34, Alt : 49.3100013733, Lat : 49.2836817, Lng : -123.1147731, Q1 : 0.875255227089, Q2 : 0.0718788281083, Q3 : -0.133532389998, Q4 : 0.459272116423}
2019-04-14 16:27:36.11: SIM {TimeUS : 61535376, Roll : 0.17, Pitch : -17.48, Yaw : 55.35, Alt : 49.3100013733, Lat : 49.283684, Lng : -123.1147681, Q1 : 0.875173389912, Q2 : 0.071942165494, Q3 : -0.133862406015, Q4 : 0.459322065115}
2019-04-14 16:27:36.21: SIM {TimeUS : 61635336, Roll : 0.15, Pitch : -17.48, Yaw : 55.37, Alt : 49.3100013733, Lat : 49.2836864, Lng : -123.1147629, Q1 : 0.875108122826, Q2 : 0.0718218684196, Q3 : -0.133936420083, Q4 : 0.459443688393}
2019-04-14 16:27:36.31: SIM {TimeUS : 61735296, Roll : 0.12, Pitch : -17.49, Yaw : 55.39, Alt : 49.3100013733, Lat : 49.2836887, Lng : -123.1147578, Q1 : 0.8750192523, Q2 : 0.0716718733311, Q3 : -0.134107127786, Q4 : 0.459586530924}
2019-04-14 16:27:36.41: SIM {TimeUS : 61835256, Roll : 0.09, Pitch : -17.51, Yaw : 55.42, Alt : 49.3100013733, Lat : 49.283691, Lng : -123.1147526, Q1 : 0.874919712543, Q2 : 0.0715482458472, Q3 : -0.134430408478, Q4 : 0.459700882435}
2019-04-14 16:27:36.51: SIM {TimeUS : 61935216, Roll : 0.07, Pitch : -17.54, Yaw : 55.44, Alt : 49.3199996948, Lat : 49.2836932, Lng : -123.1147474, Q1 : 0.874825239182, Q2 : 0.0715217888355, Q3 : -0.134708434343, Q4 : 0.459803313017}
2019-04-14 16:27:36.61: SIM {TimeUS : 62035176, Roll : 0.05, Pitch : -17.56, Yaw : 55.45, Alt : 49.3199996948, Lat : 49.2836955, Lng : -123.1147422, Q1 : 0.874770224094, Q2 : 0.0714892446995, Q3 : -0.134942755103, Q4 : 0.459844350815}
2019-04-14 16:27:36.71: SIM {TimeUS : 62135136, Roll : 0.05, Pitch : -17.58, Yaw : 55.44, Alt : 49.3199996948, Lat : 49.2836979, Lng : -123.114737, Q1 : 0.874761998653, Q2 : 0.0714988783002, Q3 : -0.135061711073, Q4 : 0.459823608398}
2019-04-14 16:27:36.81: SIM {TimeUS : 62235096, Roll : 0.05, Pitch : -17.59, Yaw : 55.43, Alt : 49.3199996948, Lat : 49.2837002, Lng : -123.1147317, Q1 : 0.874787688255, Q2 : 0.0715575516224, Q3 : -0.13516536355, Q4 : 0.459735095501}
2019-04-14 16:27:36.91: SIM {TimeUS : 62335056, Roll : 0.07, Pitch : -17.6, Yaw : 55.41, Alt : 49.3199996948, Lat : 49.2837026, Lng : -123.1147265, Q1 : 0.874839305878, Q2 : 0.0717088356614, Q3 : -0.135201960802, Q4 : 0.459602504969}
2019-04-14 16:27:37.01: SIM {TimeUS : 62435016, Roll : 0.1, Pitch : -17.62, Yaw : 55.39, Alt : 49.3199996948, Lat : 49.2837048, Lng : -123.1147213, Q1 : 0.874893426895, Q2 : 0.071987606585, Q3 : -0.135238587856, Q4 : 0.459445059299}
2019-04-14 16:27:37.11: SIM {TimeUS : 62534976, Roll : 0.13, Pitch : -17.65, Yaw : 55.36, Alt : 49.3199996948, Lat : 49.2837071, Lng : -123.114716, Q1 : 0.874953329563, Q2 : 0.0722980350256, Q3 : -0.13535580039, Q4 : 0.459247767925}
2019-04-14 16:27:37.21: SIM {TimeUS : 62634936, Roll : 0.14, Pitch : -17.69, Yaw : 55.33, Alt : 49.3199996948, Lat : 49.2837095, Lng : -123.1147107, Q1 : 0.875024914742, Q2 : 0.0724967569113, Q3 : -0.13563285768, Q4 : 0.458998292685}
2019-04-14 16:27:37.31: SIM {TimeUS : 62734896, Roll : 0.13, Pitch : -17.73, Yaw : 55.3, Alt : 49.3199996948, Lat : 49.2837119, Lng : -123.1147054, Q1 : 0.875101089478, Q2 : 0.0725963711739, Q3 : -0.135990768671, Q4 : 0.458731234074}
2019-04-14 16:27:37.41: SIM {TimeUS : 62834856, Roll : 0.12, Pitch : -17.77, Yaw : 55.27, Alt : 49.3199996948, Lat : 49.2837143, Lng : -123.1147001, Q1 : 0.875177800655, Q2 : 0.0726424083114, Q3 : -0.136358648539, Q4 : 0.458468407393}
2019-04-14 16:27:37.51: SIM {TimeUS : 62934816, Roll : 0.13, Pitch : -17.79, Yaw : 55.24, Alt : 49.3199996948, Lat : 49.2837166, Lng : -123.1146948, Q1 : 0.875251114368, Q2 : 0.0727803781629, Q3 : -0.136520147324, Q4 : 0.458258390427}
2019-04-14 16:27:37.61: SIM {TimeUS : 63034776, Roll : 0.16, Pitch : -17.8, Yaw : 55.22, Alt : 49.3199996948, Lat : 49.283719, Lng : -123.1146895, Q1 : 0.875332176685, Q2 : 0.0729387551546, Q3 : -0.136456727982, Q4 : 0.458097249269}
2019-04-14 16:27:37.71: SIM {TimeUS : 63134736, Roll : 0.18, Pitch : -17.78, Yaw : 55.2, Alt : 49.3199996948, Lat : 49.2837214, Lng : -123.1146842, Q1 : 0.875418305397, Q2 : 0.0730016157031, Q3 : -0.13625074923, Q4 : 0.457984030247}
2019-04-14 16:27:37.81: SIM {TimeUS : 63235529, Roll : 0.18, Pitch : -17.76, Yaw : 55.19, Alt : 49.3199996948, Lat : 49.2837238, Lng : -123.1146788, Q1 : 0.875490128994, Q2 : 0.0729199126363, Q3 : -0.136102378368, Q4 : 0.457903772593}
2019-04-14 16:27:37.91: SIM {TimeUS : 63335489, Roll : 0.17, Pitch : -17.74, Yaw : 55.18, Alt : 49.3199996948, Lat : 49.283726, Lng : -123.1146735, Q1 : 0.875558078289, Q2 : 0.0727418586612, Q3 : -0.135986924171, Q4 : 0.457836508751}
2019-04-14 16:27:38.01: SIM {TimeUS : 63435449, Roll : 0.16, Pitch : -17.72, Yaw : 55.17, Alt : 49.3199996948, Lat : 49.2837284, Lng : -123.1146681, Q1 : 0.875597298145, Q2 : 0.0726142525673, Q3 : -0.13592800498, Q4 : 0.457799315453}
2019-04-14 16:27:38.11: SIM {TimeUS : 63535409, Roll : 0.15, Pitch : -17.74, Yaw : 55.17, Alt : 49.3300018311, Lat : 49.2837308, Lng : -123.1146627, Q1 : 0.875600218773, Q2 : 0.0725707411766, Q3 : -0.136057585478, Q4 : 0.45776206255}
2019-04-14 16:27:38.21: SIM {TimeUS : 63635369, Roll : 0.14, Pitch : -17.76, Yaw : 55.17, Alt : 49.3300018311, Lat : 49.2837332, Lng : -123.1146574, Q1 : 0.875584423542, Q2 : 0.0726380646229, Q3 : -0.136236041784, Q4 : 0.457728534937}
2019-04-14 16:27:38.31: SIM {TimeUS : 63735329, Roll : 0.14, Pitch : -17.8, Yaw : 55.17, Alt : 49.3300018311, Lat : 49.2837357, Lng : -123.114652, Q1 : 0.875552177429, Q2 : 0.0727330222726, Q3 : -0.136600360274, Q4 : 0.457666486502}
2019-04-14 16:27:38.41: SIM {TimeUS : 63835289, Roll : 0.13, Pitch : -17.85, Yaw : 55.16, Alt : 49.3300018311, Lat : 49.2837381, Lng : -123.1146466, Q1 : 0.875510454178, Q2 : 0.0729070976377, Q3 : -0.137020930648, Q4 : 0.457592964172}
2019-04-14 16:27:38.51: SIM {TimeUS : 63935249, Roll : 0.14, Pitch : -17.89, Yaw : 55.15, Alt : 49.3300018311, Lat : 49.2837405, Lng : -123.1146412, Q1 : 0.87548905611, Q2 : 0.073106624186, Q3 : -0.137307062745, Q4 : 0.457516252995}
2019-04-14 16:27:38.61: SIM {TimeUS : 64035209, Roll : 0.14, Pitch : -17.92, Yaw : 55.14, Alt : 49.3300018311, Lat : 49.2837429, Lng : -123.1146357, Q1 : 0.875492155552, Q2 : 0.0732122957706, Q3 : -0.1375438869, Q4 : 0.45742225647}
2019-04-14 16:27:38.71: SIM {TimeUS : 64135169, Roll : 0.14, Pitch : -17.94, Yaw : 55.13, Alt : 49.3300018311, Lat : 49.2837453, Lng : -123.1146304, Q1 : 0.875517010689, Q2 : 0.0732587426901, Q3 : -0.137691617012, Q4 : 0.45732280612}
2019-04-14 16:27:38.81: SIM {TimeUS : 64235129, Roll : 0.16, Pitch : -17.93, Yaw : 55.12, Alt : 49.3300018311, Lat : 49.2837477, Lng : -123.114625, Q1 : 0.875561356544, Q2 : 0.0733683556318, Q3 : -0.137579202652, Q4 : 0.457254171371}
2019-04-14 16:27:38.91: SIM {TimeUS : 64335089, Roll : 0.18, Pitch : -17.94, Yaw : 55.11, Alt : 49.3300018311, Lat : 49.2837501, Lng : -123.1146195, Q1 : 0.87559223175, Q2 : 0.0735873505473, Q3 : -0.137543350458, Q4 : 0.457170665264}
2019-04-14 16:27:39.01: SIM {TimeUS : 64435049, Roll : 0.19, Pitch : -17.96, Yaw : 55.09, Alt : 49.3300018311, Lat : 49.2837525, Lng : -123.1146141, Q1 : 0.875625133514, Q2 : 0.073702596128, Q3 : -0.137648493052, Q4 : 0.457057386637}
2019-04-14 16:27:39.11: SIM {TimeUS : 64535009, Roll : 0.19, Pitch : -17.97, Yaw : 55.08, Alt : 49.3300018311, Lat : 49.2837549, Lng : -123.1146087, Q1 : 0.875672459602, Q2 : 0.0737285390496, Q3 : -0.137708216906, Q4 : 0.456944555044}
2019-04-14 16:27:39.21: SIM {TimeUS : 64634969, Roll : 0.19, Pitch : -17.96, Yaw : 55.06, Alt : 49.3300018311, Lat : 49.2837574, Lng : -123.1146032, Q1 : 0.87573158741, Q2 : 0.0736996978521, Q3 : -0.137698560953, Q4 : 0.456838786602}
2019-04-14 16:27:39.31: SIM {TimeUS : 64734929, Roll : 0.19, Pitch : -17.97, Yaw : 55.05, Alt : 49.3300018311, Lat : 49.2837598, Lng : -123.1145978, Q1 : 0.875787198544, Q2 : 0.0736582130194, Q3 : -0.137742102146, Q4 : 0.456725746393}
2019-04-14 16:27:39.41: SIM {TimeUS : 64834889, Roll : 0.17, Pitch : -17.99, Yaw : 55.04, Alt : 49.3300018311, Lat : 49.2837622, Lng : -123.1145923, Q1 : 0.875826597214, Q2 : 0.0735642760992, Q3 : -0.137996077538, Q4 : 0.456588596106}
2019-04-14 16:27:39.51: SIM {TimeUS : 64934849, Roll : 0.14, Pitch : -18.02, Yaw : 55.02, Alt : 49.3400001526, Lat : 49.2837646, Lng : -123.1145869, Q1 : 0.875851213932, Q2 : 0.0734723284841, Q3 : -0.138377219439, Q4 : 0.456440836191}
2019-04-14 16:27:39.61: SIM {TimeUS : 65034809, Roll : 0.12, Pitch : -18.03, Yaw : 55.01, Alt : 49.3400001526, Lat : 49.2837671, Lng : -123.1145814, Q1 : 0.875899136066, Q2 : 0.0733672827482, Q3 : -0.13848040998, Q4 : 0.456334471703}
2019-04-14 16:27:39.71: SIM {TimeUS : 65134769, Roll : 0.14, Pitch : -18.01, Yaw : 55.0, Alt : 49.3400001526, Lat : 49.2837695, Lng : -123.1145759, Q1 : 0.8759547472, Q2 : 0.0733853504062, Q3 : -0.138315185905, Q4 : 0.456274956465}
2019-04-14 16:27:39.81: SIM {TimeUS : 65235562, Roll : 0.16, Pitch : -18.0, Yaw : 54.99, Alt : 49.3400001526, Lat : 49.283772, Lng : -123.1145704, Q1 : 0.875999510288, Q2 : 0.0734865814447, Q3 : -0.138143777847, Q4 : 0.456224620342}
2019-04-14 16:27:39.91: SIM {TimeUS : 65335522, Roll : 0.17, Pitch : -18.0, Yaw : 54.98, Alt : 49.3400001526, Lat : 49.2837744, Lng : -123.1145649, Q1 : 0.876032471657, Q2 : 0.0735843256116, Q3 : -0.138134092093, Q4 : 0.456148415804}
2019-04-14 16:27:40.01: SIM {TimeUS : 65435482, Roll : 0.16, Pitch : -18.02, Yaw : 54.97, Alt : 49.3400001526, Lat : 49.2837769, Lng : -123.1145594, Q1 : 0.876066803932, Q2 : 0.0735388100147, Q3 : -0.138292387128, Q4 : 0.456041932106}
2019-04-14 16:27:40.11: SIM {TimeUS : 65535442, Roll : 0.13, Pitch : -18.04, Yaw : 54.96, Alt : 49.3400001526, Lat : 49.2837793, Lng : -123.1145539, Q1 : 0.87610155344, Q2 : 0.0733886957169, Q3 : -0.138553768396, Q4 : 0.455920010805}
2019-04-14 16:27:40.21: SIM {TimeUS : 65635402, Roll : 0.12, Pitch : -18.06, Yaw : 54.95, Alt : 49.3400001526, Lat : 49.2837818, Lng : -123.1145485, Q1 : 0.876127064228, Q2 : 0.0733498111367, Q3 : -0.138796538115, Q4 : 0.455803334713}
2019-04-14 16:27:40.31: SIM {TimeUS : 65735362, Roll : 0.12, Pitch : -18.08, Yaw : 54.93, Alt : 49.3400001526, Lat : 49.2837842, Lng : -123.114543, Q1 : 0.876143753529, Q2 : 0.0734621658921, Q3 : -0.138969779015, Q4 : 0.455700457096}
2019-04-14 16:27:40.41: SIM {TimeUS : 65835322, Roll : 0.13, Pitch : -18.1, Yaw : 54.92, Alt : 49.3400001526, Lat : 49.2837867, Lng : -123.1145375, Q1 : 0.876156270504, Q2 : 0.0736096426845, Q3 : -0.139103651047, Q4 : 0.455611735582}
2019-04-14 16:27:40.51: SIM {TimeUS : 65935282, Roll : 0.15, Pitch : -18.12, Yaw : 54.91, Alt : 49.3400001526, Lat : 49.2837891, Lng : -123.114532, Q1 : 0.876169145107, Q2 : 0.0738303810358, Q3 : -0.139113336802, Q4 : 0.455548286438}
2019-04-14 16:27:40.61: SIM {TimeUS : 66035242, Roll : 0.17, Pitch : -18.13, Yaw : 54.9, Alt : 49.3400001526, Lat : 49.2837916, Lng : -123.1145264, Q1 : 0.876182377338, Q2 : 0.0739960074425, Q3 : -0.139164328575, Q4 : 0.455480337143}
2019-04-14 16:27:40.71: SIM {TimeUS : 66135202, Roll : 0.18, Pitch : -18.15, Yaw : 54.89, Alt : 49.3400001526, Lat : 49.283794, Lng : -123.1145208, Q1 : 0.876194536686, Q2 : 0.0741448476911, Q3 : -0.139234215021, Q4 : 0.455411374569}
