2019-04-14 17:10:47.90: SIM {TimeUS : 40116447, Roll : 0.0, Pitch : 0.0, Yaw : 0.0, Alt : 30.1000003815, Lat : 49.28357, Lng : -123.11502, Q1 : 1.0, Q2 : 0.0, Q3 : 0.0, Q4 : 0.0}
2019-04-14 17:10:48.01: SIM {TimeUS : 40235566, Roll : 0.0, Pitch : 0.0, Yaw : 0.0, Alt : 30.1000003815, Lat : 49.28357, Lng : -123.11502, Q1 : 1.0, Q2 : 0.0, Q3 : 0.0, Q4 : 0.0}
2019-04-14 17:10:48.11: SIM {TimeUS : 40335526, Roll : 0.0, Pitch : 0.0, Yaw : 0.0, Alt : 30.1000003815, Lat : 49.28357, Lng : -123.11502, Q1 : 1.0, Q2 : 0.0, Q3 : 0.0, Q4 : 0.0}
2019-04-14 17:10:48.21: SIM {TimeUS : 40435486, Roll : 0.0, Pitch : 0.0, Yaw : 0.0, Alt : 30.1000003815, Lat : 49.28357, Lng : -123.11502, Q1 : 1.0, Q2 : 0.0, Q3 : 0.0, Q4 : 0.0}
2019-04-14 17:10:48.31: SIM {TimeUS : 40535446, Roll : 0.0, Pitch : 0.0, Yaw : 0.0, Alt : 30.1000003815, Lat : 49.28357, Lng : -123.11502, Q1 : 1.0, Q2 : 0.0, Q3 : 0.0, Q4 : 0.0}
2019-04-14 17:10:48.41: SIM {TimeUS : 40635406, Roll : 0.0, Pitch : 0.0, Yaw : 0.0, Alt : 30.1000003815, Lat : 49.28357, Lng : -123.11502, Q1 : 1.0, Q2 : 0.0, Q3 : 0.0, Q4 : 0.0}
2019-04-14 17:10:48.51: SIM {TimeUS : 40735366, Roll : 0.0, Pitch : 0.0, Yaw : 0.0, Alt : 30.1000003815, Lat : 49.28357, Lng : -123.11502, Q1 : 1.0, Q2 : 0.0, Q3 : 0.0, Q4 : 0.0}
2019-04-14 17:10:48.61: SIM {TimeUS : 40835326, Roll : 0.0, Pitch : 0.0, Yaw : 0.0, Alt : 30.1000003815, Lat : 49.28357, Lng : -123.11502, Q1 : 1.0, Q2 : 0.0, Q3 : 0.0, Q4 : 0.0}
2019-04-14 17:10:48.71: SIM {TimeUS : 40935286, Roll : 0.0, Pitch : 0.0, Yaw : 0.0, Alt : 30.1000003815, Lat : 49.28357, Lng : -123.11502, Q1 : 1.0, Q2 : 0.0, Q3 : 0.0, Q4 : 0.0}
2019-04-14 17:10:48.81: SIM {TimeUS : 41035246, Roll : 0.0, Pitch : 0.0, Yaw : 0.0, Alt : 30.1000003815, Lat : 49.28357, Lng : -123.11502, Q1 : 1.0, Q2 : 0.0, Q3 : 0.0, Q4 : 0.0}
2019-04-14 17:10:48.91: SIM {TimeUS : 41135206, Roll : 0.0, Pitch : 0.0, Yaw : 0.0, Alt : 30.1000003815, Lat : 49.28357, Lng : -123.11502, Q1 : 1.0, Q2 : 0.0, Q3 : 0.0, Q4 : 0.0}
2019-04-14 17:10:49.01: SIM {TimeUS : 41235166, Roll : 0.0, Pitch : 0.0, Yaw : 0.0, Alt : 30.1000003815, Lat : 49.28357, Lng : -123.11502, Q1 : 1.0, Q2 : 0.0, Q3 : 0.0, Q4 : 0.0}
2019-04-14 17:10:49.11: SIM {TimeUS : 41335126, Roll : 0.0, Pitch : 0.0, Yaw : 0.0, Alt : 30.1000003815, Lat : 49.28357, Lng : -123.11502, Q1 : 1.0, Q2 : 0.0, Q3 : 0.0, Q4 : 0.0}
2019-04-14 17:10:49.21: SIM {TimeUS : 41435086, Roll : 0.0, Pitch : 0.0, Yaw : 0.0, Alt : 30.1000003815, Lat : 49.28357, Lng : -123.11502, Q1 : 1.0, Q2 : 0.0, Q3 : 0.0, Q4 : 0.0}
2019-04-14 17:10:49.31: SIM {TimeUS : 41535046, Roll : 0.0, Pitch : 0.0, Yaw : 0.0, Alt : 30.1000003815, Lat : 49.28357, Lng : -123.11502, Q1 : 1.0, Q2 : 0.0, Q3 : 0.0, Q4 : 0.0}
2019-04-14 17:10:49.41: SIM {TimeUS : 41635006, Roll : 0.0, Pitch : 0.0, Yaw : 0.0, Alt : 30.1000003815, Lat : 49.28357, Lng : -123.11502, Q1 : 1.0, Q2 : 0.0, Q3 : 0.0, Q4 : 0.0}
2019-04-14 17:10:49.51: SIM {TimeUS : 41734966, Roll : 0.0, Pitch : 0.0, Yaw : 0.0, Alt : 30.1000003815, Lat : 49.28357, Lng : -123.11502, Q1 : 1.0, Q2 : 0.0, Q3 : 0.0, Q4 : 0.0}
2019-04-14 17:10:49.61: SIM {TimeUS : 41834926, Roll : 0.0, Pitch : 0.0, Yaw : 0.0, Alt : 30.1000003815, Lat : 49.28357, Lng : -123.11502, Q1 : 1.0, Q2 : 0.0, Q3 : 0.0, Q4 : 0.0}
2019-04-14 17:10:49.71: SIM {TimeUS : 41934886, Roll : 0.0, Pitch : 0.0, Yaw : 0.0, Alt : 30.1000003815, Lat : 49.28357, Lng : -123.11502, Q1 : 1.0, Q2 : 0.0, Q3 : 0.0, Q4 : 0.0}
2019-04-14 17:10:49.81: SIM {TimeUS : 42034846, Roll : 0.0, Pitch : 0.0, Yaw : 0.0, Alt : 30.1000003815, Lat : 49.28357, Lng : -123.11502, Q1 : 1.0, Q2 : 0.0, Q3 : 0.0, Q4 : 0.0}
2019-04-14 17:10:49.91: SIM {TimeUS : 42134806, Roll : 0.0, Pitch : 0.0, Yaw : 0.0, Alt : 30.1000003815, Lat : 49.28357, Lng : -123.11502, Q1 : 1.0, Q2 : 0.0, Q3 : 0.0, Q4 : 0.0}
2019-04-14 17:10:50.02: SIM {TimeUS : 42235599, Roll : 0.0, Pitch : 0.0, Yaw : 0.0, Alt : 30.1000003815, Lat : 49.28357, Lng : -123.11502, Q1 : 1.0, Q2 : 0.0, Q3 : 0.0, Q4 : 0.0}
2019-04-14 17:10:50.11: SIM {TimeUS : 42335559, Roll : 0.0, Pitch : 0.0, Yaw : 0.0, Alt : 30.1000003815, Lat : 49.28357, Lng : -123.11502, Q1 : 1.0, Q2 : 0.0, Q3 : 0.0, Q4 : 0.0}
2019-04-14 17:10:50.21: SIM {TimeUS : 42435519, Roll : 0.0, Pitch : 0.0, Yaw : 0.0, Alt : 30.1000003815, Lat : 49.28357, Lng : -123.11502, Q1 : 1.0, Q2 : 0.0, Q3 : 0.0, Q4 : 4.80255722343e-12}
2019-04-14 17:10:50.31: SIM {TimeUS : 42535479, Roll : 0.0, Pitch : 0.0, Yaw : 0.0, Alt : 30.1000003815, Lat : 49.28357, Lng : -123.11502, Q1 : 1.0, Q2 : 0.0, Q3 : 0.0, Q4 : 7.98153071413e-11}
2019-04-14 17:10:50.41: SIM {TimeUS : 42635439, Roll : 0.0, Pitch : 0.0, Yaw : 360.0, Alt : 30.1000003815, Lat : 49.28357, Lng : -123.11502, Q1 : 1.0, Q2 : 0.0, Q3 : 0.0, Q4 : -8.05828292982e-08}
2019-04-14 17:10:50.51: SIM {TimeUS : 42735399, Roll : 0.0, Pitch : 0.0, Yaw : 359.99, Alt : 30.1000003815, Lat : 49.28357, Lng : -123.11502, Q1 : 1.0, Q2 : 0.0, Q3 : 0.0, Q4 : -2.32440996228e-07}
2019-04-14 17:10:50.61: SIM {TimeUS : 42835359, Roll : 0.0, Pitch : 0.0, Yaw : 359.99, Alt : 30.1000003815, Lat : 49.28357, Lng : -123.11502, Q1 : 1.0, Q2 : 0.0, Q3 : 0.0, Q4 : -4.24099880547e-07}
2019-04-14 17:10:50.71: SIM {TimeUS : 42935319, Roll : 0.0, Pitch : 0.0, Yaw : 359.99, Alt : 30.1000003815, Lat : 49.28357, Lng : -123.11502, Q1 : 1.0, Q2 : 0.0, Q3 : 0.0, Q4 : -6.26995529274e-07}
2019-04-14 17:10:50.81: SIM {TimeUS : 43035279, Roll : 0.0, Pitch : 0.0, Yaw : 359.99, Alt : 30.1000003815, Lat : 49.28357, Lng : -123.11502, Q1 : 1.0, Q2 : 0.0, Q3 : 0.0, Q4 : -8.48229490202e-07}
2019-04-14 17:10:50.91: SIM {TimeUS : 43135239, Roll : 0.0, Pitch : 0.0, Yaw : 359.99, Alt : 30.1000003815, Lat : 49.28357, Lng : -123.11502, Q1 : 1.0, Q2 : 0.0, Q3 : 0.0, Q4 : -1.06543575384e-06}
2019-04-14 17:10:51.01: SIM {TimeUS : 43235199, Roll : 0.0, Pitch : 0.0, Yaw : 359.99, Alt : 30.1000003815, Lat : 49.28357, Lng : -123.11502, Q1 : 1.0, Q2 : 0.0, Q3 : 0.0, Q4 : -1.26634074604e-06}
2019-04-14 17:10:51.11: SIM {TimeUS : 43335159, Roll : 0.0, Pitch : 0.0, Yaw : 359.99, Alt : 30.1100006104, Lat : 49.28357, Lng : -123.11502, Q1 : 1.0, Q2 : 0.0, Q3 : 0.0, Q4 : -1.47450157328e-06}
2019-04-14 17:10:51.21: SIM {TimeUS : 43435119, Roll : 0.0, Pitch : 0.0, Yaw : 359.99, Alt : 30.1299991608, Lat : 49.28357, Lng : -123.11502, Q1 : 1.0, Q2 : 0.0, Q3 : 0.0, Q4 : -1.67812163454e-06}
2019-04-14 17:10:51.31: SIM {TimeUS : 43535079, Roll : 0.0, Pitch : 0.0, Yaw : 359.99, Alt : 30.1599998474, Lat : 49.28357, Lng : -123.11502, Q1 : 1.0, Q2 : 0.0, Q3 : 0.0, Q4 : -1.92529569176e-06}
2019-04-14 17:10:51.41: SIM {TimeUS : 43635039, Roll : 0.0, Pitch : 0.0, Yaw : 359.99, Alt : 30.1900005341, Lat : 49.28357, Lng : -123.11502, Q1 : 1.0, Q2 : 0.0, Q3 : 0.0, Q4 : -2.13563362195e-06}
2019-04-14 17:10:51.51: SIM {TimeUS : 43734999, Roll : -0.04, Pitch : -0.04, Yaw : 359.99, Alt : 30.2299995422, Lat : 49.28357, Lng : -123.11502, Q1 : 0.999999880791, Q2 : -0.00037592247827, Q3 : -0.000374252034817, Q4 : -3.40434871759e-06}
2019-04-14 17:10:51.61: SIM {TimeUS : 43834959, Roll : -0.31, Pitch : -0.27, Yaw : 359.99, Alt : 30.3099994659, Lat : 49.28357, Lng : -123.11502, Q1 : 0.999993383884, Q2 : -0.00276250392199, Q3 : -0.00237162108533, Q4 : -2.55494578596e-05}
2019-04-14 17:10:51.71: SIM {TimeUS : 43934919, Roll : -0.63, Pitch : -0.5, Yaw : 359.99, Alt : 30.4400005341, Lat : 49.28357, Lng : -123.11502, Q1 : 0.999974608421, Q2 : -0.00557496864349, Q3 : -0.00444460939616, Q4 : -7.7306998719e-05}
2019-04-14 17:10:51.81: SIM {TimeUS : 44034879, Roll : -0.83, Pitch : -0.65, Yaw : 359.98, Alt : 30.6000003815, Lat : 49.28357, Lng : -123.11502, Q1 : 0.999956905842, Q2 : -0.00731546292081, Q3 : -0.00571814924479, Q4 : -0.000151264874148}
2019-04-14 17:10:51.91: SIM {TimeUS : 44134839, Roll : -0.86, Pitch : -0.68, Yaw : 359.97, Alt : 30.7600002289, Lat : 49.28357, Lng : -123.11502, Q1 : 0.999953627586, Q2 : -0.00756205059588, Q3 : -0.00595634942874, Q4 : -0.000236635140027}
2019-04-14 17:10:52.01: SIM {TimeUS : 44234799, Roll : -0.75, Pitch : -0.6, Yaw : 359.96, Alt : 30.9200000763, Lat : 49.28357, Lng : -123.1150201, Q1 : 0.999964058399, Q2 : -0.00662388140336, Q3 : -0.00528437551111, Q4 : -0.000324445049046}
2019-04-14 17:10:52.12: SIM {TimeUS : 44335592, Roll : -0.55, Pitch : -0.45, Yaw : 359.95, Alt : 31.0699996948, Lat : 49.2835701, Lng : -123.1150202, Q1 : 0.999980092049, Q2 : -0.00485420553014, Q3 : -0.00400949688628, Q4 : -0.000405711762141}
2019-04-14 17:10:52.21: SIM {TimeUS : 44435552, Roll : -0.3, Pitch : -0.3, Yaw : 359.94, Alt : 31.2299995422, Lat : 49.2835701, Lng : -123.1150202, Q1 : 0.999992728233, Q2 : -0.00267331604846, Q3 : -0.00268648052588, Q4 : -0.000474293105071}
2019-04-14 17:10:52.31: SIM {TimeUS : 44535512, Roll : -0.09, Pitch : -0.16, Yaw : 359.93, Alt : 31.3899993896, Lat : 49.2835702, Lng : -123.1150203, Q1 : 0.999998509884, Q2 : -0.000835204904433, Q3 : -0.00141041411553, Q4 : -0.000527956523001}
2019-04-14 17:10:52.41: SIM {TimeUS : 44635472, Roll : 0.02, Pitch : -0.04, Yaw : 359.93, Alt : 31.5599994659, Lat : 49.2835702, Lng : -123.1150204, Q1 : 0.999999761581, Q2 : 0.000217734806938, Q3 : -0.000367287168046, Q4 : -0.000567280105315}
2019-04-14 17:10:52.51: SIM {TimeUS : 44735432, Roll : 0.07, Pitch : 0.02, Yaw : 359.93, Alt : 31.7399997711, Lat : 49.2835703, Lng : -123.1150205, Q1 : 0.999999642372, Q2 : 0.000622108578682, Q3 : 0.000227884651395, Q4 : -0.000587604183238}
2019-04-14 17:10:52.61: SIM {TimeUS : 44835392, Roll : 0.06, Pitch : 0.04, Yaw : 359.93, Alt : 31.9200000763, Lat : 49.2835703, Lng : -123.1150206, Q1 : 0.999999582767, Q2 : 0.000586068432312, Q3 : 0.000404757913202, Q4 : -0.000598296464887}
2019-04-14 17:10:52.71: SIM {TimeUS : 44935352, Roll : 0.05, Pitch : 0.04, Yaw : 359.93, Alt : 32.1100006104, Lat : 49.2835703, Lng : -123.1150206, Q1 : 0.999999642372, Q2 : 0.000512545171659, Q3 : 0.000396029878175, Q4 : -0.000596226775087}
2019-04-14 17:10:52.81: SIM {TimeUS : 45035312, Roll : 0.06, Pitch : 0.03, Yaw : 359.93, Alt : 32.2999992371, Lat : 49.2835703, Lng : -123.1150207, Q1 : 0.999999642372, Q2 : 0.000529270735569, Q3 : 0.000299366016407, Q4 : -0.00058540928876}
2019-04-14 17:10:52.91: SIM {TimeUS : 45135272, Roll : 0.07, Pitch : 0.02, Yaw : 359.93, Alt : 32.4900016785, Lat : 49.2835703, Lng : -123.1150207, Q1 : 0.999999582767, Q2 : 0.000679827353451, Q3 : 0.000257346982835, Q4 : -0.000578973966185}
2019-04-14 17:10:53.01: SIM {TimeUS : 45235232, Roll : 0.1, Pitch : 0.05, Yaw : 359.93, Alt : 32.6899986267, Lat : 49.2835703, Lng : -123.1150208, Q1 : 0.999999344349, Q2 : 0.000882300897501, Q3 : 0.000451088068075, Q4 : -0.000571812852286}
2019-04-14 17:10:53.11: SIM {TimeUS : 45335192, Roll : 0.12, Pitch : 0.1, Yaw : 359.93, Alt : 32.8899993896, Lat : 49.2835704, Lng : -123.1150208, Q1 : 0.999998807907, Q2 : 0.00111056270543, Q3 : 0.000925973465201, Q4 : -0.000568221788853}
2019-04-14 17:10:53.21: SIM {TimeUS : 45435152, Roll : 0.14, Pitch : 0.16, Yaw : 359.93, Alt : 33.0900001526, Lat : 49.2835704, Lng : -123.1150208, Q1 : 0.999998092651, Q2 : 0.00124441843946, Q3 : 0.00140523992013, Q4 : -0.000567498325836}
2019-04-14 17:10:53.31: SIM {TimeUS : 45535112, Roll : 0.16, Pitch : 0.2, Yaw : 359.93, Alt : 33.2900009155, Lat : 49.2835704, Lng : -123.1150209, Q1 : 0.999997258186, Q2 : 0.00143576576374, Q3 : 0.00175622093957, Q4 : -0.000570137461182}
2019-04-14 17:10:53.41: SIM {TimeUS : 45635072, Roll : 0.18, Pitch : 0.21, Yaw : 359.93, Alt : 33.4900016785, Lat : 49.2835704, Lng : -123.1150209, Q1 : 0.999996721745, Q2 : 0.00164230237715, Q3 : 0.00186623807531, Q4 : -0.000572881021071}
2019-04-14 17:10:53.51: SIM {TimeUS : 45735032, Roll : 0.2, Pitch : 0.21, Yaw : 359.93, Alt : 33.7000007629, Lat : 49.2835704, Lng : -123.1150209, Q1 : 0.999996542931, Q2 : 0.0017758080503, Q3 : 0.00186254142318, Q4 : -0.000569280353375}
2019-04-14 17:10:53.61: SIM {TimeUS : 45834992, Roll : 0.19, Pitch : 0.2, Yaw : 359.93, Alt : 33.9099998474, Lat : 49.2835706, Lng : -123.1150209, Q1 : 0.999996840954, Q2 : 0.00166420254391, Q3 : 0.00177762529347, Q4 : -0.000572780787479}
2019-04-14 17:10:53.71: SIM {TimeUS : 45934952, Roll : 0.16, Pitch : 0.16, Yaw : 359.93, Alt : 34.1199989319, Lat : 49.2835706, Lng : -123.1150209, Q1 : 0.999997794628, Q2 : 0.00145506800618, Q3 : 0.00141500530299, Q4 : -0.000576154096052}
2019-04-14 17:10:53.81: SIM {TimeUS : 46034912, Roll : 0.13, Pitch : 0.09, Yaw : 359.93, Alt : 34.3300018311, Lat : 49.2835706, Lng : -123.1150209, Q1 : 0.999998748302, Q2 : 0.00117031100672, Q3 : 0.000869243347552, Q4 : -0.000568425632082}
2019-04-14 17:10:53.91: SIM {TimeUS : 46134872, Roll : 0.09, Pitch : 0.05, Yaw : 359.93, Alt : 34.5400009155, Lat : 49.2835706, Lng : -123.1150209, Q1 : 0.999999344349, Q2 : 0.000871501804795, Q3 : 0.000470150524052, Q4 : -0.000569367606658}
2019-04-14 17:10:54.01: SIM {TimeUS : 46234832, Roll : 0.07, Pitch : 0.03, Yaw : 359.93, Alt : 34.7599983215, Lat : 49.2835706, Lng : -123.1150209, Q1 : 0.999999582767, Q2 : 0.000625761982519, Q3 : 0.000296375859762, Q4 : -0.000584274064749}
2019-04-14 17:10:54.11: SIM {TimeUS : 46334792, Roll : 0.06, Pitch : 0.04, Yaw : 359.92, Alt : 34.9700012207, Lat : 49.2835706, Lng : -123.1150208, Q1 : 0.999999582767, Q2 : 0.000554805970751, Q3 : 0.000384702521842, Q4 : -0.000611724506598}
2019-04-14 17:10:54.22: SIM {TimeUS : 46435585, Roll : 0.06, Pitch : 0.05, Yaw : 359.92, Alt : 35.1899986267, Lat : 49.2835706, Lng : -123.1150208, Q1 : 0.999999523163, Q2 : 0.000592251832131, Q3 : 0.00044121229439, Q4 : -0.000644236279186}
2019-04-14 17:10:54.31: SIM {TimeUS : 46535545, Roll : 0.06, Pitch : 0.05, Yaw : 359.92, Alt : 35.4099998474, Lat : 49.2835706, Lng : -123.1150208, Q1 : 0.999999523163, Q2 : 0.000563279201742, Q3 : 0.000512801343575, Q4 : -0.000677537813317}
2019-04-14 17:10:54.41: SIM {TimeUS : 46635505, Roll : 0.05, Pitch : 0.07, Yaw : 359.91, Alt : 35.6199989319, Lat : 49.2835706, Lng : -123.1150208, Q1 : 0.999999463558, Q2 : 0.000454898050521, Q3 : 0.000626807450317, Q4 : -0.000714818306733}
2019-04-14 17:10:54.51: SIM {TimeUS : 46735465, Roll : 0.03, Pitch : 0.08, Yaw : 359.91, Alt : 35.8400001526, Lat : 49.2835704, Lng : -123.1150208, Q1 : 0.999999403954, Q2 : 0.000305899768136, Q3 : 0.000736344489269, Q4 : -0.000749250408262}
2019-04-14 17:10:54.61: SIM {TimeUS : 46835425, Roll : 0.01, Pitch : 0.07, Yaw : 359.91, Alt : 36.0600013733, Lat : 49.2835704, Lng : -123.1150208, Q1 : 0.999999523163, Q2 : 0.000158565744641, Q3 : 0.000623584201094, Q4 : -0.000766193727031}
2019-04-14 17:10:54.71: SIM {TimeUS : 46935385, Roll : 0.0, Pitch : 0.05, Yaw : 359.91, Alt : 36.2900009155, Lat : 49.2835704, Lng : -123.1150207, Q1 : 0.999999582767, Q2 : 2.63633610302e-05, Q3 : 0.000455404282548, Q4 : -0.000781272305176}
2019-04-14 17:10:54.81: SIM {TimeUS : 47035345, Roll : -0.01, Pitch : 0.03, Yaw : 359.9, Alt : 36.5099983215, Lat : 49.2835704, Lng : -123.1150207, Q1 : 0.999999582767, Q2 : -0.000118848613056, Q3 : 0.000303016160615, Q4 : -0.000802360475063}
2019-04-14 17:10:54.91: SIM {TimeUS : 47135305, Roll : -0.02, Pitch : 0.02, Yaw : 359.9, Alt : 36.7299995422, Lat : 49.2835704, Lng : -123.1150207, Q1 : 0.999999582767, Q2 : -0.000225823692745, Q3 : 0.00024082728487, Q4 : -0.000830250850413}
2019-04-14 17:10:55.01: SIM {TimeUS : 47235265, Roll : -0.02, Pitch : 0.01, Yaw : 359.9, Alt : 36.9500007629, Lat : 49.2835704, Lng : -123.1150207, Q1 : 0.999999582767, Q2 : -0.000175252382178, Q3 : 0.000145562022226, Q4 : -0.000862402899656}
2019-04-14 17:10:55.11: SIM {TimeUS : 47335225, Roll : -0.02, Pitch : 0.0, Yaw : 359.89, Alt : 37.1800003052, Lat : 49.2835704, Lng : -123.1150207, Q1 : 0.999999582767, Q2 : -0.00020717192092, Q3 : -3.64949919458e-05, Q4 : -0.000891518429853}
2019-04-14 17:10:55.21: SIM {TimeUS : 47435185, Roll : -0.04, Pitch : -0.03, Yaw : 359.89, Alt : 37.4000015259, Lat : 49.2835704, Lng : -123.1150207, Q1 : 0.999999463558, Q2 : -0.000366985972505, Q3 : -0.000333760253852, Q4 : -0.00091650855029}
2019-04-14 17:10:55.31: SIM {TimeUS : 47535145, Roll : -0.07, Pitch : -0.06, Yaw : 359.89, Alt : 37.6300010681, Lat : 49.2835704, Lng : -123.1150207, Q1 : 0.999999165535, Q2 : -0.000654798932374, Q3 : -0.000590494310018, Q4 : -0.000941753445659}
2019-04-14 17:10:55.41: SIM {TimeUS : 47635105, Roll : -0.1, Pitch : -0.08, Yaw : 359.88, Alt : 37.8499984741, Lat : 49.2835704, Lng : -123.1150206, Q1 : 0.999998807907, Q2 : -0.000947196385823, Q3 : -0.000720597046893, Q4 : -0.00096284574829}
2019-04-14 17:10:55.51: SIM {TimeUS : 47735065, Roll : -0.12, Pitch : -0.09, Yaw : 359.88, Alt : 38.0800018311, Lat : 49.2835704, Lng : -123.1150206, Q1 : 0.999998569489, Q2 : -0.00112407619599, Q3 : -0.000791313999798, Q4 : -0.000984441488981}
2019-04-14 17:10:55.61: SIM {TimeUS : 47835025, Roll : -0.13, Pitch : -0.08, Yaw : 359.88, Alt : 38.3100013733, Lat : 49.2835704, Lng : -123.1150206, Q1 : 0.999998509884, Q2 : -0.00116388022434, Q3 : -0.000759790942539, Q4 : -0.00100647273939}
2019-04-14 17:10:55.71: SIM {TimeUS : 47934985, Roll : -0.11, Pitch : -0.06, Yaw : 359.88, Alt : 38.5400009155, Lat : 49.2835704, Lng : -123.1150206, Q1 : 0.999998807907, Q2 : -0.00101936538704, Q3 : -0.000563657842577, Q4 : -0.00102613819763}
2019-04-14 17:10:55.81: SIM {TimeUS : 48034945, Roll : -0.08, Pitch : -0.05, Yaw : 359.88, Alt : 38.7599983215, Lat : 49.2835704, Lng : -123.1150206, Q1 : 0.999999046326, Q2 : -0.00076999043813, Q3 : -0.00050264026504, Q4 : -0.00104735651985}
2019-04-14 17:10:55.91: SIM {TimeUS : 48134905, Roll : -0.07, Pitch : -0.06, Yaw : 359.87, Alt : 38.9900016785, Lat : 49.2835704, Lng : -123.1150206, Q1 : 0.99999910593, Q2 : -0.000617495388724, Q3 : -0.000524002127349, Q4 : -0.00107439677231}
2019-04-14 17:10:56.01: SIM {TimeUS : 48234865, Roll : -0.05, Pitch : -0.04, Yaw : 359.87, Alt : 39.2200012207, Lat : 49.2835704, Lng : -123.1150206, Q1 : 0.99999922514, Q2 : -0.000512644008268, Q3 : -0.000366265070625, Q4 : -0.00108999980148}
2019-04-14 17:10:56.11: SIM {TimeUS : 48334825, Roll : -0.07, Pitch : -0.01, Yaw : 359.87, Alt : 39.4500007629, Lat : 49.2835704, Lng : -123.1150206, Q1 : 0.99999922514, Q2 : -0.000611090683378, Q3 : -0.00010613991617, Q4 : -0.00109642464668}
2019-04-14 17:10:56.21: SIM {TimeUS : 48434785, Roll : -0.07, Pitch : 0.01, Yaw : 359.87, Alt : 39.6800003052, Lat : 49.2835704, Lng : -123.1150206, Q1 : 0.99999922514, Q2 : -0.000615608296357, Q3 : 0.000121611905342, Q4 : -0.00110195658635}
2019-04-14 17:10:56.32: SIM {TimeUS : 48535578, Roll : -0.05, Pitch : 0.04, Yaw : 359.87, Alt : 39.9199981689, Lat : 49.2835704, Lng : -123.1150206, Q1 : 0.999999165535, Q2 : -0.000453304353869, Q3 : 0.000427838473115, Q4 : -0.00111421698239}
2019-04-14 17:10:56.41: SIM {TimeUS : 48635538, Roll : -0.02, Pitch : 0.05, Yaw : 359.87, Alt : 40.1500015259, Lat : 49.2835704, Lng : -123.1150207, Q1 : 0.99999922514, Q2 : -0.000239975823206, Q3 : 0.000495667743962, Q4 : -0.00112426350825}
2019-04-14 17:10:56.51: SIM {TimeUS : 48735498, Roll : 0.0, Pitch : 0.05, Yaw : 359.87, Alt : 40.3800010681, Lat : 49.2835704, Lng : -123.1150207, Q1 : 0.99999922514, Q2 : 1.31229844555e-05, Q3 : 0.000474722735817, Q4 : -0.00112781045027}
2019-04-14 17:10:56.61: SIM {TimeUS : 48835458, Roll : 0.03, Pitch : 0.06, Yaw : 359.87, Alt : 40.6100006104, Lat : 49.2835704, Lng : -123.1150207, Q1 : 0.999999165535, Q2 : 0.000320385472151, Q3 : 0.000564191141166, Q4 : -0.00113195553422}
2019-04-14 17:10:56.71: SIM {TimeUS : 48935418, Roll : 0.08, Pitch : 0.08, Yaw : 359.86, Alt : 40.8400001526, Lat : 49.2835704, Lng : -123.1150207, Q1 : 0.999998748302, Q2 : 0.000716713373549, Q3 : 0.000782708812039, Q4 : -0.00115170225035}
2019-04-14 17:10:56.81: SIM {TimeUS : 49035378, Roll : 0.1, Pitch : 0.11, Yaw : 359.86, Alt : 41.0800018311, Lat : 49.2835704, Lng : -123.1150207, Q1 : 0.99999833107, Q2 : 0.000958290125709, Q3 : 0.00103553885128, Q4 : -0.0011807049159}
2019-04-14 17:10:56.91: SIM {TimeUS : 49135338, Roll : 0.09, Pitch : 0.14, Yaw : 359.86, Alt : 41.3100013733, Lat : 49.2835704, Lng : -123.1150207, Q1 : 0.999998152256, Q2 : 0.000834286678582, Q3 : 0.00124378618784, Q4 : -0.00119840551633}
2019-04-14 17:10:57.01: SIM {TimeUS : 49235298, Roll : 0.04, Pitch : 0.15, Yaw : 359.86, Alt : 41.5400009155, Lat : 49.2835706, Lng : -123.1150207, Q1 : 0.999998271465, Q2 : 0.000360294739949, Q3 : 0.00136098882649, Q4 : -0.00121554802172}
2019-04-14 17:10:57.11: SIM {TimeUS : 49335258, Roll : 0.0, Pitch : 0.15, Yaw : 359.85, Alt : 41.7799987793, Lat : 49.2835706, Lng : -123.1150207, Q1 : 0.999998271465, Q2 : -7.16837166692e-05, Q3 : 0.00137578509748, Q4 : -0.00123890023679}
2019-04-14 17:10:57.21: SIM {TimeUS : 49435218, Roll : -0.02, Pitch : 0.12, Yaw : 359.85, Alt : 42.0099983215, Lat : 49.2835706, Lng : -123.1150207, Q1 : 0.999998569489, Q2 : -0.00023287498334, Q3 : 0.00108285434544, Q4 : -0.00126448553056}
2019-04-14 17:10:57.31: SIM {TimeUS : 49535178, Roll : -0.02, Pitch : 0.07, Yaw : 359.85, Alt : 42.2400016785, Lat : 49.2835706, Lng : -123.1150207, Q1 : 0.999998927116, Q2 : -0.000244543713052, Q3 : 0.000681493780576, Q4 : -0.00129303405993}
2019-04-14 17:10:57.41: SIM {TimeUS : 49635138, Roll : -0.01, Pitch : 0.06, Yaw : 359.84, Alt : 42.4799995422, Lat : 49.2835704, Lng : -123.1150207, Q1 : 0.999998927116, Q2 : -0.000126492785057, Q3 : 0.000605507520959, Q4 : -0.00132905365899}
2019-04-14 17:10:57.51: SIM {TimeUS : 49735098, Roll : 0.02, Pitch : 0.08, Yaw : 359.84, Alt : 42.7099990845, Lat : 49.2835704, Lng : -123.1150207, Q1 : 0.999998748302, Q2 : 0.000191885905224, Q3 : 0.000768045603763, Q4 : -0.00137171626557}
2019-04-14 17:10:57.61: SIM {TimeUS : 49835058, Roll : 0.07, Pitch : 0.1, Yaw : 359.83, Alt : 42.9500007629, Lat : 49.2835704, Lng : -123.1150207, Q1 : 0.99999833107, Q2 : 0.00066953204805, Q3 : 0.000941305130254, Q4 : -0.00140873726923}
2019-04-14 17:10:57.71: SIM {TimeUS : 49935018, Roll : 0.11, Pitch : 0.1, Yaw : 359.83, Alt : 43.1800003052, Lat : 49.2835704, Lng : -123.1150207, Q1 : 0.999997973442, Q2 : 0.00104668433778, Q3 : 0.000916221702937, Q4 : -0.00145286077168}
2019-04-14 17:10:57.81: SIM {TimeUS : 50034978, Roll : 0.12, Pitch : 0.09, Yaw : 359.82, Alt : 43.4199981689, Lat : 49.2835704, Lng : -123.1150207, Q1 : 0.999997973442, Q2 : 0.00106986972969, Q3 : 0.000801951391622, Q4 : -0.00149376224726}
2019-04-14 17:10:57.91: SIM {TimeUS : 50134938, Roll : 0.08, Pitch : 0.07, Yaw : 359.82, Alt : 43.6500015259, Lat : 49.2835704, Lng : -123.1150207, Q1 : 0.999998390675, Q2 : 0.000702137185726, Q3 : 0.000676857249346, Q4 : -0.00150878203567}
2019-04-14 17:10:58.01: SIM {TimeUS : 50234898, Roll : 0.02, Pitch : 0.06, Yaw : 359.82, Alt : 43.8899993896, Lat : 49.2835704, Lng : -123.1150207, Q1 : 0.999998688698, Q2 : 0.000195596687263, Q3 : 0.000561388442293, Q4 : -0.00151657138485}
2019-04-14 17:10:58.11: SIM {TimeUS : 50334858, Roll : -0.01, Pitch : 0.06, Yaw : 359.82, Alt : 44.1199989319, Lat : 49.2835704, Lng : -123.1150207, Q1 : 0.999998688698, Q2 : -0.000166217927472, Q3 : 0.000549957854673, Q4 : -0.00152617297135}
2019-04-14 17:10:58.21: SIM {TimeUS : 50434818, Roll : -0.03, Pitch : 0.05, Yaw : 359.82, Alt : 44.3600006104, Lat : 49.2835704, Lng : -123.1150206, Q1 : 0.999998629093, Q2 : -0.000345187843777, Q3 : 0.000459390052129, Q4 : -0.00153562612832}
2019-04-14 17:10:58.31: SIM {TimeUS : 50534778, Roll : -0.03, Pitch : 0.02, Yaw : 359.82, Alt : 44.5999984741, Lat : 49.2835704, Lng : -123.1150206, Q1 : 0.999998688698, Q2 : -0.000317975005601, Q3 : 0.000252353551332, Q4 : -0.00155261275358}
2019-04-14 17:10:58.41: SIM {TimeUS : 50635571, Roll : -0.04, Pitch : 0.01, Yaw : 359.81, Alt : 44.8300018311, Lat : 49.2835704, Lng : -123.1150206, Q1 : 0.999998688698, Q2 : -0.000372512178728, Q3 : 0.000103053207567, Q4 : -0.00158883933909}
2019-04-14 17:10:58.51: SIM {TimeUS : 50735531, Roll : -0.03, Pitch : 0.0, Yaw : 359.81, Alt : 45.0699996948, Lat : 49.2835704, Lng : -123.1150206, Q1 : 0.999998629093, Q2 : -0.000334705837304, Q3 : -1.36837616083e-05, Q4 : -0.00162942323368}
2019-04-14 17:10:58.61: SIM {TimeUS : 50835491, Roll : -0.02, Pitch : 0.0, Yaw : 359.8, Alt : 45.3100013733, Lat : 49.2835704, Lng : -123.1150206, Q1 : 0.999998569489, Q2 : -0.000178322923603, Q3 : -3.74653063773e-05, Q4 : -0.00167068734299}
2019-04-14 17:10:58.71: SIM {TimeUS : 50935451, Roll : -0.01, Pitch : 0.0, Yaw : 359.8, Alt : 45.5400009155, Lat : 49.2835704, Lng : -123.1150206, Q1 : 0.999998509884, Q2 : -0.000140815915074, Q3 : -1.10441283141e-06, Q4 : -0.00171088264324}
2019-04-14 17:10:58.81: SIM {TimeUS : 51035411, Roll : -0.02, Pitch : 0.0, Yaw : 359.79, Alt : 45.7700004578, Lat : 49.2835704, Lng : -123.1150206, Q1 : 0.999998450279, Q2 : -0.000178156900802, Q3 : -2.36670439335e-05, Q4 : -0.0017522496637}
2019-04-14 17:10:58.91: SIM {TimeUS : 51135371, Roll : -0.02, Pitch : -0.01, Yaw : 359.79, Alt : 46.0099983215, Lat : 49.2835703, Lng : -123.1150206, Q1 : 0.999998390675, Q2 : -0.000213219434954, Q3 : -0.000169889171957, Q4 : -0.00179017765913}
2019-04-14 17:10:59.01: SIM {TimeUS : 51235331, Roll : -0.02, Pitch : -0.02, Yaw : 359.79, Alt : 46.2299995422, Lat : 49.2835703, Lng : -123.1150206, Q1 : 0.999998271465, Q2 : -0.000209127538255, Q3 : -0.000248092663242, Q4 : -0.00182280584704}
2019-04-14 17:10:59.11: SIM {TimeUS : 51335291, Roll : -0.02, Pitch : -0.02, Yaw : 359.78, Alt : 46.4599990845, Lat : 49.2835703, Lng : -123.1150206, Q1 : 0.999998211861, Q2 : -0.000177179405, Q3 : -0.000258423271589, Q4 : -0.00185178068932}
2019-04-14 17:10:59.21: SIM {TimeUS : 51435251, Roll : -0.02, Pitch : -0.02, Yaw : 359.78, Alt : 46.6800003052, Lat : 49.2835703, Lng : -123.1150205, Q1 : 0.999998152256, Q2 : -0.000257985753706, Q3 : -0.000185334094567, Q4 : -0.00187338364776}
2019-04-14 17:10:59.31: SIM {TimeUS : 51535211, Roll : -0.05, Pitch : 0.0, Yaw : 359.78, Alt : 46.8899993896, Lat : 49.2835703, Lng : -123.1150205, Q1 : 0.999998092651, Q2 : -0.000470482511446, Q3 : -8.03526636446e-05, Q4 : -0.00188982335385}
2019-04-14 17:10:59.41: SIM {TimeUS : 51635171, Roll : -0.08, Pitch : 0.0, Yaw : 359.78, Alt : 47.0999984741, Lat : 49.2835703, Lng : -123.1150205, Q1 : 0.999997854233, Q2 : -0.000769817328546, Q3 : -4.37339549535e-05, Q4 : -0.00190552161075}
2019-04-14 17:10:59.51: SIM {TimeUS : 51735131, Roll : -0.11, Pitch : 0.0, Yaw : 359.78, Alt : 47.2999992371, Lat : 49.2835703, Lng : -123.1150205, Q1 : 0.999997675419, Q2 : -0.000969007087406, Q3 : -4.47985912615e-05, Q4 : -0.0019199710805}
2019-04-14 17:10:59.61: SIM {TimeUS : 51835091, Roll : -0.11, Pitch : 0.0, Yaw : 359.77, Alt : 47.4900016785, Lat : 49.2835703, Lng : -123.1150205, Q1 : 0.999997615814, Q2 : -0.00101230246946, Q3 : 1.09574366434e-05, Q4 : -0.00193460495211}
2019-04-14 17:10:59.71: SIM {TimeUS : 51935051, Roll : -0.12, Pitch : 0.0, Yaw : 359.77, Alt : 47.6699981689, Lat : 49.2835703, Lng : -123.1150205, Q1 : 0.999997496605, Q2 : -0.00111013022251, Q3 : 5.08894845552e-05, Q4 : -0.00195259787142}
2019-04-14 17:10:59.81: SIM {TimeUS : 52035011, Roll : -0.14, Pitch : 0.0, Yaw : 359.77, Alt : 47.8400001526, Lat : 49.2835703, Lng : -123.1150205, Q1 : 0.999997198582, Q2 : -0.00129342952278, Q3 : -3.77151627617e-05, Q4 : -0.00197087367997}
2019-04-14 17:10:59.91: SIM {TimeUS : 52134971, Roll : -0.15, Pitch : -0.01, Yaw : 359.77, Alt : 48.0, Lat : 49.2835703, Lng : -123.1150205, Q1 : 0.999997138977, Q2 : -0.00133984338026, Q3 : -0.00011467825243, Q4 : -0.00199071015231}
2019-04-14 17:11:00.01: SIM {TimeUS : 52234931, Roll : -0.14, Pitch : -0.02, Yaw : 359.76, Alt : 48.1500015259, Lat : 49.2835703, Lng : -123.1150205, Q1 : 0.999997138977, Q2 : -0.00127138465177, Q3 : -0.00018868643383, Q4 : -0.00201117456891}
2019-04-14 17:11:00.11: SIM {TimeUS : 52334891, Roll : -0.11, Pitch : -0.03, Yaw : 359.76, Alt : 48.2900009155, Lat : 49.2835703, Lng : -123.1150205, Q1 : 0.999997317791, Q2 : -0.00103438203223, Q3 : -0.000322364270687, Q4 : -0.00203618966043}
2019-04-14 17:11:00.21: SIM {TimeUS : 52434851, Roll : -0.07, Pitch : -0.05, Yaw : 359.76, Alt : 48.4099998474, Lat : 49.2835703, Lng : -123.1150205, Q1 : 0.99999755621, Q2 : -0.000658683944494, Q3 : -0.0004570253368, Q4 : -0.0020702611655}
2019-04-14 17:11:00.31: SIM {TimeUS : 52534811, Roll : -0.04, Pitch : -0.06, Yaw : 359.75, Alt : 48.5200004578, Lat : 49.2835703, Lng : -123.1150206, Q1 : 0.99999755621, Q2 : -0.00041610506014, Q3 : -0.000584267196245, Q4 : -0.00210645981133}
2019-04-14 17:11:00.42: SIM {TimeUS : 52635604, Roll : -0.03, Pitch : -0.07, Yaw : 359.75, Alt : 48.6199989319, Lat : 49.2835703, Lng : -123.1150206, Q1 : 0.999997437, Q2 : -0.000336822820827, Q3 : -0.000690264045261, Q4 : -0.00213666912168}
2019-04-14 17:11:00.51: SIM {TimeUS : 52735564, Roll : -0.01, Pitch : -0.07, Yaw : 359.75, Alt : 48.7099990845, Lat : 49.2835703, Lng : -123.1150206, Q1 : 0.999997437, Q2 : -0.000112882677058, Q3 : -0.000652630638797, Q4 : -0.0021642902866}
2019-04-14 17:11:00.61: SIM {TimeUS : 52835524, Roll : 0.01, Pitch : -0.05, Yaw : 359.74, Alt : 48.7900009155, Lat : 49.2835703, Lng : -123.1150206, Q1 : 0.999997437, Q2 : 0.000148812076077, Q3 : -0.00052037514979, Q4 : -0.00219471473247}
2019-04-14 17:11:00.71: SIM {TimeUS : 52935484, Roll : 0.05, Pitch : -0.06, Yaw : 359.74, Alt : 48.8499984741, Lat : 49.2835703, Lng : -123.1150206, Q1 : 0.999997198582, Q2 : 0.000516054977197, Q3 : -0.000562607485335, Q4 : -0.00222990312614}
2019-04-14 17:11:00.81: SIM {TimeUS : 53035444, Roll : 0.17, Pitch : -0.19, Yaw : 359.73, Alt : 48.9099998474, Lat : 49.2835703, Lng : -123.1150206, Q1 : 0.999994814396, Q2 : 0.00155520450789, Q3 : -0.00166754925158, Q4 : -0.00226817163639}
2019-04-14 17:11:00.91: SIM {TimeUS : 53135404, Roll : 0.44, Pitch : -0.54, Yaw : 359.73, Alt : 48.9599990845, Lat : 49.2835703, Lng : -123.1150206, Q1 : 0.999978661537, Q2 : 0.0038440534845, Q3 : -0.00475740712136, Q4 : -0.00230241194367}
2019-04-14 17:11:01.01: SIM {TimeUS : 53235364, Roll : 0.84, Pitch : -1.14, Yaw : 359.72, Alt : 49.0, Lat : 49.2835704, Lng : -123.1150206, Q1 : 0.999920189381, Q2 : 0.0073428931646, Q3 : -0.0100128222257, Q4 : -0.00232749478891}
2019-04-14 17:11:01.11: SIM {TimeUS : 53335324, Roll : 1.35, Pitch : -1.91, Yaw : 359.71, Alt : 49.0400009155, Lat : 49.2835704, Lng : -123.1150206, Q1 : 0.99978774786, Q2 : 0.0117399245501, Q3 : -0.0167701244354, Q4 : -0.00232970458455}
2019-04-14 17:11:01.21: SIM {TimeUS : 53435284, Roll : 1.92, Pitch : -2.76, Yaw : 359.69, Alt : 49.0699996948, Lat : 49.2835704, Lng : -123.1150206, Q1 : 0.999564051628, Q2 : 0.0167578868568, Q3 : -0.0242013465613, Q4 : -0.00228095287457}
2019-04-14 17:11:01.31: SIM {TimeUS : 53535244, Roll : 2.48, Pitch : -3.58, Yaw : 359.67, Alt : 49.0900001526, Lat : 49.2835706, Lng : -123.1150205, Q1 : 0.99927508831, Q2 : 0.0215659420937, Q3 : -0.0312970541418, Q4 : -0.00216741813347}
2019-04-14 17:11:01.41: SIM {TimeUS : 53635204, Roll : 2.94, Pitch : -4.22, Yaw : 359.66, Alt : 49.1199989319, Lat : 49.2835708, Lng : -123.1150203, Q1 : 0.99898904562, Q2 : 0.0255317743868, Q3 : -0.0369473025203, Q4 : -0.00198276969604}
2019-04-14 17:11:01.51: SIM {TimeUS : 53735164, Roll : 3.29, Pitch : -4.68, Yaw : 359.66, Alt : 49.1399993896, Lat : 49.2835709, Lng : -123.1150201, Q1 : 0.998748838902, Q2 : 0.028622020036, Q3 : -0.0409693829715, Q4 : -0.00173586048186}
2019-04-14 17:11:01.61: SIM {TimeUS : 53835124, Roll : 3.56, Pitch : -5.03, Yaw : 359.67, Alt : 49.1500015259, Lat : 49.2835712, Lng : -123.11502, Q1 : 0.998552024364, Q2 : 0.0309686735272, Q3 : -0.0439622364938, Q4 : -0.00145510560833}
2019-04-14 17:11:01.71: SIM {TimeUS : 53935084, Roll : 3.78, Pitch : -5.34, Yaw : 359.68, Alt : 49.1699981689, Lat : 49.2835715, Lng : -123.1150197, Q1 : 0.998368382454, Q2 : 0.0328709930182, Q3 : -0.0466770716012, Q4 : -0.00116828002501}
2019-04-14 17:11:01.81: SIM {TimeUS : 54035044, Roll : 3.97, Pitch : -5.65, Yaw : 359.7, Alt : 49.1800003052, Lat : 49.2835719, Lng : -123.1150193, Q1 : 0.998183488846, Q2 : 0.0345123521984, Q3 : -0.0493752881885, Q4 : -0.000883475295268}
2019-04-14 17:11:01.91: SIM {TimeUS : 54135004, Roll : 4.16, Pitch : -5.99, Yaw : 359.7, Alt : 49.1899986267, Lat : 49.2835722, Lng : -123.1150189, Q1 : 0.997973263264, Q2 : 0.0361478887498, Q3 : -0.0523671507835, Q4 : -0.00062550540315}
2019-04-14 17:11:02.01: SIM {TimeUS : 54234964, Roll : 4.36, Pitch : -6.34, Yaw : 359.71, Alt : 49.2000007629, Lat : 49.2835727, Lng : -123.1150183, Q1 : 0.997747063637, Q2 : 0.0379032827914, Q3 : -0.0553539358079, Q4 : -0.000372901151422}
2019-04-14 17:11:02.11: SIM {TimeUS : 54334924, Roll : 4.55, Pitch : -6.61, Yaw : 359.72, Alt : 49.2099990845, Lat : 49.2835733, Lng : -123.1150178, Q1 : 0.997547328472, Q2 : 0.0395394302905, Q3 : -0.0577581711113, Q4 : -0.00013399940508}
2019-04-14 17:11:02.21: SIM {TimeUS : 54434884, Roll : 4.69, Pitch : -6.82, Yaw : 359.72, Alt : 49.2200012207, Lat : 49.2835739, Lng : -123.1150171, Q1 : 0.99739408493, Q2 : 0.0407422818244, Q3 : -0.0595406591892, Q4 : 5.07863987877e-05}
2019-04-14 17:11:02.31: SIM {TimeUS : 54534844, Roll : 4.79, Pitch : -6.96, Yaw : 359.73, Alt : 49.2200012207, Lat : 49.2835746, Lng : -123.1150163, Q1 : 0.997284114361, Q2 : 0.0416260883212, Q3 : -0.0607589930296, Q4 : 0.00020430063887}
2019-04-14 17:11:02.41: SIM {TimeUS : 54634804, Roll : 4.85, Pitch : -7.06, Yaw : 359.73, Alt : 49.2299995422, Lat : 49.2835753, Lng : -123.1150156, Q1 : 0.997209429741, Q2 : 0.0421332940459, Q3 : -0.061628755182, Q4 : 0.000317805446684}
2019-04-14 17:11:02.52: SIM {TimeUS : 54735597, Roll : 4.9, Pitch : -7.16, Yaw : 359.73, Alt : 49.2299995422, Lat : 49.2835762, Lng : -123.1150148, Q1 : 0.997132837772, Q2 : 0.0426026321948, Q3 : -0.0625383108854, Q4 : 0.000373540649889}
2019-04-14 17:11:02.61: SIM {TimeUS : 54835557, Roll : 5.06, Pitch : -7.27, Yaw : 359.75, Alt : 49.2400016785, Lat : 49.283577, Lng : -123.1150139, Q1 : 0.997014760971, Q2 : 0.043980628252, Q3 : -0.0634572058916, Q4 : 0.000669827975798}
2019-04-14 17:11:02.71: SIM {TimeUS : 54935517, Roll : 5.5, Pitch : -7.3, Yaw : 0.11, Alt : 49.2400016785, Lat : 49.283578, Lng : -123.1150129, Q1 : 0.99681442976, Q2 : 0.0479967035353, Q3 : -0.0635683983564, Q4 : 0.00404712697491}
2019-04-14 17:11:02.81: SIM {TimeUS : 55035477, Roll : 6.14, Pitch : -7.32, Yaw : 1.47, Alt : 49.25, Lat : 49.2835788, Lng : -123.1150119, Q1 : 0.996396899223, Q2 : 0.0543279349804, Q3 : -0.0630757436156, Q4 : 0.0162223558873}
2019-04-14 17:11:02.91: SIM {TimeUS : 55135437, Roll : 6.65, Pitch : -7.59, Yaw : 4.35, Alt : 49.25, Lat : 49.2835799, Lng : -123.1150108, Q1 : 0.995256960392, Q2 : 0.0603592507541, Q3 : -0.0638914331794, Q4 : 0.0416918694973}
2019-04-14 17:11:03.01: SIM {TimeUS : 55235397, Roll : 6.69, Pitch : -8.22, Yaw : 8.83, Alt : 49.25, Lat : 49.283581, Lng : -123.1150096, Q1 : 0.99244093895, Q2 : 0.0635996758938, Q3 : -0.0669377669692, Q4 : 0.0808419361711}
2019-04-14 17:11:03.11: SIM {TimeUS : 55335357, Roll : 6.07, Pitch : -9.15, Yaw : 14.71, Alt : 49.25, Lat : 49.283582, Lng : -123.1150083, Q1 : 0.986667275429, Q2 : 0.0626157745719, Q3 : -0.0722490176558, Q4 : 0.131708204746}
2019-04-14 17:11:03.21: SIM {TimeUS : 55435317, Roll : 4.51, Pitch : -10.21, Yaw : 21.62, Alt : 49.2599983215, Lat : 49.2835831, Lng : -123.1150068, Q1 : 0.976928472519, Q2 : 0.0551968738437, Q3 : -0.0800644606352, Q4 : 0.190141409636}
2019-04-14 17:11:03.31: SIM {TimeUS : 55535277, Roll : 2.01, Pitch : -11.19, Yaw : 28.81, Alt : 49.2599983215, Lat : 49.2835843, Lng : -123.1150053, Q1 : 0.963364899158, Q2 : 0.0412127189338, Q3 : -0.0901006087661, Q4 : 0.249221727252}
2019-04-14 17:11:03.41: SIM {TimeUS : 55635237, Roll : -0.91, Pitch : -11.86, Yaw : 35.49, Alt : 49.2599983215, Lat : 49.2835855, Lng : -123.1150037, Q1 : 0.94753241539, Q2 : 0.0239238571376, Q3 : -0.10089790076, Q4 : 0.302373230457}
2019-04-14 17:11:03.51: SIM {TimeUS : 55735197, Roll : -3.63, Pitch : -12.2, Yaw : 40.98, Alt : 49.2599983215, Lat : 49.2835868, Lng : -123.1150021, Q1 : 0.932126939297, Q2 : 0.00767865823582, Q3 : -0.110574886203, Q4 : 0.344751596451}
2019-04-14 17:11:03.61: SIM {TimeUS : 55835157, Roll : -5.6, Pitch : -12.31, Yaw : 44.83, Alt : 49.2599983215, Lat : 49.2835883, Lng : -123.1150005, Q1 : 0.919990122318, Q2 : -0.00410605082288, Q3 : -0.117606826127, Q4 : 0.373858332634}
2019-04-14 17:11:03.71: SIM {TimeUS : 55935117, Roll : -6.61, Pitch : -12.36, Yaw : 46.94, Alt : 49.2700004578, Lat : 49.2835897, Lng : -123.1149988, Q1 : 0.912878572941, Q2 : -0.00980104040354, Q3 : -0.121508583426, Q4 : 0.389605373144}
2019-04-14 17:11:03.81: SIM {TimeUS : 56035077, Roll : -6.69, Pitch : -12.5, Yaw : 47.46, Alt : 49.2700004578, Lat : 49.2835915, Lng : -123.1149972, Q1 : 0.910994231701, Q2 : -0.00937437172979, Q3 : -0.122860349715, Q4 : 0.393582224846}
2019-04-14 17:11:03.91: SIM {TimeUS : 56135037, Roll : -6.01, Pitch : -12.82, Yaw : 46.7, Alt : 49.2700004578, Lat : 49.2835932, Lng : -123.1149955, Q1 : 0.913404107094, Q2 : -0.00366930267774, Q3 : -0.123059511185, Q4 : 0.387989521027}
2019-04-14 17:11:04.01: SIM {TimeUS : 56234997, Roll : -4.81, Pitch : -13.36, Yaw : 44.98, Alt : 49.2700004578, Lat : 49.283595, Lng : -123.1149938, Q1 : 0.918719351292, Q2 : 0.00591452093795, Q3 : -0.123355075717, Q4 : 0.375104427338}
2019-04-14 17:11:04.11: SIM {TimeUS : 56334957, Roll : -3.33, Pitch : -14.02, Yaw : 42.6, Alt : 49.2700004578, Lat : 49.2835969, Lng : -123.1149921, Q1 : 0.925588905811, Q2 : 0.0174319054931, Q3 : -0.124222278595, Q4 : 0.357141643763}
2019-04-14 17:11:04.21: SIM {TimeUS : 56434917, Roll : -1.75, Pitch : -14.67, Yaw : 39.88, Alt : 49.2700004578, Lat : 49.2835988, Lng : -123.1149904, Q1 : 0.932908535004, Q2 : 0.0292400922626, Q3 : -0.12525460124, Q4 : 0.336359888315}
2019-04-14 17:11:04.31: SIM {TimeUS : 56534877, Roll : -0.22, Pitch : -15.19, Yaw : 37.1, Alt : 49.2700004578, Lat : 49.2836007, Lng : -123.1149885, Q1 : 0.939783751965, Q2 : 0.0402358658612, Q3 : -0.125960826874, Q4 : 0.315153092146}
2019-04-14 17:11:04.41: SIM {TimeUS : 56634837, Roll : 1.12, Pitch : -15.51, Yaw : 34.59, Alt : 49.2799987793, Lat : 49.2836029, Lng : -123.1149866, Q1 : 0.945592820644, Q2 : 0.049431681633, Q3 : -0.125976547599, Q4 : 0.295872807503}
2019-04-14 17:11:04.51: SIM {TimeUS : 56734797, Roll : 2.16, Pitch : -15.65, Yaw : 32.58, Alt : 49.2799987793, Lat : 49.283605, Lng : -123.1149846, Q1 : 0.949998617172, Q2 : 0.0561974607408, Q3 : -0.125417277217, Q4 : 0.280383557081}
2019-04-14 17:11:04.62: SIM {TimeUS : 56835590, Roll : 2.82, Pitch : -15.67, Yaw : 31.21, Alt : 49.2799987793, Lat : 49.2836073, Lng : -123.1149824, Q1 : 0.952924787998, Q2 : 0.0602305717766, Q3 : -0.124697960913, Q4 : 0.269735097885}
2019-04-14 17:11:04.71: SIM {TimeUS : 56935550, Roll : 3.06, Pitch : -15.62, Yaw : 30.55, Alt : 49.2799987793, Lat : 49.2836095, Lng : -123.1149802, Q1 : 0.954412043095, Q2 : 0.061356715858, Q3 : -0.124118797481, Q4 : 0.264438152313}
2019-04-14 17:11:04.81: SIM {TimeUS : 57035510, Roll : 2.92, Pitch : -15.59, Yaw : 30.52, Alt : 49.2799987793, Lat : 49.2836116, Lng : -123.1149778, Q1 : 0.954594790936, Q2 : 0.0600770972669, Q3 : -0.124166950583, Q4 : 0.264049589634}
2019-04-14 17:11:04.91: SIM {TimeUS : 57135470, Roll : 2.47, Pitch : -15.61, Yaw : 31.02, Alt : 49.2799987793, Lat : 49.2836141, Lng : -123.1149753, Q1 : 0.953628778458, Q2 : 0.0569596141577, Q3 : -0.125161588192, Q4 : 0.267735481262}
2019-04-14 17:11:05.01: SIM {TimeUS : 57235430, Roll : 1.81, Pitch : -15.7, Yaw : 31.91, Alt : 49.2799987793, Lat : 49.2836164, Lng : -123.1149728, Q1 : 0.951742351055, Q2 : 0.0526492260396, Q3 : -0.12704962492, Q4 : 0.274359256029}
2019-04-14 17:11:05.11: SIM {TimeUS : 57335390, Roll : 1.05, Pitch : -15.83, Yaw : 33.02, Alt : 49.2799987793, Lat : 49.2836188, Lng : -123.1149701, Q1 : 0.94923132658, Q2 : 0.0478943884373, Q3 : -0.129446789622, Q4 : 0.282682925463}
2019-04-14 17:11:05.21: SIM {TimeUS : 57435350, Roll : 0.29, Pitch : -15.97, Yaw : 34.19, Alt : 49.2799987793, Lat : 49.2836212, Lng : -123.1149675, Q1 : 0.946426451206, Q2 : 0.0432717353106, Q3 : -0.132091268897, Q4 : 0.29147285223}
2019-04-14 17:11:05.31: SIM {TimeUS : 57535310, Roll : -0.38, Pitch : -16.1, Yaw : 35.29, Alt : 49.2799987793, Lat : 49.2836237, Lng : -123.1149648, Q1 : 0.943684756756, Q2 : 0.0393400900066, Q3 : -0.134507089853, Q4 : 0.299698799849}
2019-04-14 17:11:05.41: SIM {TimeUS : 57635270, Roll : -0.9, Pitch : -16.2, Yaw : 36.2, Alt : 49.2799987793, Lat : 49.2836262, Lng : -123.114962, Q1 : 0.941326618195, Q2 : 0.0363967530429, Q3 : -0.136386007071, Q4 : 0.30655887723}
2019-04-14 17:11:05.51: SIM {TimeUS : 57735230, Roll : -1.22, Pitch : -16.26, Yaw : 36.86, Alt : 49.2799987793, Lat : 49.2836287, Lng : -123.1149592, Q1 : 0.939584076405, Q2 : 0.0346439406276, Q3 : -0.137548476458, Q4 : 0.311547905207}
2019-04-14 17:11:05.61: SIM {TimeUS : 57835190, Roll : -1.35, Pitch : -16.3, Yaw : 37.23, Alt : 49.2799987793, Lat : 49.2836314, Lng : -123.1149564, Q1 : 0.938549816608, Q2 : 0.0341958664358, Q3 : -0.13811211288, Q4 : 0.314451932907}
2019-04-14 17:11:05.71: SIM {TimeUS : 57935150, Roll : -1.3, Pitch : -16.35, Yaw : 37.33, Alt : 49.2799987793, Lat : 49.283634, Lng : -123.1149535, Q1 : 0.938213527203, Q2 : 0.0348495990038, Q3 : -0.138330623507, Q4 : 0.315286368132}
2019-04-14 17:11:05.81: SIM {TimeUS : 58035110, Roll : -1.12, Pitch : -16.4, Yaw : 37.19, Alt : 49.2799987793, Lat : 49.2836366, Lng : -123.1149507, Q1 : 0.93848824501, Q2 : 0.0362695232034, Q3 : -0.138307139277, Q4 : 0.314317464828}
2019-04-14 17:11:05.91: SIM {TimeUS : 58135070, Roll : -0.87, Pitch : -16.46, Yaw : 36.87, Alt : 49.2799987793, Lat : 49.2836395, Lng : -123.1149478, Q1 : 0.93921738863, Q2 : 0.0381194539368, Q3 : -0.138228908181, Q4 : 0.311946213245}
2019-04-14 17:11:06.01: SIM {TimeUS : 58235030, Roll : -0.57, Pitch : -16.51, Yaw : 36.43, Alt : 49.2799987793, Lat : 49.2836422, Lng : -123.1149448, Q1 : 0.940249562263, Q2 : 0.0401467122138, Q3 : -0.137976691127, Q4 : 0.308677017689}
2019-04-14 17:11:06.11: SIM {TimeUS : 58334990, Roll : -0.25, Pitch : -16.54, Yaw : 35.94, Alt : 49.2799987793, Lat : 49.2836451, Lng : -123.1149418, Q1 : 0.941405832767, Q2 : 0.042276609689, Q3 : -0.137545078993, Q4 : 0.305039614439}
2019-04-14 17:11:06.21: SIM {TimeUS : 58434950, Roll : 0.02, Pitch : -16.56, Yaw : 35.46, Alt : 49.2799987793, Lat : 49.2836479, Lng : -123.1149388, Q1 : 0.942528367043, Q2 : 0.0441251024604, Q3 : -0.137160733342, Q4 : 0.301463454962}
2019-04-14 17:11:06.31: SIM {TimeUS : 58534910, Roll : 0.28, Pitch : -16.59, Yaw : 35.05, Alt : 49.2799987793, Lat : 49.2836507, Lng : -123.1149358, Q1 : 0.943480372429, Q2 : 0.045784112066, Q3 : -0.136911943555, Q4 : 0.298335075378}
2019-04-14 17:11:06.41: SIM {TimeUS : 58634870, Roll : 0.48, Pitch : -16.61, Yaw : 34.73, Alt : 49.2799987793, Lat : 49.2836536, Lng : -123.1149327, Q1 : 0.944207429886, Q2 : 0.0471397265792, Q3 : -0.136662647128, Q4 : 0.295928299427}
2019-04-14 17:11:06.51: SIM {TimeUS : 58734830, Roll : 0.6, Pitch : -16.63, Yaw : 34.52, Alt : 49.2799987793, Lat : 49.2836566, Lng : -123.1149296, Q1 : 0.944673478603, Q2 : 0.0479503013194, Q3 : -0.136570751667, Q4 : 0.294348835945}
2019-04-14 17:11:06.61: SIM {TimeUS : 58834790, Roll : 0.62, Pitch : -16.67, Yaw : 34.42, Alt : 49.2799987793, Lat : 49.2836596, Lng : -123.1149263, Q1 : 0.944861829281, Q2 : 0.0480776429176, Q3 : -0.136883184314, Q4 : 0.293577313423}
2019-04-14 17:11:06.72: SIM {TimeUS : 58935583, Roll : 0.55, Pitch : -16.72, Yaw : 34.43, Alt : 49.2799987793, Lat : 49.2836625, Lng : -123.1149232, Q1 : 0.944804430008, Q2 : 0.047660626471, Q3 : -0.137479290366, Q4 : 0.293551623821}
2019-04-14 17:11:06.81: SIM {TimeUS : 59035543, Roll : 0.43, Pitch : -16.77, Yaw : 34.52, Alt : 49.2900009155, Lat : 49.2836655, Lng : -123.11492, Q1 : 0.944554328918, Q2 : 0.0468813702464, Q3 : -0.13821311295, Q4 : 0.294136732817}
2019-04-14 17:11:06.91: SIM {TimeUS : 59135503, Roll : 0.28, Pitch : -16.82, Yaw : 34.67, Alt : 49.2900009155, Lat : 49.2836685, Lng : -123.1149167, Q1 : 0.944171071053, Q2 : 0.0459810569882, Q3 : -0.138937339187, Q4 : 0.295166432858}
2019-04-14 17:11:07.01: SIM {TimeUS : 59235463, Roll : 0.14, Pitch : -16.87, Yaw : 34.85, Alt : 49.2900009155, Lat : 49.2836714, Lng : -123.1149134, Q1 : 0.943704843521, Q2 : 0.0451591834426, Q3 : -0.139638334513, Q4 : 0.296450585127}
2019-04-14 17:11:07.11: SIM {TimeUS : 59335423, Roll : 0.02, Pitch : -16.92, Yaw : 35.03, Alt : 49.2900009155, Lat : 49.2836746, Lng : -123.1149101, Q1 : 0.943225443363, Q2 : 0.0444960817695, Q3 : -0.140245169401, Q4 : 0.297787249088}
2019-04-14 17:11:07.21: SIM {TimeUS : 59435383, Roll : -0.06, Pitch : -16.95, Yaw : 35.2, Alt : 49.2900009155, Lat : 49.2836776, Lng : -123.1149068, Q1 : 0.942793428898, Q2 : 0.0440779924393, Q3 : -0.140698209405, Q4 : 0.299001187086}
2019-04-14 17:11:07.31: SIM {TimeUS : 59535343, Roll : -0.11, Pitch : -16.98, Yaw : 35.32, Alt : 49.2900009155, Lat : 49.2836807, Lng : -123.1149035, Q1 : 0.9424508214, Q2 : 0.0438671857119, Q3 : -0.141022205353, Q4 : 0.29995816946}
2019-04-14 17:11:07.41: SIM {TimeUS : 59635303, Roll : -0.14, Pitch : -17.01, Yaw : 35.4, Alt : 49.2900009155, Lat : 49.2836838, Lng : -123.1149001, Q1 : 0.942222416401, Q2 : 0.0437664836645, Q3 : -0.14128485322, Q4 : 0.300566166639}
2019-04-14 17:11:07.51: SIM {TimeUS : 59735263, Roll : -0.15, Pitch : -17.02, Yaw : 35.43, Alt : 49.2900009155, Lat : 49.2836869, Lng : -123.1148968, Q1 : 0.942115545273, Q2 : 0.0438216067851, Q3 : -0.141440063715, Q4 : 0.300820022821}
2019-04-14 17:11:07.61: SIM {TimeUS : 59835223, Roll : -0.13, Pitch : -17.05, Yaw : 35.42, Alt : 49.2900009155, Lat : 49.2836901, Lng : -123.1148934, Q1 : 0.942110300064, Q2 : 0.0440342053771, Q3 : -0.141580969095, Q4 : 0.300738990307}
2019-04-14 17:11:07.71: SIM {TimeUS : 59935183, Roll : -0.09, Pitch : -17.08, Yaw : 35.38, Alt : 49.2900009155, Lat : 49.2836931, Lng : -123.11489, Q1 : 0.942183673382, Q2 : 0.0443342290819, Q3 : -0.141767784953, Q4 : 0.300376981497}
2019-04-14 17:11:07.81: SIM {TimeUS : 60035143, Roll : -0.05, Pitch : -17.11, Yaw : 35.3, Alt : 49.2900009155, Lat : 49.2836963, Lng : -123.1148865, Q1 : 0.942321896553, Q2 : 0.0447044335306, Q3 : -0.141957119107, Q4 : 0.299798518419}
2019-04-14 17:11:07.91: SIM {TimeUS : 60135103, Roll : -0.02, Pitch : -17.14, Yaw : 35.21, Alt : 49.2999992371, Lat : 49.2836995, Lng : -123.1148831, Q1 : 0.942514657974, Q2 : 0.0449086502194, Q3 : -0.14214925468, Q4 : 0.299070209265}
2019-04-14 17:11:08.01: SIM {TimeUS : 60235063, Roll : 0.0, Pitch : -17.16, Yaw : 35.11, Alt : 49.2999992371, Lat : 49.2837027, Lng : -123.1148796, Q1 : 0.942733705044, Q2 : 0.0450388267636, Q3 : -0.142277508974, Q4 : 0.298298209906}
2019-04-14 17:11:08.11: SIM {TimeUS : 60335023, Roll : 0.02, Pitch : -17.18, Yaw : 35.02, Alt : 49.2999992371, Lat : 49.2837059, Lng : -123.1148762, Q1 : 0.942936718464, Q2 : 0.0451707281172, Q3 : -0.142456457019, Q4 : 0.297550231218}
2019-04-14 17:11:08.21: SIM {TimeUS : 60434983, Roll : 0.05, Pitch : -17.22, Yaw : 34.94, Alt : 49.2999992371, Lat : 49.283709, Lng : -123.1148727, Q1 : 0.943094611168, Q2 : 0.0454420074821, Q3 : -0.142654657364, Q4 : 0.296912938356}
2019-04-14 17:11:08.31: SIM {TimeUS : 60534943, Roll : 0.09, Pitch : -17.26, Yaw : 34.87, Alt : 49.2999992371, Lat : 49.2837124, Lng : -123.1148692, Q1 : 0.943197250366, Q2 : 0.0457713007927, Q3 : -0.142904192209, Q4 : 0.296415925026}
2019-04-14 17:11:08.41: SIM {TimeUS : 60634903, Roll : 0.13, Pitch : -17.3, Yaw : 34.83, Alt : 49.2999992371, Lat : 49.2837156, Lng : -123.1148657, Q1 : 0.943248510361, Q2 : 0.0461135469377, Q3 : -0.143167167902, Q4 : 0.296072602272}
2019-04-14 17:11:08.51: SIM {TimeUS : 60734863, Roll : 0.16, Pitch : -17.34, Yaw : 34.8, Alt : 49.2999992371, Lat : 49.2837188, Lng : -123.1148622, Q1 : 0.943251848221, Q2 : 0.0464606694877, Q3 : -0.14343509078, Q4 : 0.295877933502}
2019-04-14 17:11:08.61: SIM {TimeUS : 60834823, Roll : 0.17, Pitch : -17.37, Yaw : 34.79, Alt : 49.2999992371, Lat : 49.2837221, Lng : -123.1148586, Q1 : 0.94323182106, Q2 : 0.046625636518, Q3 : -0.143676534295, Q4 : 0.295798659325}
2019-04-14 17:11:08.71: SIM {TimeUS : 60934783, Roll : 0.16, Pitch : -17.39, Yaw : 34.79, Alt : 49.3100013733, Lat : 49.2837253, Lng : -123.1148551, Q1 : 0.943209171295, Q2 : 0.0465787388384, Q3 : -0.143836885691, Q4 : 0.295800298452}
2019-04-14 17:11:08.82: SIM {TimeUS : 61035576, Roll : 0.13, Pitch : -17.4, Yaw : 34.8, Alt : 49.3100013733, Lat : 49.2837287, Lng : -123.1148515, Q1 : 0.943184018135, Q2 : 0.0463220439851, Q3 : -0.144009977579, Q4 : 0.295836597681}
2019-04-14 17:11:08.91: SIM {TimeUS : 61135536, Roll : 0.1, Pitch : -17.39, Yaw : 34.82, Alt : 49.3100013733, Lat : 49.283732, Lng : -123.1148479, Q1 : 0.943160235882, Q2 : 0.0461064949632, Q3 : -0.144063159823, Q4 : 0.295920282602}
2019-04-14 17:11:09.01: SIM {TimeUS : 61235496, Roll : 0.08, Pitch : -17.4, Yaw : 34.83, Alt : 49.3100013733, Lat : 49.2837352, Lng : -123.1148443, Q1 : 0.943125605583, Q2 : 0.046003293246, Q3 : -0.144137322903, Q4 : 0.296010524035}
2019-04-14 17:11:09.11: SIM {TimeUS : 61335456, Roll : 0.09, Pitch : -17.43, Yaw : 34.84, Alt : 49.3100013733, Lat : 49.2837386, Lng : -123.1148406, Q1 : 0.943061113358, Q2 : 0.0461506545544, Q3 : -0.144349187613, Q4 : 0.296089917421}
2019-04-14 17:11:09.21: SIM {TimeUS : 61435416, Roll : 0.1, Pitch : -17.48, Yaw : 34.84, Alt : 49.3100013733, Lat : 49.2837419, Lng : -123.1148371, Q1 : 0.942983210087, Q2 : 0.0464072413743, Q3 : -0.144728198647, Q4 : 0.296112746}
2019-04-14 17:11:09.31: SIM {TimeUS : 61535376, Roll : 0.11, Pitch : -17.51, Yaw : 34.84, Alt : 49.3100013733, Lat : 49.2837453, Lng : -123.1148335, Q1 : 0.942951619625, Q2 : 0.0465160571039, Q3 : -0.145003259182, Q4 : 0.296061724424}
2019-04-14 17:11:09.41: SIM {TimeUS : 61635336, Roll : 0.11, Pitch : -17.51, Yaw : 34.83, Alt : 49.3100013733, Lat : 49.2837485, Lng : -123.1148299, Q1 : 0.942978739738, Q2 : 0.046513017267, Q3 : -0.145016402006, Q4 : 0.295969426632}
2019-04-14 17:11:09.51: SIM {TimeUS : 61735296, Roll : 0.11, Pitch : -17.52, Yaw : 34.81, Alt : 49.3100013733, Lat : 49.283752, Lng : -123.1148263, Q1 : 0.943014919758, Q2 : 0.0465044938028, Q3 : -0.145086035132, Q4 : 0.295821398497}
2019-04-14 17:11:09.61: SIM {TimeUS : 61835256, Roll : 0.1, Pitch : -17.55, Yaw : 34.79, Alt : 49.3100013733, Lat : 49.2837552, Lng : -123.1148227, Q1 : 0.943034172058, Q2 : 0.0464969985187, Q3 : -0.145371496677, Q4 : 0.295620858669}
2019-04-14 17:11:09.71: SIM {TimeUS : 61935216, Roll : 0.1, Pitch : -17.58, Yaw : 34.77, Alt : 49.3100013733, Lat : 49.2837587, Lng : -123.114819, Q1 : 0.943052589893, Q2 : 0.0465477220714, Q3 : -0.145639911294, Q4 : 0.295422077179}
2019-04-14 17:11:09.81: SIM {TimeUS : 62035176, Roll : 0.11, Pitch : -17.61, Yaw : 34.74, Alt : 49.3199996948, Lat : 49.283762, Lng : -123.1148154, Q1 : 0.943073272705, Q2 : 0.0466482490301, Q3 : -0.14588047564, Q4 : 0.295221239328}
2019-04-14 17:11:09.91: SIM {TimeUS : 62135136, Roll : 0.12, Pitch : -17.63, Yaw : 34.72, Alt : 49.3199996948, Lat : 49.2837655, Lng : -123.1148117, Q1 : 0.943107306957, Q2 : 0.0467668808997, Q3 : -0.14599776268, Q4 : 0.295035839081}
2019-04-14 17:11:10.01: SIM {TimeUS : 62235096, Roll : 0.14, Pitch : -17.64, Yaw : 34.7, Alt : 49.3199996948, Lat : 49.2837689, Lng : -123.114808, Q1 : 0.943141698837, Q2 : 0.0469422601163, Q3 : -0.146053567529, Q4 : 0.294870406389}
2019-04-14 17:11:10.11: SIM {TimeUS : 62335056, Roll : 0.16, Pitch : -17.64, Yaw : 34.68, Alt : 49.3199996948, Lat : 49.2837722, Lng : -123.1148044, Q1 : 0.943188786507, Q2 : 0.0470632351935, Q3 : -0.14600455761, Q4 : 0.29472476244}
2019-04-14 17:11:10.21: SIM {TimeUS : 62435016, Roll : 0.18, Pitch : -17.64, Yaw : 34.66, Alt : 49.3199996948, Lat : 49.2837757, Lng : -123.1148007, Q1 : 0.943228781223, Q2 : 0.0472303070128, Q3 : -0.145949706435, Q4 : 0.2945972085}
2019-04-14 17:11:10.31: SIM {TimeUS : 62534976, Roll : 0.2, Pitch : -17.65, Yaw : 34.64, Alt : 49.3199996948, Lat : 49.283779, Lng : -123.114797, Q1 : 0.943248987198, Q2 : 0.0473737791181, Q3 : -0.146019622684, Q4 : 0.294474631548}
2019-04-14 17:11:10.41: SIM {TimeUS : 62634936, Roll : 0.19, Pitch : -17.7, Yaw : 34.63, Alt : 49.3199996948, Lat : 49.2837825, Lng : -123.1147933, Q1 : 0.943233907223, Q2 : 0.0474250949919, Q3 : -0.146377533674, Q4 : 0.294337123632}
2019-04-14 17:11:10.51: SIM {TimeUS : 62734896, Roll : 0.17, Pitch : -17.74, Yaw : 34.61, Alt : 49.3199996948, Lat : 49.2837859, Lng : -123.1147896, Q1 : 0.94321167469, Q2 : 0.047335959971, Q3 : -0.146838918328, Q4 : 0.294192671776}
2019-04-14 17:11:10.61: SIM {TimeUS : 62834856, Roll : 0.14, Pitch : -17.79, Yaw : 34.6, Alt : 49.3199996948, Lat : 49.2837893, Lng : -123.1147859, Q1 : 0.943186759949, Q2 : 0.0472355522215, Q3 : -0.147295057774, Q4 : 0.294060796499}
2019-04-14 17:11:10.71: SIM {TimeUS : 62934816, Roll : 0.14, Pitch : -17.82, Yaw : 34.6, Alt : 49.3199996948, Lat : 49.2837928, Lng : -123.1147822, Q1 : 0.943167746067, Q2 : 0.0473120138049, Q3 : -0.147557631135, Q4 : 0.293977797031}
2019-04-14 17:11:10.81: SIM {TimeUS : 63034776, Roll : 0.16, Pitch : -17.83, Yaw : 34.59, Alt : 49.3199996948, Lat : 49.2837962, Lng : -123.1147785, Q1 : 0.943178892136, Q2 : 0.0474680513144, Q3 : -0.14754216373, Q4 : 0.293924599886}
2019-04-14 17:11:10.91: SIM {TimeUS : 63135569, Roll : 0.19, Pitch : -17.79, Yaw : 34.58, Alt : 49.3199996948, Lat : 49.2837996, Lng : -123.1147747, Q1 : 0.943239510059, Q2 : 0.0475558489561, Q3 : -0.147217020392, Q4 : 0.29387897253}
2019-04-14 17:11:11.01: SIM {TimeUS : 63235529, Roll : 0.19, Pitch : -17.77, Yaw : 34.57, Alt : 49.3199996948, Lat : 49.2838032, Lng : -123.114771, Q1 : 0.943300127983, Q2 : 0.0474787950516, Q3 : -0.146983653307, Q4 : 0.293813675642}
2019-04-14 17:11:11.11: SIM {TimeUS : 63335489, Roll : 0.18, Pitch : -17.75, Yaw : 34.56, Alt : 49.3199996948, Lat : 49.2838066, Lng : -123.1147672, Q1 : 0.943344891071, Q2 : 0.0473855175078, Q3 : -0.146876886487, Q4 : 0.293738335371}
2019-04-14 17:11:11.21: SIM {TimeUS : 63435449, Roll : 0.18, Pitch : -17.75, Yaw : 34.55, Alt : 49.3199996948, Lat : 49.28381, Lng : -123.1147635, Q1 : 0.943364560604, Q2 : 0.0473529025912, Q3 : -0.146916389465, Q4 : 0.293660730124}
2019-04-14 17:11:11.31: SIM {TimeUS : 63535409, Roll : 0.18, Pitch : -17.77, Yaw : 34.54, Alt : 49.3300018311, Lat : 49.2838135, Lng : -123.1147597, Q1 : 0.943361520767, Q2 : 0.0473768115044, Q3 : -0.14710354805, Q4 : 0.293572813272}
2019-04-14 17:11:11.41: SIM {TimeUS : 63635369, Roll : 0.18, Pitch : -17.8, Yaw : 34.53, Alt : 49.3300018311, Lat : 49.2838171, Lng : -123.114756, Q1 : 0.943350076675, Q2 : 0.0474777966738, Q3 : -0.147319659591, Q4 : 0.293485015631}
2019-04-14 17:11:11.51: SIM {TimeUS : 63735329, Roll : 0.18, Pitch : -17.84, Yaw : 34.52, Alt : 49.3300018311, Lat : 49.2838205, Lng : -123.1147522, Q1 : 0.943327665329, Q2 : 0.0475323498249, Q3 : -0.147662818432, Q4 : 0.293375849724}
2019-04-14 17:11:11.61: SIM {TimeUS : 63835289, Roll : 0.17, Pitch : -17.89, Yaw : 34.51, Alt : 49.3300018311, Lat : 49.2838239, Lng : -123.1147485, Q1 : 0.943298220634, Q2 : 0.0475866124034, Q3 : -0.148061186075, Q4 : 0.293260842562}
2019-04-14 17:11:11.71: SIM {TimeUS : 63935249, Roll : 0.17, Pitch : -17.92, Yaw : 34.5, Alt : 49.3300018311, Lat : 49.2838275, Lng : -123.1147447, Q1 : 0.943281650543, Q2 : 0.0476262979209, Q3 : -0.148371428251, Q4 : 0.293150961399}
2019-04-14 17:11:11.81: SIM {TimeUS : 64035209, Roll : 0.16, Pitch : -17.95, Yaw : 34.48, Alt : 49.3300018311, Lat : 49.283831, Lng : -123.1147409, Q1 : 0.943278074265, Q2 : 0.0475978329778, Q3 : -0.14864513278, Q4 : 0.293028205633}
2019-04-14 17:11:11.91: SIM {TimeUS : 64135169, Roll : 0.15, Pitch : -17.97, Yaw : 34.47, Alt : 49.3300018311, Lat : 49.2838345, Lng : -123.1147371, Q1 : 0.943290889263, Q2 : 0.0475567467511, Q3 : -0.148816853762, Q4 : 0.292906612158}
2019-04-14 17:11:12.01: SIM {TimeUS : 64235129, Roll : 0.16, Pitch : -17.96, Yaw : 34.46, Alt : 49.3300018311, Lat : 49.2838379, Lng : -123.1147333, Q1 : 0.943328857422, Q2 : 0.0476053841412, Q3 : -0.148734420538, Q4 : 0.292818188667}
2019-04-14 17:11:12.11: SIM {TimeUS : 64335089, Roll : 0.18, Pitch : -17.97, Yaw : 34.45, Alt : 49.3300018311, Lat : 49.2838415, Lng : -123.1147296, Q1 : 0.943348407745, Q2 : 0.0477805025876, Q3 : -0.14872635901, Q4 : 0.292730718851}
2019-04-14 17:11:12.21: SIM {TimeUS : 64435049, Roll : 0.19, Pitch : -17.98, Yaw : 34.43, Alt : 49.3300018311, Lat : 49.2838451, Lng : -123.1147257, Q1 : 0.943359076977, Q2 : 0.0478794425726, Q3 : -0.148835346103, Q4 : 0.2926248312}
2019-04-14 17:11:12.31: SIM {TimeUS : 64535009, Roll : 0.2, Pitch : -17.99, Yaw : 34.42, Alt : 49.3300018311, Lat : 49.2838486, Lng : -123.114722, Q1 : 0.943380594254, Q2 : 0.0479576773942, Q3 : -0.148865878582, Q4 : 0.292527019978}
2019-04-14 17:11:12.41: SIM {TimeUS : 64634969, Roll : 0.21, Pitch : -17.98, Yaw : 34.41, Alt : 49.3300018311, Lat : 49.2838521, Lng : -123.1147182, Q1 : 0.943415403366, Q2 : 0.048019412905, Q3 : -0.148788496852, Q4 : 0.292444080114}
2019-04-14 17:11:12.51: SIM {TimeUS : 64734929, Roll : 0.22, Pitch : -17.98, Yaw : 34.4, Alt : 49.3300018311, Lat : 49.2838555, Lng : -123.1147144, Q1 : 0.943447351456, Q2 : 0.0480474494398, Q3 : -0.14872315526, Q4 : 0.292369812727}
2019-04-14 17:11:12.61: SIM {TimeUS : 64834889, Roll : 0.2, Pitch : -18.0, Yaw : 34.39, Alt : 49.3300018311, Lat : 49.2838591, Lng : -123.1147106, Q1 : 0.943452894688, Q2 : 0.0479470379651, Q3 : -0.148917451501, Q4 : 0.292269140482}
2019-04-14 17:11:12.71: SIM {TimeUS : 64934849, Roll : 0.17, Pitch : -18.03, Yaw : 34.38, Alt : 49.3300018311, Lat : 49.2838627, Lng : -123.1147068, Q1 : 0.943440139294, Q2 : 0.0477987639606, Q3 : -0.149261832237, Q4 : 0.292159169912}
2019-04-14 17:11:12.81: SIM {TimeUS : 65034809, Roll : 0.16, Pitch : -18.03, Yaw : 34.37, Alt : 49.3400001526, Lat : 49.2838662, Lng : -123.1147029, Q1 : 0.943457126617, Q2 : 0.0476716607809, Q3 : -0.149347007275, Q4 : 0.292081326246}
2019-04-14 17:11:12.92: SIM {TimeUS : 65135602, Roll : 0.17, Pitch : -18.02, Yaw : 34.37, Alt : 49.3400001526, Lat : 49.2838698, Lng : -123.1146991, Q1 : 0.943490624428, Q2 : 0.0477146208286, Q3 : -0.149195104837, Q4 : 0.292043924332}
2019-04-14 17:11:13.01: SIM {TimeUS : 65235562, Roll : 0.19, Pitch : -18.01, Yaw : 34.36, Alt : 49.3400001526, Lat : 49.2838734, Lng : -123.1146953, Q1 : 0.943512618542, Q2 : 0.0478449761868, Q3 : -0.149067431688, Q4 : 0.292016535997}
2019-04-14 17:11:13.11: SIM {TimeUS : 65335522, Roll : 0.2, Pitch : -18.01, Yaw : 34.35, Alt : 49.3400001526, Lat : 49.2838768, Lng : -123.1146915, Q1 : 0.943525075912, Q2 : 0.0479164347053, Q3 : -0.149061217904, Q4 : 0.291967749596}
2019-04-14 17:11:13.21: SIM {TimeUS : 65435482, Roll : 0.19, Pitch : -18.02, Yaw : 34.34, Alt : 49.3400001526, Lat : 49.2838804, Lng : -123.1146876, Q1 : 0.943528354168, Q2 : 0.0478638969362, Q3 : -0.149208337069, Q4 : 0.291890561581}
2019-04-14 17:11:13.31: SIM {TimeUS : 65535442, Roll : 0.16, Pitch : -18.05, Yaw : 34.34, Alt : 49.3400001526, Lat : 49.283884, Lng : -123.1146838, Q1 : 0.943526148796, Q2 : 0.0476698279381, Q3 : -0.149482667446, Q4 : 0.291789233685}
2019-04-14 17:11:13.41: SIM {TimeUS : 65635402, Roll : 0.14, Pitch : -18.07, Yaw : 34.33, Alt : 49.3400001526, Lat : 49.2838876, Lng : -123.11468, Q1 : 0.943525016308, Q2 : 0.0475751236081, Q3 : -0.149716481566, Q4 : 0.291688412428}
2019-04-14 17:11:13.51: SIM {TimeUS : 65735362, Roll : 0.14, Pitch : -18.09, Yaw : 34.32, Alt : 49.3400001526, Lat : 49.2838911, Lng : -123.1146761, Q1 : 0.943521022797, Q2 : 0.0476134866476, Q3 : -0.149901211262, Q4 : 0.291600167751}
2019-04-14 17:11:13.61: SIM {TimeUS : 65835322, Roll : 0.15, Pitch : -18.11, Yaw : 34.31, Alt : 49.3400001526, Lat : 49.2838947, Lng : -123.1146723, Q1 : 0.943518817425, Q2 : 0.0477003753185, Q3 : -0.15003477037, Q4 : 0.291524410248}
2019-04-14 17:11:13.71: SIM {TimeUS : 65935282, Roll : 0.17, Pitch : -18.12, Yaw : 34.3, Alt : 49.3400001526, Lat : 49.2838983, Lng : -123.1146685, Q1 : 0.943521380424, Q2 : 0.0479194298387, Q3 : -0.15006801486, Q4 : 0.291463166475}
2019-04-14 17:11:13.81: SIM {TimeUS : 66035242, Roll : 0.19, Pitch : -18.14, Yaw : 34.29, Alt : 49.3400001526, Lat : 49.2839018, Lng : -123.1146646, Q1 : 0.943519473076, Q2 : 0.0481005869806, Q3 : -0.150165602565, Q4 : 0.291389137506}
