2019-04-14 16:57:51.70: SIM {TimeUS : 40316367, Roll : 0.0, Pitch : 0.0, Yaw : 0.0, Alt : 30.1000003815, Lat : 49.28357, Lng : -123.11502, Q1 : 1.0, Q2 : 0.0, Q3 : 0.0, Q4 : 0.0}
2019-04-14 16:57:51.81: SIM {TimeUS : 40435486, Roll : 0.0, Pitch : 0.0, Yaw : 0.0, Alt : 30.1000003815, Lat : 49.28357, Lng : -123.11502, Q1 : 1.0, Q2 : 0.0, Q3 : 0.0, Q4 : 0.0}
2019-04-14 16:57:51.91: SIM {TimeUS : 40535446, Roll : 0.0, Pitch : 0.0, Yaw : 0.0, Alt : 30.1000003815, Lat : 49.28357, Lng : -123.11502, Q1 : 1.0, Q2 : 0.0, Q3 : 0.0, Q4 : 0.0}
2019-04-14 16:57:52.01: SIM {TimeUS : 40635406, Roll : 0.0, Pitch : 0.0, Yaw : 0.0, Alt : 30.1000003815, Lat : 49.28357, Lng : -123.11502, Q1 : 1.0, Q2 : 0.0, Q3 : 0.0, Q4 : 0.0}
2019-04-14 16:57:52.11: SIM {TimeUS : 40735366, Roll : 0.0, Pitch : 0.0, Yaw : 0.0, Alt : 30.1000003815, Lat : 49.28357, Lng : -123.11502, Q1 : 1.0, Q2 : 0.0, Q3 : 0.0, Q4 : 0.0}
2019-04-14 16:57:52.21: SIM {TimeUS : 40835326, Roll : 0.0, Pitch : 0.0, Yaw : 0.0, Alt : 30.1000003815, Lat : 49.28357, Lng : -123.11502, Q1 : 1.0, Q2 : 0.0, Q3 : 0.0, Q4 : 0.0}
2019-04-14 16:57:52.31: SIM {TimeUS : 40935286, Roll : 0.0, Pitch : 0.0, Yaw : 0.0, Alt : 30.1000003815, Lat : 49.28357, Lng : -123.11502, Q1 : 1.0, Q2 : 0.0, Q3 : 0.0, Q4 : 0.0}
2019-04-14 16:57:52.41: SIM {TimeUS : 41035246, Roll : 0.0, Pitch : 0.0, Yaw : 0.0, Alt : 30.1000003815, Lat : 49.28357, Lng : -123.11502, Q1 : 1.0, Q2 : 0.0, Q3 : 0.0, Q4 : 0.0}
2019-04-14 16:57:52.51: SIM {TimeUS : 41135206, Roll : 0.0, Pitch : 0.0, Yaw : 0.0, Alt : 30.1000003815, Lat : 49.28357, Lng : -123.11502, Q1 : 1.0, Q2 : 0.0, Q3 : 0.0, Q4 : 0.0}
2019-04-14 16:57:52.61: SIM {TimeUS : 41235166, Roll : 0.0, Pitch : 0.0, Yaw : 0.0, Alt : 30.1000003815, Lat : 49.28357, Lng : -123.11502, Q1 : 1.0, Q2 : 0.0, Q3 : 0.0, Q4 : 0.0}
2019-04-14 16:57:52.71: SIM {TimeUS : 41335126, Roll : 0.0, Pitch : 0.0, Yaw : 0.0, Alt : 30.1000003815, Lat : 49.28357, Lng : -123.11502, Q1 : 1.0, Q2 : 0.0, Q3 : 0.0, Q4 : 0.0}
2019-04-14 16:57:52.81: SIM {TimeUS : 41435086, Roll : 0.0, Pitch : 0.0, Yaw : 0.0, Alt : 30.1000003815, Lat : 49.28357, Lng : -123.11502, Q1 : 1.0, Q2 : 0.0, Q3 : 0.0, Q4 : 0.0}
2019-04-14 16:57:52.91: SIM {TimeUS : 41535046, Roll : 0.0, Pitch : 0.0, Yaw : 0.0, Alt : 30.1000003815, Lat : 49.28357, Lng : -123.11502, Q1 : 1.0, Q2 : 0.0, Q3 : 0.0, Q4 : 0.0}
2019-04-14 16:57:53.01: SIM {TimeUS : 41635006, Roll : 0.0, Pitch : 0.0, Yaw : 0.0, Alt : 30.1000003815, Lat : 49.28357, Lng : -123.11502, Q1 : 1.0, Q2 : 0.0, Q3 : 0.0, Q4 : 0.0}
2019-04-14 16:57:53.11: SIM {TimeUS : 41734966, Roll : 0.0, Pitch : 0.0, Yaw : 0.0, Alt : 30.1000003815, Lat : 49.28357, Lng : -123.11502, Q1 : 1.0, Q2 : 0.0, Q3 : 0.0, Q4 : 0.0}
2019-04-14 16:57:53.21: SIM {TimeUS : 41834926, Roll : 0.0, Pitch : 0.0, Yaw : 0.0, Alt : 30.1000003815, Lat : 49.28357, Lng : -123.11502, Q1 : 1.0, Q2 : 0.0, Q3 : 0.0, Q4 : 0.0}
2019-04-14 16:57:53.31: SIM {TimeUS : 41934886, Roll : 0.0, Pitch : 0.0, Yaw : 0.0, Alt : 30.1000003815, Lat : 49.28357, Lng : -123.11502, Q1 : 1.0, Q2 : 0.0, Q3 : 0.0, Q4 : 0.0}
2019-04-14 16:57:53.41: SIM {TimeUS : 42034846, Roll : 0.0, Pitch : 0.0, Yaw : 0.0, Alt : 30.1000003815, Lat : 49.28357, Lng : -123.11502, Q1 : 1.0, Q2 : 0.0, Q3 : 0.0, Q4 : 0.0}
2019-04-14 16:57:53.51: SIM {TimeUS : 42134806, Roll : 0.0, Pitch : 0.0, Yaw : 0.0, Alt : 30.1000003815, Lat : 49.28357, Lng : -123.11502, Q1 : 1.0, Q2 : 0.0, Q3 : 0.0, Q4 : 0.0}
2019-04-14 16:57:53.61: SIM {TimeUS : 42234766, Roll : 0.0, Pitch : 0.0, Yaw : 0.0, Alt : 30.1000003815, Lat : 49.28357, Lng : -123.11502, Q1 : 1.0, Q2 : 0.0, Q3 : 0.0, Q4 : 0.0}
2019-04-14 16:57:53.71: SIM {TimeUS : 42334726, Roll : 0.0, Pitch : 0.0, Yaw : 0.0, Alt : 30.1000003815, Lat : 49.28357, Lng : -123.11502, Q1 : 1.0, Q2 : 0.0, Q3 : 0.0, Q4 : 0.0}
2019-04-14 16:57:53.82: SIM {TimeUS : 42435519, Roll : 0.0, Pitch : 0.0, Yaw : 0.0, Alt : 30.1000003815, Lat : 49.28357, Lng : -123.11502, Q1 : 1.0, Q2 : 0.0, Q3 : 0.0, Q4 : 0.0}
2019-04-14 16:57:53.91: SIM {TimeUS : 42535479, Roll : 0.0, Pitch : 0.0, Yaw : 0.0, Alt : 30.1000003815, Lat : 49.28357, Lng : -123.11502, Q1 : 1.0, Q2 : 0.0, Q3 : 0.0, Q4 : 0.0}
2019-04-14 16:57:54.01: SIM {TimeUS : 42635439, Roll : 0.0, Pitch : 0.0, Yaw : 360.0, Alt : 30.1000003815, Lat : 49.28357, Lng : -123.11502, Q1 : 1.0, Q2 : 0.0, Q3 : 0.0, Q4 : -7.26646824309e-12}
2019-04-14 16:57:54.11: SIM {TimeUS : 42735399, Roll : 0.0, Pitch : 0.0, Yaw : 0.0, Alt : 30.1000003815, Lat : 49.28357, Lng : -123.11502, Q1 : 1.0, Q2 : 0.0, Q3 : 0.0, Q4 : 2.12949782807e-10}
2019-04-14 16:57:54.21: SIM {TimeUS : 42835359, Roll : 0.0, Pitch : 0.0, Yaw : 360.0, Alt : 30.1000003815, Lat : 49.28357, Lng : -123.11502, Q1 : 1.0, Q2 : 0.0, Q3 : 0.0, Q4 : -1.12300909905e-07}
2019-04-14 16:57:54.31: SIM {TimeUS : 42935319, Roll : 0.0, Pitch : 0.0, Yaw : 359.99, Alt : 30.1000003815, Lat : 49.28357, Lng : -123.11502, Q1 : 1.0, Q2 : 0.0, Q3 : 0.0, Q4 : -2.50177379257e-07}
2019-04-14 16:57:54.41: SIM {TimeUS : 43035279, Roll : 0.0, Pitch : 0.0, Yaw : 359.99, Alt : 30.1000003815, Lat : 49.28357, Lng : -123.11502, Q1 : 1.0, Q2 : 0.0, Q3 : 0.0, Q4 : -4.62442073967e-07}
2019-04-14 16:57:54.51: SIM {TimeUS : 43135239, Roll : 0.0, Pitch : 0.0, Yaw : 359.99, Alt : 30.1000003815, Lat : 49.28357, Lng : -123.11502, Q1 : 1.0, Q2 : 0.0, Q3 : 0.0, Q4 : -6.79856668739e-07}
2019-04-14 16:57:54.61: SIM {TimeUS : 43235199, Roll : 0.0, Pitch : 0.0, Yaw : 359.99, Alt : 30.1000003815, Lat : 49.28357, Lng : -123.11502, Q1 : 1.0, Q2 : 0.0, Q3 : 0.0, Q4 : -8.80970503658e-07}
2019-04-14 16:57:54.71: SIM {TimeUS : 43335159, Roll : 0.0, Pitch : 0.0, Yaw : 359.99, Alt : 30.1000003815, Lat : 49.28357, Lng : -123.11502, Q1 : 1.0, Q2 : 0.0, Q3 : 0.0, Q4 : -1.03290756215e-06}
2019-04-14 16:57:54.81: SIM {TimeUS : 43435119, Roll : 0.0, Pitch : 0.0, Yaw : 359.99, Alt : 30.1000003815, Lat : 49.28357, Lng : -123.11502, Q1 : 1.0, Q2 : 0.0, Q3 : 0.0, Q4 : -1.24537950796e-06}
2019-04-14 16:57:54.91: SIM {TimeUS : 43535079, Roll : 0.0, Pitch : 0.0, Yaw : 359.99, Alt : 30.1100006104, Lat : 49.28357, Lng : -123.11502, Q1 : 1.0, Q2 : 0.0, Q3 : 0.0, Q4 : -1.45967158005e-06}
2019-04-14 16:57:55.01: SIM {TimeUS : 43635039, Roll : 0.0, Pitch : 0.0, Yaw : 359.99, Alt : 30.1299991608, Lat : 49.28357, Lng : -123.11502, Q1 : 1.0, Q2 : 0.0, Q3 : 0.0, Q4 : -1.71839542418e-06}
2019-04-14 16:57:55.11: SIM {TimeUS : 43734999, Roll : 0.0, Pitch : 0.0, Yaw : 359.99, Alt : 30.1599998474, Lat : 49.28357, Lng : -123.11502, Q1 : 1.0, Q2 : 0.0, Q3 : 0.0, Q4 : -2.00220051738e-06}
2019-04-14 16:57:55.21: SIM {TimeUS : 43834959, Roll : 0.0, Pitch : 0.0, Yaw : 359.99, Alt : 30.1900005341, Lat : 49.28357, Lng : -123.11502, Q1 : 1.0, Q2 : 0.0, Q3 : 0.0, Q4 : -2.21830623559e-06}
2019-04-14 16:57:55.31: SIM {TimeUS : 43934919, Roll : -0.03, Pitch : -0.03, Yaw : 359.99, Alt : 30.2299995422, Lat : 49.28357, Lng : -123.11502, Q1 : 0.999999880791, Q2 : -0.000323171698255, Q3 : -0.000291306845611, Q4 : -5.50174218006e-06}
2019-04-14 16:57:55.41: SIM {TimeUS : 44034879, Roll : -0.28, Pitch : -0.25, Yaw : 359.99, Alt : 30.3099994659, Lat : 49.28357, Lng : -123.11502, Q1 : 0.999994277954, Q2 : -0.00250715739094, Q3 : -0.00226705288514, Q4 : -2.95221379929e-05}
2019-04-14 16:57:55.51: SIM {TimeUS : 44134839, Roll : -0.59, Pitch : -0.54, Yaw : 359.99, Alt : 30.4400005341, Lat : 49.28357, Lng : -123.11502, Q1 : 0.999975264072, Q2 : -0.00521265203133, Q3 : -0.00471959775314, Q4 : -8.32920559333e-05}
2019-04-14 16:57:55.61: SIM {TimeUS : 44234799, Roll : -0.81, Pitch : -0.72, Yaw : 359.98, Alt : 30.6000003815, Lat : 49.28357, Lng : -123.11502, Q1 : 0.999954581261, Q2 : -0.00710400240496, Q3 : -0.00635045673698, Q4 : -0.000159045448527}
2019-04-14 16:57:55.71: SIM {TimeUS : 44334759, Roll : -0.86, Pitch : -0.76, Yaw : 359.97, Alt : 30.75, Lat : 49.28357, Lng : -123.11502, Q1 : 0.999949157238, Q2 : -0.00754986284301, Q3 : -0.00667860498652, Q4 : -0.000244807859417}
2019-04-14 16:57:55.81: SIM {TimeUS : 44434719, Roll : -0.74, Pitch : -0.68, Yaw : 359.96, Alt : 30.9099998474, Lat : 49.28357, Lng : -123.1150201, Q1 : 0.999960839748, Q2 : -0.00653869006783, Q3 : -0.00596046447754, Q4 : -0.000335284334142}
2019-04-14 16:57:55.92: SIM {TimeUS : 44535512, Roll : -0.53, Pitch : -0.5, Yaw : 359.95, Alt : 31.0599994659, Lat : 49.2835701, Lng : -123.1150202, Q1 : 0.99997907877, Q2 : -0.00469805765897, Q3 : -0.00442609423772, Q4 : -0.000418605020968}
2019-04-14 16:57:56.01: SIM {TimeUS : 44635472, Roll : -0.31, Pitch : -0.29, Yaw : 359.94, Alt : 31.2199993134, Lat : 49.2835701, Lng : -123.1150202, Q1 : 0.999992668629, Q2 : -0.00277732941322, Q3 : -0.00258817779832, Q4 : -0.000481294671772}
2019-04-14 16:57:56.11: SIM {TimeUS : 44735432, Roll : -0.12, Pitch : -0.11, Yaw : 359.93, Alt : 31.3899993896, Lat : 49.2835702, Lng : -123.1150203, Q1 : 0.999998688698, Q2 : -0.00111922679935, Q3 : -0.00101802963763, Q4 : -0.000525407376699}
2019-04-14 16:57:56.21: SIM {TimeUS : 44835392, Roll : 0.0, Pitch : 0.0, Yaw : 359.93, Alt : 31.5599994659, Lat : 49.2835702, Lng : -123.1150204, Q1 : 0.999999821186, Q2 : 1.63606127899e-05, Q3 : -8.33817921375e-07, Q4 : -0.00055305112619}
2019-04-14 16:57:56.31: SIM {TimeUS : 44935352, Roll : 0.07, Pitch : 0.05, Yaw : 359.93, Alt : 31.7299995422, Lat : 49.2835703, Lng : -123.1150205, Q1 : 0.999999523163, Q2 : 0.00061198550975, Q3 : 0.000449913466582, Q4 : -0.000567126262467}
2019-04-14 16:57:56.41: SIM {TimeUS : 45035312, Roll : 0.09, Pitch : 0.05, Yaw : 359.93, Alt : 31.9200000763, Lat : 49.2835703, Lng : -123.1150205, Q1 : 0.999999344349, Q2 : 0.000849923759233, Q3 : 0.000488917110488, Q4 : -0.000566460890695}
2019-04-14 16:57:56.51: SIM {TimeUS : 45135272, Roll : 0.1, Pitch : 0.04, Yaw : 359.93, Alt : 32.0999984741, Lat : 49.2835703, Lng : -123.1150206, Q1 : 0.999999403954, Q2 : 0.000899103528354, Q3 : 0.000352551898686, Q4 : -0.000555763021111}
2019-04-14 16:57:56.61: SIM {TimeUS : 45235232, Roll : 0.09, Pitch : 0.03, Yaw : 359.93, Alt : 32.2900009155, Lat : 49.2835703, Lng : -123.1150207, Q1 : 0.999999403954, Q2 : 0.000869657495059, Q3 : 0.000287977629341, Q4 : -0.00053445296362}
2019-04-14 16:57:56.71: SIM {TimeUS : 45335192, Roll : 0.08, Pitch : 0.05, Yaw : 359.94, Alt : 32.4799995422, Lat : 49.2835703, Lng : -123.1150207, Q1 : 0.999999463558, Q2 : 0.000768332218286, Q3 : 0.000491529295687, Q4 : -0.000491634826176}
2019-04-14 16:57:56.81: SIM {TimeUS : 45435152, Roll : 0.07, Pitch : 0.08, Yaw : 359.94, Alt : 32.6800003052, Lat : 49.2835703, Lng : -123.1150207, Q1 : 0.999999403954, Q2 : 0.000635477656033, Q3 : 0.00074636755744, Q4 : -0.000449809100246}
2019-04-14 16:57:56.91: SIM {TimeUS : 45535112, Roll : 0.08, Pitch : 0.13, Yaw : 359.95, Alt : 32.8800010681, Lat : 49.2835704, Lng : -123.1150208, Q1 : 0.999998927116, Q2 : 0.000773209088948, Q3 : 0.0011781938374, Q4 : -0.000423260993557}
2019-04-14 16:57:57.01: SIM {TimeUS : 45635072, Roll : 0.12, Pitch : 0.17, Yaw : 359.95, Alt : 33.0800018311, Lat : 49.2835704, Lng : -123.1150208, Q1 : 0.999998152256, Q2 : 0.00107419048436, Q3 : 0.00154252559878, Q4 : -0.000412101973779}
2019-04-14 16:57:57.11: SIM {TimeUS : 45735032, Roll : 0.14, Pitch : 0.2, Yaw : 359.95, Alt : 33.2799987793, Lat : 49.2835704, Lng : -123.1150208, Q1 : 0.999997496605, Q2 : 0.0013043473009, Q3 : 0.00174988224171, Q4 : -0.00043360190466}
2019-04-14 16:57:57.21: SIM {TimeUS : 45834992, Roll : 0.16, Pitch : 0.21, Yaw : 359.94, Alt : 33.4900016785, Lat : 49.2835704, Lng : -123.1150208, Q1 : 0.999997079372, Q2 : 0.00140622223262, Q3 : 0.00190107966773, Q4 : -0.000462809519377}
2019-04-14 16:57:57.31: SIM {TimeUS : 45934952, Roll : 0.16, Pitch : 0.19, Yaw : 359.94, Alt : 33.6899986267, Lat : 49.2835704, Lng : -123.1150209, Q1 : 0.999997437, Q2 : 0.0014384391252, Q3 : 0.00167398096528, Q4 : -0.000512600003276}
2019-04-14 16:57:57.41: SIM {TimeUS : 46034912, Roll : 0.15, Pitch : 0.14, Yaw : 359.93, Alt : 33.9000015259, Lat : 49.2835704, Lng : -123.1150209, Q1 : 0.999998092651, Q2 : 0.00136679201387, Q3 : 0.00128666416276, Q4 : -0.000558403844479}
2019-04-14 16:57:57.51: SIM {TimeUS : 46134872, Roll : 0.13, Pitch : 0.11, Yaw : 359.93, Alt : 34.1100006104, Lat : 49.2835704, Lng : -123.1150209, Q1 : 0.999998629093, Q2 : 0.00117911864072, Q3 : 0.000980491167866, Q4 : -0.000600390601903}
2019-04-14 16:57:57.61: SIM {TimeUS : 46234832, Roll : 0.12, Pitch : 0.08, Yaw : 359.92, Alt : 34.3199996948, Lat : 49.2835704, Lng : -123.1150209, Q1 : 0.999998927116, Q2 : 0.00105750386138, Q3 : 0.000772506580688, Q4 : -0.00063798611518}
2019-04-14 16:57:57.71: SIM {TimeUS : 46334792, Roll : 0.11, Pitch : 0.08, Yaw : 359.92, Alt : 34.5299987793, Lat : 49.2835704, Lng : -123.1150208, Q1 : 0.999998986721, Q2 : 0.00103034335189, Q3 : 0.000730362546165, Q4 : -0.000670640030876}
2019-04-14 16:57:57.81: SIM {TimeUS : 46434752, Roll : 0.1, Pitch : 0.07, Yaw : 359.92, Alt : 34.75, Lat : 49.2835704, Lng : -123.1150208, Q1 : 0.999999165535, Q2 : 0.000934224633966, Q3 : 0.000616733159404, Q4 : -0.000682550074998}
2019-04-14 16:57:57.91: SIM {TimeUS : 46534712, Roll : 0.08, Pitch : 0.05, Yaw : 359.92, Alt : 34.9599990845, Lat : 49.2835704, Lng : -123.1150208, Q1 : 0.999999403954, Q2 : 0.000740770541597, Q3 : 0.000517266744282, Q4 : -0.000683454156388}
2019-04-14 16:57:58.02: SIM {TimeUS : 46635505, Roll : 0.06, Pitch : 0.05, Yaw : 359.92, Alt : 35.1800003052, Lat : 49.2835704, Lng : -123.1150208, Q1 : 0.999999523163, Q2 : 0.000558158149943, Q3 : 0.000494102598168, Q4 : -0.000681344768964}
2019-04-14 16:57:58.11: SIM {TimeUS : 46735465, Roll : 0.04, Pitch : 0.05, Yaw : 359.92, Alt : 35.4000015259, Lat : 49.2835704, Lng : -123.1150208, Q1 : 0.999999582767, Q2 : 0.000370123569155, Q3 : 0.00048347239499, Q4 : -0.000675632327329}
2019-04-14 16:57:58.21: SIM {TimeUS : 46835425, Roll : 0.03, Pitch : 0.02, Yaw : 359.92, Alt : 35.6199989319, Lat : 49.2835704, Lng : -123.1150208, Q1 : 0.999999701977, Q2 : 0.000278375460766, Q3 : 0.000216969783651, Q4 : -0.000668713473715}
2019-04-14 16:57:58.31: SIM {TimeUS : 46935385, Roll : 0.02, Pitch : 0.0, Yaw : 359.92, Alt : 35.8400001526, Lat : 49.2835704, Lng : -123.1150208, Q1 : 0.999999761581, Q2 : 0.00021103657491, Q3 : -1.02108197098e-05, Q4 : -0.000673055939842}
2019-04-14 16:57:58.41: SIM {TimeUS : 47035345, Roll : 0.0, Pitch : -0.01, Yaw : 359.92, Alt : 36.0600013733, Lat : 49.2835704, Lng : -123.1150207, Q1 : 0.999999761581, Q2 : 2.8982596632e-05, Q3 : -0.000168422644492, Q4 : -0.000688688072842}
2019-04-14 16:57:58.51: SIM {TimeUS : 47135305, Roll : 0.0, Pitch : -0.02, Yaw : 359.91, Alt : 36.2799987793, Lat : 49.2835704, Lng : -123.1150207, Q1 : 0.999999701977, Q2 : -1.05155640995e-05, Q3 : -0.000190938953892, Q4 : -0.00070858746767}
2019-04-14 16:57:58.61: SIM {TimeUS : 47235265, Roll : 0.0, Pitch : -0.01, Yaw : 359.91, Alt : 36.5, Lat : 49.2835704, Lng : -123.1150207, Q1 : 0.999999701977, Q2 : 4.45585064881e-05, Q3 : -0.000167909602169, Q4 : -0.000730016734451}
2019-04-14 16:57:58.71: SIM {TimeUS : 47335225, Roll : 0.0, Pitch : -0.02, Yaw : 359.91, Alt : 36.7200012207, Lat : 49.2835704, Lng : -123.1150207, Q1 : 0.999999701977, Q2 : -3.92728106817e-05, Q3 : -0.000241325920797, Q4 : -0.000752635998651}
2019-04-14 16:57:58.81: SIM {TimeUS : 47435185, Roll : -0.03, Pitch : -0.05, Yaw : 359.91, Alt : 36.9500007629, Lat : 49.2835704, Lng : -123.1150207, Q1 : 0.999999523163, Q2 : -0.00029573510983, Q3 : -0.000463619595394, Q4 : -0.000781795301009}
2019-04-14 16:57:58.91: SIM {TimeUS : 47535145, Roll : -0.07, Pitch : -0.07, Yaw : 359.9, Alt : 37.1699981689, Lat : 49.2835704, Lng : -123.1150207, Q1 : 0.999999284744, Q2 : -0.000620034639724, Q3 : -0.000654340023175, Q4 : -0.000819084350951}
2019-04-14 16:57:59.01: SIM {TimeUS : 47635105, Roll : -0.1, Pitch : -0.09, Yaw : 359.9, Alt : 37.3899993896, Lat : 49.2835704, Lng : -123.1150207, Q1 : 0.999998867512, Q2 : -0.000943594379351, Q3 : -0.000819504319225, Q4 : -0.000856540980749}
2019-04-14 16:57:59.11: SIM {TimeUS : 47735065, Roll : -0.12, Pitch : -0.1, Yaw : 359.89, Alt : 37.6199989319, Lat : 49.2835704, Lng : -123.1150207, Q1 : 0.999998629093, Q2 : -0.00105077261105, Q3 : -0.000918116653338, Q4 : -0.000894639932085}
2019-04-14 16:57:59.21: SIM {TimeUS : 47835025, Roll : -0.11, Pitch : -0.09, Yaw : 359.89, Alt : 37.8499984741, Lat : 49.2835704, Lng : -123.1150207, Q1 : 0.999998688698, Q2 : -0.000990332220681, Q3 : -0.000850402575452, Q4 : -0.000934018404223}
2019-04-14 16:57:59.31: SIM {TimeUS : 47934985, Roll : -0.08, Pitch : -0.06, Yaw : 359.88, Alt : 38.0699996948, Lat : 49.2835704, Lng : -123.1150206, Q1 : 0.99999910593, Q2 : -0.000779066351242, Q3 : -0.000547500210814, Q4 : -0.000966183899436}
2019-04-14 16:57:59.41: SIM {TimeUS : 48034945, Roll : -0.06, Pitch : -0.03, Yaw : 359.88, Alt : 38.2999992371, Lat : 49.2835704, Lng : -123.1150206, Q1 : 0.999999284744, Q2 : -0.000547846779227, Q3 : -0.000305963156279, Q4 : -0.000998431583866}
2019-04-14 16:57:59.51: SIM {TimeUS : 48134905, Roll : -0.05, Pitch : -0.03, Yaw : 359.88, Alt : 38.5299987793, Lat : 49.2835704, Lng : -123.1150206, Q1 : 0.999999344349, Q2 : -0.00048078346299, Q3 : -0.000277220533462, Q4 : -0.00103276199661}
2019-04-14 16:57:59.61: SIM {TimeUS : 48234865, Roll : -0.06, Pitch : -0.01, Yaw : 359.87, Alt : 38.7599983215, Lat : 49.2835704, Lng : -123.1150206, Q1 : 0.999999284744, Q2 : -0.000524987815879, Q3 : -0.000141256154166, Q4 : -0.00105602224357}
2019-04-14 16:57:59.71: SIM {TimeUS : 48334825, Roll : -0.08, Pitch : 0.0, Yaw : 359.87, Alt : 38.9900016785, Lat : 49.2835706, Lng : -123.1150206, Q1 : 0.999999165535, Q2 : -0.000709331186954, Q3 : 5.37776286365e-05, Q4 : -0.00107387034222}
2019-04-14 16:57:59.81: SIM {TimeUS : 48434785, Roll : -0.08, Pitch : 0.02, Yaw : 359.87, Alt : 39.2200012207, Lat : 49.2835706, Lng : -123.1150206, Q1 : 0.999999165535, Q2 : -0.000736918591429, Q3 : 0.000207112258067, Q4 : -0.00108602154069}
2019-04-14 16:57:59.91: SIM {TimeUS : 48534745, Roll : -0.06, Pitch : 0.04, Yaw : 359.87, Alt : 39.4500007629, Lat : 49.2835706, Lng : -123.1150206, Q1 : 0.999999165535, Q2 : -0.000571829441469, Q3 : 0.000409598229453, Q4 : -0.00109791662544}
2019-04-14 16:58:00.01: SIM {TimeUS : 48634705, Roll : -0.03, Pitch : 0.04, Yaw : 359.87, Alt : 39.6800003052, Lat : 49.2835706, Lng : -123.1150207, Q1 : 0.99999922514, Q2 : -0.000344197469531, Q3 : 0.000399365235353, Q4 : -0.00109946506564}
2019-04-14 16:58:00.12: SIM {TimeUS : 48735498, Roll : 0.0, Pitch : 0.03, Yaw : 359.87, Alt : 39.9099998474, Lat : 49.2835706, Lng : -123.1150207, Q1 : 0.999999344349, Q2 : -8.52645898703e-05, Q3 : 0.000328925292706, Q4 : -0.00109865469858}
2019-04-14 16:58:00.21: SIM {TimeUS : 48835458, Roll : 0.02, Pitch : 0.05, Yaw : 359.87, Alt : 40.1399993896, Lat : 49.2835706, Lng : -123.1150207, Q1 : 0.99999922514, Q2 : 0.000239182307268, Q3 : 0.000509638281073, Q4 : -0.00109053251799}
2019-04-14 16:58:00.31: SIM {TimeUS : 48935418, Roll : 0.06, Pitch : 0.09, Yaw : 359.87, Alt : 40.3699989319, Lat : 49.2835706, Lng : -123.1150207, Q1 : 0.999998867512, Q2 : 0.000593777745962, Q3 : 0.000871024618391, Q4 : -0.00108968152199}
2019-04-14 16:58:00.41: SIM {TimeUS : 49035378, Roll : 0.09, Pitch : 0.14, Yaw : 359.87, Alt : 40.5999984741, Lat : 49.2835706, Lng : -123.1150207, Q1 : 0.999998211861, Q2 : 0.000850123877171, Q3 : 0.00127254100516, Q4 : -0.00109848601278}
2019-04-14 16:58:00.51: SIM {TimeUS : 49135338, Roll : 0.08, Pitch : 0.18, Yaw : 359.87, Alt : 40.8400001526, Lat : 49.2835706, Lng : -123.1150207, Q1 : 0.999997735023, Q2 : 0.000782572838943, Q3 : 0.00165418628603, Q4 : -0.00110191712156}
2019-04-14 16:58:00.61: SIM {TimeUS : 49235298, Roll : 0.04, Pitch : 0.21, Yaw : 359.87, Alt : 41.0699996948, Lat : 49.2835706, Lng : -123.1150207, Q1 : 0.999997496605, Q2 : 0.000375184987206, Q3 : 0.00190933945123, Q4 : -0.00112599343993}
2019-04-14 16:58:00.71: SIM {TimeUS : 49335258, Roll : 0.0, Pitch : 0.22, Yaw : 359.86, Alt : 41.2999992371, Lat : 49.2835706, Lng : -123.1150207, Q1 : 0.999997496605, Q2 : 5.78297294851e-06, Q3 : 0.00192860281095, Q4 : -0.0011514343787}
2019-04-14 16:58:00.81: SIM {TimeUS : 49435218, Roll : -0.02, Pitch : 0.18, Yaw : 359.86, Alt : 41.5299987793, Lat : 49.2835706, Lng : -123.1150207, Q1 : 0.999997973442, Q2 : -0.000195794738829, Q3 : 0.00162556022406, Q4 : -0.00117387855425}
2019-04-14 16:58:00.91: SIM {TimeUS : 49535178, Roll : -0.02, Pitch : 0.13, Yaw : 359.86, Alt : 41.7700004578, Lat : 49.2835706, Lng : -123.1150207, Q1 : 0.999998509884, Q2 : -0.000238677137531, Q3 : 0.00121840555221, Q4 : -0.001203909982}
2019-04-14 16:58:01.01: SIM {TimeUS : 49635138, Roll : -0.01, Pitch : 0.12, Yaw : 359.85, Alt : 42.0, Lat : 49.2835706, Lng : -123.1150207, Q1 : 0.999998629093, Q2 : -0.000117660754768, Q3 : 0.00108330266085, Q4 : -0.00124092528131}
2019-04-14 16:58:01.11: SIM {TimeUS : 49735098, Roll : 0.02, Pitch : 0.13, Yaw : 359.85, Alt : 42.2400016785, Lat : 49.2835706, Lng : -123.1150207, Q1 : 0.999998509884, Q2 : 0.000216061598621, Q3 : 0.00114838127047, Q4 : -0.00128017202951}
2019-04-14 16:58:01.21: SIM {TimeUS : 49835058, Roll : 0.07, Pitch : 0.13, Yaw : 359.84, Alt : 42.4700012207, Lat : 49.2835706, Lng : -123.1150207, Q1 : 0.999998211861, Q2 : 0.000625341723207, Q3 : 0.00120581546798, Q4 : -0.00132332986686}
2019-04-14 16:58:01.31: SIM {TimeUS : 49935018, Roll : 0.1, Pitch : 0.12, Yaw : 359.84, Alt : 42.7000007629, Lat : 49.2835706, Lng : -123.1150207, Q1 : 0.999998033047, Q2 : 0.000917616591323, Q3 : 0.00108939339407, Q4 : -0.00137272500433}
2019-04-14 16:58:01.41: SIM {TimeUS : 50034978, Roll : 0.1, Pitch : 0.09, Yaw : 359.83, Alt : 42.9399986267, Lat : 49.2835706, Lng : -123.1150207, Q1 : 0.999998211861, Q2 : 0.000926990003791, Q3 : 0.000854519545101, Q4 : -0.00141850498039}
2019-04-14 16:58:01.51: SIM {TimeUS : 50134938, Roll : 0.06, Pitch : 0.08, Yaw : 359.83, Alt : 43.1699981689, Lat : 49.2835704, Lng : -123.1150207, Q1 : 0.999998509884, Q2 : 0.000597017409746, Q3 : 0.000698145187926, Q4 : -0.00144845549949}
2019-04-14 16:58:01.61: SIM {TimeUS : 50234898, Roll : 0.01, Pitch : 0.07, Yaw : 359.83, Alt : 43.4099998474, Lat : 49.2835704, Lng : -123.1150207, Q1 : 0.999998688698, Q2 : 0.000131719076307, Q3 : 0.000642148079351, Q4 : -0.00147299224045}
2019-04-14 16:58:01.71: SIM {TimeUS : 50334858, Roll : -0.02, Pitch : 0.08, Yaw : 359.82, Alt : 43.6399993896, Lat : 49.2835704, Lng : -123.1150207, Q1 : 0.999998569489, Q2 : -0.000215663894778, Q3 : 0.000749529339373, Q4 : -0.00149383838288}
2019-04-14 16:58:01.81: SIM {TimeUS : 50434818, Roll : -0.04, Pitch : 0.08, Yaw : 359.82, Alt : 43.8800010681, Lat : 49.2835704, Lng : -123.1150207, Q1 : 0.999998509884, Q2 : -0.000386167579563, Q3 : 0.00077751185745, Q4 : -0.00151283782907}
2019-04-14 16:58:01.91: SIM {TimeUS : 50534778, Roll : -0.04, Pitch : 0.07, Yaw : 359.82, Alt : 44.1100006104, Lat : 49.2835704, Lng : -123.1150206, Q1 : 0.999998569489, Q2 : -0.000359120254871, Q3 : 0.000625169428531, Q4 : -0.00153226836119}
2019-04-14 16:58:02.01: SIM {TimeUS : 50634738, Roll : -0.04, Pitch : 0.04, Yaw : 359.82, Alt : 44.3499984741, Lat : 49.2835704, Lng : -123.1150206, Q1 : 0.999998629093, Q2 : -0.00040582017391, Q3 : 0.000427821069025, Q4 : -0.00155567727052}
2019-04-14 16:58:02.11: SIM {TimeUS : 50734698, Roll : -0.04, Pitch : 0.02, Yaw : 359.81, Alt : 44.5900001526, Lat : 49.2835704, Lng : -123.1150206, Q1 : 0.999998688698, Q2 : -0.000369680317817, Q3 : 0.000199367845198, Q4 : -0.00158071960323}
2019-04-14 16:58:02.21: SIM {TimeUS : 50835491, Roll : -0.02, Pitch : 0.0, Yaw : 359.81, Alt : 44.8199996948, Lat : 49.2835704, Lng : -123.1150206, Q1 : 0.999998688698, Q2 : -0.00025107676629, Q3 : 1.08873246063e-05, Q4 : -0.00161122204736}
2019-04-14 16:58:02.31: SIM {TimeUS : 50935451, Roll : -0.02, Pitch : 0.0, Yaw : 359.81, Alt : 45.0600013733, Lat : 49.2835703, Lng : -123.1150206, Q1 : 0.999998629093, Q2 : -0.000183212934644, Q3 : -7.15078131179e-05, Q4 : -0.00164318550378}
2019-04-14 16:58:02.41: SIM {TimeUS : 51035411, Roll : -0.02, Pitch : -0.01, Yaw : 359.8, Alt : 45.2999992371, Lat : 49.2835703, Lng : -123.1150206, Q1 : 0.999998569489, Q2 : -0.00021910473879, Q3 : -0.000106352112198, Q4 : -0.00167430425063}
2019-04-14 16:58:02.51: SIM {TimeUS : 51135371, Roll : -0.03, Pitch : -0.02, Yaw : 359.8, Alt : 45.5299987793, Lat : 49.2835703, Lng : -123.1150206, Q1 : 0.999998509884, Q2 : -0.000277466140687, Q3 : -0.000257857900579, Q4 : -0.0017018658109}
2019-04-14 16:58:02.61: SIM {TimeUS : 51235331, Roll : -0.03, Pitch : -0.03, Yaw : 359.8, Alt : 45.7700004578, Lat : 49.2835703, Lng : -123.1150206, Q1 : 0.999998450279, Q2 : -0.000283215456875, Q3 : -0.000340979779139, Q4 : -0.00172756880056}
2019-04-14 16:58:02.71: SIM {TimeUS : 51335291, Roll : -0.02, Pitch : -0.04, Yaw : 359.79, Alt : 46.0, Lat : 49.2835703, Lng : -123.1150206, Q1 : 0.999998390675, Q2 : -0.000198334484594, Q3 : -0.000364179810276, Q4 : -0.00175034720451}
2019-04-14 16:58:02.81: SIM {TimeUS : 51435251, Roll : -0.02, Pitch : -0.04, Yaw : 359.79, Alt : 46.2299995422, Lat : 49.2835703, Lng : -123.1150206, Q1 : 0.999998390675, Q2 : -0.000202191848075, Q3 : -0.000380615383619, Q4 : -0.00176794291474}
2019-04-14 16:58:02.91: SIM {TimeUS : 51535211, Roll : -0.04, Pitch : -0.04, Yaw : 359.79, Alt : 46.4500007629, Lat : 49.2835703, Lng : -123.1150206, Q1 : 0.999998271465, Q2 : -0.000393226364395, Q3 : -0.000365325482562, Q4 : -0.00178334501106}
2019-04-14 16:58:03.01: SIM {TimeUS : 51635171, Roll : -0.07, Pitch : -0.04, Yaw : 359.79, Alt : 46.6699981689, Lat : 49.2835703, Lng : -123.1150205, Q1 : 0.999998092651, Q2 : -0.000691653985996, Q3 : -0.000373488874175, Q4 : -0.0018001392018}
2019-04-14 16:58:03.11: SIM {TimeUS : 51735131, Roll : -0.1, Pitch : -0.04, Yaw : 359.79, Alt : 46.8899993896, Lat : 49.2835703, Lng : -123.1150205, Q1 : 0.999997854233, Q2 : -0.000927821849473, Q3 : -0.000396900519263, Q4 : -0.00181833014358}
2019-04-14 16:58:03.21: SIM {TimeUS : 51835091, Roll : -0.11, Pitch : -0.03, Yaw : 359.78, Alt : 47.0900001526, Lat : 49.2835703, Lng : -123.1150205, Q1 : 0.999997735023, Q2 : -0.00100682652555, Q3 : -0.00028875953285, Q4 : -0.00183989584912}
2019-04-14 16:58:03.31: SIM {TimeUS : 51935051, Roll : -0.1, Pitch : 0.0, Yaw : 359.78, Alt : 47.2900009155, Lat : 49.2835703, Lng : -123.1150205, Q1 : 0.999997854233, Q2 : -0.000895638775546, Q3 : -4.32058113802e-05, Q4 : -0.00186456041411}
2019-04-14 16:58:03.41: SIM {TimeUS : 52035011, Roll : -0.07, Pitch : 0.01, Yaw : 359.78, Alt : 47.4900016785, Lat : 49.2835703, Lng : -123.1150205, Q1 : 0.999997973442, Q2 : -0.00068310694769, Q3 : 0.000130405605887, Q4 : -0.00189082836732}
2019-04-14 16:58:03.51: SIM {TimeUS : 52134971, Roll : -0.06, Pitch : 0.01, Yaw : 359.78, Alt : 47.6699981689, Lat : 49.2835703, Lng : -123.1150205, Q1 : 0.999997973442, Q2 : -0.000600929313805, Q3 : 0.000112127549073, Q4 : -0.00191874743905}
2019-04-14 16:58:03.61: SIM {TimeUS : 52234931, Roll : -0.08, Pitch : 0.0, Yaw : 359.77, Alt : 47.8400001526, Lat : 49.2835703, Lng : -123.1150205, Q1 : 0.999997854233, Q2 : -0.000714938389137, Q3 : -5.40142136742e-05, Q4 : -0.00194886338431}
2019-04-14 16:58:03.71: SIM {TimeUS : 52334891, Roll : -0.08, Pitch : -0.03, Yaw : 359.77, Alt : 48.0, Lat : 49.2835703, Lng : -123.1150206, Q1 : 0.999997735023, Q2 : -0.000744087272324, Q3 : -0.000302952365018, Q4 : -0.00198057037778}
2019-04-14 16:58:03.81: SIM {TimeUS : 52434851, Roll : -0.06, Pitch : -0.06, Yaw : 359.76, Alt : 48.1500015259, Lat : 49.2835703, Lng : -123.1150206, Q1 : 0.999997675419, Q2 : -0.000606809684541, Q3 : -0.000522602291312, Q4 : -0.00201484095305}
2019-04-14 16:58:03.91: SIM {TimeUS : 52534811, Roll : -0.05, Pitch : -0.08, Yaw : 359.76, Alt : 48.2799987793, Lat : 49.2835703, Lng : -123.1150206, Q1 : 0.99999755621, Q2 : -0.000491297920235, Q3 : -0.000711968517862, Q4 : -0.0020463145338}
2019-04-14 16:58:04.01: SIM {TimeUS : 52634771, Roll : -0.05, Pitch : -0.09, Yaw : 359.76, Alt : 48.4099998474, Lat : 49.2835703, Lng : -123.1150206, Q1 : 0.999997437, Q2 : -0.000465700199129, Q3 : -0.00083318335237, Q4 : -0.00207360903732}
2019-04-14 16:58:04.11: SIM {TimeUS : 52734731, Roll : -0.02, Pitch : -0.09, Yaw : 359.75, Alt : 48.5200004578, Lat : 49.2835703, Lng : -123.1150206, Q1 : 0.999997437, Q2 : -0.000232445177971, Q3 : -0.000806363997981, Q4 : -0.00209708069451}
2019-04-14 16:58:04.22: SIM {TimeUS : 52835524, Roll : 0.01, Pitch : -0.07, Yaw : 359.75, Alt : 48.6199989319, Lat : 49.2835703, Lng : -123.1150206, Q1 : 0.99999755621, Q2 : 8.77960992511e-05, Q3 : -0.000642034516204, Q4 : -0.00211561890319}
2019-04-14 16:58:04.31: SIM {TimeUS : 52935484, Roll : 0.03, Pitch : -0.05, Yaw : 359.75, Alt : 48.7099990845, Lat : 49.2835703, Lng : -123.1150206, Q1 : 0.999997615814, Q2 : 0.000341365404893, Q3 : -0.000449126440799, Q4 : -0.00213107606396}
2019-04-14 16:58:04.41: SIM {TimeUS : 53035444, Roll : 0.05, Pitch : -0.02, Yaw : 359.75, Alt : 48.7799987793, Lat : 49.2835703, Lng : -123.1150206, Q1 : 0.99999755621, Q2 : 0.000436483504018, Q3 : -0.000253013771726, Q4 : -0.00215126690455}
2019-04-14 16:58:04.51: SIM {TimeUS : 53135404, Roll : 0.05, Pitch : -0.01, Yaw : 359.75, Alt : 48.8499984741, Lat : 49.2835703, Lng : -123.1150206, Q1 : 0.999997496605, Q2 : 0.000516921165399, Q3 : -0.000157263755682, Q4 : -0.0021743515972}
2019-04-14 16:58:04.61: SIM {TimeUS : 53235364, Roll : 0.07, Pitch : -0.05, Yaw : 359.74, Alt : 48.9099998474, Lat : 49.2835703, Lng : -123.1150206, Q1 : 0.999997258186, Q2 : 0.000634235038888, Q3 : -0.000460002367618, Q4 : -0.00219783885404}
2019-04-14 16:58:04.71: SIM {TimeUS : 53335324, Roll : 0.15, Pitch : -0.21, Yaw : 359.74, Alt : 48.9599990845, Lat : 49.2835703, Lng : -123.1150206, Q1 : 0.999994874001, Q2 : 0.00135500193574, Q3 : -0.00185766303912, Q4 : -0.00222813268192}
2019-04-14 16:58:04.81: SIM {TimeUS : 53435284, Roll : 0.39, Pitch : -0.57, Yaw : 359.73, Alt : 49.0, Lat : 49.2835703, Lng : -123.1150206, Q1 : 0.999979197979, Q2 : 0.00341028464027, Q3 : -0.00498968502507, Q4 : -0.00225775036961}
2019-04-14 16:58:04.91: SIM {TimeUS : 53535244, Roll : 0.78, Pitch : -1.14, Yaw : 359.73, Alt : 49.0400009155, Lat : 49.2835703, Lng : -123.1150206, Q1 : 0.999923527241, Q2 : 0.00685042561963, Q3 : -0.0100450431928, Q4 : -0.00227445992641}
2019-04-14 16:58:05.01: SIM {TimeUS : 53635204, Roll : 1.31, Pitch : -1.88, Yaw : 359.71, Alt : 49.0699996948, Lat : 49.2835704, Lng : -123.1150206, Q1 : 0.99979609251, Q2 : 0.011411473155, Q3 : -0.016505157575, Q4 : -0.00226539629512}
2019-04-14 16:58:05.11: SIM {TimeUS : 53735164, Roll : 1.92, Pitch : -2.71, Yaw : 359.7, Alt : 49.0900001526, Lat : 49.2835704, Lng : -123.1150206, Q1 : 0.999575972557, Q2 : 0.0167538970709, Q3 : -0.0237118192017, Q4 : -0.00220838584937}
2019-04-14 16:58:05.21: SIM {TimeUS : 53835124, Roll : 2.51, Pitch : -3.51, Yaw : 359.68, Alt : 49.1199989319, Lat : 49.2835706, Lng : -123.1150205, Q1 : 0.999287188053, Q2 : 0.0218782518059, Q3 : -0.0306929796934, Q4 : -0.00210075383075}
2019-04-14 16:58:05.31: SIM {TimeUS : 53935084, Roll : 2.99, Pitch : -4.19, Yaw : 359.66, Alt : 49.1399993896, Lat : 49.2835707, Lng : -123.1150203, Q1 : 0.998987853527, Q2 : 0.0259920097888, Q3 : -0.0366590023041, Q4 : -0.00194582156837}
2019-04-14 16:58:05.41: SIM {TimeUS : 54035044, Roll : 3.32, Pitch : -4.7, Yaw : 359.66, Alt : 49.1500015259, Lat : 49.2835709, Lng : -123.1150201, Q1 : 0.998734652996, Q2 : 0.028847547248, Q3 : -0.0411582887173, Q4 : -0.00174119975418}
2019-04-14 16:58:05.51: SIM {TimeUS : 54135004, Roll : 3.54, Pitch : -5.1, Yaw : 359.66, Alt : 49.1699981689, Lat : 49.2835712, Lng : -123.11502, Q1 : 0.998529493809, Q2 : 0.0307894460857, Q3 : -0.0445939265192, Q4 : -0.00150437129196}
2019-04-14 16:58:05.61: SIM {TimeUS : 54234964, Roll : 3.73, Pitch : -5.43, Yaw : 359.68, Alt : 49.1800003052, Lat : 49.2835715, Lng : -123.1150197, Q1 : 0.998346984386, Q2 : 0.032378770411, Q3 : -0.0474699363112, Q4 : -0.00124354963191}
2019-04-14 16:58:05.71: SIM {TimeUS : 54334924, Roll : 3.91, Pitch : -5.73, Yaw : 359.69, Alt : 49.1899986267, Lat : 49.2835719, Lng : -123.1150193, Q1 : 0.998166799545, Q2 : 0.0339745171368, Q3 : -0.0500786155462, Q4 : -0.000968287757132}
2019-04-14 16:58:05.81: SIM {TimeUS : 54434884, Roll : 4.12, Pitch : -6.03, Yaw : 359.7, Alt : 49.2000007629, Lat : 49.2835722, Lng : -123.1150188, Q1 : 0.99796807766, Q2 : 0.0357634052634, Q3 : -0.0527278892696, Q4 : -0.0006852139486}
2019-04-14 16:58:05.91: SIM {TimeUS : 54534844, Roll : 4.34, Pitch : -6.33, Yaw : 359.71, Alt : 49.2099990845, Lat : 49.2835727, Lng : -123.1150183, Q1 : 0.997757673264, Q2 : 0.0376790836453, Q3 : -0.0553149618208, Q4 : -0.000415777263697}
2019-04-14 16:58:06.01: SIM {TimeUS : 54634804, Roll : 4.52, Pitch : -6.58, Yaw : 359.71, Alt : 49.2200012207, Lat : 49.2835733, Lng : -123.1150177, Q1 : 0.99757194519, Q2 : 0.0393035300076, Q3 : -0.0574929192662, Q4 : -0.000172477957676}
2019-04-14 16:58:06.11: SIM {TimeUS : 54734764, Roll : 4.66, Pitch : -6.79, Yaw : 359.72, Alt : 49.2200012207, Lat : 49.2835739, Lng : -123.1150171, Q1 : 0.997419834137, Q2 : 0.0404642894864, Q3 : -0.059298697859, Q4 : 2.15853106056e-05}
2019-04-14 16:58:06.21: SIM {TimeUS : 54834724, Roll : 4.76, Pitch : -6.95, Yaw : 359.73, Alt : 49.2299995422, Lat : 49.2835746, Lng : -123.1150163, Q1 : 0.997299194336, Q2 : 0.0413619540632, Q3 : -0.0606914199889, Q4 : 0.000185141951079}
2019-04-14 16:58:06.32: SIM {TimeUS : 54935517, Roll : 4.85, Pitch : -7.07, Yaw : 359.73, Alt : 49.2400016785, Lat : 49.2835753, Lng : -123.1150156, Q1 : 0.9972012043, Q2 : 0.0421326905489, Q3 : -0.061761636287, Q4 : 0.00031460338505}
2019-04-14 16:58:06.41: SIM {TimeUS : 55035477, Roll : 4.91, Pitch : -7.16, Yaw : 359.73, Alt : 49.2400016785, Lat : 49.2835762, Lng : -123.1150147, Q1 : 0.997130393982, Q2 : 0.042661562562, Q3 : -0.0625371709466, Q4 : 0.000393310096115}
2019-04-14 16:58:06.51: SIM {TimeUS : 55135437, Roll : 5.06, Pitch : -7.25, Yaw : 359.75, Alt : 49.25, Lat : 49.283577, Lng : -123.1150138, Q1 : 0.997026443481, Q2 : 0.0439681448042, Q3 : -0.0632824152708, Q4 : 0.000685569073539}
2019-04-14 16:58:06.61: SIM {TimeUS : 55235397, Roll : 5.47, Pitch : -7.28, Yaw : 0.11, Alt : 49.25, Lat : 49.283578, Lng : -123.1150129, Q1 : 0.99683880806, Q2 : 0.0477287732065, Q3 : -0.0633892863989, Q4 : 0.004033182282}
2019-04-14 16:58:06.71: SIM {TimeUS : 55335357, Roll : 6.1, Pitch : -7.31, Yaw : 1.47, Alt : 49.25, Lat : 49.2835788, Lng : -123.1150119, Q1 : 0.996422529221, Q2 : 0.0539667494595, Q3 : -0.0629906207323, Q4 : 0.0161858443171}
2019-04-14 16:58:06.81: SIM {TimeUS : 55435317, Roll : 6.6, Pitch : -7.58, Yaw : 4.35, Alt : 49.25, Lat : 49.2835799, Lng : -123.1150107, Q1 : 0.995293200016, Q2 : 0.059916254133, Q3 : -0.0637709051371, Q4 : 0.0416503436863}
2019-04-14 16:58:06.91: SIM {TimeUS : 55535277, Roll : 6.64, Pitch : -8.21, Yaw : 8.83, Alt : 49.2599983215, Lat : 49.283581, Lng : -123.1150095, Q1 : 0.992482542992, Q2 : 0.0631346330047, Q3 : -0.0668111518025, Q4 : 0.0808005034924}
2019-04-14 16:58:07.01: SIM {TimeUS : 55635237, Roll : 6.03, Pitch : -9.14, Yaw : 14.72, Alt : 49.2599983215, Lat : 49.283582, Lng : -123.1150082, Q1 : 0.98669731617, Q2 : 0.0622344911098, Q3 : -0.0722073242068, Q4 : 0.131686747074}
2019-04-14 16:58:07.11: SIM {TimeUS : 55735197, Roll : 4.49, Pitch : -10.23, Yaw : 21.62, Alt : 49.2599983215, Lat : 49.2835831, Lng : -123.1150068, Q1 : 0.976928830147, Q2 : 0.0550675690174, Q3 : -0.0801988244057, Q4 : 0.190120577812}
2019-04-14 16:58:07.21: SIM {TimeUS : 55835157, Roll : 2.03, Pitch : -11.22, Yaw : 28.8, Alt : 49.2599983215, Lat : 49.2835843, Lng : -123.1150053, Q1 : 0.963354289532, Q2 : 0.0414054915309, Q3 : -0.0902901962399, Q4 : 0.249162107706}
2019-04-14 16:58:07.31: SIM {TimeUS : 55935117, Roll : -0.88, Pitch : -11.89, Yaw : 35.47, Alt : 49.2599983215, Lat : 49.2835855, Lng : -123.1150037, Q1 : 0.947560012341, Q2 : 0.0242070034146, Q3 : -0.101039767265, Q4 : 0.302216798067}
2019-04-14 16:58:07.41: SIM {TimeUS : 56035077, Roll : -3.61, Pitch : -12.21, Yaw : 40.94, Alt : 49.2700004578, Lat : 49.2835868, Lng : -123.1150021, Q1 : 0.932231843472, Q2 : 0.00779983494431, Q3 : -0.110582180321, Q4 : 0.344462603331}
2019-04-14 16:58:07.51: SIM {TimeUS : 56135037, Roll : -5.59, Pitch : -12.31, Yaw : 44.78, Alt : 49.2700004578, Lat : 49.2835883, Lng : -123.1150005, Q1 : 0.920162141323, Q2 : -0.00408554682508, Q3 : -0.117577686906, Q4 : 0.373443990946}
2019-04-14 16:58:07.61: SIM {TimeUS : 56234997, Roll : -6.59, Pitch : -12.38, Yaw : 46.87, Alt : 49.2700004578, Lat : 49.2835898, Lng : -123.1149988, Q1 : 0.913080215454, Q2 : -0.00964789930731, Q3 : -0.121591225266, Q4 : 0.389110565186}
2019-04-14 16:58:07.71: SIM {TimeUS : 56334957, Roll : -6.66, Pitch : -12.56, Yaw : 47.39, Alt : 49.2700004578, Lat : 49.2835915, Lng : -123.1149972, Q1 : 0.911184251308, Q2 : -0.00902501679957, Q3 : -0.123231425881, Q4 : 0.393034130335}
2019-04-14 16:58:07.81: SIM {TimeUS : 56434917, Roll : -5.99, Pitch : -12.9, Yaw : 46.63, Alt : 49.2700004578, Lat : 49.2835932, Lng : -123.1149955, Q1 : 0.913585543633, Q2 : -0.00327553856187, Q3 : -0.123597845435, Q4 : 0.387394279242}
2019-04-14 16:58:07.91: SIM {TimeUS : 56534877, Roll : -4.79, Pitch : -13.43, Yaw : 44.91, Alt : 49.2700004578, Lat : 49.283595, Lng : -123.1149938, Q1 : 0.918897211552, Q2 : 0.00626352755353, Q3 : -0.123867273331, Q4 : 0.374493837357}
2019-04-14 16:58:08.01: SIM {TimeUS : 56634837, Roll : -3.29, Pitch : -14.07, Yaw : 42.53, Alt : 49.2700004578, Lat : 49.2835969, Lng : -123.1149921, Q1 : 0.925768852234, Q2 : 0.0178411006927, Q3 : -0.124445036054, Q4 : 0.356577128172}
2019-04-14 16:58:08.11: SIM {TimeUS : 56734797, Roll : -1.68, Pitch : -14.69, Yaw : 39.81, Alt : 49.2700004578, Lat : 49.2835988, Lng : -123.1149904, Q1 : 0.933066427708, Q2 : 0.0297946631908, Q3 : -0.125202253461, Q4 : 0.335892468691}
2019-04-14 16:58:08.21: SIM {TimeUS : 56834757, Roll : -0.14, Pitch : -15.19, Yaw : 37.05, Alt : 49.2799987793, Lat : 49.2836008, Lng : -123.1149886, Q1 : 0.939906477928, Q2 : 0.0408150292933, Q3 : -0.125725209713, Q4 : 0.314806461334}
2019-04-14 16:58:08.31: SIM {TimeUS : 56934717, Roll : 1.18, Pitch : -15.48, Yaw : 34.56, Alt : 49.2799987793, Lat : 49.2836029, Lng : -123.1149866, Q1 : 0.945693016052, Q2 : 0.049772169441, Q3 : -0.12561249733, Q4 : 0.295650005341}
2019-04-14 16:58:08.42: SIM {TimeUS : 57035510, Roll : 2.19, Pitch : -15.59, Yaw : 32.55, Alt : 49.2799987793, Lat : 49.283605, Lng : -123.1149846, Q1 : 0.950122892857, Q2 : 0.0562308058143, Q3 : -0.124932222068, Q4 : 0.280172228813}
2019-04-14 16:58:08.51: SIM {TimeUS : 57135470, Roll : 2.8, Pitch : -15.58, Yaw : 31.22, Alt : 49.2799987793, Lat : 49.2836073, Lng : -123.1149824, Q1 : 0.953033983707, Q2 : 0.0598213858902, Q3 : -0.124065771699, Q4 : 0.269731938839}
2019-04-14 16:58:08.61: SIM {TimeUS : 57235430, Roll : 3.0, Pitch : -15.54, Yaw : 30.56, Alt : 49.2799987793, Lat : 49.2836095, Lng : -123.1149802, Q1 : 0.954509437084, Q2 : 0.060686621815, Q3 : -0.123553179204, Q4 : 0.264506131411}
2019-04-14 16:58:08.71: SIM {TimeUS : 57335390, Roll : 2.83, Pitch : -15.53, Yaw : 30.54, Alt : 49.2799987793, Lat : 49.2836117, Lng : -123.1149778, Q1 : 0.954656302929, Q2 : 0.0592685118318, Q3 : -0.123833611608, Q4 : 0.264166265726}
2019-04-14 16:58:08.81: SIM {TimeUS : 57435350, Roll : 2.37, Pitch : -15.59, Yaw : 31.05, Alt : 49.2799987793, Lat : 49.2836141, Lng : -123.1149753, Q1 : 0.953643202782, Q2 : 0.0561053827405, Q3 : -0.125156342983, Q4 : 0.267866849899}
2019-04-14 16:58:08.91: SIM {TimeUS : 57535310, Roll : 1.72, Pitch : -15.71, Yaw : 31.93, Alt : 49.2799987793, Lat : 49.2836164, Lng : -123.1149728, Q1 : 0.951708972454, Q2 : 0.0519371777773, Q3 : -0.127307251096, Q4 : 0.274491280317}
2019-04-14 16:58:09.01: SIM {TimeUS : 57635270, Roll : 0.98, Pitch : -15.86, Yaw : 33.04, Alt : 49.2799987793, Lat : 49.2836188, Lng : -123.1149701, Q1 : 0.949166178703, Q2 : 0.0473740361631, Q3 : -0.12989513576, Q4 : 0.28278362751}
2019-04-14 16:58:09.11: SIM {TimeUS : 57735230, Roll : 0.24, Pitch : -16.0, Yaw : 34.2, Alt : 49.2799987793, Lat : 49.2836212, Lng : -123.1149675, Q1 : 0.946365654469, Q2 : 0.0430006757379, Q3 : -0.132469028234, Q4 : 0.29153907299}
2019-04-14 16:58:09.21: SIM {TimeUS : 57835190, Roll : -0.38, Pitch : -16.12, Yaw : 35.29, Alt : 49.2799987793, Lat : 49.2836237, Lng : -123.1149648, Q1 : 0.943651258945, Q2 : 0.0393920578063, Q3 : -0.134671598673, Q4 : 0.299723505974}
2019-04-14 16:58:09.31: SIM {TimeUS : 57935150, Roll : -0.85, Pitch : -16.22, Yaw : 36.19, Alt : 49.2799987793, Lat : 49.2836262, Lng : -123.114962, Q1 : 0.941312611103, Q2 : 0.0368308313191, Q3 : -0.136404320598, Q4 : 0.306541830301}
2019-04-14 16:58:09.41: SIM {TimeUS : 58035110, Roll : -1.15, Pitch : -16.29, Yaw : 36.84, Alt : 49.2799987793, Lat : 49.2836287, Lng : -123.1149592, Q1 : 0.939569711685, Q2 : 0.0353357866406, Q3 : -0.137633293867, Q4 : 0.311475902796}
2019-04-14 16:58:09.51: SIM {TimeUS : 58135070, Roll : -1.29, Pitch : -16.36, Yaw : 37.21, Alt : 49.2799987793, Lat : 49.2836314, Lng : -123.1149564, Q1 : 0.938532650471, Q2 : 0.034810077399, Q3 : -0.138411909342, Q4 : 0.314303815365}
2019-04-14 16:58:09.61: SIM {TimeUS : 58235030, Roll : -1.27, Pitch : -16.38, Yaw : 37.31, Alt : 49.2799987793, Lat : 49.2836341, Lng : -123.1149536, Q1 : 0.938232183456, Q2 : 0.0351241603494, Q3 : -0.138564914465, Q4 : 0.315097510815}
2019-04-14 16:58:09.71: SIM {TimeUS : 58334990, Roll : -1.11, Pitch : -16.39, Yaw : 37.17, Alt : 49.2799987793, Lat : 49.2836367, Lng : -123.1149507, Q1 : 0.938558280468, Q2 : 0.0362805500627, Q3 : -0.138228610158, Q4 : 0.314141631126}
2019-04-14 16:58:09.81: SIM {TimeUS : 58434950, Roll : -0.87, Pitch : -16.41, Yaw : 36.85, Alt : 49.2799987793, Lat : 49.2836395, Lng : -123.1149478, Q1 : 0.939334928989, Q2 : 0.0379508771002, Q3 : -0.137783795595, Q4 : 0.311809718609}
2019-04-14 16:58:09.91: SIM {TimeUS : 58534910, Roll : -0.56, Pitch : -16.44, Yaw : 36.41, Alt : 49.2799987793, Lat : 49.2836422, Lng : -123.1149448, Q1 : 0.940360248089, Q2 : 0.0400488115847, Q3 : -0.137425854802, Q4 : 0.308598220348}
2019-04-14 16:58:10.01: SIM {TimeUS : 58634870, Roll : -0.22, Pitch : -16.48, Yaw : 35.93, Alt : 49.2799987793, Lat : 49.2836451, Lng : -123.1149419, Q1 : 0.941490769386, Q2 : 0.0423485226929, Q3 : -0.136975750327, Q4 : 0.305023550987}
2019-04-14 16:58:10.11: SIM {TimeUS : 58734830, Roll : 0.08, Pitch : -16.51, Yaw : 35.46, Alt : 49.2799987793, Lat : 49.283648, Lng : -123.1149388, Q1 : 0.942582547665, Q2 : 0.0444333292544, Q3 : -0.136587306857, Q4 : 0.301509231329}
2019-04-14 16:58:10.21: SIM {TimeUS : 58834790, Roll : 0.32, Pitch : -16.56, Yaw : 35.05, Alt : 49.2799987793, Lat : 49.2836509, Lng : -123.1149358, Q1 : 0.943509638309, Q2 : 0.0460171885788, Q3 : -0.13653896749, Q4 : 0.298377543688}
2019-04-14 16:58:10.31: SIM {TimeUS : 58934750, Roll : 0.47, Pitch : -16.62, Yaw : 34.73, Alt : 49.2799987793, Lat : 49.2836537, Lng : -123.1149327, Q1 : 0.944201588631, Q2 : 0.0470469929278, Q3 : -0.136768594384, Q4 : 0.295912712812}
2019-04-14 16:58:10.41: SIM {TimeUS : 59034710, Roll : 0.54, Pitch : -16.69, Yaw : 34.52, Alt : 49.2900009155, Lat : 49.2836566, Lng : -123.1149296, Q1 : 0.944617927074, Q2 : 0.0475816652179, Q3 : -0.137256756425, Q4 : 0.294267803431}
2019-04-14 16:58:10.52: SIM {TimeUS : 59135503, Roll : 0.54, Pitch : -16.75, Yaw : 34.43, Alt : 49.2900009155, Lat : 49.2836596, Lng : -123.1149263, Q1 : 0.944787442684, Q2 : 0.047619599849, Q3 : -0.137782618403, Q4 : 0.293470561504}
2019-04-14 16:58:10.61: SIM {TimeUS : 59235463, Roll : 0.48, Pitch : -16.78, Yaw : 34.44, Alt : 49.2900009155, Lat : 49.2836626, Lng : -123.1149232, Q1 : 0.944748580456, Q2 : 0.0472294464707, Q3 : -0.138196617365, Q4 : 0.293464243412}
2019-04-14 16:58:10.71: SIM {TimeUS : 59335423, Roll : 0.4, Pitch : -16.81, Yaw : 34.53, Alt : 49.2900009155, Lat : 49.2836656, Lng : -123.11492, Q1 : 0.944514632225, Q2 : 0.0467050895095, Q3 : -0.138596564531, Q4 : 0.294111907482}
2019-04-14 16:58:10.81: SIM {TimeUS : 59435383, Roll : 0.3, Pitch : -16.83, Yaw : 34.68, Alt : 49.2900009155, Lat : 49.2836686, Lng : -123.1149167, Q1 : 0.944148659706, Q2 : 0.0461177974939, Q3 : -0.13897678256, Q4 : 0.295198112726}
2019-04-14 16:58:10.91: SIM {TimeUS : 59535343, Roll : 0.2, Pitch : -16.85, Yaw : 34.85, Alt : 49.2900009155, Lat : 49.2836716, Lng : -123.1149135, Q1 : 0.943705499172, Q2 : 0.0455575659871, Q3 : -0.139347583055, Q4 : 0.296524345875}
2019-04-14 16:58:11.01: SIM {TimeUS : 59635303, Roll : 0.1, Pitch : -16.88, Yaw : 35.03, Alt : 49.2900009155, Lat : 49.2836746, Lng : -123.1149102, Q1 : 0.943238675594, Q2 : 0.0450496822596, Q3 : -0.139780089259, Q4 : 0.297880649567}
2019-04-14 16:58:11.11: SIM {TimeUS : 59735263, Roll : 0.0, Pitch : -16.91, Yaw : 35.2, Alt : 49.2900009155, Lat : 49.2836777, Lng : -123.1149069, Q1 : 0.942819297314, Q2 : 0.0445092618465, Q3 : -0.140187054873, Q4 : 0.299095720053}
2019-04-14 16:58:11.21: SIM {TimeUS : 59835223, Roll : -0.07, Pitch : -16.94, Yaw : 35.33, Alt : 49.2900009155, Lat : 49.2836808, Lng : -123.1149035, Q1 : 0.942481279373, Q2 : 0.0440577194095, Q3 : -0.140565127134, Q4 : 0.300049036741}
2019-04-14 16:58:11.31: SIM {TimeUS : 59935183, Roll : -0.13, Pitch : -16.97, Yaw : 35.41, Alt : 49.2900009155, Lat : 49.2836839, Lng : -123.1149002, Q1 : 0.942236423492, Q2 : 0.0438202917576, Q3 : -0.140947908163, Q4 : 0.30067268014}
2019-04-14 16:58:11.41: SIM {TimeUS : 60035143, Roll : -0.15, Pitch : -17.01, Yaw : 35.45, Alt : 49.2900009155, Lat : 49.283687, Lng : -123.1148968, Q1 : 0.942095458508, Q2 : 0.0437417328358, Q3 : -0.141374468803, Q4 : 0.300925433636}
2019-04-14 16:58:11.51: SIM {TimeUS : 60135103, Roll : -0.17, Pitch : -17.05, Yaw : 35.44, Alt : 49.2900009155, Lat : 49.2836901, Lng : -123.1148934, Q1 : 0.942079663277, Q2 : 0.0436814054847, Q3 : -0.141731142998, Q4 : 0.300815850496}
2019-04-14 16:58:11.61: SIM {TimeUS : 60235063, Roll : -0.18, Pitch : -17.08, Yaw : 35.39, Alt : 49.2999992371, Lat : 49.2836931, Lng : -123.11489, Q1 : 0.942172348499, Q2 : 0.0436560846865, Q3 : -0.141993314028, Q4 : 0.300405204296}
2019-04-14 16:58:11.71: SIM {TimeUS : 60335023, Roll : -0.16, Pitch : -17.1, Yaw : 35.31, Alt : 49.2999992371, Lat : 49.2836963, Lng : -123.1148866, Q1 : 0.942337989807, Q2 : 0.0437340773642, Q3 : -0.142191767693, Q4 : 0.299779832363}
2019-04-14 16:58:11.81: SIM {TimeUS : 60434983, Roll : -0.11, Pitch : -17.14, Yaw : 35.22, Alt : 49.2999992371, Lat : 49.2836996, Lng : -123.1148831, Q1 : 0.94251704216, Q2 : 0.0441697202623, Q3 : -0.142398998141, Q4 : 0.299053966999}
2019-04-14 16:58:11.91: SIM {TimeUS : 60534943, Roll : -0.03, Pitch : -17.19, Yaw : 35.12, Alt : 49.2999992371, Lat : 49.2837028, Lng : -123.1148797, Q1 : 0.94269233942, Q2 : 0.0448475293815, Q3 : -0.142590031028, Q4 : 0.2983084023}
2019-04-14 16:58:12.01: SIM {TimeUS : 60634903, Roll : 0.05, Pitch : -17.23, Yaw : 35.02, Alt : 49.2999992371, Lat : 49.2837059, Lng : -123.1148762, Q1 : 0.942855775356, Q2 : 0.0455755256116, Q3 : -0.142755493522, Q4 : 0.297601699829}
2019-04-14 16:58:12.11: SIM {TimeUS : 60734863, Roll : 0.13, Pitch : -17.27, Yaw : 34.94, Alt : 49.2999992371, Lat : 49.2837091, Lng : -123.1148727, Q1 : 0.942995667458, Q2 : 0.0462281033397, Q3 : -0.142910391092, Q4 : 0.296982854605}
2019-04-14 16:58:12.21: SIM {TimeUS : 60834823, Roll : 0.18, Pitch : -17.31, Yaw : 34.87, Alt : 49.2999992371, Lat : 49.2837124, Lng : -123.1148692, Q1 : 0.943111658096, Q2 : 0.0466360636055, Q3 : -0.143091797829, Q4 : 0.296463012695}
2019-04-14 16:58:12.31: SIM {TimeUS : 60934783, Roll : 0.19, Pitch : -17.32, Yaw : 34.82, Alt : 49.2999992371, Lat : 49.2837156, Lng : -123.1148657, Q1 : 0.943211555481, Q2 : 0.0466928444803, Q3 : -0.143225714564, Q4 : 0.296071231365}
2019-04-14 16:58:12.41: SIM {TimeUS : 61034743, Roll : 0.17, Pitch : -17.33, Yaw : 34.79, Alt : 49.2999992371, Lat : 49.2837188, Lng : -123.1148622, Q1 : 0.943281233311, Q2 : 0.0465020425618, Q3 : -0.143347769976, Q4 : 0.295820116997}
2019-04-14 16:58:12.51: SIM {TimeUS : 61134703, Roll : 0.16, Pitch : -17.33, Yaw : 34.78, Alt : 49.3100013733, Lat : 49.2837222, Lng : -123.1148587, Q1 : 0.943315923214, Q2 : 0.0463979169726, Q3 : -0.143362671137, Q4 : 0.295718580484}
2019-04-14 16:58:12.62: SIM {TimeUS : 61235496, Roll : 0.15, Pitch : -17.33, Yaw : 34.78, Alt : 49.3100013733, Lat : 49.2837254, Lng : -123.1148551, Q1 : 0.943315207958, Q2 : 0.0462983585894, Q3 : -0.143410354853, Q4 : 0.29571339488}
2019-04-14 16:58:12.71: SIM {TimeUS : 61335456, Roll : 0.15, Pitch : -17.36, Yaw : 34.79, Alt : 49.3100013733, Lat : 49.2837288, Lng : -123.1148515, Q1 : 0.943255543709, Q2 : 0.0463724657893, Q3 : -0.143636852503, Q4 : 0.295782119036}
2019-04-14 16:58:12.81: SIM {TimeUS : 61435416, Roll : 0.15, Pitch : -17.41, Yaw : 34.81, Alt : 49.3100013733, Lat : 49.283732, Lng : -123.114848, Q1 : 0.943146884441, Q2 : 0.0465708337724, Q3 : -0.144064739347, Q4 : 0.295889317989}
2019-04-14 16:58:12.91: SIM {TimeUS : 61535376, Roll : 0.15, Pitch : -17.45, Yaw : 34.82, Alt : 49.3100013733, Lat : 49.2837354, Lng : -123.1148444, Q1 : 0.943059444427, Q2 : 0.0466597191989, Q3 : -0.144367411733, Q4 : 0.296006381512}
2019-04-14 16:58:13.01: SIM {TimeUS : 61635336, Roll : 0.14, Pitch : -17.46, Yaw : 34.84, Alt : 49.3100013733, Lat : 49.2837387, Lng : -123.1148408, Q1 : 0.943006455898, Q2 : 0.046679418534, Q3 : -0.144476160407, Q4 : 0.296119123697}
2019-04-14 16:58:13.11: SIM {TimeUS : 61735296, Roll : 0.13, Pitch : -17.47, Yaw : 34.85, Alt : 49.3100013733, Lat : 49.2837419, Lng : -123.1148372, Q1 : 0.942978858948, Q2 : 0.0465900227427, Q3 : -0.144608572125, Q4 : 0.296156436205}
2019-04-14 16:58:13.21: SIM {TimeUS : 61835256, Roll : 0.1, Pitch : -17.49, Yaw : 34.85, Alt : 49.3100013733, Lat : 49.2837453, Lng : -123.1148336, Q1 : 0.942961513996, Q2 : 0.0463921390474, Q3 : -0.144878983498, Q4 : 0.296110570431}
2019-04-14 16:58:13.31: SIM {TimeUS : 61935216, Roll : 0.09, Pitch : -17.52, Yaw : 34.84, Alt : 49.3100013733, Lat : 49.2837486, Lng : -123.11483, Q1 : 0.942956089973, Q2 : 0.0463519617915, Q3 : -0.14507932961, Q4 : 0.296035975218}
2019-04-14 16:58:13.41: SIM {TimeUS : 62035176, Roll : 0.08, Pitch : -17.53, Yaw : 34.83, Alt : 49.3100013733, Lat : 49.283752, Lng : -123.1148263, Q1 : 0.942971527576, Q2 : 0.046335760504, Q3 : -0.145251512527, Q4 : 0.295904904604}
2019-04-14 16:58:13.51: SIM {TimeUS : 62135136, Roll : 0.08, Pitch : -17.55, Yaw : 34.8, Alt : 49.3100013733, Lat : 49.2837553, Lng : -123.1148227, Q1 : 0.943005502224, Q2 : 0.0463782027364, Q3 : -0.145364314318, Q4 : 0.295734643936}
2019-04-14 16:58:13.61: SIM {TimeUS : 62235096, Roll : 0.1, Pitch : -17.57, Yaw : 34.78, Alt : 49.3199996948, Lat : 49.2837588, Lng : -123.114819, Q1 : 0.943040430546, Q2 : 0.0464939922094, Q3 : -0.145534262061, Q4 : 0.295521378517}
2019-04-14 16:58:13.71: SIM {TimeUS : 62335056, Roll : 0.11, Pitch : -17.59, Yaw : 34.75, Alt : 49.3199996948, Lat : 49.283762, Lng : -123.1148154, Q1 : 0.943091452122, Q2 : 0.0466288924217, Q3 : -0.145623460412, Q4 : 0.295293182135}
2019-04-14 16:58:13.81: SIM {TimeUS : 62435016, Roll : 0.13, Pitch : -17.6, Yaw : 34.72, Alt : 49.3199996948, Lat : 49.2837655, Lng : -123.1148117, Q1 : 0.943138897419, Q2 : 0.0468091331422, Q3 : -0.145695284009, Q4 : 0.295077741146}
2019-04-14 16:58:13.91: SIM {TimeUS : 62534976, Roll : 0.16, Pitch : -17.61, Yaw : 34.69, Alt : 49.3199996948, Lat : 49.2837689, Lng : -123.1148081, Q1 : 0.943175494671, Q2 : 0.0470642186701, Q3 : -0.145750105381, Q4 : 0.294893056154}
2019-04-14 16:58:14.01: SIM {TimeUS : 62634936, Roll : 0.18, Pitch : -17.65, Yaw : 34.67, Alt : 49.3199996948, Lat : 49.2837722, Lng : -123.1148044, Q1 : 0.943184018135, Q2 : 0.0472644679248, Q3 : -0.146001815796, Q4 : 0.294709205627}
2019-04-14 16:58:14.11: SIM {TimeUS : 62734896, Roll : 0.18, Pitch : -17.69, Yaw : 34.65, Alt : 49.3199996948, Lat : 49.2837757, Lng : -123.1148007, Q1 : 0.943185448647, Q2 : 0.0473437383771, Q3 : -0.146339401603, Q4 : 0.294524252415}
2019-04-14 16:58:14.21: SIM {TimeUS : 62834856, Roll : 0.17, Pitch : -17.73, Yaw : 34.63, Alt : 49.3199996948, Lat : 49.283779, Lng : -123.114797, Q1 : 0.9431822896, Q2 : 0.0473693795502, Q3 : -0.146702989936, Q4 : 0.294349342585}
2019-04-14 16:58:14.31: SIM {TimeUS : 62934816, Roll : 0.18, Pitch : -17.76, Yaw : 34.62, Alt : 49.3199996948, Lat : 49.2837825, Lng : -123.1147933, Q1 : 0.943182945251, Q2 : 0.047471370548, Q3 : -0.146923840046, Q4 : 0.294220626354}
2019-04-14 16:58:14.41: SIM {TimeUS : 63034776, Roll : 0.19, Pitch : -17.77, Yaw : 34.6, Alt : 49.3199996948, Lat : 49.283786, Lng : -123.1147896, Q1 : 0.943203508854, Q2 : 0.0475358963013, Q3 : -0.14697830379, Q4 : 0.294117152691}
2019-04-14 16:58:14.51: SIM {TimeUS : 63134736, Roll : 0.2, Pitch : -17.76, Yaw : 34.59, Alt : 49.3199996948, Lat : 49.2837893, Lng : -123.1147859, Q1 : 0.943243026733, Q2 : 0.0475512035191, Q3 : -0.14688411355, Q4 : 0.29403501749}
2019-04-14 16:58:14.61: SIM {TimeUS : 63234696, Roll : 0.18, Pitch : -17.74, Yaw : 34.58, Alt : 49.3199996948, Lat : 49.2837928, Lng : -123.1147822, Q1 : 0.943286657333, Q2 : 0.0473952107131, Q3 : -0.146805435419, Q4 : 0.293959408998}
2019-04-14 16:58:14.71: SIM {TimeUS : 63335489, Roll : 0.17, Pitch : -17.73, Yaw : 34.58, Alt : 49.3199996948, Lat : 49.2837963, Lng : -123.1147785, Q1 : 0.943327367306, Q2 : 0.047251727432, Q3 : -0.146704643965, Q4 : 0.293902337551}
2019-04-14 16:58:14.81: SIM {TimeUS : 63435449, Roll : 0.17, Pitch : -17.71, Yaw : 34.57, Alt : 49.3199996948, Lat : 49.2837998, Lng : -123.1147747, Q1 : 0.943364620209, Q2 : 0.0471810139716, Q3 : -0.146561056376, Q4 : 0.293865710497}
2019-04-14 16:58:14.91: SIM {TimeUS : 63535409, Roll : 0.16, Pitch : -17.72, Yaw : 34.57, Alt : 49.3199996948, Lat : 49.2838032, Lng : -123.114771, Q1 : 0.943369746208, Q2 : 0.0471579805017, Q3 : -0.146632611752, Q4 : 0.293817281723}
2019-04-14 16:58:15.01: SIM {TimeUS : 63635369, Roll : 0.16, Pitch : -17.74, Yaw : 34.56, Alt : 49.3300018311, Lat : 49.2838067, Lng : -123.1147672, Q1 : 0.943358123302, Q2 : 0.0472019352019, Q3 : -0.146797865629, Q4 : 0.293764948845}
2019-04-14 16:58:15.11: SIM {TimeUS : 63735329, Roll : 0.15, Pitch : -17.78, Yaw : 34.56, Alt : 49.3300018311, Lat : 49.2838102, Lng : -123.1147635, Q1 : 0.943324506283, Q2 : 0.0472228527069, Q3 : -0.147179245949, Q4 : 0.293678611517}
2019-04-14 16:58:15.21: SIM {TimeUS : 63835289, Roll : 0.15, Pitch : -17.83, Yaw : 34.55, Alt : 49.3300018311, Lat : 49.2838135, Lng : -123.1147597, Q1 : 0.94328212738, Q2 : 0.0473109669983, Q3 : -0.147614523768, Q4 : 0.293582260609}
2019-04-14 16:58:15.31: SIM {TimeUS : 63935249, Roll : 0.16, Pitch : -17.87, Yaw : 34.54, Alt : 49.3300018311, Lat : 49.2838171, Lng : -123.114756, Q1 : 0.943255245686, Q2 : 0.0474853515625, Q3 : -0.147906437516, Q4 : 0.293493449688}
2019-04-14 16:58:15.41: SIM {TimeUS : 64035209, Roll : 0.16, Pitch : -17.9, Yaw : 34.52, Alt : 49.3300018311, Lat : 49.2838206, Lng : -123.1147522, Q1 : 0.943241298199, Q2 : 0.0475513711572, Q3 : -0.148190811276, Q4 : 0.293384104967}
2019-04-14 16:58:15.51: SIM {TimeUS : 64135169, Roll : 0.16, Pitch : -17.92, Yaw : 34.51, Alt : 49.3300018311, Lat : 49.283824, Lng : -123.1147485, Q1 : 0.943246483803, Q2 : 0.04756815359, Q3 : -0.148384273052, Q4 : 0.293266922235}
2019-04-14 16:58:15.61: SIM {TimeUS : 64235129, Roll : 0.17, Pitch : -17.92, Yaw : 34.5, Alt : 49.3300018311, Lat : 49.2838275, Lng : -123.1147447, Q1 : 0.943284034729, Q2 : 0.0476509854198, Q3 : -0.148290246725, Q4 : 0.293180137873}
2019-04-14 16:58:15.71: SIM {TimeUS : 64335089, Roll : 0.2, Pitch : -17.92, Yaw : 34.48, Alt : 49.3300018311, Lat : 49.2838311, Lng : -123.1147409, Q1 : 0.943303883076, Q2 : 0.0478462763131, Q3 : -0.148287415504, Q4 : 0.293086022139}
2019-04-14 16:58:15.81: SIM {TimeUS : 64435049, Roll : 0.2, Pitch : -17.94, Yaw : 34.47, Alt : 49.3300018311, Lat : 49.2838346, Lng : -123.1147371, Q1 : 0.943315148354, Q2 : 0.0479333214462, Q3 : -0.148431405425, Q4 : 0.292962580919}
2019-04-14 16:58:15.91: SIM {TimeUS : 64535009, Roll : 0.21, Pitch : -17.95, Yaw : 34.45, Alt : 49.3300018311, Lat : 49.283838, Lng : -123.1147334, Q1 : 0.943343102932, Q2 : 0.0479888133705, Q3 : -0.148474216461, Q4 : 0.292841881514}
2019-04-14 16:58:16.01: SIM {TimeUS : 64634969, Roll : 0.22, Pitch : -17.94, Yaw : 34.44, Alt : 49.3300018311, Lat : 49.2838415, Lng : -123.1147296, Q1 : 0.943388342857, Q2 : 0.0480243526399, Q3 : -0.148373529315, Q4 : 0.292741209269}
2019-04-14 16:58:16.11: SIM {TimeUS : 64734929, Roll : 0.23, Pitch : -17.93, Yaw : 34.42, Alt : 49.3300018311, Lat : 49.2838451, Lng : -123.1147257, Q1 : 0.943425238132, Q2 : 0.0480429045856, Q3 : -0.148338124156, Q4 : 0.292637228966}
2019-04-14 16:58:16.21: SIM {TimeUS : 64834889, Roll : 0.21, Pitch : -17.95, Yaw : 34.41, Alt : 49.3300018311, Lat : 49.2838486, Lng : -123.114722, Q1 : 0.943440198898, Q2 : 0.047948461026, Q3 : -0.148525670171, Q4 : 0.292509377003}
2019-04-14 16:58:16.31: SIM {TimeUS : 64934849, Roll : 0.18, Pitch : -17.99, Yaw : 34.4, Alt : 49.3300018311, Lat : 49.2838521, Lng : -123.1147182, Q1 : 0.943429589272, Q2 : 0.0477727167308, Q3 : -0.148937344551, Q4 : 0.292362928391}
2019-04-14 16:58:16.41: SIM {TimeUS : 65034809, Roll : 0.16, Pitch : -18.0, Yaw : 34.39, Alt : 49.3300018311, Lat : 49.2838556, Lng : -123.1147144, Q1 : 0.943450212479, Q2 : 0.0476012192667, Q3 : -0.14907579124, Q4 : 0.292253702879}
2019-04-14 16:58:16.51: SIM {TimeUS : 65134769, Roll : 0.16, Pitch : -17.99, Yaw : 34.38, Alt : 49.3300018311, Lat : 49.2838591, Lng : -123.1147106, Q1 : 0.943482279778, Q2 : 0.0476019494236, Q3 : -0.148983299732, Q4 : 0.29219725728}
2019-04-14 16:58:16.61: SIM {TimeUS : 65234729, Roll : 0.17, Pitch : -17.98, Yaw : 34.38, Alt : 49.3400001526, Lat : 49.2838627, Lng : -123.1147068, Q1 : 0.94351041317, Q2 : 0.047676242888, Q3 : -0.148862197995, Q4 : 0.292155951262}
2019-04-14 16:58:16.72: SIM {TimeUS : 65335522, Roll : 0.19, Pitch : -17.98, Yaw : 34.37, Alt : 49.3400001526, Lat : 49.2838663, Lng : -123.1147029, Q1 : 0.943519353867, Q2 : 0.0477820038795, Q3 : -0.148872897029, Q4 : 0.292104363441}
2019-04-14 16:58:16.81: SIM {TimeUS : 65435482, Roll : 0.18, Pitch : -18.0, Yaw : 34.36, Alt : 49.3400001526, Lat : 49.2838698, Lng : -123.1146991, Q1 : 0.943526625633, Q2 : 0.0477325022221, Q3 : -0.148996159434, Q4 : 0.292026162148}
2019-04-14 16:58:16.91: SIM {TimeUS : 65535442, Roll : 0.16, Pitch : -18.01, Yaw : 34.35, Alt : 49.3400001526, Lat : 49.2838734, Lng : -123.1146953, Q1 : 0.9435313344, Q2 : 0.0475800037384, Q3 : -0.14920450747, Q4 : 0.291929483414}
2019-04-14 16:58:17.01: SIM {TimeUS : 65635402, Roll : 0.14, Pitch : -18.04, Yaw : 34.35, Alt : 49.3400001526, Lat : 49.2838768, Lng : -123.1146914, Q1 : 0.943527817726, Q2 : 0.047528129071, Q3 : -0.149426490068, Q4 : 0.291835695505}
2019-04-14 16:58:17.11: SIM {TimeUS : 65735362, Roll : 0.15, Pitch : -18.06, Yaw : 34.34, Alt : 49.3400001526, Lat : 49.2838804, Lng : -123.1146876, Q1 : 0.943518936634, Q2 : 0.0476296953857, Q3 : -0.149605065584, Q4 : 0.291756391525}
2019-04-14 16:58:17.21: SIM {TimeUS : 65835322, Roll : 0.16, Pitch : -18.08, Yaw : 34.33, Alt : 49.3400001526, Lat : 49.283884, Lng : -123.1146838, Q1 : 0.943511784077, Q2 : 0.0477517992258, Q3 : -0.149754524231, Q4 : 0.291682928801}
2019-04-14 16:58:17.31: SIM {TimeUS : 65935282, Roll : 0.18, Pitch : -18.09, Yaw : 34.32, Alt : 49.3400001526, Lat : 49.2838876, Lng : -123.11468, Q1 : 0.943512260914, Q2 : 0.0479624085128, Q3 : -0.149805635214, Q4 : 0.291620612144}
2019-04-14 16:58:17.41: SIM {TimeUS : 66035242, Roll : 0.19, Pitch : -18.11, Yaw : 34.3, Alt : 49.3400001526, Lat : 49.2838912, Lng : -123.1146761, Q1 : 0.943511664867, Q2 : 0.0480843819678, Q3 : -0.14993289113, Q4 : 0.291536927223}
2019-04-14 16:58:17.51: SIM {TimeUS : 66135202, Roll : 0.2, Pitch : -18.13, Yaw : 34.29, Alt : 49.3400001526, Lat : 49.2838947, Lng : -123.1146723, Q1 : 0.943510174751, Q2 : 0.0481978543103, Q3 : -0.150065645576, Q4 : 0.291454792023}
2019-04-14 16:58:17.61: SIM {TimeUS : 66235162, Roll : 0.22, Pitch : -18.15, Yaw : 34.28, Alt : 49.3400001526, Lat : 49.2838983, Lng : -123.1146685, Q1 : 0.943507134914, Q2 : 0.0483707413077, Q3 : -0.150150090456, Q4 : 0.291392326355}
