2019-04-14 15:44:04.20: SIM {TimeUS : 40816167, Roll : 0.0, Pitch : 0.0, Yaw : 0.0, Alt : 30.1000003815, Lat : 49.28357, Lng : -123.11502, Q1 : 1.0, Q2 : 0.0, Q3 : 0.0, Q4 : 0.0}
2019-04-14 15:44:04.31: SIM {TimeUS : 40935286, Roll : 0.0, Pitch : 0.0, Yaw : 0.0, Alt : 30.1000003815, Lat : 49.28357, Lng : -123.11502, Q1 : 1.0, Q2 : 0.0, Q3 : 0.0, Q4 : 0.0}
2019-04-14 15:44:04.41: SIM {TimeUS : 41035246, Roll : 0.0, Pitch : 0.0, Yaw : 0.0, Alt : 30.1000003815, Lat : 49.28357, Lng : -123.11502, Q1 : 1.0, Q2 : 0.0, Q3 : 0.0, Q4 : 0.0}
2019-04-14 15:44:04.51: SIM {TimeUS : 41135206, Roll : 0.0, Pitch : 0.0, Yaw : 0.0, Alt : 30.1000003815, Lat : 49.28357, Lng : -123.11502, Q1 : 1.0, Q2 : 0.0, Q3 : 0.0, Q4 : 0.0}
2019-04-14 15:44:04.61: SIM {TimeUS : 41235166, Roll : 0.0, Pitch : 0.0, Yaw : 0.0, Alt : 30.1000003815, Lat : 49.28357, Lng : -123.11502, Q1 : 1.0, Q2 : 0.0, Q3 : 0.0, Q4 : 0.0}
2019-04-14 15:44:04.71: SIM {TimeUS : 41335126, Roll : 0.0, Pitch : 0.0, Yaw : 0.0, Alt : 30.1000003815, Lat : 49.28357, Lng : -123.11502, Q1 : 1.0, Q2 : 0.0, Q3 : 0.0, Q4 : 0.0}
2019-04-14 15:44:04.81: SIM {TimeUS : 41435086, Roll : 0.0, Pitch : 0.0, Yaw : 0.0, Alt : 30.1000003815, Lat : 49.28357, Lng : -123.11502, Q1 : 1.0, Q2 : 0.0, Q3 : 0.0, Q4 : 0.0}
2019-04-14 15:44:04.91: SIM {TimeUS : 41535046, Roll : 0.0, Pitch : 0.0, Yaw : 0.0, Alt : 30.1000003815, Lat : 49.28357, Lng : -123.11502, Q1 : 1.0, Q2 : 0.0, Q3 : 0.0, Q4 : 0.0}
2019-04-14 15:44:05.01: SIM {TimeUS : 41635006, Roll : 0.0, Pitch : 0.0, Yaw : 0.0, Alt : 30.1000003815, Lat : 49.28357, Lng : -123.11502, Q1 : 1.0, Q2 : 0.0, Q3 : 0.0, Q4 : 0.0}
2019-04-14 15:44:05.11: SIM {TimeUS : 41734966, Roll : 0.0, Pitch : 0.0, Yaw : 0.0, Alt : 30.1000003815, Lat : 49.28357, Lng : -123.11502, Q1 : 1.0, Q2 : 0.0, Q3 : 0.0, Q4 : 0.0}
2019-04-14 15:44:05.21: SIM {TimeUS : 41834926, Roll : 0.0, Pitch : 0.0, Yaw : 0.0, Alt : 30.1000003815, Lat : 49.28357, Lng : -123.11502, Q1 : 1.0, Q2 : 0.0, Q3 : 0.0, Q4 : 0.0}
2019-04-14 15:44:05.31: SIM {TimeUS : 41934886, Roll : 0.0, Pitch : 0.0, Yaw : 0.0, Alt : 30.1000003815, Lat : 49.28357, Lng : -123.11502, Q1 : 1.0, Q2 : 0.0, Q3 : 0.0, Q4 : 0.0}
2019-04-14 15:44:05.41: SIM {TimeUS : 42034846, Roll : 0.0, Pitch : 0.0, Yaw : 0.0, Alt : 30.1000003815, Lat : 49.28357, Lng : -123.11502, Q1 : 1.0, Q2 : 0.0, Q3 : 0.0, Q4 : 0.0}
2019-04-14 15:44:05.51: SIM {TimeUS : 42134806, Roll : 0.0, Pitch : 0.0, Yaw : 0.0, Alt : 30.1000003815, Lat : 49.28357, Lng : -123.11502, Q1 : 1.0, Q2 : 0.0, Q3 : 0.0, Q4 : 0.0}
2019-04-14 15:44:05.61: SIM {TimeUS : 42234766, Roll : 0.0, Pitch : 0.0, Yaw : 0.0, Alt : 30.1000003815, Lat : 49.28357, Lng : -123.11502, Q1 : 1.0, Q2 : 0.0, Q3 : 0.0, Q4 : 0.0}
2019-04-14 15:44:05.71: SIM {TimeUS : 42334726, Roll : 0.0, Pitch : 0.0, Yaw : 0.0, Alt : 30.1000003815, Lat : 49.28357, Lng : -123.11502, Q1 : 1.0, Q2 : 0.0, Q3 : 0.0, Q4 : 0.0}
2019-04-14 15:44:05.81: SIM {TimeUS : 42434686, Roll : 0.0, Pitch : 0.0, Yaw : 0.0, Alt : 30.1000003815, Lat : 49.28357, Lng : -123.11502, Q1 : 1.0, Q2 : 0.0, Q3 : 0.0, Q4 : 0.0}
2019-04-14 15:44:05.91: SIM {TimeUS : 42534646, Roll : 0.0, Pitch : 0.0, Yaw : 0.0, Alt : 30.1000003815, Lat : 49.28357, Lng : -123.11502, Q1 : 1.0, Q2 : 0.0, Q3 : 0.0, Q4 : 0.0}
2019-04-14 15:44:06.01: SIM {TimeUS : 42634606, Roll : 0.0, Pitch : 0.0, Yaw : 0.0, Alt : 30.1000003815, Lat : 49.28357, Lng : -123.11502, Q1 : 1.0, Q2 : 0.0, Q3 : 0.0, Q4 : 0.0}
2019-04-14 15:44:06.11: SIM {TimeUS : 42734566, Roll : 0.0, Pitch : 0.0, Yaw : 0.0, Alt : 30.1000003815, Lat : 49.28357, Lng : -123.11502, Q1 : 1.0, Q2 : 0.0, Q3 : 0.0, Q4 : 0.0}
2019-04-14 15:44:06.21: SIM {TimeUS : 42834526, Roll : 0.0, Pitch : 0.0, Yaw : 0.0, Alt : 30.1000003815, Lat : 49.28357, Lng : -123.11502, Q1 : 1.0, Q2 : 0.0, Q3 : 0.0, Q4 : 0.0}
2019-04-14 15:44:06.31: SIM {TimeUS : 42935319, Roll : 0.0, Pitch : 0.0, Yaw : 0.0, Alt : 30.1000003815, Lat : 49.28357, Lng : -123.11502, Q1 : 1.0, Q2 : 0.0, Q3 : 0.0, Q4 : 0.0}
2019-04-14 15:44:06.41: SIM {TimeUS : 43035279, Roll : 0.0, Pitch : 0.0, Yaw : 0.0, Alt : 30.1000003815, Lat : 49.28357, Lng : -123.11502, Q1 : 1.0, Q2 : 0.0, Q3 : 0.0, Q4 : 0.0}
2019-04-14 15:44:06.51: SIM {TimeUS : 43135239, Roll : 0.0, Pitch : 0.0, Yaw : 360.0, Alt : 30.1000003815, Lat : 49.28357, Lng : -123.11502, Q1 : 1.0, Q2 : 0.0, Q3 : 0.0, Q4 : -1.17322046175e-11}
2019-04-14 15:44:06.61: SIM {TimeUS : 43235199, Roll : 0.0, Pitch : 0.0, Yaw : 0.0, Alt : 30.1000003815, Lat : 49.28357, Lng : -123.11502, Q1 : 1.0, Q2 : 0.0, Q3 : 0.0, Q4 : 2.90170977524e-11}
2019-04-14 15:44:06.71: SIM {TimeUS : 43335159, Roll : 0.0, Pitch : 0.0, Yaw : 360.0, Alt : 30.1000003815, Lat : 49.28357, Lng : -123.11502, Q1 : 1.0, Q2 : 0.0, Q3 : 0.0, Q4 : -1.45012350572e-07}
2019-04-14 15:44:06.81: SIM {TimeUS : 43435119, Roll : 0.0, Pitch : 0.0, Yaw : 359.99, Alt : 30.1000003815, Lat : 49.28357, Lng : -123.11502, Q1 : 1.0, Q2 : 0.0, Q3 : 0.0, Q4 : -2.87542519573e-07}
2019-04-14 15:44:06.91: SIM {TimeUS : 43535079, Roll : 0.0, Pitch : 0.0, Yaw : 359.99, Alt : 30.1000003815, Lat : 49.28357, Lng : -123.11502, Q1 : 1.0, Q2 : 0.0, Q3 : 0.0, Q4 : -5.08034474933e-07}
2019-04-14 15:44:07.01: SIM {TimeUS : 43635039, Roll : 0.0, Pitch : 0.0, Yaw : 359.99, Alt : 30.1000003815, Lat : 49.28357, Lng : -123.11502, Q1 : 1.0, Q2 : 0.0, Q3 : 0.0, Q4 : -6.69727228342e-07}
2019-04-14 15:44:07.11: SIM {TimeUS : 43734999, Roll : 0.0, Pitch : 0.0, Yaw : 359.99, Alt : 30.1000003815, Lat : 49.28357, Lng : -123.11502, Q1 : 1.0, Q2 : 0.0, Q3 : 0.0, Q4 : -9.07138939965e-07}
2019-04-14 15:44:07.21: SIM {TimeUS : 43834959, Roll : 0.0, Pitch : 0.0, Yaw : 359.99, Alt : 30.1000003815, Lat : 49.28357, Lng : -123.11502, Q1 : 1.0, Q2 : 0.0, Q3 : 0.0, Q4 : -1.05910646653e-06}
2019-04-14 15:44:07.31: SIM {TimeUS : 43934919, Roll : 0.0, Pitch : 0.0, Yaw : 359.99, Alt : 30.1000003815, Lat : 49.28357, Lng : -123.11502, Q1 : 1.0, Q2 : 0.0, Q3 : 0.0, Q4 : -1.21973164369e-06}
2019-04-14 15:44:07.41: SIM {TimeUS : 44034879, Roll : 0.0, Pitch : 0.0, Yaw : 359.99, Alt : 30.1100006104, Lat : 49.28357, Lng : -123.11502, Q1 : 1.0, Q2 : 0.0, Q3 : 0.0, Q4 : -1.41939676723e-06}
2019-04-14 15:44:07.51: SIM {TimeUS : 44134839, Roll : 0.0, Pitch : 0.0, Yaw : 359.99, Alt : 30.1399993896, Lat : 49.28357, Lng : -123.11502, Q1 : 1.0, Q2 : 0.0, Q3 : 0.0, Q4 : -1.58528962402e-06}
2019-04-14 15:44:07.61: SIM {TimeUS : 44234799, Roll : 0.0, Pitch : 0.0, Yaw : 359.99, Alt : 30.1599998474, Lat : 49.28357, Lng : -123.11502, Q1 : 1.0, Q2 : 0.0, Q3 : 0.0, Q4 : -1.80408801498e-06}
2019-04-14 15:44:07.71: SIM {TimeUS : 44334759, Roll : 0.0, Pitch : 0.0, Yaw : 359.99, Alt : 30.2000007629, Lat : 49.28357, Lng : -123.11502, Q1 : 1.0, Q2 : 0.0, Q3 : 0.0, Q4 : -1.95168081518e-06}
2019-04-14 15:44:07.81: SIM {TimeUS : 44434719, Roll : -0.08, Pitch : -0.08, Yaw : 359.99, Alt : 30.25, Lat : 49.28357, Lng : -123.11502, Q1 : 0.999999403954, Q2 : -0.000768076162785, Q3 : -0.000740190502256, Q4 : -1.07140931505e-05}
2019-04-14 15:44:07.91: SIM {TimeUS : 44534679, Roll : -0.38, Pitch : -0.32, Yaw : 359.99, Alt : 30.3400001526, Lat : 49.28357, Lng : -123.11502, Q1 : 0.999990522861, Q2 : -0.00332622439601, Q3 : -0.0028095736634, Q4 : -4.84469928779e-05}
2019-04-14 15:44:08.01: SIM {TimeUS : 44634639, Roll : -0.69, Pitch : -0.55, Yaw : 359.99, Alt : 30.4899997711, Lat : 49.28357, Lng : -123.11502, Q1 : 0.99996984005, Q2 : -0.00610435614362, Q3 : -0.00480204448104, Q4 : -0.00011308183457}
2019-04-14 15:44:08.11: SIM {TimeUS : 44734599, Roll : -0.87, Pitch : -0.68, Yaw : 359.98, Alt : 30.6499996185, Lat : 49.28357, Lng : -123.11502, Q1 : 0.999952971935, Q2 : -0.00762123381719, Q3 : -0.00599256996065, Q4 : -0.000193805230083}
2019-04-14 15:44:08.21: SIM {TimeUS : 44834559, Roll : -0.85, Pitch : -0.7, Yaw : 359.97, Alt : 30.7999992371, Lat : 49.28357, Lng : -123.11502, Q1 : 0.999953210354, Q2 : -0.00747149763629, Q3 : -0.00613912614062, Q4 : -0.00027572500403}
2019-04-14 15:44:08.31: SIM {TimeUS : 44934519, Roll : -0.69, Pitch : -0.6, Yaw : 359.96, Alt : 30.9599990845, Lat : 49.28357, Lng : -123.1150201, Q1 : 0.999967694283, Q2 : -0.00604265322909, Q3 : -0.00528577156365, Q4 : -0.000348839123035}
2019-04-14 15:44:08.41: SIM {TimeUS : 45035312, Roll : -0.44, Pitch : -0.43, Yaw : 359.95, Alt : 31.1100006104, Lat : 49.2835701, Lng : -123.1150201, Q1 : 0.999985039234, Q2 : -0.00392712187022, Q3 : -0.00378702883609, Q4 : -0.000409105967265}
2019-04-14 15:44:08.51: SIM {TimeUS : 45135272, Roll : -0.2, Pitch : -0.24, Yaw : 359.94, Alt : 31.2700004578, Lat : 49.2835701, Lng : -123.1150202, Q1 : 0.999996125698, Q2 : -0.00177503190935, Q3 : -0.00210057082586, Q4 : -0.000455646746559}
2019-04-14 15:44:08.61: SIM {TimeUS : 45235232, Roll : -0.02, Pitch : -0.06, Yaw : 359.94, Alt : 31.4400005341, Lat : 49.2835702, Lng : -123.1150203, Q1 : 0.999999701977, Q2 : -0.000195070169866, Q3 : -0.00060448597651, Q4 : -0.000488202291308}
2019-04-14 15:44:08.71: SIM {TimeUS : 45335192, Roll : 0.06, Pitch : 0.05, Yaw : 359.94, Alt : 31.6100006104, Lat : 49.2835702, Lng : -123.1150204, Q1 : 0.999999582767, Q2 : 0.000590650888626, Q3 : 0.00045974587556, Q4 : -0.000508824596182}
2019-04-14 15:44:08.81: SIM {TimeUS : 45435152, Roll : 0.07, Pitch : 0.11, Yaw : 359.94, Alt : 31.7900009155, Lat : 49.2835703, Lng : -123.1150204, Q1 : 0.99999910593, Q2 : 0.000653132796288, Q3 : 0.00103567808401, Q4 : -0.000511932303198}
2019-04-14 15:44:08.91: SIM {TimeUS : 45535112, Roll : 0.06, Pitch : 0.14, Yaw : 359.94, Alt : 31.9799995422, Lat : 49.2835703, Lng : -123.1150205, Q1 : 0.999998867512, Q2 : 0.000538660213351, Q3 : 0.00128652458079, Q4 : -0.000519380089827}
2019-04-14 15:44:09.01: SIM {TimeUS : 45635072, Roll : 0.05, Pitch : 0.14, Yaw : 359.94, Alt : 32.1599998474, Lat : 49.2835703, Lng : -123.1150206, Q1 : 0.999998986721, Q2 : 0.000442793680122, Q3 : 0.00126755132806, Q4 : -0.000517836713698}
2019-04-14 15:44:09.11: SIM {TimeUS : 45735032, Roll : 0.04, Pitch : 0.14, Yaw : 359.94, Alt : 32.3499984741, Lat : 49.2835703, Lng : -123.1150206, Q1 : 0.999999046326, Q2 : 0.000389769120375, Q3 : 0.0012339168461, Q4 : -0.000512637197971}
2019-04-14 15:44:09.21: SIM {TimeUS : 45834992, Roll : 0.05, Pitch : 0.14, Yaw : 359.94, Alt : 32.5499992371, Lat : 49.2835703, Lng : -123.1150206, Q1 : 0.999999046326, Q2 : 0.00048702332424, Q3 : 0.00123042822815, Q4 : -0.000500338850543}
2019-04-14 15:44:09.31: SIM {TimeUS : 45934952, Roll : 0.08, Pitch : 0.12, Yaw : 359.94, Alt : 32.7400016785, Lat : 49.2835703, Lng : -123.1150207, Q1 : 0.999999046326, Q2 : 0.000743396405596, Q3 : 0.00105739012361, Q4 : -0.000483918003738}
2019-04-14 15:44:09.41: SIM {TimeUS : 46034912, Roll : 0.11, Pitch : 0.09, Yaw : 359.94, Alt : 32.9399986267, Lat : 49.2835703, Lng : -123.1150207, Q1 : 0.999999046326, Q2 : 0.00101037533022, Q3 : 0.000845867674798, Q4 : -0.000458866794361}
2019-04-14 15:44:09.51: SIM {TimeUS : 46134872, Roll : 0.13, Pitch : 0.09, Yaw : 359.94, Alt : 33.1399993896, Lat : 49.2835704, Lng : -123.1150207, Q1 : 0.999998807907, Q2 : 0.0012195839081, Q3 : 0.000841267989017, Q4 : -0.000442250311607}
2019-04-14 15:44:09.61: SIM {TimeUS : 46234832, Roll : 0.15, Pitch : 0.09, Yaw : 359.95, Alt : 33.3499984741, Lat : 49.2835704, Lng : -123.1150208, Q1 : 0.999998569489, Q2 : 0.00137399579398, Q3 : 0.00087082904065, Q4 : -0.00043025292689}
2019-04-14 15:44:09.71: SIM {TimeUS : 46334792, Roll : 0.17, Pitch : 0.11, Yaw : 359.95, Alt : 33.5499992371, Lat : 49.2835704, Lng : -123.1150208, Q1 : 0.999998271465, Q2 : 0.00149383838288, Q3 : 0.00101529189851, Q4 : -0.000417414761614}
2019-04-14 15:44:09.81: SIM {TimeUS : 46434752, Roll : 0.17, Pitch : 0.12, Yaw : 359.95, Alt : 33.7599983215, Lat : 49.2835704, Lng : -123.1150208, Q1 : 0.999998211861, Q2 : 0.00148460909259, Q3 : 0.00109511462506, Q4 : -0.000411390181398}
2019-04-14 15:44:09.91: SIM {TimeUS : 46534712, Roll : 0.15, Pitch : 0.12, Yaw : 359.95, Alt : 33.9700012207, Lat : 49.2835704, Lng : -123.1150208, Q1 : 0.999998450279, Q2 : 0.0013377640862, Q3 : 0.00108308449853, Q4 : -0.000414670619648}
2019-04-14 15:44:10.01: SIM {TimeUS : 46634672, Roll : 0.13, Pitch : 0.12, Yaw : 359.95, Alt : 34.1800003052, Lat : 49.2835704, Lng : -123.1150208, Q1 : 0.999998629093, Q2 : 0.0011558518745, Q3 : 0.00106131122448, Q4 : -0.000425522448495}
2019-04-14 15:44:10.11: SIM {TimeUS : 46734632, Roll : 0.1, Pitch : 0.11, Yaw : 359.94, Alt : 34.3899993896, Lat : 49.2835704, Lng : -123.1150208, Q1 : 0.999998927116, Q2 : 0.000956683885306, Q3 : 0.0010325810872, Q4 : -0.000446560385171}
2019-04-14 15:44:10.21: SIM {TimeUS : 46834592, Roll : 0.09, Pitch : 0.08, Yaw : 359.94, Alt : 34.5999984741, Lat : 49.2835704, Lng : -123.1150208, Q1 : 0.999999284744, Q2 : 0.000850642449223, Q3 : 0.000730649568141, Q4 : -0.000484789430629}
2019-04-14 15:44:10.31: SIM {TimeUS : 46934552, Roll : 0.08, Pitch : 0.05, Yaw : 359.93, Alt : 34.8199996948, Lat : 49.2835704, Lng : -123.1150208, Q1 : 0.999999463558, Q2 : 0.000776532513555, Q3 : 0.000448103412054, Q4 : -0.000528511358425}
2019-04-14 15:44:10.41: SIM {TimeUS : 47034512, Roll : 0.06, Pitch : 0.03, Yaw : 359.93, Alt : 35.0299987793, Lat : 49.2835704, Lng : -123.1150207, Q1 : 0.999999582767, Q2 : 0.000610010582022, Q3 : 0.000289579067612, Q4 : -0.000570236705244}
2019-04-14 15:44:10.51: SIM {TimeUS : 47135305, Roll : 0.05, Pitch : 0.02, Yaw : 359.93, Alt : 35.25, Lat : 49.2835704, Lng : -123.1150207, Q1 : 0.999999642372, Q2 : 0.000511708261911, Q3 : 0.000254590820987, Q4 : -0.000604150001891}
2019-04-14 15:44:10.61: SIM {TimeUS : 47235265, Roll : 0.05, Pitch : 0.02, Yaw : 359.92, Alt : 35.4700012207, Lat : 49.2835704, Lng : -123.1150207, Q1 : 0.999999642372, Q2 : 0.000502715818584, Q3 : 0.000249767879723, Q4 : -0.000627539353445}
2019-04-14 15:44:10.71: SIM {TimeUS : 47335225, Roll : 0.03, Pitch : 0.0, Yaw : 359.92, Alt : 35.6899986267, Lat : 49.2835704, Lng : -123.1150207, Q1 : 0.999999701977, Q2 : 0.000309602095513, Q3 : 5.18545130035e-05, Q4 : -0.000649310706649}
2019-04-14 15:44:10.81: SIM {TimeUS : 47435185, Roll : 0.0, Pitch : -0.03, Yaw : 359.92, Alt : 35.9099998474, Lat : 49.2835704, Lng : -123.1150207, Q1 : 0.999999761581, Q2 : 9.55420455284e-06, Q3 : -0.000269110372756, Q4 : -0.000670203880873}
2019-04-14 15:44:10.91: SIM {TimeUS : 47535145, Roll : -0.03, Pitch : -0.05, Yaw : 359.92, Alt : 36.1300010681, Lat : 49.2835704, Lng : -123.1150207, Q1 : 0.999999582767, Q2 : -0.000309718336212, Q3 : -0.000514988438226, Q4 : -0.000694677059073}
2019-04-14 15:44:11.01: SIM {TimeUS : 47635105, Roll : -0.06, Pitch : -0.07, Yaw : 359.91, Alt : 36.3499984741, Lat : 49.2835704, Lng : -123.1150207, Q1 : 0.999999403954, Q2 : -0.000577178434469, Q3 : -0.000645146006718, Q4 : -0.000716528913472}
2019-04-14 15:44:11.11: SIM {TimeUS : 47735065, Roll : -0.07, Pitch : -0.07, Yaw : 359.91, Alt : 36.5699996948, Lat : 49.2835704, Lng : -123.1150206, Q1 : 0.999999284744, Q2 : -0.000680022058077, Q3 : -0.000638178898953, Q4 : -0.00073521892773}
2019-04-14 15:44:11.21: SIM {TimeUS : 47835025, Roll : -0.08, Pitch : -0.06, Yaw : 359.91, Alt : 36.7999992371, Lat : 49.2835704, Lng : -123.1150206, Q1 : 0.999999284744, Q2 : -0.000701317097992, Q3 : -0.000602968386374, Q4 : -0.000753419706598}
2019-04-14 15:44:11.31: SIM {TimeUS : 47934985, Roll : -0.07, Pitch : -0.05, Yaw : 359.91, Alt : 37.0200004578, Lat : 49.2835704, Lng : -123.1150206, Q1 : 0.999999403954, Q2 : -0.000636793498415, Q3 : -0.000472020212328, Q4 : -0.000773697800469}
2019-04-14 15:44:11.41: SIM {TimeUS : 48034945, Roll : -0.06, Pitch : -0.04, Yaw : 359.9, Alt : 37.2400016785, Lat : 49.2835704, Lng : -123.1150206, Q1 : 0.999999463558, Q2 : -0.000524811388459, Q3 : -0.000403287267545, Q4 : -0.000792453123722}
2019-04-14 15:44:11.51: SIM {TimeUS : 48134905, Roll : -0.06, Pitch : -0.04, Yaw : 359.9, Alt : 37.4700012207, Lat : 49.2835704, Lng : -123.1150206, Q1 : 0.999999403954, Q2 : -0.000552670098841, Q3 : -0.000434946239693, Q4 : -0.000811479403637}
2019-04-14 15:44:11.61: SIM {TimeUS : 48234865, Roll : -0.07, Pitch : -0.03, Yaw : 359.9, Alt : 37.6899986267, Lat : 49.2835704, Lng : -123.1150206, Q1 : 0.999999403954, Q2 : -0.000627874862403, Q3 : -0.000298674043734, Q4 : -0.000833329337183}
2019-04-14 15:44:11.71: SIM {TimeUS : 48334825, Roll : -0.09, Pitch : -0.01, Yaw : 359.9, Alt : 37.9199981689, Lat : 49.2835704, Lng : -123.1150206, Q1 : 0.999999284744, Q2 : -0.0008304315852, Q3 : -9.93034627754e-05, Q4 : -0.000854006037116}
2019-04-14 15:44:11.81: SIM {TimeUS : 48434785, Roll : -0.09, Pitch : 0.0, Yaw : 359.9, Alt : 38.1500015259, Lat : 49.2835704, Lng : -123.1150206, Q1 : 0.999999284744, Q2 : -0.000862252025399, Q3 : 5.63131179661e-05, Q4 : -0.000866529066116}
2019-04-14 15:44:11.91: SIM {TimeUS : 48534745, Roll : -0.07, Pitch : 0.03, Yaw : 359.89, Alt : 38.3800010681, Lat : 49.2835704, Lng : -123.1150206, Q1 : 0.999999284744, Q2 : -0.000690708286129, Q3 : 0.000342961051501, Q4 : -0.000875880126841}
2019-04-14 15:44:12.01: SIM {TimeUS : 48634705, Roll : -0.05, Pitch : 0.03, Yaw : 359.89, Alt : 38.5999984741, Lat : 49.2835704, Lng : -123.1150206, Q1 : 0.999999403954, Q2 : -0.000494562147651, Q3 : 0.000302439031657, Q4 : -0.000893110816833}
2019-04-14 15:44:12.11: SIM {TimeUS : 48734665, Roll : -0.02, Pitch : 0.01, Yaw : 359.89, Alt : 38.8300018311, Lat : 49.2835704, Lng : -123.1150206, Q1 : 0.999999523163, Q2 : -0.0002505024313, Q3 : 0.000163824282936, Q4 : -0.000910446338821}
2019-04-14 15:44:12.21: SIM {TimeUS : 48834625, Roll : 0.0, Pitch : 0.02, Yaw : 359.89, Alt : 39.0600013733, Lat : 49.2835704, Lng : -123.1150206, Q1 : 0.999999523163, Q2 : 7.67063684179e-05, Q3 : 0.000242881767917, Q4 : -0.000926473061554}
2019-04-14 15:44:12.31: SIM {TimeUS : 48934585, Roll : 0.04, Pitch : 0.05, Yaw : 359.89, Alt : 39.2900009155, Lat : 49.2835706, Lng : -123.1150206, Q1 : 0.999999344349, Q2 : 0.000411306304159, Q3 : 0.000460568291601, Q4 : -0.000947558495682}
2019-04-14 15:44:12.41: SIM {TimeUS : 49034545, Roll : 0.07, Pitch : 0.08, Yaw : 359.88, Alt : 39.5200004578, Lat : 49.2835706, Lng : -123.1150206, Q1 : 0.999999046326, Q2 : 0.000660696125124, Q3 : 0.000701493525412, Q4 : -0.000975067261606}
2019-04-14 15:44:12.51: SIM {TimeUS : 49134505, Roll : 0.06, Pitch : 0.1, Yaw : 359.88, Alt : 39.75, Lat : 49.2835706, Lng : -123.1150206, Q1 : 0.999998867512, Q2 : 0.000595987658016, Q3 : 0.000940689467825, Q4 : -0.000998830422759}
2019-04-14 15:44:12.61: SIM {TimeUS : 49235298, Roll : 0.02, Pitch : 0.13, Yaw : 359.88, Alt : 39.9799995422, Lat : 49.2835706, Lng : -123.1150206, Q1 : 0.999998807907, Q2 : 0.00018465485482, Q3 : 0.00115065905266, Q4 : -0.00103975087404}
2019-04-14 15:44:12.71: SIM {TimeUS : 49335258, Roll : -0.01, Pitch : 0.12, Yaw : 359.87, Alt : 40.2200012207, Lat : 49.2835706, Lng : -123.1150206, Q1 : 0.999998807907, Q2 : -0.000143948607729, Q3 : 0.00110241665971, Q4 : -0.00106865505222}
2019-04-14 15:44:12.81: SIM {TimeUS : 49435218, Roll : -0.04, Pitch : 0.1, Yaw : 359.87, Alt : 40.4500007629, Lat : 49.2835706, Lng : -123.1150206, Q1 : 0.999998927116, Q2 : -0.000379195669666, Q3 : 0.000881375977769, Q4 : -0.00109046557918}
2019-04-14 15:44:12.91: SIM {TimeUS : 49535178, Roll : -0.05, Pitch : 0.08, Yaw : 359.87, Alt : 40.6800003052, Lat : 49.2835706, Lng : -123.1150206, Q1 : 0.999998986721, Q2 : -0.000471315550385, Q3 : 0.000739484385122, Q4 : -0.00111203978304}
2019-04-14 15:44:13.01: SIM {TimeUS : 49635138, Roll : -0.04, Pitch : 0.1, Yaw : 359.86, Alt : 40.9099998474, Lat : 49.2835706, Lng : -123.1150206, Q1 : 0.999998927116, Q2 : -0.000370535184629, Q3 : 0.000881076208316, Q4 : -0.00114141684026}
2019-04-14 15:44:13.11: SIM {TimeUS : 49735098, Roll : 0.0, Pitch : 0.13, Yaw : 359.86, Alt : 41.1399993896, Lat : 49.2835706, Lng : -123.1150206, Q1 : 0.999998629093, Q2 : 4.32703791375e-06, Q3 : 0.00116740050726, Q4 : -0.00117684272118}
2019-04-14 15:44:13.21: SIM {TimeUS : 49835058, Roll : 0.05, Pitch : 0.15, Yaw : 359.86, Alt : 41.3800010681, Lat : 49.2835706, Lng : -123.1150207, Q1 : 0.999998211861, Q2 : 0.00047463743249, Q3 : 0.00134182511829, Q4 : -0.00121606292669}
2019-04-14 15:44:13.31: SIM {TimeUS : 49935018, Roll : 0.08, Pitch : 0.13, Yaw : 359.85, Alt : 41.6100006104, Lat : 49.2835706, Lng : -123.1150207, Q1 : 0.999998271465, Q2 : 0.000773144885898, Q3 : 0.00113431864884, Q4 : -0.0012595889857}
2019-04-14 15:44:13.41: SIM {TimeUS : 50034978, Roll : 0.08, Pitch : 0.08, Yaw : 359.85, Alt : 41.8400001526, Lat : 49.2835706, Lng : -123.1150207, Q1 : 0.999998569489, Q2 : 0.000784412084613, Q3 : 0.000749847909901, Q4 : -0.00130050745793}
2019-04-14 15:44:13.51: SIM {TimeUS : 50134938, Roll : 0.05, Pitch : 0.04, Yaw : 359.84, Alt : 42.0800018311, Lat : 49.2835706, Lng : -123.1150207, Q1 : 0.999998927116, Q2 : 0.000462413445348, Q3 : 0.000427219900303, Q4 : -0.00132821407169}
2019-04-14 15:44:13.61: SIM {TimeUS : 50234898, Roll : 0.0, Pitch : 0.03, Yaw : 359.84, Alt : 42.3100013733, Lat : 49.2835706, Lng : -123.1150207, Q1 : 0.999999046326, Q2 : -1.15852872113e-05, Q3 : 0.000326486042468, Q4 : -0.00134524703026}
2019-04-14 15:44:13.71: SIM {TimeUS : 50334858, Roll : -0.03, Pitch : 0.06, Yaw : 359.84, Alt : 42.5499992371, Lat : 49.2835706, Lng : -123.1150206, Q1 : 0.999998867512, Q2 : -0.000331526360242, Q3 : 0.000538603286259, Q4 : -0.00135303416755}
2019-04-14 15:44:13.81: SIM {TimeUS : 50434818, Roll : -0.05, Pitch : 0.08, Yaw : 359.84, Alt : 42.7799987793, Lat : 49.2835704, Lng : -123.1150206, Q1 : 0.999998688698, Q2 : -0.000495880667586, Q3 : 0.000708579958882, Q4 : -0.00135465490166}
2019-04-14 15:44:13.91: SIM {TimeUS : 50534778, Roll : -0.05, Pitch : 0.07, Yaw : 359.84, Alt : 43.0200004578, Lat : 49.2835704, Lng : -123.1150206, Q1 : 0.999998748302, Q2 : -0.000473473482998, Q3 : 0.00066700449679, Q4 : -0.00135608308483}
2019-04-14 15:44:14.01: SIM {TimeUS : 50634738, Roll : -0.05, Pitch : 0.06, Yaw : 359.84, Alt : 43.25, Lat : 49.2835704, Lng : -123.1150206, Q1 : 0.999998748302, Q2 : -0.000498972425703, Q3 : 0.000600780593231, Q4 : -0.00136344565544}
2019-04-14 15:44:14.11: SIM {TimeUS : 50734698, Roll : -0.04, Pitch : 0.05, Yaw : 359.84, Alt : 43.4900016785, Lat : 49.2835704, Lng : -123.1150206, Q1 : 0.999998867512, Q2 : -0.000413164059864, Q3 : 0.000482991861645, Q4 : -0.00137552665547}
2019-04-14 15:44:14.21: SIM {TimeUS : 50834658, Roll : -0.02, Pitch : 0.04, Yaw : 359.84, Alt : 43.7200012207, Lat : 49.2835704, Lng : -123.1150206, Q1 : 0.999998927116, Q2 : -0.000216765824007, Q3 : 0.000399987126002, Q4 : -0.00139215483796}
2019-04-14 15:44:14.31: SIM {TimeUS : 50934618, Roll : 0.0, Pitch : 0.04, Yaw : 359.83, Alt : 43.9599990845, Lat : 49.2835704, Lng : -123.1150206, Q1 : 0.999998927116, Q2 : -7.59030153858e-05, Q3 : 0.000375327712391, Q4 : -0.00141188350972}
2019-04-14 15:44:14.41: SIM {TimeUS : 51034578, Roll : 0.0, Pitch : 0.02, Yaw : 359.83, Alt : 44.1899986267, Lat : 49.2835704, Lng : -123.1150206, Q1 : 0.999998927116, Q2 : -7.06366117811e-05, Q3 : 0.00018950770027, Q4 : -0.00143474701326}
2019-04-14 15:44:14.51: SIM {TimeUS : 51134538, Roll : -0.02, Pitch : -0.01, Yaw : 359.83, Alt : 44.4300003052, Lat : 49.2835704, Lng : -123.1150206, Q1 : 0.999998927116, Q2 : -0.000176649264176, Q3 : -0.000133692636155, Q4 : -0.00145988550503}
2019-04-14 15:44:14.61: SIM {TimeUS : 51234498, Roll : -0.02, Pitch : -0.03, Yaw : 359.82, Alt : 44.6599998474, Lat : 49.2835704, Lng : -123.1150206, Q1 : 0.999998807907, Q2 : -0.000252390658716, Q3 : -0.000332066847477, Q4 : -0.00149357446935}
2019-04-14 15:44:14.71: SIM {TimeUS : 51335291, Roll : -0.02, Pitch : -0.04, Yaw : 359.82, Alt : 44.9000015259, Lat : 49.2835704, Lng : -123.1150206, Q1 : 0.999998688698, Q2 : -0.000206435084692, Q3 : -0.000430356216384, Q4 : -0.00152416923083}
2019-04-14 15:44:14.81: SIM {TimeUS : 51435251, Roll : -0.02, Pitch : -0.05, Yaw : 359.82, Alt : 45.1399993896, Lat : 49.2835704, Lng : -123.1150206, Q1 : 0.999998629093, Q2 : -0.00024896429386, Q3 : -0.000477239431348, Q4 : -0.00155865168199}
2019-04-14 15:44:14.91: SIM {TimeUS : 51535211, Roll : -0.04, Pitch : -0.04, Yaw : 359.81, Alt : 45.3699989319, Lat : 49.2835703, Lng : -123.1150206, Q1 : 0.999998509884, Q2 : -0.000426637911005, Q3 : -0.00043016532436, Q4 : -0.00159636163153}
2019-04-14 15:44:15.01: SIM {TimeUS : 51635171, Roll : -0.08, Pitch : -0.04, Yaw : 359.81, Alt : 45.6100006104, Lat : 49.2835703, Lng : -123.1150206, Q1 : 0.99999833107, Q2 : -0.000708439387381, Q3 : -0.000353270414053, Q4 : -0.00163519231137}
2019-04-14 15:44:15.11: SIM {TimeUS : 51735131, Roll : -0.1, Pitch : -0.03, Yaw : 359.8, Alt : 45.8400001526, Lat : 49.2835703, Lng : -123.1150206, Q1 : 0.999998152256, Q2 : -0.000884561566636, Q3 : -0.000277125684079, Q4 : -0.00167136848904}
2019-04-14 15:44:15.21: SIM {TimeUS : 51835091, Roll : -0.1, Pitch : -0.01, Yaw : 359.8, Alt : 46.0699996948, Lat : 49.2835703, Lng : -123.1150206, Q1 : 0.999998092651, Q2 : -0.000905871158466, Q3 : -0.000138894363772, Q4 : -0.00170406489633}
2019-04-14 15:44:15.31: SIM {TimeUS : 51935051, Roll : -0.09, Pitch : 0.01, Yaw : 359.8, Alt : 46.2999992371, Lat : 49.2835703, Lng : -123.1150206, Q1 : 0.999998211861, Q2 : -0.000785641255789, Q3 : 0.00010554765322, Q4 : -0.00172939442564}
2019-04-14 15:44:15.41: SIM {TimeUS : 52035011, Roll : -0.06, Pitch : 0.02, Yaw : 359.79, Alt : 46.5200004578, Lat : 49.2835703, Lng : -123.1150206, Q1 : 0.999998271465, Q2 : -0.000576320977416, Q3 : 0.000242671914748, Q4 : -0.00174954812974}
2019-04-14 15:44:15.51: SIM {TimeUS : 52134971, Roll : -0.04, Pitch : 0.02, Yaw : 359.79, Alt : 46.7400016785, Lat : 49.2835703, Lng : -123.1150206, Q1 : 0.99999833107, Q2 : -0.000407358835218, Q3 : 0.000214954357943, Q4 : -0.00176731951069}
2019-04-14 15:44:15.61: SIM {TimeUS : 52234931, Roll : -0.03, Pitch : 0.0, Yaw : 359.79, Alt : 46.9500007629, Lat : 49.2835703, Lng : -123.1150206, Q1 : 0.999998390675, Q2 : -0.000332527473802, Q3 : 5.16950785823e-05, Q4 : -0.00178972270805}
2019-04-14 15:44:15.71: SIM {TimeUS : 52334891, Roll : -0.02, Pitch : -0.02, Yaw : 359.79, Alt : 47.1599998474, Lat : 49.2835703, Lng : -123.1150206, Q1 : 0.99999833107, Q2 : -0.000182344927453, Q3 : -0.000218812914682, Q4 : -0.00181157421321}
2019-04-14 15:44:15.81: SIM {TimeUS : 52434851, Roll : 0.0, Pitch : -0.05, Yaw : 359.79, Alt : 47.3600006104, Lat : 49.2835703, Lng : -123.1150206, Q1 : 0.999998211861, Q2 : 1.60650361067e-05, Q3 : -0.000485910277348, Q4 : -0.00183248799294}
2019-04-14 15:44:15.91: SIM {TimeUS : 52534811, Roll : 0.01, Pitch : -0.08, Yaw : 359.78, Alt : 47.5499992371, Lat : 49.2835703, Lng : -123.1150206, Q1 : 0.999998033047, Q2 : 9.55065697781e-05, Q3 : -0.000718256807886, Q4 : -0.00185094482731}
2019-04-14 15:44:16.01: SIM {TimeUS : 52634771, Roll : 0.01, Pitch : -0.12, Yaw : 359.78, Alt : 47.7200012207, Lat : 49.2835703, Lng : -123.1150206, Q1 : 0.999997675419, Q2 : 8.86545822141e-05, Q3 : -0.00105806521606, Q4 : -0.00186869525351}
2019-04-14 15:44:16.11: SIM {TimeUS : 52734731, Roll : 0.03, Pitch : -0.14, Yaw : 359.78, Alt : 47.8899993896, Lat : 49.2835703, Lng : -123.1150206, Q1 : 0.999997377396, Q2 : 0.000259973370703, Q3 : -0.00129943783395, Q4 : -0.00188572716434}
2019-04-14 15:44:16.21: SIM {TimeUS : 52834691, Roll : 0.05, Pitch : -0.15, Yaw : 359.78, Alt : 48.0499992371, Lat : 49.2835703, Lng : -123.1150206, Q1 : 0.999997198582, Q2 : 0.000503213843331, Q3 : -0.00133140105754, Q4 : -0.00190498726442}
2019-04-14 15:44:16.31: SIM {TimeUS : 52934651, Roll : 0.08, Pitch : -0.13, Yaw : 359.77, Alt : 48.1899986267, Lat : 49.2835704, Lng : -123.1150206, Q1 : 0.999997258186, Q2 : 0.000706498045474, Q3 : -0.00115910696331, Q4 : -0.00192361336667}
2019-04-14 15:44:16.41: SIM {TimeUS : 53034611, Roll : 0.08, Pitch : -0.1, Yaw : 359.77, Alt : 48.3300018311, Lat : 49.2835704, Lng : -123.1150206, Q1 : 0.999997437, Q2 : 0.000753582338803, Q3 : -0.000880595995113, Q4 : -0.00194629852194}
2019-04-14 15:44:16.51: SIM {TimeUS : 53134571, Roll : 0.08, Pitch : -0.07, Yaw : 359.77, Alt : 48.4500007629, Lat : 49.2835704, Lng : -123.1150206, Q1 : 0.99999755621, Q2 : 0.000761407311074, Q3 : -0.000651628419291, Q4 : -0.00197318405844}
2019-04-14 15:44:16.61: SIM {TimeUS : 53234531, Roll : 0.07, Pitch : -0.06, Yaw : 359.77, Alt : 48.5499992371, Lat : 49.2835704, Lng : -123.1150206, Q1 : 0.99999755621, Q2 : 0.000653272203635, Q3 : -0.000600805040449, Q4 : -0.00200608302839}
2019-04-14 15:44:16.71: SIM {TimeUS : 53335324, Roll : 0.04, Pitch : -0.05, Yaw : 359.76, Alt : 48.6500015259, Lat : 49.2835704, Lng : -123.1150206, Q1 : 0.999997735023, Q2 : 0.000419487711042, Q3 : -0.00050871365238, Q4 : -0.00203486951068}
2019-04-14 15:44:16.81: SIM {TimeUS : 53435284, Roll : 0.02, Pitch : -0.04, Yaw : 359.76, Alt : 48.7299995422, Lat : 49.2835704, Lng : -123.1150206, Q1 : 0.999997794628, Q2 : 0.000208077253774, Q3 : -0.000357236393029, Q4 : -0.0020603351295}
2019-04-14 15:44:16.91: SIM {TimeUS : 53535244, Roll : 0.0, Pitch : -0.02, Yaw : 359.76, Alt : 48.8100013733, Lat : 49.2835704, Lng : -123.1150206, Q1 : 0.999997794628, Q2 : 2.81722896034e-05, Q3 : -0.00021680748614, Q4 : -0.00208643777296}
2019-04-14 15:44:17.01: SIM {TimeUS : 53635204, Roll : 0.0, Pitch : 0.0, Yaw : 359.75, Alt : 48.8699989319, Lat : 49.2835704, Lng : -123.1150206, Q1 : 0.999997735023, Q2 : -6.05342975177e-05, Q3 : -1.40623421885e-06, Q4 : -0.00211614137515}
2019-04-14 15:44:17.11: SIM {TimeUS : 53735164, Roll : 0.0, Pitch : 0.03, Yaw : 359.75, Alt : 48.9199981689, Lat : 49.2835704, Lng : -123.1150206, Q1 : 0.999997675419, Q2 : 8.77333368408e-05, Q3 : 0.000287588190986, Q4 : -0.00214162492193}
2019-04-14 15:44:17.21: SIM {TimeUS : 53835124, Roll : 0.03, Pitch : 0.05, Yaw : 359.75, Alt : 48.9700012207, Lat : 49.2835704, Lng : -123.1150206, Q1 : 0.999997437, Q2 : 0.000316548743285, Q3 : 0.000513426610269, Q4 : -0.00216910731979}
2019-04-14 15:44:17.31: SIM {TimeUS : 53935084, Roll : 0.07, Pitch : 0.02, Yaw : 359.74, Alt : 49.0099983215, Lat : 49.2835704, Lng : -123.1150206, Q1 : 0.999997377396, Q2 : 0.00064562325133, Q3 : 0.000188652280485, Q4 : -0.00219177594408}
2019-04-14 15:44:17.41: SIM {TimeUS : 54035044, Roll : 0.17, Pitch : -0.15, Yaw : 359.74, Alt : 49.0499992371, Lat : 49.2835704, Lng : -123.1150206, Q1 : 0.999995470047, Q2 : 0.00152814050671, Q3 : -0.00134249159601, Q4 : -0.00221236352809}
2019-04-14 15:44:17.51: SIM {TimeUS : 54135004, Roll : 0.4, Pitch : -0.55, Yaw : 359.74, Alt : 49.0699996948, Lat : 49.2835706, Lng : -123.1150206, Q1 : 0.999979555607, Q2 : 0.00351058552042, Q3 : -0.00485834572464, Q4 : -0.00223575346172}
2019-04-14 15:44:17.61: SIM {TimeUS : 54234964, Roll : 0.79, Pitch : -1.17, Yaw : 359.73, Alt : 49.0999984741, Lat : 49.2835706, Lng : -123.1150206, Q1 : 0.999920964241, Q2 : 0.00688837980852, Q3 : -0.0102721266448, Q4 : -0.00225459039211}
2019-04-14 15:44:17.71: SIM {TimeUS : 54334924, Roll : 1.31, Pitch : -1.94, Yaw : 359.72, Alt : 49.1199989319, Lat : 49.2835706, Lng : -123.1150206, Q1 : 0.999788403511, Q2 : 0.0114039881155, Q3 : -0.0169725008309, Q4 : -0.00224642059766}
2019-04-14 15:44:17.81: SIM {TimeUS : 54434884, Roll : 1.89, Pitch : -2.79, Yaw : 359.7, Alt : 49.1399993896, Lat : 49.2835707, Lng : -123.1150205, Q1 : 0.999563455582, Q2 : 0.0164634529501, Q3 : -0.0244345162064, Q4 : -0.00219220784493}
2019-04-14 15:44:17.91: SIM {TimeUS : 54534844, Roll : 2.45, Pitch : -3.6, Yaw : 359.68, Alt : 49.1599998474, Lat : 49.2835708, Lng : -123.1150204, Q1 : 0.999273717403, Q2 : 0.0213278904557, Q3 : -0.0315093137324, Q4 : -0.00207898765802}
2019-04-14 15:44:18.01: SIM {TimeUS : 54634804, Roll : 2.9, Pitch : -4.25, Yaw : 359.67, Alt : 49.1699981689, Lat : 49.2835709, Lng : -123.1150203, Q1 : 0.998985886574, Q2 : 0.025254458189, Q3 : -0.0372253507376, Q4 : -0.00190929824021}
2019-04-14 15:44:18.11: SIM {TimeUS : 54734764, Roll : 3.23, Pitch : -4.75, Yaw : 359.67, Alt : 49.1800003052, Lat : 49.283571, Lng : -123.1150201, Q1 : 0.998740434647, Q2 : 0.028096947819, Q3 : -0.0415370166302, Q4 : -0.00169281847775}
2019-04-14 15:44:18.21: SIM {TimeUS : 54834724, Roll : 3.48, Pitch : -5.11, Yaw : 359.67, Alt : 49.1899986267, Lat : 49.2835713, Lng : -123.1150199, Q1 : 0.998539328575, Q2 : 0.0302735194564, Q3 : -0.0447296984494, Q4 : -0.00143835553899}
2019-04-14 15:44:18.31: SIM {TimeUS : 54934684, Roll : 3.69, Pitch : -5.4, Yaw : 359.69, Alt : 49.2000007629, Lat : 49.2835716, Lng : -123.1150196, Q1 : 0.998366892338, Q2 : 0.0321088768542, Q3 : -0.0472362935543, Q4 : -0.00116341141984}
2019-04-14 15:44:18.41: SIM {TimeUS : 55034644, Roll : 3.88, Pitch : -5.67, Yaw : 359.7, Alt : 49.2099990845, Lat : 49.283572, Lng : -123.1150192, Q1 : 0.998202443123, Q2 : 0.0337309278548, Q3 : -0.0495306998491, Q4 : -0.000896032142919}
2019-04-14 15:44:18.51: SIM {TimeUS : 55134604, Roll : 4.08, Pitch : -5.96, Yaw : 359.71, Alt : 49.2200012207, Lat : 49.2835725, Lng : -123.1150187, Q1 : 0.998011767864, Q2 : 0.0354348197579, Q3 : -0.0521196946502, Q4 : -0.000659913523123}
2019-04-14 15:44:18.61: SIM {TimeUS : 55234564, Roll : 4.27, Pitch : -6.28, Yaw : 359.71, Alt : 49.2299995422, Lat : 49.2835729, Lng : -123.1150182, Q1 : 0.997801721096, Q2 : 0.0371208228171, Q3 : -0.0548959895968, Q4 : -0.000449171842774}
2019-04-14 15:44:18.71: SIM {TimeUS : 55334524, Roll : 4.45, Pitch : -6.55, Yaw : 359.71, Alt : 49.2299995422, Lat : 49.2835734, Lng : -123.1150175, Q1 : 0.997610867023, Q2 : 0.0387014374137, Q3 : -0.0572250932455, Q4 : -0.000251100311289}
2019-04-14 15:44:18.81: SIM {TimeUS : 55435317, Roll : 4.6, Pitch : -6.75, Yaw : 359.72, Alt : 49.2400016785, Lat : 49.283574, Lng : -123.115017, Q1 : 0.997462451458, Q2 : 0.0399440154433, Q3 : -0.0589332617819, Q4 : -6.83390098857e-05}
2019-04-14 15:44:18.91: SIM {TimeUS : 55535277, Roll : 4.69, Pitch : -6.88, Yaw : 359.72, Alt : 49.2400016785, Lat : 49.2835747, Lng : -123.1150162, Q1 : 0.997360289097, Q2 : 0.0407443866134, Q3 : -0.0601030178368, Q4 : 8.6054118583e-05}
2019-04-14 15:44:19.01: SIM {TimeUS : 55635237, Roll : 4.77, Pitch : -6.98, Yaw : 359.73, Alt : 49.25, Lat : 49.2835756, Lng : -123.1150155, Q1 : 0.997279763222, Q2 : 0.0414206907153, Q3 : -0.0609696954489, Q4 : 0.000208747544093}
2019-04-14 15:44:19.11: SIM {TimeUS : 55735197, Roll : 4.86, Pitch : -7.08, Yaw : 359.73, Alt : 49.25, Lat : 49.2835764, Lng : -123.1150146, Q1 : 0.997193753719, Q2 : 0.0422079414129, Q3 : -0.0618310421705, Q4 : 0.000285836315015}
2019-04-14 15:44:19.21: SIM {TimeUS : 55835157, Roll : 5.03, Pitch : -7.19, Yaw : 359.74, Alt : 49.2599983215, Lat : 49.2835771, Lng : -123.1150137, Q1 : 0.997069358826, Q2 : 0.0437278747559, Q3 : -0.0627719014883, Q4 : 0.000513562874403}
2019-04-14 15:44:19.31: SIM {TimeUS : 55935117, Roll : 5.45, Pitch : -7.23, Yaw : 0.04, Alt : 49.2599983215, Lat : 49.2835781, Lng : -123.1150128, Q1 : 0.996875882149, Q2 : 0.0475101843476, Q3 : -0.0630081295967, Q4 : 0.00335596175864}
2019-04-14 15:44:19.41: SIM {TimeUS : 56035077, Roll : 6.08, Pitch : -7.26, Yaw : 1.26, Alt : 49.2599983215, Lat : 49.2835791, Lng : -123.1150117, Q1 : 0.9964864254, Q2 : 0.0536926724017, Q3 : -0.0626479163766, Q4 : 0.0143904574215}
2019-04-14 15:44:19.51: SIM {TimeUS : 56135037, Roll : 6.61, Pitch : -7.53, Yaw : 3.98, Alt : 49.2599983215, Lat : 49.28358, Lng : -123.1150106, Q1 : 0.995442807674, Q2 : 0.0598378628492, Q3 : -0.0635110139847, Q4 : 0.0384641513228}
2019-04-14 15:44:19.61: SIM {TimeUS : 56234997, Roll : 6.72, Pitch : -8.16, Yaw : 8.31, Alt : 49.2599983215, Lat : 49.2835812, Lng : -123.1150095, Q1 : 0.992829084396, Q2 : 0.0634756088257, Q3 : -0.0666030719876, Q4 : 0.0763237178326}
2019-04-14 15:44:19.71: SIM {TimeUS : 56334957, Roll : 6.18, Pitch : -9.09, Yaw : 14.07, Alt : 49.2700004578, Lat : 49.2835823, Lng : -123.1150081, Q1 : 0.987381398678, Q2 : 0.0630454421043, Q3 : -0.0719868764281, Q4 : 0.126179054379}
2019-04-14 15:44:19.81: SIM {TimeUS : 56434917, Roll : 4.71, Pitch : -10.18, Yaw : 20.9, Alt : 49.2700004578, Lat : 49.2835834, Lng : -123.1150067, Q1 : 0.978021264076, Q2 : 0.0564250983298, Q3 : -0.0798155069351, Q4 : 0.184174284339}
2019-04-14 15:44:19.91: SIM {TimeUS : 56534877, Roll : 2.3, Pitch : -11.21, Yaw : 28.1, Alt : 49.2700004578, Lat : 49.2835846, Lng : -123.1150052, Q1 : 0.964753031731, Q2 : 0.0431769825518, Q3 : -0.0899246409535, Q4 : 0.243517845869}
2019-04-14 15:44:20.01: SIM {TimeUS : 56634837, Roll : -0.6, Pitch : -11.94, Yaw : 34.87, Alt : 49.2700004578, Lat : 49.2835858, Lng : -123.1150037, Q1 : 0.949018716812, Q2 : 0.0261878706515, Q3 : -0.100875720382, Q4 : 0.297492474318}
2019-04-14 15:44:20.11: SIM {TimeUS : 56734797, Roll : -3.37, Pitch : -12.32, Yaw : 40.5, Alt : 49.2700004578, Lat : 49.2835871, Lng : -123.115002, Q1 : 0.933441460133, Q2 : 0.00967425946146, Q3 : -0.110792286694, Q4 : 0.341055035591}
2019-04-14 15:44:20.21: SIM {TimeUS : 56834757, Roll : -5.44, Pitch : -12.45, Yaw : 44.53, Alt : 49.2700004578, Lat : 49.2835885, Lng : -123.1150004, Q1 : 0.920895218849, Q2 : -0.00268258294091, Q3 : -0.118135675788, Q4 : 0.371468424797}
2019-04-14 15:44:20.31: SIM {TimeUS : 56934717, Roll : -6.56, Pitch : -12.48, Yaw : 46.8, Alt : 49.2700004578, Lat : 49.2835899, Lng : -123.1149987, Q1 : 0.913277685642, Q2 : -0.00909279566258, Q3 : -0.122246079147, Q4 : 0.388454794884}
2019-04-14 15:44:20.41: SIM {TimeUS : 57034677, Roll : -6.71, Pitch : -12.58, Yaw : 47.47, Alt : 49.2700004578, Lat : 49.2835916, Lng : -123.1149971, Q1 : 0.910922646523, Q2 : -0.00928463693708, Q3 : -0.123597219586, Q4 : 0.393519341946}
2019-04-14 15:44:20.51: SIM {TimeUS : 57134637, Roll : -6.1, Pitch : -12.85, Yaw : 46.82, Alt : 49.2700004578, Lat : 49.2835933, Lng : -123.1149954, Q1 : 0.912984490395, Q2 : -0.00412447052076, Q3 : -0.123567000031, Q4 : 0.388810366392}
2019-04-14 15:44:20.61: SIM {TimeUS : 57234597, Roll : -4.95, Pitch : -13.32, Yaw : 45.18, Alt : 49.2700004578, Lat : 49.2835951, Lng : -123.1149937, Q1 : 0.918103396893, Q2 : 0.00488068861887, Q3 : -0.1234774068, Q4 : 0.376584202051}
2019-04-14 15:44:20.71: SIM {TimeUS : 57334557, Roll : -3.49, Pitch : -13.92, Yaw : 42.86, Alt : 49.2700004578, Lat : 49.283597, Lng : -123.114992, Q1 : 0.924908578396, Q2 : 0.0160837974399, Q3 : -0.123859092593, Q4 : 0.359088271856}
2019-04-14 15:44:20.81: SIM {TimeUS : 57434517, Roll : -1.92, Pitch : -14.55, Yaw : 40.16, Alt : 49.2700004578, Lat : 49.2835989, Lng : -123.1149903, Q1 : 0.932239294052, Q2 : 0.0278055947274, Q3 : -0.124666713178, Q4 : 0.338548362255}
2019-04-14 15:44:20.91: SIM {TimeUS : 57535310, Roll : -0.38, Pitch : -15.07, Yaw : 37.36, Alt : 49.2799987793, Lat : 49.283601, Lng : -123.1149884, Q1 : 0.939252495766, Q2 : 0.0388367399573, Q3 : -0.125351399183, Q4 : 0.317148983479}
2019-04-14 15:44:21.01: SIM {TimeUS : 57635270, Roll : 0.94, Pitch : -15.41, Yaw : 34.82, Alt : 49.2799987793, Lat : 49.2836031, Lng : -123.1149865, Q1 : 0.945189535618, Q2 : 0.0479634813964, Q3 : -0.125477313995, Q4 : 0.297609984875}
2019-04-14 15:44:21.11: SIM {TimeUS : 57735230, Roll : 1.99, Pitch : -15.56, Yaw : 32.76, Alt : 49.2799987793, Lat : 49.2836051, Lng : -123.1149844, Q1 : 0.949752390385, Q2 : 0.054693158716, Q3 : -0.125014469028, Q4 : 0.281692177057}
2019-04-14 15:44:21.21: SIM {TimeUS : 57835190, Roll : 2.67, Pitch : -15.58, Yaw : 31.34, Alt : 49.2799987793, Lat : 49.2836074, Lng : -123.1149823, Q1 : 0.952813208103, Q2 : 0.0588775500655, Q3 : -0.124307721853, Q4 : 0.270606786013}
2019-04-14 15:44:21.31: SIM {TimeUS : 57935150, Roll : 2.97, Pitch : -15.58, Yaw : 30.6, Alt : 49.2799987793, Lat : 49.2836096, Lng : -123.11498, Q1 : 0.954393029213, Q2 : 0.0605488680303, Q3 : -0.123965077102, Q4 : 0.264764964581}
2019-04-14 15:44:21.41: SIM {TimeUS : 58035110, Roll : 2.89, Pitch : -15.6, Yaw : 30.5, Alt : 49.2799987793, Lat : 49.2836118, Lng : -123.1149777, Q1 : 0.954630970955, Q2 : 0.0598782561719, Q3 : -0.124321214855, Q4 : 0.263891279697}
2019-04-14 15:44:21.51: SIM {TimeUS : 58135070, Roll : 2.5, Pitch : -15.66, Yaw : 30.95, Alt : 49.2799987793, Lat : 49.2836141, Lng : -123.1149752, Q1 : 0.953714072704, Q2 : 0.0572298280895, Q3 : -0.125567317009, Q4 : 0.267183601856}
2019-04-14 15:44:21.61: SIM {TimeUS : 58235030, Roll : 1.88, Pitch : -15.76, Yaw : 31.8, Alt : 49.2799987793, Lat : 49.2836165, Lng : -123.1149727, Q1 : 0.951895058155, Q2 : 0.053261347115, Q3 : -0.127387672663, Q4 : 0.27355325222}
2019-04-14 15:44:21.71: SIM {TimeUS : 58334990, Roll : 1.17, Pitch : -15.86, Yaw : 32.89, Alt : 49.2799987793, Lat : 49.2836189, Lng : -123.1149701, Q1 : 0.949449002743, Q2 : 0.0488039180636, Q3 : -0.129517838359, Q4 : 0.281762182713}
2019-04-14 15:44:21.81: SIM {TimeUS : 58434950, Roll : 0.43, Pitch : -15.98, Yaw : 34.06, Alt : 49.2799987793, Lat : 49.2836214, Lng : -123.1149674, Q1 : 0.946701645851, Q2 : 0.0442807674408, Q3 : -0.131813183427, Q4 : 0.29055210948}
2019-04-14 15:44:21.91: SIM {TimeUS : 58534910, Roll : -0.22, Pitch : -16.08, Yaw : 35.16, Alt : 49.2799987793, Lat : 49.2836238, Lng : -123.1149646, Q1 : 0.943972468376, Q2 : 0.0404163040221, Q3 : -0.133988410234, Q4 : 0.298880428076}
2019-04-14 15:44:22.01: SIM {TimeUS : 58634870, Roll : -0.72, Pitch : -16.16, Yaw : 36.1, Alt : 49.2799987793, Lat : 49.2836263, Lng : -123.114962, Q1 : 0.941595196724, Q2 : 0.0375668480992, Q3 : -0.13560013473, Q4 : 0.305940896273}
2019-04-14 15:44:22.11: SIM {TimeUS : 58734830, Roll : -1.07, Pitch : -16.2, Yaw : 36.79, Alt : 49.2799987793, Lat : 49.283629, Lng : -123.1149592, Q1 : 0.939803004265, Q2 : 0.0356938280165, Q3 : -0.136655732989, Q4 : 0.311161518097}
2019-04-14 15:44:22.21: SIM {TimeUS : 58834790, Roll : -1.25, Pitch : -16.24, Yaw : 37.2, Alt : 49.2799987793, Lat : 49.2836316, Lng : -123.1149563, Q1 : 0.938694298267, Q2 : 0.0348102152348, Q3 : -0.137376978993, Q4 : 0.314275085926}
2019-04-14 15:44:22.31: SIM {TimeUS : 58934750, Roll : -1.27, Pitch : -16.29, Yaw : 37.33, Alt : 49.2799987793, Lat : 49.2836341, Lng : -123.1149535, Q1 : 0.938277184963, Q2 : 0.0349600799382, Q3 : -0.137803733349, Q4 : 0.315315425396}
2019-04-14 15:44:22.41: SIM {TimeUS : 59034710, Roll : -1.14, Pitch : -16.36, Yaw : 37.22, Alt : 49.2799987793, Lat : 49.2836369, Lng : -123.1149506, Q1 : 0.938462436199, Q2 : 0.0360410623252, Q3 : -0.138040840626, Q4 : 0.314537674189}
2019-04-14 15:44:22.51: SIM {TimeUS : 59134670, Roll : -0.92, Pitch : -16.42, Yaw : 36.92, Alt : 49.2799987793, Lat : 49.2836396, Lng : -123.1149476, Q1 : 0.939141154289, Q2 : 0.0376608259976, Q3 : -0.138009548187, Q4 : 0.312328308821}
2019-04-14 15:44:22.61: SIM {TimeUS : 59234630, Roll : -0.63, Pitch : -16.48, Yaw : 36.5, Alt : 49.2799987793, Lat : 49.2836425, Lng : -123.1149447, Q1 : 0.940124332905, Q2 : 0.0396804213524, Q3 : -0.137850001454, Q4 : 0.30917480588}
2019-04-14 15:44:22.71: SIM {TimeUS : 59334590, Roll : -0.32, Pitch : -16.53, Yaw : 36.01, Alt : 49.2799987793, Lat : 49.2836452, Lng : -123.1149418, Q1 : 0.941242992878, Q2 : 0.0418134965003, Q3 : -0.137607365847, Q4 : 0.305577248335}
2019-04-14 15:44:22.81: SIM {TimeUS : 59434550, Roll : -0.02, Pitch : -16.57, Yaw : 35.54, Alt : 49.2799987793, Lat : 49.2836481, Lng : -123.1149388, Q1 : 0.942345499992, Q2 : 0.0438256785274, Q3 : -0.137349769473, Q4 : 0.301992356777}
2019-04-14 15:44:22.91: SIM {TimeUS : 59534510, Roll : 0.23, Pitch : -16.61, Yaw : 35.11, Alt : 49.2900009155, Lat : 49.283651, Lng : -123.1149357, Q1 : 0.943315625191, Q2 : 0.0455491580069, Q3 : -0.137106120586, Q4 : 0.298802316189}
2019-04-14 15:44:23.01: SIM {TimeUS : 59635303, Roll : 0.43, Pitch : -16.64, Yaw : 34.78, Alt : 49.2900009155, Lat : 49.2836539, Lng : -123.1149326, Q1 : 0.944069206715, Q2 : 0.0468805097044, Q3 : -0.136997684836, Q4 : 0.296255230904}
2019-04-14 15:44:23.11: SIM {TimeUS : 59735263, Roll : 0.55, Pitch : -16.67, Yaw : 34.55, Alt : 49.2900009155, Lat : 49.2836567, Lng : -123.1149295, Q1 : 0.944568216801, Q2 : 0.0476079434156, Q3 : -0.137028157711, Q4 : 0.294529348612}
2019-04-14 15:44:23.21: SIM {TimeUS : 59835223, Roll : 0.58, Pitch : -16.7, Yaw : 34.44, Alt : 49.2900009155, Lat : 49.2836597, Lng : -123.1149263, Q1 : 0.94480329752, Q2 : 0.0478323064744, Q3 : -0.137252494693, Q4 : 0.293633490801}
2019-04-14 15:44:23.31: SIM {TimeUS : 59935183, Roll : 0.55, Pitch : -16.75, Yaw : 34.43, Alt : 49.2900009155, Lat : 49.2836627, Lng : -123.1149232, Q1 : 0.944781601429, Q2 : 0.047687266022, Q3 : -0.137717247009, Q4 : 0.293509185314}
2019-04-14 15:44:23.41: SIM {TimeUS : 60035143, Roll : 0.46, Pitch : -16.8, Yaw : 34.51, Alt : 49.2900009155, Lat : 49.2836657, Lng : -123.1149199, Q1 : 0.944557964802, Q2 : 0.0471817627549, Q3 : -0.138331994414, Q4 : 0.29402115941}
2019-04-14 15:44:23.51: SIM {TimeUS : 60135103, Roll : 0.32, Pitch : -16.84, Yaw : 34.64, Alt : 49.2900009155, Lat : 49.2836687, Lng : -123.1149167, Q1 : 0.944209754467, Q2 : 0.0463000684977, Q3 : -0.138991191983, Q4 : 0.294967412949}
2019-04-14 15:44:23.61: SIM {TimeUS : 60235063, Roll : 0.16, Pitch : -16.87, Yaw : 34.81, Alt : 49.2900009155, Lat : 49.2836717, Lng : -123.1149134, Q1 : 0.943794906139, Q2 : 0.045284088701, Q3 : -0.139581814408, Q4 : 0.296171307564}
2019-04-14 15:44:23.71: SIM {TimeUS : 60335023, Roll : 0.01, Pitch : -16.9, Yaw : 34.99, Alt : 49.2900009155, Lat : 49.2836747, Lng : -123.1149101, Q1 : 0.943358361721, Q2 : 0.0443045534194, Q3 : -0.140159085393, Q4 : 0.297434866428}
2019-04-14 15:44:23.81: SIM {TimeUS : 60434983, Roll : -0.1, Pitch : -16.94, Yaw : 35.16, Alt : 49.2900009155, Lat : 49.2836778, Lng : -123.1149068, Q1 : 0.942933738232, Q2 : 0.0436273515224, Q3 : -0.140722677112, Q4 : 0.298613101244}
2019-04-14 15:44:23.91: SIM {TimeUS : 60534943, Roll : -0.17, Pitch : -16.98, Yaw : 35.29, Alt : 49.2900009155, Lat : 49.2836808, Lng : -123.1149035, Q1 : 0.942572236061, Q2 : 0.0433321818709, Q3 : -0.141172140837, Q4 : 0.299583554268}
2019-04-14 15:44:24.01: SIM {TimeUS : 60634903, Roll : -0.19, Pitch : -17.03, Yaw : 35.37, Alt : 49.2999992371, Lat : 49.2836839, Lng : -123.1149001, Q1 : 0.942291736603, Q2 : 0.0433965548873, Q3 : -0.141598746181, Q4 : 0.300254553556}
2019-04-14 15:44:24.11: SIM {TimeUS : 60734863, Roll : -0.16, Pitch : -17.08, Yaw : 35.41, Alt : 49.2999992371, Lat : 49.283687, Lng : -123.1148967, Q1 : 0.942108273506, Q2 : 0.0437968857586, Q3 : -0.141965895891, Q4 : 0.300598561764}
2019-04-14 15:44:24.21: SIM {TimeUS : 60834823, Roll : -0.13, Pitch : -17.12, Yaw : 35.41, Alt : 49.2999992371, Lat : 49.2836901, Lng : -123.1148933, Q1 : 0.942062795162, Q2 : 0.0441466197371, Q3 : -0.14218506217, Q4 : 0.300586372614}
2019-04-14 15:44:24.31: SIM {TimeUS : 60934783, Roll : -0.1, Pitch : -17.14, Yaw : 35.37, Alt : 49.2999992371, Lat : 49.2836932, Lng : -123.1148899, Q1 : 0.942143499851, Q2 : 0.0443683601916, Q3 : -0.142266318202, Q4 : 0.300262212753}
2019-04-14 15:44:24.41: SIM {TimeUS : 61034743, Roll : -0.08, Pitch : -17.14, Yaw : 35.29, Alt : 49.2999992371, Lat : 49.2836965, Lng : -123.1148865, Q1 : 0.942310214043, Q2 : 0.0445405989885, Q3 : -0.14229016006, Q4 : 0.299701839685}
2019-04-14 15:44:24.51: SIM {TimeUS : 61134703, Roll : -0.03, Pitch : -17.15, Yaw : 35.2, Alt : 49.2999992371, Lat : 49.2836997, Lng : -123.1148831, Q1 : 0.942524254322, Q2 : 0.0448239184916, Q3 : -0.142218217254, Q4 : 0.299019783735}
2019-04-14 15:44:24.61: SIM {TimeUS : 61234663, Roll : 0.01, Pitch : -17.15, Yaw : 35.11, Alt : 49.2999992371, Lat : 49.2837028, Lng : -123.1148796, Q1 : 0.942749083042, Q2 : 0.0451483726501, Q3 : -0.142159596086, Q4 : 0.298289239407}
2019-04-14 15:44:24.71: SIM {TimeUS : 61334623, Roll : 0.08, Pitch : -17.18, Yaw : 35.01, Alt : 49.2999992371, Lat : 49.283706, Lng : -123.1148762, Q1 : 0.942927420139, Q2 : 0.0456509739161, Q3 : -0.142275333405, Q4 : 0.297593057156}
2019-04-14 15:44:24.81: SIM {TimeUS : 61434583, Roll : 0.14, Pitch : -17.24, Yaw : 34.93, Alt : 49.2999992371, Lat : 49.2837093, Lng : -123.1148727, Q1 : 0.943039417267, Q2 : 0.0462337173522, Q3 : -0.142636075616, Q4 : 0.29697483778}
2019-04-14 15:44:24.91: SIM {TimeUS : 61534543, Roll : 0.19, Pitch : -17.28, Yaw : 34.87, Alt : 49.2999992371, Lat : 49.2837125, Lng : -123.1148692, Q1 : 0.943146824837, Q2 : 0.0465954616666, Q3 : -0.142849490047, Q4 : 0.296474188566}
2019-04-14 15:44:25.01: SIM {TimeUS : 61634503, Roll : 0.21, Pitch : -17.28, Yaw : 34.82, Alt : 49.3100013733, Lat : 49.2837157, Lng : -123.1148657, Q1 : 0.943255364895, Q2 : 0.0467613935471, Q3 : -0.142817929387, Q4 : 0.296117782593}
2019-04-14 15:44:25.11: SIM {TimeUS : 61735296, Roll : 0.22, Pitch : -17.29, Yaw : 34.79, Alt : 49.3100013733, Lat : 49.283719, Lng : -123.1148622, Q1 : 0.943311870098, Q2 : 0.0468214415014, Q3 : -0.142898574471, Q4 : 0.295889467001}
2019-04-14 15:44:25.21: SIM {TimeUS : 61835256, Roll : 0.2, Pitch : -17.32, Yaw : 34.78, Alt : 49.3100013733, Lat : 49.2837223, Lng : -123.1148586, Q1 : 0.943313360214, Q2 : 0.0466929003596, Q3 : -0.143204018474, Q4 : 0.295757234097}
2019-04-14 15:44:25.31: SIM {TimeUS : 61935216, Roll : 0.17, Pitch : -17.35, Yaw : 34.78, Alt : 49.3100013733, Lat : 49.2837255, Lng : -123.1148551, Q1 : 0.943286597729, Q2 : 0.0465729758143, Q3 : -0.143489971757, Q4 : 0.295722931623}
2019-04-14 15:44:25.41: SIM {TimeUS : 62035176, Roll : 0.15, Pitch : -17.38, Yaw : 34.79, Alt : 49.3100013733, Lat : 49.2837289, Lng : -123.1148515, Q1 : 0.943223059177, Q2 : 0.0464805327356, Q3 : -0.143846556544, Q4 : 0.295766800642}
2019-04-14 15:44:25.51: SIM {TimeUS : 62135136, Roll : 0.13, Pitch : -17.41, Yaw : 34.81, Alt : 49.3100013733, Lat : 49.2837321, Lng : -123.1148479, Q1 : 0.943154156208, Q2 : 0.0464113876224, Q3 : -0.144110381603, Q4 : 0.295868933201}
2019-04-14 15:44:25.61: SIM {TimeUS : 62235096, Roll : 0.12, Pitch : -17.44, Yaw : 34.82, Alt : 49.3100013733, Lat : 49.2837355, Lng : -123.1148444, Q1 : 0.943080425262, Q2 : 0.0463779009879, Q3 : -0.144371911883, Q4 : 0.295981794596}
2019-04-14 15:44:25.71: SIM {TimeUS : 62335056, Roll : 0.11, Pitch : -17.45, Yaw : 34.84, Alt : 49.3100013733, Lat : 49.2837387, Lng : -123.1148408, Q1 : 0.943025588989, Q2 : 0.0463906228542, Q3 : -0.144515156746, Q4 : 0.296084553003}
2019-04-14 15:44:25.81: SIM {TimeUS : 62435016, Roll : 0.12, Pitch : -17.47, Yaw : 34.84, Alt : 49.3100013733, Lat : 49.2837421, Lng : -123.1148372, Q1 : 0.942989587784, Q2 : 0.0465021207929, Q3 : -0.144609063864, Q4 : 0.296135812998}
2019-04-14 15:44:25.91: SIM {TimeUS : 62534976, Roll : 0.14, Pitch : -17.49, Yaw : 34.84, Alt : 49.3100013733, Lat : 49.2837454, Lng : -123.1148336, Q1 : 0.942961275578, Q2 : 0.0466964952648, Q3 : -0.144712269306, Q4 : 0.296145021915}
2019-04-14 15:44:26.01: SIM {TimeUS : 62634936, Roll : 0.14, Pitch : -17.52, Yaw : 34.84, Alt : 49.3100013733, Lat : 49.2837488, Lng : -123.1148299, Q1 : 0.94293397665, Q2 : 0.046792536974, Q3 : -0.145002394915, Q4 : 0.296074777842}
2019-04-14 15:44:26.11: SIM {TimeUS : 62734896, Roll : 0.11, Pitch : -17.56, Yaw : 34.82, Alt : 49.3100013733, Lat : 49.2837521, Lng : -123.1148263, Q1 : 0.942929685116, Q2 : 0.04667301476, Q3 : -0.145387530327, Q4 : 0.295918554068}
2019-04-14 15:44:26.21: SIM {TimeUS : 62834856, Roll : 0.1, Pitch : -17.6, Yaw : 34.8, Alt : 49.3199996948, Lat : 49.2837555, Lng : -123.1148227, Q1 : 0.942936599255, Q2 : 0.0466156750917, Q3 : -0.145758107305, Q4 : 0.29572314024}
2019-04-14 15:44:26.31: SIM {TimeUS : 62934816, Roll : 0.11, Pitch : -17.63, Yaw : 34.78, Alt : 49.3199996948, Lat : 49.2837588, Lng : -123.114819, Q1 : 0.942953705788, Q2 : 0.0467731878161, Q3 : -0.145977020264, Q4 : 0.295535683632}
2019-04-14 15:44:26.41: SIM {TimeUS : 63034776, Roll : 0.14, Pitch : -17.64, Yaw : 34.76, Alt : 49.3199996948, Lat : 49.2837622, Lng : -123.1148154, Q1 : 0.942991137505, Q2 : 0.0470445267856, Q3 : -0.145990207791, Q4 : 0.295366555452}
2019-04-14 15:44:26.51: SIM {TimeUS : 63134736, Roll : 0.18, Pitch : -17.63, Yaw : 34.73, Alt : 49.3199996948, Lat : 49.2837655, Lng : -123.1148117, Q1 : 0.94305318594, Q2 : 0.0472642406821, Q3 : -0.145833000541, Q4 : 0.295211106539}
2019-04-14 15:44:26.61: SIM {TimeUS : 63234696, Roll : 0.19, Pitch : -17.62, Yaw : 34.71, Alt : 49.3199996948, Lat : 49.283769, Lng : -123.1148081, Q1 : 0.943119883537, Q2 : 0.047299452126, Q3 : -0.145741254091, Q4 : 0.295037657022}
2019-04-14 15:44:26.71: SIM {TimeUS : 63334656, Roll : 0.19, Pitch : -17.61, Yaw : 34.69, Alt : 49.3199996948, Lat : 49.2837723, Lng : -123.1148044, Q1 : 0.943194150925, Q2 : 0.0472322367132, Q3 : -0.145643234253, Q4 : 0.294859349728}
2019-04-14 15:44:26.81: SIM {TimeUS : 63434616, Roll : 0.18, Pitch : -17.59, Yaw : 34.66, Alt : 49.3199996948, Lat : 49.2837758, Lng : -123.1148007, Q1 : 0.943273484707, Q2 : 0.0470919497311, Q3 : -0.145534455776, Q4 : 0.294681668282}
2019-04-14 15:44:26.91: SIM {TimeUS : 63534576, Roll : 0.17, Pitch : -17.6, Yaw : 34.65, Alt : 49.3199996948, Lat : 49.2837792, Lng : -123.114797, Q1 : 0.943314433098, Q2 : 0.0469798967242, Q3 : -0.14567103982, Q4 : 0.294500827789}
2019-04-14 15:44:27.01: SIM {TimeUS : 63634536, Roll : 0.16, Pitch : -17.63, Yaw : 34.63, Alt : 49.3199996948, Lat : 49.2837826, Lng : -123.1147933, Q1 : 0.943326890469, Q2 : 0.0469582825899, Q3 : -0.145921140909, Q4 : 0.294340491295}
2019-04-14 15:44:27.11: SIM {TimeUS : 63734496, Roll : 0.14, Pitch : -17.68, Yaw : 34.61, Alt : 49.3199996948, Lat : 49.2837861, Lng : -123.1147896, Q1 : 0.943308055401, Q2 : 0.0469325520098, Q3 : -0.146355554461, Q4 : 0.294189214706}
2019-04-14 15:44:27.21: SIM {TimeUS : 63835289, Roll : 0.14, Pitch : -17.74, Yaw : 34.6, Alt : 49.3199996948, Lat : 49.2837895, Lng : -123.1147858, Q1 : 0.943259298801, Q2 : 0.047042094171, Q3 : -0.146875008941, Q4 : 0.294069200754}
2019-04-14 15:44:27.31: SIM {TimeUS : 63935249, Roll : 0.15, Pitch : -17.77, Yaw : 34.59, Alt : 49.3199996948, Lat : 49.2837929, Lng : -123.1147821, Q1 : 0.943244159222, Q2 : 0.0471696257591, Q3 : -0.147086963058, Q4 : 0.293991267681}
2019-04-14 15:44:27.41: SIM {TimeUS : 64035209, Roll : 0.15, Pitch : -17.79, Yaw : 34.58, Alt : 49.3199996948, Lat : 49.2837964, Lng : -123.1147784, Q1 : 0.943238258362, Q2 : 0.0472389496863, Q3 : -0.147262528539, Q4 : 0.293911278248}
2019-04-14 15:44:27.51: SIM {TimeUS : 64135169, Roll : 0.14, Pitch : -17.8, Yaw : 34.58, Alt : 49.3199996948, Lat : 49.2837999, Lng : -123.1147746, Q1 : 0.943249046803, Q2 : 0.047210983932, Q3 : -0.147386685014, Q4 : 0.293818861246}
2019-04-14 15:44:27.61: SIM {TimeUS : 64235129, Roll : 0.15, Pitch : -17.8, Yaw : 34.56, Alt : 49.3300018311, Lat : 49.2838032, Lng : -123.1147709, Q1 : 0.943279981613, Q2 : 0.0472327359021, Q3 : -0.147339642048, Q4 : 0.293739765882}
2019-04-14 15:44:27.71: SIM {TimeUS : 64335089, Roll : 0.16, Pitch : -17.8, Yaw : 34.55, Alt : 49.3300018311, Lat : 49.2838068, Lng : -123.1147672, Q1 : 0.943294107914, Q2 : 0.0473405793309, Q3 : -0.147370547056, Q4 : 0.293661355972}
2019-04-14 15:44:27.81: SIM {TimeUS : 64435049, Roll : 0.17, Pitch : -17.83, Yaw : 34.54, Alt : 49.3300018311, Lat : 49.2838103, Lng : -123.1147634, Q1 : 0.943293094635, Q2 : 0.0474515594542, Q3 : -0.14753934741, Q4 : 0.293561965227}
2019-04-14 15:44:27.91: SIM {TimeUS : 64535009, Roll : 0.18, Pitch : -17.84, Yaw : 34.53, Alt : 49.3300018311, Lat : 49.2838136, Lng : -123.1147597, Q1 : 0.943298578262, Q2 : 0.0475501529872, Q3 : -0.14767190814, Q4 : 0.293461769819}
2019-04-14 15:44:28.01: SIM {TimeUS : 64634969, Roll : 0.19, Pitch : -17.85, Yaw : 34.51, Alt : 49.3300018311, Lat : 49.2838171, Lng : -123.1147559, Q1 : 0.943322122097, Q2 : 0.0476536154747, Q3 : -0.147681728005, Q4 : 0.293364435434}
2019-04-14 15:44:28.11: SIM {TimeUS : 64734929, Roll : 0.19, Pitch : -17.86, Yaw : 34.5, Alt : 49.3300018311, Lat : 49.2838207, Lng : -123.1147521, Q1 : 0.943340539932, Q2 : 0.0476894788444, Q3 : -0.147774711251, Q4 : 0.293252468109}
2019-04-14 15:44:28.21: SIM {TimeUS : 64834889, Roll : 0.18, Pitch : -17.88, Yaw : 34.49, Alt : 49.3300018311, Lat : 49.2838242, Lng : -123.1147484, Q1 : 0.943351924419, Q2 : 0.0476415120065, Q3 : -0.147982954979, Q4 : 0.293118596077}
2019-04-14 15:44:28.31: SIM {TimeUS : 64934849, Roll : 0.16, Pitch : -17.92, Yaw : 34.47, Alt : 49.3300018311, Lat : 49.2838276, Lng : -123.1147446, Q1 : 0.943351209164, Q2 : 0.0475043803453, Q3 : -0.148352101445, Q4 : 0.292956531048}
2019-04-14 15:44:28.41: SIM {TimeUS : 65034809, Roll : 0.15, Pitch : -17.93, Yaw : 34.46, Alt : 49.3300018311, Lat : 49.2838311, Lng : -123.1147408, Q1 : 0.943377673626, Q2 : 0.0474121831357, Q3 : -0.148465365171, Q4 : 0.292828798294}
2019-04-14 15:44:28.51: SIM {TimeUS : 65134769, Roll : 0.15, Pitch : -17.92, Yaw : 34.45, Alt : 49.3300018311, Lat : 49.2838347, Lng : -123.1147371, Q1 : 0.943415522575, Q2 : 0.0474204979837, Q3 : -0.148409828544, Q4 : 0.292733699083}
2019-04-14 15:44:28.61: SIM {TimeUS : 65234729, Roll : 0.17, Pitch : -17.91, Yaw : 34.44, Alt : 49.3300018311, Lat : 49.2838382, Lng : -123.1147333, Q1 : 0.943447768688, Q2 : 0.0475527495146, Q3 : -0.148308500648, Q4 : 0.292659729719}
2019-04-14 15:44:28.71: SIM {TimeUS : 65334689, Roll : 0.18, Pitch : -17.92, Yaw : 34.42, Alt : 49.3300018311, Lat : 49.2838416, Lng : -123.1147295, Q1 : 0.943467795849, Q2 : 0.0476460941136, Q3 : -0.14833123982, Q4 : 0.292568355799}
2019-04-14 15:44:28.81: SIM {TimeUS : 65434649, Roll : 0.17, Pitch : -17.94, Yaw : 34.41, Alt : 49.3300018311, Lat : 49.2838451, Lng : -123.1147257, Q1 : 0.943475663662, Q2 : 0.0476166643202, Q3 : -0.148527488112, Q4 : 0.292448073626}
2019-04-14 15:44:28.91: SIM {TimeUS : 65534609, Roll : 0.15, Pitch : -17.96, Yaw : 34.4, Alt : 49.3300018311, Lat : 49.2838487, Lng : -123.1147219, Q1 : 0.943488717079, Q2 : 0.0474560409784, Q3 : -0.148765429854, Q4 : 0.292311251163}
2019-04-14 15:44:29.01: SIM {TimeUS : 65634569, Roll : 0.14, Pitch : -17.98, Yaw : 34.39, Alt : 49.3400001526, Lat : 49.2838522, Lng : -123.1147181, Q1 : 0.943495869637, Q2 : 0.0474074818194, Q3 : -0.148969218135, Q4 : 0.292192280293}
2019-04-14 15:44:29.11: SIM {TimeUS : 65734529, Roll : 0.15, Pitch : -18.0, Yaw : 34.37, Alt : 49.3400001526, Lat : 49.2838558, Lng : -123.1147143, Q1 : 0.943501889706, Q2 : 0.0475067421794, Q3 : -0.149087607861, Q4 : 0.292096227407}
2019-04-14 15:44:29.21: SIM {TimeUS : 65835322, Roll : 0.16, Pitch : -18.01, Yaw : 34.36, Alt : 49.3400001526, Lat : 49.2838592, Lng : -123.1147105, Q1 : 0.943509042263, Q2 : 0.0476263724267, Q3 : -0.149166196585, Q4 : 0.292013466358}
2019-04-14 15:44:29.31: SIM {TimeUS : 65935282, Roll : 0.18, Pitch : -18.02, Yaw : 34.35, Alt : 49.3400001526, Lat : 49.2838628, Lng : -123.1147067, Q1 : 0.943510472775, Q2 : 0.0478017739952, Q3 : -0.149198323488, Q4 : 0.291963875294}
2019-04-14 15:44:29.41: SIM {TimeUS : 66035242, Roll : 0.19, Pitch : -18.04, Yaw : 34.35, Alt : 49.3400001526, Lat : 49.2838664, Lng : -123.1147028, Q1 : 0.943505346775, Q2 : 0.0479097813368, Q3 : -0.149294346571, Q4 : 0.291913598776}
2019-04-14 15:44:29.51: SIM {TimeUS : 66135202, Roll : 0.2, Pitch : -18.05, Yaw : 34.34, Alt : 49.3400001526, Lat : 49.2838699, Lng : -123.1146989, Q1 : 0.943493545055, Q2 : 0.048030462116, Q3 : -0.149425297976, Q4 : 0.291864812374}
2019-04-14 15:44:29.61: SIM {TimeUS : 66235162, Roll : 0.21, Pitch : -18.07, Yaw : 34.33, Alt : 49.3400001526, Lat : 49.2838735, Lng : -123.1146952, Q1 : 0.943480491638, Q2 : 0.0481606759131, Q3 : -0.149551615119, Q4 : 0.291820824146}
2019-04-14 15:44:29.71: SIM {TimeUS : 66335122, Roll : 0.23, Pitch : -18.09, Yaw : 34.33, Alt : 49.3400001526, Lat : 49.2838769, Lng : -123.1146914, Q1 : 0.9434684515, Q2 : 0.0483480356634, Q3 : -0.149618789554, Q4 : 0.291794449091}
2019-04-14 15:44:29.81: SIM {TimeUS : 66435082, Roll : 0.26, Pitch : -18.1, Yaw : 34.32, Alt : 49.3400001526, Lat : 49.2838805, Lng : -123.1146876, Q1 : 0.943453252316, Q2 : 0.048620082438, Q3 : -0.149636775255, Q4 : 0.291789025068}
2019-04-14 15:44:29.91: SIM {TimeUS : 66535042, Roll : 0.26, Pitch : -18.09, Yaw : 34.32, Alt : 49.3400001526, Lat : 49.2838841, Lng : -123.1146838, Q1 : 0.94346922636, Q2 : 0.0486170873046, Q3 : -0.149601191282, Q4 : 0.291756272316}
2019-04-14 15:44:30.01: SIM {TimeUS : 66635002, Roll : 0.24, Pitch : -18.1, Yaw : 34.31, Alt : 49.3400001526, Lat : 49.2838877, Lng : -123.1146799, Q1 : 0.943484187126, Q2 : 0.0484300032258, Q3 : -0.149714052677, Q4 : 0.291681051254}
2019-04-14 15:44:30.11: SIM {TimeUS : 66734962, Roll : 0.22, Pitch : -18.12, Yaw : 34.31, Alt : 49.3400001526, Lat : 49.2838913, Lng : -123.1146761, Q1 : 0.943476498127, Q2 : 0.0482870154083, Q3 : -0.149967968464, Q4 : 0.291599243879}
