2019-04-14 15:27:47.70: SIM {TimeUS : 40916127, Roll : 0.0, Pitch : 0.0, Yaw : 0.0, Alt : 30.1000003815, Lat : 49.28357, Lng : -123.11502, Q1 : 1.0, Q2 : 0.0, Q3 : 0.0, Q4 : 0.0}
2019-04-14 15:27:47.81: SIM {TimeUS : 41035246, Roll : 0.0, Pitch : 0.0, Yaw : 0.0, Alt : 30.1000003815, Lat : 49.28357, Lng : -123.11502, Q1 : 1.0, Q2 : 0.0, Q3 : 0.0, Q4 : 0.0}
2019-04-14 15:27:47.91: SIM {TimeUS : 41135206, Roll : 0.0, Pitch : 0.0, Yaw : 0.0, Alt : 30.1000003815, Lat : 49.28357, Lng : -123.11502, Q1 : 1.0, Q2 : 0.0, Q3 : 0.0, Q4 : 0.0}
2019-04-14 15:27:48.01: SIM {TimeUS : 41235166, Roll : 0.0, Pitch : 0.0, Yaw : 0.0, Alt : 30.1000003815, Lat : 49.28357, Lng : -123.11502, Q1 : 1.0, Q2 : 0.0, Q3 : 0.0, Q4 : 0.0}
2019-04-14 15:27:48.11: SIM {TimeUS : 41335126, Roll : 0.0, Pitch : 0.0, Yaw : 0.0, Alt : 30.1000003815, Lat : 49.28357, Lng : -123.11502, Q1 : 1.0, Q2 : 0.0, Q3 : 0.0, Q4 : 0.0}
2019-04-14 15:27:48.21: SIM {TimeUS : 41435086, Roll : 0.0, Pitch : 0.0, Yaw : 0.0, Alt : 30.1000003815, Lat : 49.28357, Lng : -123.11502, Q1 : 1.0, Q2 : 0.0, Q3 : 0.0, Q4 : 0.0}
2019-04-14 15:27:48.31: SIM {TimeUS : 41535046, Roll : 0.0, Pitch : 0.0, Yaw : 0.0, Alt : 30.1000003815, Lat : 49.28357, Lng : -123.11502, Q1 : 1.0, Q2 : 0.0, Q3 : 0.0, Q4 : 0.0}
2019-04-14 15:27:48.41: SIM {TimeUS : 41635006, Roll : 0.0, Pitch : 0.0, Yaw : 0.0, Alt : 30.1000003815, Lat : 49.28357, Lng : -123.11502, Q1 : 1.0, Q2 : 0.0, Q3 : 0.0, Q4 : 0.0}
2019-04-14 15:27:48.51: SIM {TimeUS : 41734966, Roll : 0.0, Pitch : 0.0, Yaw : 0.0, Alt : 30.1000003815, Lat : 49.28357, Lng : -123.11502, Q1 : 1.0, Q2 : 0.0, Q3 : 0.0, Q4 : 0.0}
2019-04-14 15:27:48.61: SIM {TimeUS : 41834926, Roll : 0.0, Pitch : 0.0, Yaw : 0.0, Alt : 30.1000003815, Lat : 49.28357, Lng : -123.11502, Q1 : 1.0, Q2 : 0.0, Q3 : 0.0, Q4 : 0.0}
2019-04-14 15:27:48.71: SIM {TimeUS : 41934886, Roll : 0.0, Pitch : 0.0, Yaw : 0.0, Alt : 30.1000003815, Lat : 49.28357, Lng : -123.11502, Q1 : 1.0, Q2 : 0.0, Q3 : 0.0, Q4 : 0.0}
2019-04-14 15:27:48.81: SIM {TimeUS : 42034846, Roll : 0.0, Pitch : 0.0, Yaw : 0.0, Alt : 30.1000003815, Lat : 49.28357, Lng : -123.11502, Q1 : 1.0, Q2 : 0.0, Q3 : 0.0, Q4 : 0.0}
2019-04-14 15:27:48.91: SIM {TimeUS : 42134806, Roll : 0.0, Pitch : 0.0, Yaw : 0.0, Alt : 30.1000003815, Lat : 49.28357, Lng : -123.11502, Q1 : 1.0, Q2 : 0.0, Q3 : 0.0, Q4 : 0.0}
2019-04-14 15:27:49.01: SIM {TimeUS : 42234766, Roll : 0.0, Pitch : 0.0, Yaw : 0.0, Alt : 30.1000003815, Lat : 49.28357, Lng : -123.11502, Q1 : 1.0, Q2 : 0.0, Q3 : 0.0, Q4 : 0.0}
2019-04-14 15:27:49.11: SIM {TimeUS : 42334726, Roll : 0.0, Pitch : 0.0, Yaw : 0.0, Alt : 30.1000003815, Lat : 49.28357, Lng : -123.11502, Q1 : 1.0, Q2 : 0.0, Q3 : 0.0, Q4 : 0.0}
2019-04-14 15:27:49.21: SIM {TimeUS : 42434686, Roll : 0.0, Pitch : 0.0, Yaw : 0.0, Alt : 30.1000003815, Lat : 49.28357, Lng : -123.11502, Q1 : 1.0, Q2 : 0.0, Q3 : 0.0, Q4 : 0.0}
2019-04-14 15:27:49.31: SIM {TimeUS : 42534646, Roll : 0.0, Pitch : 0.0, Yaw : 0.0, Alt : 30.1000003815, Lat : 49.28357, Lng : -123.11502, Q1 : 1.0, Q2 : 0.0, Q3 : 0.0, Q4 : 0.0}
2019-04-14 15:27:49.41: SIM {TimeUS : 42634606, Roll : 0.0, Pitch : 0.0, Yaw : 0.0, Alt : 30.1000003815, Lat : 49.28357, Lng : -123.11502, Q1 : 1.0, Q2 : 0.0, Q3 : 0.0, Q4 : 0.0}
2019-04-14 15:27:49.51: SIM {TimeUS : 42734566, Roll : 0.0, Pitch : 0.0, Yaw : 0.0, Alt : 30.1000003815, Lat : 49.28357, Lng : -123.11502, Q1 : 1.0, Q2 : 0.0, Q3 : 0.0, Q4 : 0.0}
2019-04-14 15:27:49.61: SIM {TimeUS : 42834526, Roll : 0.0, Pitch : 0.0, Yaw : 0.0, Alt : 30.1000003815, Lat : 49.28357, Lng : -123.11502, Q1 : 1.0, Q2 : 0.0, Q3 : 0.0, Q4 : 0.0}
2019-04-14 15:27:49.71: SIM {TimeUS : 42934486, Roll : 0.0, Pitch : 0.0, Yaw : 0.0, Alt : 30.1000003815, Lat : 49.28357, Lng : -123.11502, Q1 : 1.0, Q2 : 0.0, Q3 : 0.0, Q4 : 0.0}
2019-04-14 15:27:49.82: SIM {TimeUS : 43035279, Roll : 0.0, Pitch : 0.0, Yaw : 0.0, Alt : 30.1000003815, Lat : 49.28357, Lng : -123.11502, Q1 : 1.0, Q2 : 0.0, Q3 : 0.0, Q4 : 0.0}
2019-04-14 15:27:49.91: SIM {TimeUS : 43135239, Roll : 0.0, Pitch : 0.0, Yaw : 0.0, Alt : 30.1000003815, Lat : 49.28357, Lng : -123.11502, Q1 : 1.0, Q2 : 0.0, Q3 : 0.0, Q4 : 0.0}
2019-04-14 15:27:50.01: SIM {TimeUS : 43235199, Roll : 0.0, Pitch : 0.0, Yaw : 360.0, Alt : 30.1000003815, Lat : 49.28357, Lng : -123.11502, Q1 : 1.0, Q2 : 0.0, Q3 : 0.0, Q4 : -4.88213636185e-12}
2019-04-14 15:27:50.11: SIM {TimeUS : 43335159, Roll : 0.0, Pitch : 0.0, Yaw : 0.0, Alt : 30.1000003815, Lat : 49.28357, Lng : -123.11502, Q1 : 1.0, Q2 : 0.0, Q3 : 0.0, Q4 : 3.46478262747e-11}
2019-04-14 15:27:50.21: SIM {TimeUS : 43435119, Roll : 0.0, Pitch : 0.0, Yaw : 360.0, Alt : 30.1000003815, Lat : 49.28357, Lng : -123.11502, Q1 : 1.0, Q2 : 0.0, Q3 : 0.0, Q4 : -6.35156567341e-08}
2019-04-14 15:27:50.31: SIM {TimeUS : 43535079, Roll : 0.0, Pitch : 0.0, Yaw : 359.99, Alt : 30.1000003815, Lat : 49.28357, Lng : -123.11502, Q1 : 1.0, Q2 : 0.0, Q3 : 0.0, Q4 : -2.26940244374e-07}
2019-04-14 15:27:50.41: SIM {TimeUS : 43635039, Roll : 0.0, Pitch : 0.0, Yaw : 359.99, Alt : 30.1000003815, Lat : 49.28357, Lng : -123.11502, Q1 : 1.0, Q2 : 0.0, Q3 : 0.0, Q4 : -4.12810635453e-07}
2019-04-14 15:27:50.51: SIM {TimeUS : 43734999, Roll : 0.0, Pitch : 0.0, Yaw : 359.99, Alt : 30.1000003815, Lat : 49.28357, Lng : -123.11502, Q1 : 1.0, Q2 : 0.0, Q3 : 0.0, Q4 : -5.86444173223e-07}
2019-04-14 15:27:50.61: SIM {TimeUS : 43834959, Roll : 0.0, Pitch : 0.0, Yaw : 359.99, Alt : 30.1000003815, Lat : 49.28357, Lng : -123.11502, Q1 : 1.0, Q2 : 0.0, Q3 : 0.0, Q4 : -7.78982041538e-07}
2019-04-14 15:27:50.71: SIM {TimeUS : 43934919, Roll : 0.0, Pitch : 0.0, Yaw : 359.99, Alt : 30.1000003815, Lat : 49.28357, Lng : -123.11502, Q1 : 1.0, Q2 : 0.0, Q3 : 0.0, Q4 : -9.48700119352e-07}
2019-04-14 15:27:50.81: SIM {TimeUS : 44034879, Roll : 0.0, Pitch : 0.0, Yaw : 359.99, Alt : 30.1000003815, Lat : 49.28357, Lng : -123.11502, Q1 : 1.0, Q2 : 0.0, Q3 : 0.0, Q4 : -1.16404316941e-06}
2019-04-14 15:27:50.91: SIM {TimeUS : 44134839, Roll : 0.0, Pitch : 0.0, Yaw : 359.99, Alt : 30.1100006104, Lat : 49.28357, Lng : -123.11502, Q1 : 1.0, Q2 : 0.0, Q3 : 0.0, Q4 : -1.33023058879e-06}
2019-04-14 15:27:51.01: SIM {TimeUS : 44234799, Roll : 0.0, Pitch : 0.0, Yaw : 359.99, Alt : 30.1299991608, Lat : 49.28357, Lng : -123.11502, Q1 : 1.0, Q2 : 0.0, Q3 : 0.0, Q4 : -1.54090116666e-06}
2019-04-14 15:27:51.11: SIM {TimeUS : 44334759, Roll : 0.0, Pitch : 0.0, Yaw : 359.99, Alt : 30.1499996185, Lat : 49.28357, Lng : -123.11502, Q1 : 1.0, Q2 : 0.0, Q3 : 0.0, Q4 : -1.76906837623e-06}
2019-04-14 15:27:51.21: SIM {TimeUS : 44434719, Roll : 0.0, Pitch : 0.0, Yaw : 359.99, Alt : 30.1900005341, Lat : 49.28357, Lng : -123.11502, Q1 : 1.0, Q2 : 0.0, Q3 : 0.0, Q4 : -2.02633009394e-06}
2019-04-14 15:27:51.31: SIM {TimeUS : 44534679, Roll : -0.03, Pitch : -0.02, Yaw : 359.99, Alt : 30.2299995422, Lat : 49.28357, Lng : -123.11502, Q1 : 0.999999940395, Q2 : -0.000294133351417, Q3 : -0.000233213140746, Q4 : -3.2977347928e-06}
2019-04-14 15:27:51.41: SIM {TimeUS : 44634639, Roll : -0.27, Pitch : -0.22, Yaw : 359.99, Alt : 30.2999992371, Lat : 49.28357, Lng : -123.11502, Q1 : 0.999995231628, Q2 : -0.0024274578318, Q3 : -0.00192886276636, Q4 : -2.16108783206e-05}
2019-04-14 15:27:51.51: SIM {TimeUS : 44734599, Roll : -0.56, Pitch : -0.46, Yaw : 359.99, Alt : 30.4400005341, Lat : 49.28357, Lng : -123.11502, Q1 : 0.999979496002, Q2 : -0.00493719382212, Q3 : -0.00407839613035, Q4 : -6.58384087728e-05}
2019-04-14 15:27:51.61: SIM {TimeUS : 44834559, Roll : -0.74, Pitch : -0.64, Yaw : 359.98, Alt : 30.5900001526, Lat : 49.28357, Lng : -123.11502, Q1 : 0.99996304512, Q2 : -0.00652422290295, Q3 : -0.00559536600485, Q4 : -0.000132378045237}
2019-04-14 15:27:51.71: SIM {TimeUS : 44934519, Roll : -0.77, Pitch : -0.68, Yaw : 359.98, Alt : 30.75, Lat : 49.28357, Lng : -123.11502, Q1 : 0.99995881319, Q2 : -0.00679445406422, Q3 : -0.00601783115417, Q4 : -0.000207269607927}
2019-04-14 15:27:51.81: SIM {TimeUS : 45034479, Roll : -0.67, Pitch : -0.62, Yaw : 359.97, Alt : 30.9099998474, Lat : 49.28357, Lng : -123.1150201, Q1 : 0.999967634678, Q2 : -0.00590143632144, Q3 : -0.00546641368419, Q4 : -0.000278642983176}
2019-04-14 15:27:51.92: SIM {TimeUS : 45135272, Roll : -0.48, Pitch : -0.47, Yaw : 359.96, Alt : 31.0599994659, Lat : 49.2835701, Lng : -123.1150201, Q1 : 0.999982357025, Q2 : -0.00422987435013, Q3 : -0.00415986636654, Q4 : -0.000345985929016}
2019-04-14 15:27:52.01: SIM {TimeUS : 45235232, Roll : -0.27, Pitch : -0.28, Yaw : 359.95, Alt : 31.2199993134, Lat : 49.2835701, Lng : -123.1150202, Q1 : 0.999993979931, Q2 : -0.00242177466862, Q3 : -0.0024586841464, Q4 : -0.000398315489292}
2019-04-14 15:27:52.11: SIM {TimeUS : 45335192, Roll : -0.1, Pitch : -0.09, Yaw : 359.94, Alt : 31.3799991608, Lat : 49.2835702, Lng : -123.1150203, Q1 : 0.999999165535, Q2 : -0.000916695105843, Q3 : -0.000809512857813, Q4 : -0.000440551462816}
2019-04-14 15:27:52.21: SIM {TimeUS : 45435152, Roll : 0.0, Pitch : 0.04, Yaw : 359.94, Alt : 31.5599994659, Lat : 49.2835702, Lng : -123.1150203, Q1 : 0.999999821186, Q2 : -7.54686743676e-06, Q3 : 0.000364546925994, Q4 : -0.000474900967674}
2019-04-14 15:27:52.31: SIM {TimeUS : 45535112, Roll : 0.05, Pitch : 0.12, Yaw : 359.94, Alt : 31.7299995422, Lat : 49.2835702, Lng : -123.1150204, Q1 : 0.999999165535, Q2 : 0.000495921412949, Q3 : 0.00106298946775, Q4 : -0.000499541813042}
2019-04-14 15:27:52.41: SIM {TimeUS : 45635072, Roll : 0.08, Pitch : 0.14, Yaw : 359.94, Alt : 31.9099998474, Lat : 49.2835703, Lng : -123.1150205, Q1 : 0.999998867512, Q2 : 0.000725653255358, Q3 : 0.00123623327818, Q4 : -0.000508262077346}
2019-04-14 15:27:52.51: SIM {TimeUS : 45735032, Roll : 0.08, Pitch : 0.13, Yaw : 359.94, Alt : 32.0999984741, Lat : 49.2835703, Lng : -123.1150205, Q1 : 0.999998927116, Q2 : 0.000724675774109, Q3 : 0.00118356908206, Q4 : -0.000501969654579}
2019-04-14 15:27:52.61: SIM {TimeUS : 45834992, Roll : 0.06, Pitch : 0.12, Yaw : 359.94, Alt : 32.2900009155, Lat : 49.2835703, Lng : -123.1150206, Q1 : 0.99999910593, Q2 : 0.000564673857298, Q3 : 0.00110336276703, Q4 : -0.000491118058562}
2019-04-14 15:27:52.71: SIM {TimeUS : 45934952, Roll : 0.05, Pitch : 0.1, Yaw : 359.94, Alt : 32.4799995422, Lat : 49.2835703, Lng : -123.1150206, Q1 : 0.999999344349, Q2 : 0.000494595617056, Q3 : 0.000904003274627, Q4 : -0.000478428177303}
2019-04-14 15:27:52.81: SIM {TimeUS : 46034912, Roll : 0.07, Pitch : 0.08, Yaw : 359.94, Alt : 32.6699981689, Lat : 49.2835703, Lng : -123.1150206, Q1 : 0.999999463558, Q2 : 0.000617191544734, Q3 : 0.000701794167981, Q4 : -0.000462708761916}
2019-04-14 15:27:52.91: SIM {TimeUS : 46134872, Roll : 0.08, Pitch : 0.07, Yaw : 359.94, Alt : 32.8699989319, Lat : 49.2835703, Lng : -123.1150207, Q1 : 0.999999344349, Q2 : 0.000784320523962, Q3 : 0.000688498199452, Q4 : -0.000446237216238}
2019-04-14 15:27:53.01: SIM {TimeUS : 46234832, Roll : 0.11, Pitch : 0.1, Yaw : 359.95, Alt : 33.0699996948, Lat : 49.2835704, Lng : -123.1150207, Q1 : 0.999998986721, Q2 : 0.00102665962186, Q3 : 0.000918574165553, Q4 : -0.00043721756083}
2019-04-14 15:27:53.11: SIM {TimeUS : 46334792, Roll : 0.14, Pitch : 0.14, Yaw : 359.95, Alt : 33.2700004578, Lat : 49.2835704, Lng : -123.1150207, Q1 : 0.99999833107, Q2 : 0.00127557385713, Q3 : 0.00123494921718, Q4 : -0.000436440575868}
2019-04-14 15:27:53.21: SIM {TimeUS : 46434752, Roll : 0.16, Pitch : 0.15, Yaw : 359.94, Alt : 33.4799995422, Lat : 49.2835704, Lng : -123.1150207, Q1 : 0.999997913837, Q2 : 0.00143403140828, Q3 : 0.00137777032796, Q4 : -0.000442603079136}
2019-04-14 15:27:53.31: SIM {TimeUS : 46534712, Roll : 0.15, Pitch : 0.15, Yaw : 359.94, Alt : 33.6899986267, Lat : 49.2835704, Lng : -123.1150208, Q1 : 0.999998092651, Q2 : 0.00134651828557, Q3 : 0.00132287398446, Q4 : -0.000453053915408}
2019-04-14 15:27:53.41: SIM {TimeUS : 46634672, Roll : 0.13, Pitch : 0.13, Yaw : 359.94, Alt : 33.8899993896, Lat : 49.2835704, Lng : -123.1150208, Q1 : 0.999998509884, Q2 : 0.00113702879753, Q3 : 0.00119974720292, Q4 : -0.000466169323772}
2019-04-14 15:27:53.51: SIM {TimeUS : 46734632, Roll : 0.1, Pitch : 0.12, Yaw : 359.94, Alt : 34.0999984741, Lat : 49.2835704, Lng : -123.1150208, Q1 : 0.999998927116, Q2 : 0.00091715430608, Q3 : 0.00106288352981, Q4 : -0.000481844472233}
2019-04-14 15:27:53.61: SIM {TimeUS : 46834592, Roll : 0.09, Pitch : 0.08, Yaw : 359.94, Alt : 34.3199996948, Lat : 49.2835704, Lng : -123.1150208, Q1 : 0.999999284744, Q2 : 0.000825864262879, Q3 : 0.000707836588845, Q4 : -0.000494965352118}
2019-04-14 15:27:53.71: SIM {TimeUS : 46934552, Roll : 0.08, Pitch : 0.04, Yaw : 359.94, Alt : 34.5299987793, Lat : 49.2835704, Lng : -123.1150207, Q1 : 0.999999523163, Q2 : 0.000754235254135, Q3 : 0.000399040640332, Q4 : -0.000507830118295}
2019-04-14 15:27:53.81: SIM {TimeUS : 47034512, Roll : 0.07, Pitch : 0.03, Yaw : 359.93, Alt : 34.7400016785, Lat : 49.2835704, Lng : -123.1150207, Q1 : 0.999999642372, Q2 : 0.000617908546701, Q3 : 0.00027138311998, Q4 : -0.000525430135895}
2019-04-14 15:27:53.91: SIM {TimeUS : 47134472, Roll : 0.06, Pitch : 0.03, Yaw : 359.93, Alt : 34.9599990845, Lat : 49.2835704, Lng : -123.1150207, Q1 : 0.999999642372, Q2 : 0.00052642490482, Q3 : 0.000293195305858, Q4 : -0.000540156965144}
2019-04-14 15:27:54.02: SIM {TimeUS : 47235265, Roll : 0.06, Pitch : 0.03, Yaw : 359.93, Alt : 35.1800003052, Lat : 49.2835704, Lng : -123.1150207, Q1 : 0.999999642372, Q2 : 0.000554922968149, Q3 : 0.000310936884489, Q4 : -0.00056128151482}
2019-04-14 15:27:54.11: SIM {TimeUS : 47335225, Roll : 0.05, Pitch : 0.02, Yaw : 359.93, Alt : 35.3899993896, Lat : 49.2835704, Lng : -123.1150207, Q1 : 0.999999701977, Q2 : 0.000450892723165, Q3 : 0.000184729520697, Q4 : -0.00058243557578}
2019-04-14 15:27:54.21: SIM {TimeUS : 47435185, Roll : 0.02, Pitch : -0.01, Yaw : 359.93, Alt : 35.6100006104, Lat : 49.2835704, Lng : -123.1150207, Q1 : 0.999999821186, Q2 : 0.000179968046723, Q3 : -0.000108138068754, Q4 : -0.000602898304351}
2019-04-14 15:27:54.31: SIM {TimeUS : 47535145, Roll : -0.01, Pitch : -0.04, Yaw : 359.92, Alt : 35.8300018311, Lat : 49.2835704, Lng : -123.1150207, Q1 : 0.999999701977, Q2 : -0.000154104942339, Q3 : -0.000366933760233, Q4 : -0.000625267100986}
2019-04-14 15:27:54.41: SIM {TimeUS : 47635105, Roll : -0.06, Pitch : -0.06, Yaw : 359.92, Alt : 36.0499992371, Lat : 49.2835704, Lng : -123.1150207, Q1 : 0.999999523163, Q2 : -0.000529757642653, Q3 : -0.000544642214663, Q4 : -0.000654296774883}
2019-04-14 15:27:54.51: SIM {TimeUS : 47735065, Roll : -0.08, Pitch : -0.07, Yaw : 359.92, Alt : 36.2700004578, Lat : 49.2835704, Lng : -123.1150207, Q1 : 0.999999284744, Q2 : -0.000768842117395, Q3 : -0.000638183497358, Q4 : -0.000683545251377}
2019-04-14 15:27:54.61: SIM {TimeUS : 47835025, Roll : -0.09, Pitch : -0.07, Yaw : 359.91, Alt : 36.4900016785, Lat : 49.2835704, Lng : -123.1150207, Q1 : 0.999999165535, Q2 : -0.000867047929205, Q3 : -0.00068071403075, Q4 : -0.000711232656613}
2019-04-14 15:27:54.71: SIM {TimeUS : 47934985, Roll : -0.09, Pitch : -0.06, Yaw : 359.91, Alt : 36.7200012207, Lat : 49.2835704, Lng : -123.1150206, Q1 : 0.99999922514, Q2 : -0.000823518261313, Q3 : -0.000579600164201, Q4 : -0.000735494424589}
2019-04-14 15:27:54.81: SIM {TimeUS : 48034945, Roll : -0.07, Pitch : -0.06, Yaw : 359.91, Alt : 36.9399986267, Lat : 49.2835704, Lng : -123.1150206, Q1 : 0.999999344349, Q2 : -0.000649115536362, Q3 : -0.000523842929397, Q4 : -0.000759918417316}
2019-04-14 15:27:54.91: SIM {TimeUS : 48134905, Roll : -0.06, Pitch : -0.06, Yaw : 359.91, Alt : 37.1599998474, Lat : 49.2835704, Lng : -123.1150206, Q1 : 0.999999344349, Q2 : -0.000597506004851, Q3 : -0.000525982177351, Q4 : -0.000782483781222}
2019-04-14 15:27:55.01: SIM {TimeUS : 48234865, Roll : -0.06, Pitch : -0.04, Yaw : 359.9, Alt : 37.3899993896, Lat : 49.2835704, Lng : -123.1150206, Q1 : 0.999999403954, Q2 : -0.000595045858063, Q3 : -0.000379045959562, Q4 : -0.000812072423287}
2019-04-14 15:27:55.11: SIM {TimeUS : 48334825, Roll : -0.08, Pitch : -0.01, Yaw : 359.9, Alt : 37.6100006104, Lat : 49.2835704, Lng : -123.1150206, Q1 : 0.999999403954, Q2 : -0.000716658018064, Q3 : -0.000133260720759, Q4 : -0.000840869906824}
2019-04-14 15:27:55.21: SIM {TimeUS : 48434785, Roll : -0.08, Pitch : 0.0, Yaw : 359.9, Alt : 37.8400001526, Lat : 49.2835704, Lng : -123.1150206, Q1 : 0.999999403954, Q2 : -0.000715680012945, Q3 : 7.36831934773e-05, Q4 : -0.000862946093548}
2019-04-14 15:27:55.31: SIM {TimeUS : 48534745, Roll : -0.06, Pitch : 0.04, Yaw : 359.89, Alt : 38.0699996948, Lat : 49.2835704, Lng : -123.1150206, Q1 : 0.999999403954, Q2 : -0.000527894531842, Q3 : 0.000418060895754, Q4 : -0.000882801890839}
2019-04-14 15:27:55.41: SIM {TimeUS : 48634705, Roll : -0.04, Pitch : 0.04, Yaw : 359.89, Alt : 38.2900009155, Lat : 49.2835704, Lng : -123.1150206, Q1 : 0.999999403954, Q2 : -0.000377664866392, Q3 : 0.000415340036852, Q4 : -0.000912388728466}
2019-04-14 15:27:55.51: SIM {TimeUS : 48734665, Roll : -0.02, Pitch : 0.02, Yaw : 359.89, Alt : 38.5200004578, Lat : 49.2835704, Lng : -123.1150206, Q1 : 0.999999523163, Q2 : -0.000184799166163, Q3 : 0.000244757771725, Q4 : -0.000937673263252}
2019-04-14 15:27:55.61: SIM {TimeUS : 48834625, Roll : 0.0, Pitch : 0.03, Yaw : 359.88, Alt : 38.75, Lat : 49.2835704, Lng : -123.1150207, Q1 : 0.999999523163, Q2 : 8.63109962665e-05, Q3 : 0.000297046179185, Q4 : -0.000961590092629}
2019-04-14 15:27:55.71: SIM {TimeUS : 48934585, Roll : 0.04, Pitch : 0.04, Yaw : 359.88, Alt : 38.9799995422, Lat : 49.2835704, Lng : -123.1150207, Q1 : 0.999999344349, Q2 : 0.000372272741515, Q3 : 0.000425782927778, Q4 : -0.000984254758805}
2019-04-14 15:27:55.81: SIM {TimeUS : 49034545, Roll : 0.07, Pitch : 0.06, Yaw : 359.88, Alt : 39.2099990845, Lat : 49.2835706, Lng : -123.1150207, Q1 : 0.99999910593, Q2 : 0.000617688230705, Q3 : 0.000596521364059, Q4 : -0.00100790988654}
2019-04-14 15:27:55.91: SIM {TimeUS : 49134505, Roll : 0.06, Pitch : 0.08, Yaw : 359.88, Alt : 39.4399986267, Lat : 49.2835706, Lng : -123.1150207, Q1 : 0.999999046326, Q2 : 0.000546899624169, Q3 : 0.000762518378906, Q4 : -0.00102722807787}
2019-04-14 15:27:56.01: SIM {TimeUS : 49234465, Roll : 0.01, Pitch : 0.11, Yaw : 359.87, Alt : 39.6699981689, Lat : 49.2835706, Lng : -123.1150207, Q1 : 0.999998986721, Q2 : 0.000105766062916, Q3 : 0.000970147550106, Q4 : -0.00105643447023}
2019-04-14 15:27:56.12: SIM {TimeUS : 49335258, Roll : -0.03, Pitch : 0.12, Yaw : 359.87, Alt : 39.9000015259, Lat : 49.2835706, Lng : -123.1150207, Q1 : 0.999998807907, Q2 : -0.000266919407295, Q3 : 0.00107381108683, Q4 : -0.00108102534432}
2019-04-14 15:27:56.21: SIM {TimeUS : 49435218, Roll : -0.04, Pitch : 0.11, Yaw : 359.87, Alt : 40.1300010681, Lat : 49.2835706, Lng : -123.1150207, Q1 : 0.999998807907, Q2 : -0.000434052781202, Q3 : 0.000976404757239, Q4 : -0.00110675499309}
2019-04-14 15:27:56.31: SIM {TimeUS : 49535178, Roll : -0.05, Pitch : 0.1, Yaw : 359.86, Alt : 40.3600006104, Lat : 49.2835706, Lng : -123.1150207, Q1 : 0.999998807907, Q2 : -0.000444283650722, Q3 : 0.000928349327296, Q4 : -0.00113668548875}
2019-04-14 15:27:56.41: SIM {TimeUS : 49635138, Roll : -0.02, Pitch : 0.12, Yaw : 359.86, Alt : 40.5999984741, Lat : 49.2835706, Lng : -123.1150207, Q1 : 0.999998748302, Q2 : -0.000260154221905, Q3 : 0.00105732074007, Q4 : -0.00116926513147}
2019-04-14 15:27:56.51: SIM {TimeUS : 49735098, Roll : 0.02, Pitch : 0.14, Yaw : 359.86, Alt : 40.8300018311, Lat : 49.2835706, Lng : -123.1150207, Q1 : 0.999998450279, Q2 : 0.000190889564692, Q3 : 0.00126552011352, Q4 : -0.00119756301865}
2019-04-14 15:27:56.61: SIM {TimeUS : 49835058, Roll : 0.07, Pitch : 0.15, Yaw : 359.85, Alt : 41.0600013733, Lat : 49.2835706, Lng : -123.1150207, Q1 : 0.999998092651, Q2 : 0.000693788810167, Q3 : 0.00134860724211, Q4 : -0.00122365588322}
2019-04-14 15:27:56.71: SIM {TimeUS : 49935018, Roll : 0.11, Pitch : 0.12, Yaw : 359.85, Alt : 41.2900009155, Lat : 49.2835706, Lng : -123.1150207, Q1 : 0.999998211861, Q2 : 0.000964230741374, Q3 : 0.00106125301681, Q4 : -0.00124675116967}
2019-04-14 15:27:56.81: SIM {TimeUS : 50034978, Roll : 0.1, Pitch : 0.07, Yaw : 359.85, Alt : 41.5299987793, Lat : 49.2835706, Lng : -123.1150207, Q1 : 0.999998569489, Q2 : 0.000918218865991, Q3 : 0.000621262588538, Q4 : -0.00126673327759}
2019-04-14 15:27:56.91: SIM {TimeUS : 50134938, Roll : 0.06, Pitch : 0.03, Yaw : 359.85, Alt : 41.7599983215, Lat : 49.2835706, Lng : -123.1150207, Q1 : 0.999998986721, Q2 : 0.000542397960089, Q3 : 0.000324277381878, Q4 : -0.00127309048548}
2019-04-14 15:27:57.01: SIM {TimeUS : 50234898, Roll : 0.0, Pitch : 0.03, Yaw : 359.85, Alt : 41.9900016785, Lat : 49.2835706, Lng : -123.1150207, Q1 : 0.999999165535, Q2 : 6.24557505944e-05, Q3 : 0.000275740225334, Q4 : -0.00127820950001}
2019-04-14 15:27:57.11: SIM {TimeUS : 50334858, Roll : -0.02, Pitch : 0.06, Yaw : 359.85, Alt : 42.2299995422, Lat : 49.2835706, Lng : -123.1150207, Q1 : 0.999999046326, Q2 : -0.000246925861575, Q3 : 0.000539371336345, Q4 : -0.00127655663528}
2019-04-14 15:27:57.21: SIM {TimeUS : 50434818, Roll : -0.04, Pitch : 0.08, Yaw : 359.85, Alt : 42.4599990845, Lat : 49.2835704, Lng : -123.1150207, Q1 : 0.999998807907, Q2 : -0.000400536053348, Q3 : 0.000735872832593, Q4 : -0.00127506360877}
2019-04-14 15:27:57.31: SIM {TimeUS : 50534778, Roll : -0.04, Pitch : 0.07, Yaw : 359.85, Alt : 42.7000007629, Lat : 49.2835704, Lng : -123.1150207, Q1 : 0.999998867512, Q2 : -0.000387383071939, Q3 : 0.000689289357979, Q4 : -0.00127967586741}
2019-04-14 15:27:57.41: SIM {TimeUS : 50634738, Roll : -0.04, Pitch : 0.06, Yaw : 359.85, Alt : 42.9300003052, Lat : 49.2835704, Lng : -123.1150206, Q1 : 0.999998927116, Q2 : -0.000422845419962, Q3 : 0.00054259999888, Q4 : -0.00129685783759}
2019-04-14 15:27:57.51: SIM {TimeUS : 50734698, Roll : -0.04, Pitch : 0.04, Yaw : 359.84, Alt : 43.1699981689, Lat : 49.2835704, Lng : -123.1150206, Q1 : 0.999998986721, Q2 : -0.000365272047929, Q3 : 0.000407518091379, Q4 : -0.00131753634196}
2019-04-14 15:27:57.61: SIM {TimeUS : 50834658, Roll : -0.02, Pitch : 0.03, Yaw : 359.84, Alt : 43.4000015259, Lat : 49.2835704, Lng : -123.1150206, Q1 : 0.999999046326, Q2 : -0.000211712191231, Q3 : 0.000348798552295, Q4 : -0.00134045653977}
2019-04-14 15:27:57.71: SIM {TimeUS : 50934618, Roll : -0.01, Pitch : 0.03, Yaw : 359.84, Alt : 43.6399993896, Lat : 49.2835704, Lng : -123.1150206, Q1 : 0.999998986721, Q2 : -0.000107719446532, Q3 : 0.000334476615535, Q4 : -0.00136522529647}
2019-04-14 15:27:57.81: SIM {TimeUS : 51034578, Roll : -0.01, Pitch : 0.01, Yaw : 359.84, Alt : 43.8699989319, Lat : 49.2835704, Lng : -123.1150206, Q1 : 0.999999046326, Q2 : -0.000110384993604, Q3 : 0.000160321171279, Q4 : -0.00139332213439}
2019-04-14 15:27:57.91: SIM {TimeUS : 51134538, Roll : -0.01, Pitch : -0.01, Yaw : 359.83, Alt : 44.1100006104, Lat : 49.2835704, Lng : -123.1150206, Q1 : 0.999998927116, Q2 : -0.000164251192473, Q3 : -0.000148213628563, Q4 : -0.00143262150232}
2019-04-14 15:27:58.01: SIM {TimeUS : 51234498, Roll : -0.02, Pitch : -0.03, Yaw : 359.83, Alt : 44.3400001526, Lat : 49.2835704, Lng : -123.1150206, Q1 : 0.999998867512, Q2 : -0.00017894161283, Q3 : -0.000338920479408, Q4 : -0.00147703499533}
2019-04-14 15:27:58.11: SIM {TimeUS : 51334458, Roll : -0.01, Pitch : -0.04, Yaw : 359.82, Alt : 44.5800018311, Lat : 49.2835704, Lng : -123.1150206, Q1 : 0.999998748302, Q2 : -9.2803456937e-05, Q3 : -0.000408999389037, Q4 : -0.00151459407061}
2019-04-14 15:27:58.21: SIM {TimeUS : 51435251, Roll : -0.01, Pitch : -0.04, Yaw : 359.82, Alt : 44.8199996948, Lat : 49.2835704, Lng : -123.1150206, Q1 : 0.999998748302, Q2 : -0.000108461441414, Q3 : -0.000407414860092, Q4 : -0.00154589198064}
2019-04-14 15:27:58.31: SIM {TimeUS : 51535211, Roll : -0.03, Pitch : -0.04, Yaw : 359.81, Alt : 45.0499992371, Lat : 49.2835704, Lng : -123.1150206, Q1 : 0.999998629093, Q2 : -0.000329401518684, Q3 : -0.000367631699191, Q4 : -0.00157773087267}
2019-04-14 15:27:58.41: SIM {TimeUS : 51635171, Roll : -0.08, Pitch : -0.03, Yaw : 359.81, Alt : 45.2900009155, Lat : 49.2835703, Lng : -123.1150206, Q1 : 0.999998390675, Q2 : -0.000700209347997, Q3 : -0.00032293680124, Q4 : -0.00160941341892}
2019-04-14 15:27:58.51: SIM {TimeUS : 51735131, Roll : -0.11, Pitch : -0.02, Yaw : 359.81, Alt : 45.5299987793, Lat : 49.2835703, Lng : -123.1150206, Q1 : 0.999998152256, Q2 : -0.000999571289867, Q3 : -0.00025037775049, Q4 : -0.00164046639111}
2019-04-14 15:27:58.61: SIM {TimeUS : 51835091, Roll : -0.12, Pitch : -0.01, Yaw : 359.8, Alt : 45.7599983215, Lat : 49.2835703, Lng : -123.1150206, Q1 : 0.999998033047, Q2 : -0.00109850487206, Q3 : -0.000107579879113, Q4 : -0.00167094869539}
2019-04-14 15:27:58.71: SIM {TimeUS : 51935051, Roll : -0.11, Pitch : 0.01, Yaw : 359.8, Alt : 45.9900016785, Lat : 49.2835703, Lng : -123.1150206, Q1 : 0.999998092651, Q2 : -0.000987436389551, Q3 : 0.000120130389405, Q4 : -0.00169935706072}
2019-04-14 15:27:58.81: SIM {TimeUS : 52035011, Roll : -0.08, Pitch : 0.02, Yaw : 359.8, Alt : 46.2200012207, Lat : 49.2835703, Lng : -123.1150206, Q1 : 0.999998211861, Q2 : -0.000744747580029, Q3 : 0.000234143182752, Q4 : -0.0017250047531}
2019-04-14 15:27:58.91: SIM {TimeUS : 52134971, Roll : -0.05, Pitch : 0.02, Yaw : 359.79, Alt : 46.4500007629, Lat : 49.2835704, Lng : -123.1150206, Q1 : 0.99999833107, Q2 : -0.000508635712322, Q3 : 0.000188776350114, Q4 : -0.00174667115789}
2019-04-14 15:27:59.01: SIM {TimeUS : 52234931, Roll : -0.04, Pitch : 0.0, Yaw : 359.79, Alt : 46.6699981689, Lat : 49.2835704, Lng : -123.1150206, Q1 : 0.999998390675, Q2 : -0.000371866422938, Q3 : -3.02398711938e-06, Q4 : -0.00176524952985}
2019-04-14 15:27:59.11: SIM {TimeUS : 52334891, Roll : -0.02, Pitch : -0.03, Yaw : 359.79, Alt : 46.8800010681, Lat : 49.2835703, Lng : -123.1150206, Q1 : 0.99999833107, Q2 : -0.000209882869967, Q3 : -0.00031572120497, Q4 : -0.00178156967741}
2019-04-14 15:27:59.21: SIM {TimeUS : 52434851, Roll : 0.0, Pitch : -0.07, Yaw : 359.79, Alt : 47.0900001526, Lat : 49.2835703, Lng : -123.1150206, Q1 : 0.999998211861, Q2 : -1.6725032765e-05, Q3 : -0.000611206691246, Q4 : -0.00179726467468}
2019-04-14 15:27:59.31: SIM {TimeUS : 52534811, Roll : 0.0, Pitch : -0.09, Yaw : 359.79, Alt : 47.2900009155, Lat : 49.2835703, Lng : -123.1150206, Q1 : 0.999998033047, Q2 : 2.53235612035e-05, Q3 : -0.000822825357318, Q4 : -0.00181381450966}
2019-04-14 15:27:59.41: SIM {TimeUS : 52634771, Roll : 0.0, Pitch : -0.1, Yaw : 359.79, Alt : 47.4799995422, Lat : 49.2835703, Lng : -123.1150206, Q1 : 0.999997854233, Q2 : -4.89271842525e-05, Q3 : -0.000945973268244, Q4 : -0.00183182302862}
2019-04-14 15:27:59.51: SIM {TimeUS : 52734731, Roll : 0.0, Pitch : -0.11, Yaw : 359.78, Alt : 47.6599998474, Lat : 49.2835703, Lng : -123.1150206, Q1 : 0.999997794628, Q2 : 7.91711790953e-05, Q3 : -0.00101703812834, Q4 : -0.00185046752449}
2019-04-14 15:27:59.61: SIM {TimeUS : 52834691, Roll : 0.02, Pitch : -0.13, Yaw : 359.78, Alt : 47.8300018311, Lat : 49.2835704, Lng : -123.1150206, Q1 : 0.999997496605, Q2 : 0.000246153271291, Q3 : -0.0011952589266, Q4 : -0.00187067734078}
2019-04-14 15:27:59.71: SIM {TimeUS : 52934651, Roll : 0.05, Pitch : -0.13, Yaw : 359.78, Alt : 47.9900016785, Lat : 49.2835704, Lng : -123.1150206, Q1 : 0.999997377396, Q2 : 0.000459311675513, Q3 : -0.00117797893472, Q4 : -0.00189332047012}
2019-04-14 15:27:59.81: SIM {TimeUS : 53034611, Roll : 0.06, Pitch : -0.11, Yaw : 359.77, Alt : 48.1399993896, Lat : 49.2835704, Lng : -123.1150206, Q1 : 0.999997496605, Q2 : 0.000584027788136, Q3 : -0.000993331428617, Q4 : -0.00192078517284}
2019-04-14 15:27:59.91: SIM {TimeUS : 53134571, Roll : 0.08, Pitch : -0.08, Yaw : 359.77, Alt : 48.2799987793, Lat : 49.2835704, Lng : -123.1150206, Q1 : 0.99999755621, Q2 : 0.000698115036357, Q3 : -0.000777916924562, Q4 : -0.00195231917314}
2019-04-14 15:28:00.01: SIM {TimeUS : 53234531, Roll : 0.07, Pitch : -0.07, Yaw : 359.77, Alt : 48.4000015259, Lat : 49.2835704, Lng : -123.1150206, Q1 : 0.99999755621, Q2 : 0.000685328792315, Q3 : -0.000689678417984, Q4 : -0.00198910245672}
2019-04-14 15:28:00.11: SIM {TimeUS : 53334491, Roll : 0.05, Pitch : -0.06, Yaw : 359.76, Alt : 48.5200004578, Lat : 49.2835704, Lng : -123.1150206, Q1 : 0.999997675419, Q2 : 0.000509316450916, Q3 : -0.000536124105565, Q4 : -0.0020224316977}
2019-04-14 15:28:00.22: SIM {TimeUS : 53435284, Roll : 0.03, Pitch : -0.03, Yaw : 359.76, Alt : 48.6199989319, Lat : 49.2835704, Lng : -123.1150206, Q1 : 0.999997794628, Q2 : 0.000347248511389, Q3 : -0.000325605709804, Q4 : -0.00205469038337}
2019-04-14 15:28:00.31: SIM {TimeUS : 53535244, Roll : 0.02, Pitch : -0.01, Yaw : 359.76, Alt : 48.7000007629, Lat : 49.2835704, Lng : -123.1150206, Q1 : 0.999997794628, Q2 : 0.000177162131877, Q3 : -0.00012289803999, Q4 : -0.00208143889904}
2019-04-14 15:28:00.41: SIM {TimeUS : 53635204, Roll : 0.0, Pitch : 0.01, Yaw : 359.75, Alt : 48.7799987793, Lat : 49.2835704, Lng : -123.1150206, Q1 : 0.999997794628, Q2 : 7.07110739313e-05, Q3 : 0.000129241496325, Q4 : -0.00210332823917}
2019-04-14 15:28:00.51: SIM {TimeUS : 53735164, Roll : 0.01, Pitch : 0.04, Yaw : 359.75, Alt : 48.8499984741, Lat : 49.2835704, Lng : -123.1150206, Q1 : 0.999997615814, Q2 : 0.000174301749212, Q3 : 0.00041594405775, Q4 : -0.00212387833744}
2019-04-14 15:28:00.61: SIM {TimeUS : 53835124, Roll : 0.03, Pitch : 0.06, Yaw : 359.75, Alt : 48.9000015259, Lat : 49.2835704, Lng : -123.1150206, Q1 : 0.999997496605, Q2 : 0.000333052244969, Q3 : 0.000575213111006, Q4 : -0.00214532017708}
2019-04-14 15:28:00.71: SIM {TimeUS : 53935084, Roll : 0.05, Pitch : 0.04, Yaw : 359.75, Alt : 48.9500007629, Lat : 49.2835704, Lng : -123.1150206, Q1 : 0.999997496605, Q2 : 0.000439714203821, Q3 : 0.000394005619455, Q4 : -0.00216524978168}
2019-04-14 15:28:00.81: SIM {TimeUS : 54035044, Roll : 0.08, Pitch : -0.03, Yaw : 359.74, Alt : 49.0, Lat : 49.2835706, Lng : -123.1150206, Q1 : 0.999997317791, Q2 : 0.000709569256287, Q3 : -0.000289183255518, Q4 : -0.00218802154996}
2019-04-14 15:28:00.91: SIM {TimeUS : 54135004, Roll : 0.21, Pitch : -0.28, Yaw : 359.74, Alt : 49.0299987793, Lat : 49.2835706, Lng : -123.1150206, Q1 : 0.999992609024, Q2 : 0.00185317546129, Q3 : -0.00253261672333, Q4 : -0.0022152219899}
2019-04-14 15:28:01.01: SIM {TimeUS : 54234964, Roll : 0.5, Pitch : -0.76, Yaw : 359.74, Alt : 49.0600013733, Lat : 49.2835706, Lng : -123.1150206, Q1 : 0.999965429306, Q2 : 0.00437246309593, Q3 : -0.00671041244641, Q4 : -0.00223876908422}
2019-04-14 15:28:01.11: SIM {TimeUS : 54334924, Roll : 0.94, Pitch : -1.43, Yaw : 359.73, Alt : 49.0900001526, Lat : 49.2835706, Lng : -123.1150206, Q1 : 0.999885201454, Q2 : 0.00824569910765, Q3 : -0.0125088160858, Q4 : -0.00225114449859}
2019-04-14 15:28:01.21: SIM {TimeUS : 54434884, Roll : 1.5, Pitch : -2.23, Yaw : 359.71, Alt : 49.1100006104, Lat : 49.2835706, Lng : -123.1150206, Q1 : 0.999720573425, Q2 : 0.0130644459277, Q3 : -0.0195729024708, Q4 : -0.00223545823246}
2019-04-14 15:28:01.31: SIM {TimeUS : 54534844, Roll : 2.09, Pitch : -3.09, Yaw : 359.69, Alt : 49.1300010681, Lat : 49.2835707, Lng : -123.1150205, Q1 : 0.999466121197, Q2 : 0.0182334594429, Q3 : -0.0270242057741, Q4 : -0.00217909901403}
2019-04-14 15:28:01.41: SIM {TimeUS : 54634804, Roll : 2.62, Pitch : -3.84, Yaw : 359.67, Alt : 49.1500015259, Lat : 49.2835708, Lng : -123.1150204, Q1 : 0.999172866344, Q2 : 0.0227801054716, Q3 : -0.0336214601994, Q4 : -0.00206193956546}
2019-04-14 15:28:01.51: SIM {TimeUS : 54734764, Roll : 3.02, Pitch : -4.44, Yaw : 359.66, Alt : 49.1599998474, Lat : 49.2835709, Lng : -123.1150202, Q1 : 0.998899281025, Q2 : 0.0262645501643, Q3 : -0.0388183780015, Q4 : -0.00188794860151}
2019-04-14 15:28:01.61: SIM {TimeUS : 54834724, Roll : 3.32, Pitch : -4.87, Yaw : 359.66, Alt : 49.1800003052, Lat : 49.2835712, Lng : -123.11502, Q1 : 0.998673439026, Q2 : 0.0288538504392, Q3 : -0.0426155142486, Q4 : -0.00166659883689}
2019-04-14 15:28:01.71: SIM {TimeUS : 54934684, Roll : 3.56, Pitch : -5.2, Yaw : 359.67, Alt : 49.1899986267, Lat : 49.2835715, Lng : -123.1150198, Q1 : 0.998485207558, Q2 : 0.0309334155172, Q3 : -0.0454801060259, Q4 : -0.0014072926715}
2019-04-14 15:28:01.81: SIM {TimeUS : 55034644, Roll : 3.76, Pitch : -5.47, Yaw : 359.68, Alt : 49.2000007629, Lat : 49.2835718, Lng : -123.1150195, Q1 : 0.99832212925, Q2 : 0.032647754997, Q3 : -0.0478092320263, Q4 : -0.00114308786578}
2019-04-14 15:28:01.91: SIM {TimeUS : 55134604, Roll : 3.95, Pitch : -5.75, Yaw : 359.69, Alt : 49.2099990845, Lat : 49.2835721, Lng : -123.1150191, Q1 : 0.998144328594, Q2 : 0.0343143455684, Q3 : -0.050295446068, Q4 : -0.000894043943845}
2019-04-14 15:28:02.01: SIM {TimeUS : 55234564, Roll : 4.15, Pitch : -6.07, Yaw : 359.7, Alt : 49.2200012207, Lat : 49.2835726, Lng : -123.1150186, Q1 : 0.997941434383, Q2 : 0.0360362194479, Q3 : -0.0530464425683, Q4 : -0.000646931061056}
2019-04-14 15:28:02.11: SIM {TimeUS : 55334524, Roll : 4.35, Pitch : -6.37, Yaw : 359.71, Alt : 49.2200012207, Lat : 49.2835731, Lng : -123.115018, Q1 : 0.997733771801, Q2 : 0.0377901941538, Q3 : -0.0556698217988, Q4 : -0.000392105604988}
2019-04-14 15:28:02.21: SIM {TimeUS : 55434484, Roll : 4.52, Pitch : -6.61, Yaw : 359.72, Alt : 49.2299995422, Lat : 49.2835737, Lng : -123.1150174, Q1 : 0.997558116913, Q2 : 0.0392376333475, Q3 : -0.057777531445, Q4 : -0.00015327813162}
2019-04-14 15:28:02.32: SIM {TimeUS : 55535277, Roll : 4.64, Pitch : -6.8, Yaw : 359.72, Alt : 49.2400016785, Lat : 49.2835744, Lng : -123.1150168, Q1 : 0.997420787811, Q2 : 0.0402770116925, Q3 : -0.0594097226858, Q4 : 4.58696449641e-05}
2019-04-14 15:28:02.41: SIM {TimeUS : 55635237, Roll : 4.72, Pitch : -6.93, Yaw : 359.73, Alt : 49.2400016785, Lat : 49.2835751, Lng : -123.115016, Q1 : 0.997322201729, Q2 : 0.0410490967333, Q3 : -0.0605254732072, Q4 : 0.000208247583942}
2019-04-14 15:28:02.51: SIM {TimeUS : 55735197, Roll : 4.81, Pitch : -7.02, Yaw : 359.74, Alt : 49.25, Lat : 49.2835758, Lng : -123.1150151, Q1 : 0.997243762016, Q2 : 0.0418131873012, Q3 : -0.0612899176776, Q4 : 0.00033476142562}
2019-04-14 15:28:02.61: SIM {TimeUS : 55835157, Roll : 4.91, Pitch : -7.12, Yaw : 359.74, Alt : 49.25, Lat : 49.2835767, Lng : -123.1150144, Q1 : 0.997150957584, Q2 : 0.0426626726985, Q3 : -0.0622066296637, Q4 : 0.000409614818636}
2019-04-14 15:28:02.71: SIM {TimeUS : 55935117, Roll : 5.15, Pitch : -7.21, Yaw : 359.79, Alt : 49.25, Lat : 49.2835775, Lng : -123.1150135, Q1 : 0.997011721134, Q2 : 0.0447516664863, Q3 : -0.0629587695003, Q4 : 0.00105270044878}
2019-04-14 15:28:02.81: SIM {TimeUS : 56035077, Roll : 5.65, Pitch : -7.23, Yaw : 0.33, Alt : 49.2599983215, Lat : 49.2835785, Lng : -123.1150125, Q1 : 0.996776103973, Q2 : 0.0494354330003, Q3 : -0.0629063174129, Q4 : 0.00602317601442}
2019-04-14 15:28:02.91: SIM {TimeUS : 56135037, Roll : 6.29, Pitch : -7.33, Yaw : 2.03, Alt : 49.2599983215, Lat : 49.2835794, Lng : -123.1150114, Q1 : 0.996224761009, Q2 : 0.05595035851, Q3 : -0.0628840252757, Q4 : 0.0212465822697}
2019-04-14 15:28:03.01: SIM {TimeUS : 56234997, Roll : 6.71, Pitch : -7.73, Yaw : 5.32, Alt : 49.2599983215, Lat : 49.2835805, Lng : -123.1150103, Q1 : 0.994746923447, Q2 : 0.061528287828, Q3 : -0.0645777955651, Q4 : 0.050225418061}
2019-04-14 15:28:03.11: SIM {TimeUS : 56334957, Roll : 6.62, Pitch : -8.48, Yaw : 10.17, Alt : 49.2599983215, Lat : 49.2835814, Lng : -123.1150091, Q1 : 0.991287946701, Q2 : 0.0639499276876, Q3 : -0.0684764683247, Q4 : 0.0925720930099}
2019-04-14 15:28:03.21: SIM {TimeUS : 56434917, Roll : 5.8, Pitch : -9.49, Yaw : 16.37, Alt : 49.2599983215, Lat : 49.2835825, Lng : -123.1150077, Q1 : 0.984546422958, Q2 : 0.0617267414927, Q3 : -0.0746180191636, Q4 : 0.145912081003}
2019-04-14 15:28:03.31: SIM {TimeUS : 56534877, Roll : 3.99, Pitch : -10.59, Yaw : 23.43, Alt : 49.2700004578, Lat : 49.2835837, Lng : -123.1150063, Q1 : 0.973730683327, Q2 : 0.0527084842324, Q3 : -0.0833355262876, Q4 : 0.205245047808}
2019-04-14 15:28:03.41: SIM {TimeUS : 56634837, Roll : 1.34, Pitch : -11.53, Yaw : 30.57, Alt : 49.2700004578, Lat : 49.2835849, Lng : -123.1150047, Q1 : 0.959358870983, Q2 : 0.0377248451114, Q3 : -0.0938812941313, Q4 : 0.263426870108}
2019-04-14 15:28:03.51: SIM {TimeUS : 56734797, Roll : -1.6, Pitch : -12.13, Yaw : 37.01, Alt : 49.2700004578, Lat : 49.2835861, Lng : -123.1150031, Q1 : 0.943342626095, Q2 : 0.0203698743135, Q3 : -0.104647062719, Q4 : 0.31422740221}
2019-04-14 15:28:03.61: SIM {TimeUS : 56834757, Roll : -4.19, Pitch : -12.4, Yaw : 42.12, Alt : 49.2700004578, Lat : 49.2835876, Lng : -123.1150015, Q1 : 0.928527295589, Q2 : 0.00484704179689, Q3 : -0.113801769912, Q4 : 0.353359282017}
2019-04-14 15:28:03.71: SIM {TimeUS : 56934717, Roll : -5.96, Pitch : -12.45, Yaw : 45.53, Alt : 49.2700004578, Lat : 49.283589, Lng : -123.1149999, Q1 : 0.917585074902, Q2 : -0.00577427772805, Q3 : -0.119932770729, Q4 : 0.378972828388}
2019-04-14 15:28:03.81: SIM {TimeUS : 57034677, Roll : -6.74, Pitch : -12.48, Yaw : 47.21, Alt : 49.2700004578, Lat : 49.2835904, Lng : -123.1149981, Q1 : 0.911858022213, Q2 : -0.0100763076916, Q3 : -0.122871078551, Q4 : 0.391556024551}
2019-04-14 15:28:03.91: SIM {TimeUS : 57134637, Roll : -6.6, Pitch : -12.63, Yaw : 47.38, Alt : 49.2700004578, Lat : 49.2835922, Lng : -123.1149965, Q1 : 0.91119235754, Q2 : -0.00827555730939, Q3 : -0.123557522893, Q4 : 0.392929464579}
2019-04-14 15:28:04.01: SIM {TimeUS : 57234597, Roll : -5.77, Pitch : -12.97, Yaw : 46.35, Alt : 49.2700004578, Lat : 49.2835939, Lng : -123.1149949, Q1 : 0.914497733116, Q2 : -0.00158470042516, Q3 : -0.123406000435, Q4 : 0.385308116674}
2019-04-14 15:28:04.11: SIM {TimeUS : 57334557, Roll : -4.48, Pitch : -13.5, Yaw : 44.43, Alt : 49.2700004578, Lat : 49.2835958, Lng : -123.1149932, Q1 : 0.920363783836, Q2 : 0.00846855249256, Q3 : -0.123471289873, Q4 : 0.370963156223}
2019-04-14 15:28:04.21: SIM {TimeUS : 57434517, Roll : -2.96, Pitch : -14.14, Yaw : 41.94, Alt : 49.2700004578, Lat : 49.2835976, Lng : -123.1149914, Q1 : 0.927466154099, Q2 : 0.0201039128006, Q3 : -0.12414791435, Q4 : 0.352121680975}
2019-04-14 15:28:04.31: SIM {TimeUS : 57534477, Roll : -1.38, Pitch : -14.75, Yaw : 39.18, Alt : 49.2700004578, Lat : 49.2835996, Lng : -123.1149897, Q1 : 0.934752821922, Q2 : 0.0317674651742, Q3 : -0.125023052096, Q4 : 0.331054806709}
2019-04-14 15:28:04.42: SIM {TimeUS : 57635270, Roll : 0.1, Pitch : -15.23, Yaw : 36.43, Alt : 49.2799987793, Lat : 49.2836017, Lng : -123.1149878, Q1 : 0.941460967064, Q2 : 0.0423069223762, Q3 : -0.125595211983, Q4 : 0.30997928977}
2019-04-14 15:28:04.51: SIM {TimeUS : 57735230, Roll : 1.35, Pitch : -15.49, Yaw : 34.03, Alt : 49.2799987793, Lat : 49.2836037, Lng : -123.1149858, Q1 : 0.946945250034, Q2 : 0.0506769418716, Q3 : -0.125456854701, Q4 : 0.291525483131}
2019-04-14 15:28:04.61: SIM {TimeUS : 57835190, Roll : 2.29, Pitch : -15.58, Yaw : 32.18, Alt : 49.2799987793, Lat : 49.283606, Lng : -123.1149837, Q1 : 0.950985610485, Q2 : 0.0566268488765, Q3 : -0.124777242541, Q4 : 0.277219206095}
2019-04-14 15:28:04.71: SIM {TimeUS : 57935150, Roll : 2.84, Pitch : -15.6, Yaw : 31.0, Alt : 49.2799987793, Lat : 49.2836081, Lng : -123.1149815, Q1 : 0.953503668308, Q2 : 0.059994250536, Q3 : -0.1242095083, Q4 : 0.267961770296}
2019-04-14 15:28:04.81: SIM {TimeUS : 58035110, Roll : 3.0, Pitch : -15.6, Yaw : 30.49, Alt : 49.2799987793, Lat : 49.2836104, Lng : -123.1149792, Q1 : 0.954594969749, Q2 : 0.0607958249748, Q3 : -0.124116539955, Q4 : 0.263907968998}
2019-04-14 15:28:04.91: SIM {TimeUS : 58135070, Roll : 2.79, Pitch : -15.64, Yaw : 30.6, Alt : 49.2799987793, Lat : 49.2836127, Lng : -123.1149768, Q1 : 0.954418361187, Q2 : 0.0592349357903, Q3 : -0.124814547598, Q4 : 0.264571636915}
2019-04-14 15:28:05.01: SIM {TimeUS : 58235030, Roll : 2.3, Pitch : -15.69, Yaw : 31.2, Alt : 49.2799987793, Lat : 49.283615, Lng : -123.1149744, Q1 : 0.953186273575, Q2 : 0.0559225827456, Q3 : -0.126152202487, Q4 : 0.269061714411}
2019-04-14 15:28:05.11: SIM {TimeUS : 58334990, Roll : 1.64, Pitch : -15.78, Yaw : 32.15, Alt : 49.2799987793, Lat : 49.2836174, Lng : -123.1149718, Q1 : 0.951128482819, Q2 : 0.0517003759742, Q3 : -0.128021523356, Q4 : 0.276210337877}
2019-04-14 15:28:05.21: SIM {TimeUS : 58434950, Roll : 0.89, Pitch : -15.9, Yaw : 33.29, Alt : 49.2799987793, Lat : 49.2836197, Lng : -123.1149692, Q1 : 0.948546767235, Q2 : 0.0470477305353, Q3 : -0.130289644003, Q4 : 0.284728258848}
2019-04-14 15:28:05.31: SIM {TimeUS : 58534910, Roll : 0.18, Pitch : -16.01, Yaw : 34.45, Alt : 49.2799987793, Lat : 49.2836221, Lng : -123.1149665, Q1 : 0.945760428905, Q2 : 0.0427744761109, Q3 : -0.132615983486, Q4 : 0.293462991714}
2019-04-14 15:28:05.41: SIM {TimeUS : 58634870, Roll : -0.41, Pitch : -16.1, Yaw : 35.5, Alt : 49.2799987793, Lat : 49.2836247, Lng : -123.1149638, Q1 : 0.94312620163, Q2 : 0.0393454842269, Q3 : -0.134520858526, Q4 : 0.301444888115}
2019-04-14 15:28:05.51: SIM {TimeUS : 58734830, Roll : -0.85, Pitch : -16.17, Yaw : 36.36, Alt : 49.2799987793, Lat : 49.2836273, Lng : -123.114961, Q1 : 0.94093388319, Q2 : 0.0368355549872, Q3 : -0.135931819677, Q4 : 0.307910919189}
2019-04-14 15:28:05.61: SIM {TimeUS : 58834790, Roll : -1.15, Pitch : -16.22, Yaw : 36.95, Alt : 49.2799987793, Lat : 49.2836299, Lng : -123.1149582, Q1 : 0.939354479313, Q2 : 0.0352512039244, Q3 : -0.137016922235, Q4 : 0.312405079603}
2019-04-14 15:28:05.71: SIM {TimeUS : 58934750, Roll : -1.29, Pitch : -16.28, Yaw : 37.26, Alt : 49.2799987793, Lat : 49.2836324, Lng : -123.1149554, Q1 : 0.9384765625, Q2 : 0.0346870347857, Q3 : -0.137750431895, Q4 : 0.314775198698}
2019-04-14 15:28:05.81: SIM {TimeUS : 59034710, Roll : -1.25, Pitch : -16.34, Yaw : 37.31, Alt : 49.2799987793, Lat : 49.2836352, Lng : -123.1149525, Q1 : 0.938271820545, Q2 : 0.0351763851941, Q3 : -0.138169169426, Q4 : 0.315147459507}
2019-04-14 15:28:05.91: SIM {TimeUS : 59134670, Roll : -1.1, Pitch : -16.4, Yaw : 37.13, Alt : 49.2799987793, Lat : 49.2836378, Lng : -123.1149496, Q1 : 0.938659369946, Q2 : 0.0363962911069, Q3 : -0.138241201639, Q4 : 0.313820332289}
2019-04-14 15:28:06.01: SIM {TimeUS : 59234630, Roll : -0.84, Pitch : -16.45, Yaw : 36.78, Alt : 49.2799987793, Lat : 49.2836407, Lng : -123.1149467, Q1 : 0.93947660923, Q2 : 0.0381994657218, Q3 : -0.138066112995, Q4 : 0.311226963997}
2019-04-14 15:28:06.11: SIM {TimeUS : 59334590, Roll : -0.53, Pitch : -16.49, Yaw : 36.32, Alt : 49.2799987793, Lat : 49.2836433, Lng : -123.1149437, Q1 : 0.940541863441, Q2 : 0.0403244644403, Q3 : -0.137747168541, Q4 : 0.307864636183}
2019-04-14 15:28:06.21: SIM {TimeUS : 59434550, Roll : -0.21, Pitch : -16.53, Yaw : 35.83, Alt : 49.2799987793, Lat : 49.2836463, Lng : -123.1149407, Q1 : 0.941682457924, Q2 : 0.0425036735833, Q3 : -0.137387752533, Q4 : 0.304223895073}
2019-04-14 15:28:06.31: SIM {TimeUS : 59534510, Roll : 0.09, Pitch : -16.57, Yaw : 35.37, Alt : 49.2799987793, Lat : 49.2836491, Lng : -123.1149377, Q1 : 0.942752182484, Q2 : 0.0445438027382, Q3 : -0.137067079544, Q4 : 0.300743818283}
2019-04-14 15:28:06.41: SIM {TimeUS : 59634470, Roll : 0.33, Pitch : -16.61, Yaw : 34.97, Alt : 49.2900009155, Lat : 49.2836519, Lng : -123.1149347, Q1 : 0.943640232086, Q2 : 0.0462038628757, Q3 : -0.136937409639, Q4 : 0.297752231359}
2019-04-14 15:28:06.52: SIM {TimeUS : 59735263, Roll : 0.5, Pitch : -16.65, Yaw : 34.67, Alt : 49.2900009155, Lat : 49.2836548, Lng : -123.1149316, Q1 : 0.944304168224, Q2 : 0.0473181977868, Q3 : -0.136953666806, Q4 : 0.295456141233}
2019-04-14 15:28:06.61: SIM {TimeUS : 59835223, Roll : 0.58, Pitch : -16.68, Yaw : 34.48, Alt : 49.2900009155, Lat : 49.2836578, Lng : -123.1149284, Q1 : 0.944706141949, Q2 : 0.047848302871, Q3 : -0.137095183134, Q4 : 0.294016718864}
2019-04-14 15:28:06.71: SIM {TimeUS : 59935183, Roll : 0.58, Pitch : -16.72, Yaw : 34.41, Alt : 49.2900009155, Lat : 49.2836608, Lng : -123.1149253, Q1 : 0.944843709469, Q2 : 0.047874994576, Q3 : -0.13740734756, Q4 : 0.293424040079}
2019-04-14 15:28:06.81: SIM {TimeUS : 60035143, Roll : 0.52, Pitch : -16.76, Yaw : 34.44, Alt : 49.2900009155, Lat : 49.2836637, Lng : -123.1149221, Q1 : 0.944751620293, Q2 : 0.0474562831223, Q3 : -0.137908726931, Q4 : 0.293553203344}
2019-04-14 15:28:06.91: SIM {TimeUS : 60135103, Roll : 0.39, Pitch : -16.8, Yaw : 34.54, Alt : 49.2900009155, Lat : 49.2836667, Lng : -123.1149188, Q1 : 0.944486498833, Q2 : 0.0466369055212, Q3 : -0.138527438045, Q4 : 0.294245421886}
2019-04-14 15:28:07.01: SIM {TimeUS : 60235063, Roll : 0.24, Pitch : -16.83, Yaw : 34.7, Alt : 49.2900009155, Lat : 49.2836697, Lng : -123.1149156, Q1 : 0.944106817245, Q2 : 0.0456763915718, Q3 : -0.139126718044, Q4 : 0.2953299582}
2019-04-14 15:28:07.11: SIM {TimeUS : 60335023, Roll : 0.09, Pitch : -16.87, Yaw : 34.88, Alt : 49.2900009155, Lat : 49.2836726, Lng : -123.1149123, Q1 : 0.943667650223, Q2 : 0.0447249636054, Q3 : -0.139711767435, Q4 : 0.296600222588}
2019-04-14 15:28:07.21: SIM {TimeUS : 60434983, Roll : -0.03, Pitch : -16.91, Yaw : 35.05, Alt : 49.2900009155, Lat : 49.2836758, Lng : -123.114909, Q1 : 0.943204164505, Q2 : 0.044035539031, Q3 : -0.14031277597, Q4 : 0.297891169786}
2019-04-14 15:28:07.31: SIM {TimeUS : 60534943, Roll : -0.11, Pitch : -16.96, Yaw : 35.21, Alt : 49.2900009155, Lat : 49.2836787, Lng : -123.1149057, Q1 : 0.942773044109, Q2 : 0.0436523705721, Q3 : -0.140864983201, Q4 : 0.299049437046}
2019-04-14 15:28:07.41: SIM {TimeUS : 60634903, Roll : -0.15, Pitch : -17.0, Yaw : 35.33, Alt : 49.2900009155, Lat : 49.2836819, Lng : -123.1149023, Q1 : 0.942427396774, Q2 : 0.0435565151274, Q3 : -0.141303807497, Q4 : 0.299944490194}
2019-04-14 15:28:07.51: SIM {TimeUS : 60734863, Roll : -0.15, Pitch : -17.04, Yaw : 35.4, Alt : 49.2999992371, Lat : 49.283685, Lng : -123.114899, Q1 : 0.942185282707, Q2 : 0.0437676534057, Q3 : -0.141626149416, Q4 : 0.300521790981}
2019-04-14 15:28:07.61: SIM {TimeUS : 60834823, Roll : -0.14, Pitch : -17.08, Yaw : 35.42, Alt : 49.2999992371, Lat : 49.2836881, Lng : -123.1148956, Q1 : 0.94207328558, Q2 : 0.0439659319818, Q3 : -0.141886904836, Q4 : 0.300720900297}
2019-04-14 15:28:07.71: SIM {TimeUS : 60934783, Roll : -0.13, Pitch : -17.1, Yaw : 35.41, Alt : 49.2999992371, Lat : 49.2836913, Lng : -123.1148922, Q1 : 0.94208753109, Q2 : 0.0441138930619, Q3 : -0.142062470317, Q4 : 0.300571650267}
2019-04-14 15:28:07.81: SIM {TimeUS : 61034743, Roll : -0.12, Pitch : -17.11, Yaw : 35.35, Alt : 49.2999992371, Lat : 49.2836943, Lng : -123.1148888, Q1 : 0.942210972309, Q2 : 0.0442085377872, Q3 : -0.142123162746, Q4 : 0.300141900778}
2019-04-14 15:28:07.91: SIM {TimeUS : 61134703, Roll : -0.07, Pitch : -17.12, Yaw : 35.27, Alt : 49.2999992371, Lat : 49.2836975, Lng : -123.1148854, Q1 : 0.942396998405, Q2 : 0.0444647371769, Q3 : -0.142061889172, Q4 : 0.29954829812}
2019-04-14 15:28:08.01: SIM {TimeUS : 61234663, Roll : -0.01, Pitch : -17.13, Yaw : 35.18, Alt : 49.2999992371, Lat : 49.2837008, Lng : -123.1148819, Q1 : 0.94259762764, Q2 : 0.0449025295675, Q3 : -0.142048299313, Q4 : 0.298857331276}
2019-04-14 15:28:08.11: SIM {TimeUS : 61334623, Roll : 0.06, Pitch : -17.17, Yaw : 35.08, Alt : 49.2999992371, Lat : 49.283704, Lng : -123.1148785, Q1 : 0.942770600319, Q2 : 0.0455515421927, Q3 : -0.142199441791, Q4 : 0.298140883446}
2019-04-14 15:28:08.21: SIM {TimeUS : 61434583, Roll : 0.14, Pitch : -17.23, Yaw : 34.99, Alt : 49.2999992371, Lat : 49.2837071, Lng : -123.114875, Q1 : 0.942908465862, Q2 : 0.0462125465274, Q3 : -0.142516955733, Q4 : 0.297450751066}
2019-04-14 15:28:08.31: SIM {TimeUS : 61534543, Roll : 0.19, Pitch : -17.26, Yaw : 34.91, Alt : 49.2999992371, Lat : 49.2837103, Lng : -123.1148715, Q1 : 0.943053007126, Q2 : 0.0466529130936, Q3 : -0.142644584179, Q4 : 0.296861976385}
2019-04-14 15:28:08.41: SIM {TimeUS : 61634503, Roll : 0.23, Pitch : -17.25, Yaw : 34.85, Alt : 49.2999992371, Lat : 49.2837137, Lng : -123.114868, Q1 : 0.943200230598, Q2 : 0.0468383878469, Q3 : -0.142566591501, Q4 : 0.296402215958}
2019-04-14 15:28:08.51: SIM {TimeUS : 61734463, Roll : 0.24, Pitch : -17.26, Yaw : 34.81, Alt : 49.3100013733, Lat : 49.2837168, Lng : -123.1148645, Q1 : 0.943291544914, Q2 : 0.0468965992332, Q3 : -0.142618909478, Q4 : 0.296077042818}
2019-04-14 15:28:08.62: SIM {TimeUS : 61835256, Roll : 0.21, Pitch : -17.3, Yaw : 34.79, Alt : 49.3100013733, Lat : 49.2837202, Lng : -123.114861, Q1 : 0.94331485033, Q2 : 0.0467719584703, Q3 : -0.142962694168, Q4 : 0.295856684446}
2019-04-14 15:28:08.71: SIM {TimeUS : 61935216, Roll : 0.19, Pitch : -17.33, Yaw : 34.78, Alt : 49.3100013733, Lat : 49.2837234, Lng : -123.1148574, Q1 : 0.943307697773, Q2 : 0.0466372296214, Q3 : -0.143276125193, Q4 : 0.295748978853}
2019-04-14 15:28:08.81: SIM {TimeUS : 62035176, Roll : 0.16, Pitch : -17.36, Yaw : 34.78, Alt : 49.3100013733, Lat : 49.2837266, Lng : -123.1148539, Q1 : 0.943266034126, Q2 : 0.0465089939535, Q3 : -0.143614858389, Q4 : 0.295737892389}
2019-04-14 15:28:08.91: SIM {TimeUS : 62135136, Roll : 0.14, Pitch : -17.39, Yaw : 34.8, Alt : 49.3100013733, Lat : 49.28373, Lng : -123.1148503, Q1 : 0.94321000576, Q2 : 0.0464054606855, Q3 : -0.14388717711, Q4 : 0.295800328255}
2019-04-14 15:28:09.01: SIM {TimeUS : 62235096, Roll : 0.12, Pitch : -17.42, Yaw : 34.81, Alt : 49.3100013733, Lat : 49.2837332, Lng : -123.1148467, Q1 : 0.943136572838, Q2 : 0.0463598482311, Q3 : -0.144203960896, Q4 : 0.295887380838}
2019-04-14 15:28:09.11: SIM {TimeUS : 62335056, Roll : 0.12, Pitch : -17.44, Yaw : 34.83, Alt : 49.3100013733, Lat : 49.2837366, Lng : -123.114843, Q1 : 0.9430757761, Q2 : 0.0464031770825, Q3 : -0.144369482994, Q4 : 0.295993745327}
2019-04-14 15:28:09.21: SIM {TimeUS : 62435016, Roll : 0.13, Pitch : -17.46, Yaw : 34.83, Alt : 49.3100013733, Lat : 49.2837399, Lng : -123.1148396, Q1 : 0.943027317524, Q2 : 0.0465777032077, Q3 : -0.144476562738, Q4 : 0.296068638563}
2019-04-14 15:28:09.31: SIM {TimeUS : 62534976, Roll : 0.15, Pitch : -17.47, Yaw : 34.84, Alt : 49.3100013733, Lat : 49.2837433, Lng : -123.114836, Q1 : 0.942993104458, Q2 : 0.0467687062919, Q3 : -0.144570991397, Q4 : 0.296101212502}
2019-04-14 15:28:09.41: SIM {TimeUS : 62634936, Roll : 0.15, Pitch : -17.51, Yaw : 34.83, Alt : 49.3100013733, Lat : 49.2837466, Lng : -123.1148323, Q1 : 0.942957699299, Q2 : 0.0468413606286, Q3 : -0.144871562719, Q4 : 0.296055555344}
2019-04-14 15:28:09.51: SIM {TimeUS : 62734896, Roll : 0.12, Pitch : -17.55, Yaw : 34.82, Alt : 49.3100013733, Lat : 49.2837498, Lng : -123.1148287, Q1 : 0.942943871021, Q2 : 0.0466644205153, Q3 : -0.145289093256, Q4 : 0.295922935009}
2019-04-14 15:28:09.61: SIM {TimeUS : 62834856, Roll : 0.08, Pitch : -17.59, Yaw : 34.81, Alt : 49.3100013733, Lat : 49.2837533, Lng : -123.1148251, Q1 : 0.942941367626, Q2 : 0.0464954003692, Q3 : -0.145735189319, Q4 : 0.295738041401}
2019-04-14 15:28:09.71: SIM {TimeUS : 62934816, Roll : 0.09, Pitch : -17.63, Yaw : 34.79, Alt : 49.3199996948, Lat : 49.2837565, Lng : -123.1148214, Q1 : 0.942949771881, Q2 : 0.0465845540166, Q3 : -0.146014869213, Q4 : 0.295559197664}
2019-04-14 15:28:09.81: SIM {TimeUS : 63034776, Roll : 0.12, Pitch : -17.64, Yaw : 34.76, Alt : 49.3199996948, Lat : 49.28376, Lng : -123.1148178, Q1 : 0.942982971668, Q2 : 0.046853069216, Q3 : -0.146029338241, Q4 : 0.295403659344}
2019-04-14 15:28:09.91: SIM {TimeUS : 63134736, Roll : 0.16, Pitch : -17.63, Yaw : 34.74, Alt : 49.3199996948, Lat : 49.2837634, Lng : -123.1148141, Q1 : 0.943040728569, Q2 : 0.0471004769206, Q3 : -0.145867809653, Q4 : 0.295259743929}
2019-04-14 15:28:10.01: SIM {TimeUS : 63234696, Roll : 0.17, Pitch : -17.62, Yaw : 34.72, Alt : 49.3199996948, Lat : 49.2837667, Lng : -123.1148105, Q1 : 0.943107545376, Q2 : 0.0471517555416, Q3 : -0.145758166909, Q4 : 0.295092314482}
2019-04-14 15:28:10.11: SIM {TimeUS : 63334656, Roll : 0.17, Pitch : -17.6, Yaw : 34.69, Alt : 49.3199996948, Lat : 49.2837702, Lng : -123.1148068, Q1 : 0.943183124065, Q2 : 0.0470927841961, Q3 : -0.145643353462, Q4 : 0.294916689396}
2019-04-14 15:28:10.21: SIM {TimeUS : 63434616, Roll : 0.17, Pitch : -17.59, Yaw : 34.67, Alt : 49.3199996948, Lat : 49.2837735, Lng : -123.1148031, Q1 : 0.943263411522, Q2 : 0.0469925366342, Q3 : -0.14550717175, Q4 : 0.294743090868}
2019-04-14 15:28:10.31: SIM {TimeUS : 63534576, Roll : 0.16, Pitch : -17.59, Yaw : 34.65, Alt : 49.3199996948, Lat : 49.283777, Lng : -123.1147994, Q1 : 0.943311035633, Q2 : 0.0468912273645, Q3 : -0.145605817437, Q4 : 0.294558107853}
2019-04-14 15:28:10.41: SIM {TimeUS : 63634536, Roll : 0.15, Pitch : -17.62, Yaw : 34.63, Alt : 49.3199996948, Lat : 49.2837804, Lng : -123.1147956, Q1 : 0.943324267864, Q2 : 0.046879440546, Q3 : -0.145872220397, Q4 : 0.294385790825}
2019-04-14 15:28:10.51: SIM {TimeUS : 63734496, Roll : 0.13, Pitch : -17.67, Yaw : 34.62, Alt : 49.3199996948, Lat : 49.2837837, Lng : -123.114792, Q1 : 0.943310916424, Q2 : 0.0468499436975, Q3 : -0.146328866482, Q4 : 0.29420658946}
2019-04-14 15:28:10.61: SIM {TimeUS : 63834456, Roll : 0.13, Pitch : -17.74, Yaw : 34.6, Alt : 49.3199996948, Lat : 49.2837873, Lng : -123.1147883, Q1 : 0.943263113499, Q2 : 0.0469978749752, Q3 : -0.146884456277, Q4 : 0.294059216976}
2019-04-14 15:28:10.71: SIM {TimeUS : 63935249, Roll : 0.14, Pitch : -17.77, Yaw : 34.59, Alt : 49.3199996948, Lat : 49.2837907, Lng : -123.1147845, Q1 : 0.943244159222, Q2 : 0.0471604317427, Q3 : -0.147162362933, Q4 : 0.293955117464}
2019-04-14 15:28:10.81: SIM {TimeUS : 64035209, Roll : 0.15, Pitch : -17.8, Yaw : 34.58, Alt : 49.3199996948, Lat : 49.2837941, Lng : -123.1147808, Q1 : 0.943241655827, Q2 : 0.0472592189908, Q3 : -0.147341936827, Q4 : 0.293857246637}
2019-04-14 15:28:10.91: SIM {TimeUS : 64135169, Roll : 0.15, Pitch : -17.81, Yaw : 34.57, Alt : 49.3199996948, Lat : 49.2837976, Lng : -123.1147771, Q1 : 0.943259358406, Q2 : 0.0472543984652, Q3 : -0.147440820932, Q4 : 0.293751657009}
2019-04-14 15:28:11.01: SIM {TimeUS : 64235129, Roll : 0.16, Pitch : -17.79, Yaw : 34.55, Alt : 49.3300018311, Lat : 49.2838011, Lng : -123.1147734, Q1 : 0.943306982517, Q2 : 0.047267306596, Q3 : -0.147296875715, Q4 : 0.293668866158}
2019-04-14 15:28:11.11: SIM {TimeUS : 64335089, Roll : 0.18, Pitch : -17.79, Yaw : 34.54, Alt : 49.3300018311, Lat : 49.2838044, Lng : -123.1147696, Q1 : 0.943331301212, Q2 : 0.0474298745394, Q3 : -0.14722622931, Q4 : 0.293599814177}
2019-04-14 15:28:11.21: SIM {TimeUS : 64435049, Roll : 0.19, Pitch : -17.81, Yaw : 34.53, Alt : 49.3300018311, Lat : 49.283808, Lng : -123.1147659, Q1 : 0.943326175213, Q2 : 0.0475824140012, Q3 : -0.147394061089, Q4 : 0.293507486582}
2019-04-14 15:28:11.31: SIM {TimeUS : 64535009, Roll : 0.19, Pitch : -17.83, Yaw : 34.52, Alt : 49.3300018311, Lat : 49.2838115, Lng : -123.1147621, Q1 : 0.943330347538, Q2 : 0.0476513132453, Q3 : -0.147544458508, Q4 : 0.293407350779}
2019-04-14 15:28:11.41: SIM {TimeUS : 64634969, Roll : 0.2, Pitch : -17.84, Yaw : 34.51, Alt : 49.3300018311, Lat : 49.2838148, Lng : -123.1147584, Q1 : 0.943355441093, Q2 : 0.0476932823658, Q3 : -0.147557511926, Q4 : 0.293313294649}
2019-04-14 15:28:11.51: SIM {TimeUS : 64734929, Roll : 0.2, Pitch : -17.85, Yaw : 34.49, Alt : 49.3300018311, Lat : 49.2838184, Lng : -123.1147546, Q1 : 0.943370044231, Q2 : 0.0477245524526, Q3 : -0.147651538253, Q4 : 0.293213933706}
2019-04-14 15:28:11.61: SIM {TimeUS : 64834889, Roll : 0.19, Pitch : -17.87, Yaw : 34.48, Alt : 49.3300018311, Lat : 49.2838219, Lng : -123.1147509, Q1 : 0.943372905254, Q2 : 0.0476698428392, Q3 : -0.147897660732, Q4 : 0.293089389801}
2019-04-14 15:28:11.71: SIM {TimeUS : 64934849, Roll : 0.17, Pitch : -17.91, Yaw : 34.47, Alt : 49.3300018311, Lat : 49.2838254, Lng : -123.1147471, Q1 : 0.943361341953, Q2 : 0.0475517138839, Q3 : -0.14828518033, Q4 : 0.292950123549}
2019-04-14 15:28:11.81: SIM {TimeUS : 65034809, Roll : 0.15, Pitch : -17.92, Yaw : 34.46, Alt : 49.3300018311, Lat : 49.2838288, Lng : -123.1147433, Q1 : 0.943384885788, Q2 : 0.0474455654621, Q3 : -0.148375764489, Q4 : 0.292845457792}
2019-04-14 15:28:11.91: SIM {TimeUS : 65134769, Roll : 0.15, Pitch : -17.91, Yaw : 34.45, Alt : 49.3300018311, Lat : 49.2838323, Lng : -123.1147395, Q1 : 0.943423986435, Q2 : 0.0474087670445, Q3 : -0.148293331265, Q4 : 0.29276740551}
2019-04-14 15:28:12.01: SIM {TimeUS : 65234729, Roll : 0.17, Pitch : -17.9, Yaw : 34.44, Alt : 49.3300018311, Lat : 49.2838359, Lng : -123.1147358, Q1 : 0.943455636501, Q2 : 0.0475399121642, Q3 : -0.148162439466, Q4 : 0.292710214853}
2019-04-14 15:28:12.11: SIM {TimeUS : 65334689, Roll : 0.19, Pitch : -17.9, Yaw : 34.43, Alt : 49.3300018311, Lat : 49.2838394, Lng : -123.114732, Q1 : 0.943470656872, Q2 : 0.047642223537, Q3 : -0.148188441992, Q4 : 0.292632162571}
2019-04-14 15:28:12.21: SIM {TimeUS : 65434649, Roll : 0.18, Pitch : -17.93, Yaw : 34.42, Alt : 49.3300018311, Lat : 49.2838428, Lng : -123.1147281, Q1 : 0.943471133709, Q2 : 0.0476129278541, Q3 : -0.148413613439, Q4 : 0.292521178722}
2019-04-14 15:28:12.31: SIM {TimeUS : 65534609, Roll : 0.15, Pitch : -17.95, Yaw : 34.41, Alt : 49.3300018311, Lat : 49.2838463, Lng : -123.1147244, Q1 : 0.943477749825, Q2 : 0.047418538481, Q3 : -0.1487121135, Q4 : 0.292379707098}
2019-04-14 15:28:12.41: SIM {TimeUS : 65634569, Roll : 0.13, Pitch : -17.98, Yaw : 34.4, Alt : 49.3400001526, Lat : 49.2838499, Lng : -123.1147206, Q1 : 0.94348192215, Q2 : 0.0473586767912, Q3 : -0.148940593004, Q4 : 0.292259782553}
2019-04-14 15:28:12.51: SIM {TimeUS : 65734529, Roll : 0.14, Pitch : -17.99, Yaw : 34.38, Alt : 49.3400001526, Lat : 49.2838535, Lng : -123.1147168, Q1 : 0.943486452103, Q2 : 0.0474698655307, Q3 : -0.149054765701, Q4 : 0.292168736458}
2019-04-14 15:28:12.61: SIM {TimeUS : 65834489, Roll : 0.16, Pitch : -18.01, Yaw : 34.37, Alt : 49.3400001526, Lat : 49.283857, Lng : -123.114713, Q1 : 0.943492531776, Q2 : 0.0476206727326, Q3 : -0.149121701717, Q4 : 0.292090475559}
2019-04-14 15:28:12.72: SIM {TimeUS : 65935282, Roll : 0.18, Pitch : -18.02, Yaw : 34.36, Alt : 49.3400001526, Lat : 49.2838606, Lng : -123.1147092, Q1 : 0.94348347187, Q2 : 0.0478470996022, Q3 : -0.149205282331, Q4 : 0.292040139437}
2019-04-14 15:28:12.81: SIM {TimeUS : 66035242, Roll : 0.19, Pitch : -18.04, Yaw : 34.36, Alt : 49.3400001526, Lat : 49.283864, Lng : -123.1147053, Q1 : 0.94347602129, Q2 : 0.0479467511177, Q3 : -0.149340033531, Q4 : 0.291978985071}
2019-04-14 15:28:12.91: SIM {TimeUS : 66135202, Roll : 0.2, Pitch : -18.06, Yaw : 34.35, Alt : 49.3400001526, Lat : 49.2838676, Lng : -123.1147015, Q1 : 0.943464398384, Q2 : 0.0480472669005, Q3 : -0.149496078491, Q4 : 0.291920155287}
2019-04-14 15:28:13.01: SIM {TimeUS : 66235162, Roll : 0.21, Pitch : -18.08, Yaw : 34.34, Alt : 49.3400001526, Lat : 49.2838712, Lng : -123.1146977, Q1 : 0.943460404873, Q2 : 0.0481546036899, Q3 : -0.149588033557, Q4 : 0.291868239641}
2019-04-14 15:28:13.11: SIM {TimeUS : 66335122, Roll : 0.23, Pitch : -18.08, Yaw : 34.33, Alt : 49.3400001526, Lat : 49.2838747, Lng : -123.1146939, Q1 : 0.943460583687, Q2 : 0.0483417585492, Q3 : -0.149575978518, Q4 : 0.291842788458}
2019-04-14 15:28:13.21: SIM {TimeUS : 66435082, Roll : 0.27, Pitch : -18.09, Yaw : 34.33, Alt : 49.3400001526, Lat : 49.2838783, Lng : -123.1146901, Q1 : 0.943454861641, Q2 : 0.0486348755658, Q3 : -0.149526253343, Q4 : 0.291838109493}
2019-04-14 15:28:13.31: SIM {TimeUS : 66535042, Roll : 0.27, Pitch : -18.08, Yaw : 34.32, Alt : 49.3400001526, Lat : 49.2838817, Lng : -123.1146863, Q1 : 0.943472266197, Q2 : 0.0486574210227, Q3 : -0.149474486709, Q4 : 0.291804611683}
2019-04-14 15:28:13.41: SIM {TimeUS : 66635002, Roll : 0.25, Pitch : -18.09, Yaw : 34.32, Alt : 49.3400001526, Lat : 49.2838853, Lng : -123.1146824, Q1 : 0.943486988544, Q2 : 0.0484720282257, Q3 : -0.149608075619, Q4 : 0.291719466448}
2019-04-14 15:28:13.51: SIM {TimeUS : 66734962, Roll : 0.22, Pitch : -18.12, Yaw : 34.31, Alt : 49.3400001526, Lat : 49.2838889, Lng : -123.1146786, Q1 : 0.943479418755, Q2 : 0.0483150482178, Q3 : -0.149898305535, Q4 : 0.291620969772}
2019-04-14 15:28:13.61: SIM {TimeUS : 66834922, Roll : 0.19, Pitch : -18.14, Yaw : 34.3, Alt : 49.3499984741, Lat : 49.2838925, Lng : -123.1146748, Q1 : 0.943480610847, Q2 : 0.0480979941785, Q3 : -0.150162026286, Q4 : 0.291517347097}
