2019-04-14 17:44:50.80: SIM {TimeUS : 40016487, Roll : 0.0, Pitch : 0.0, Yaw : 0.0, Alt : 30.1000003815, Lat : 49.28357, Lng : -123.11502, Q1 : 1.0, Q2 : 0.0, Q3 : 0.0, Q4 : 0.0}
2019-04-14 17:44:50.91: SIM {TimeUS : 40135606, Roll : 0.0, Pitch : 0.0, Yaw : 0.0, Alt : 30.1000003815, Lat : 49.28357, Lng : -123.11502, Q1 : 1.0, Q2 : 0.0, Q3 : 0.0, Q4 : 0.0}
2019-04-14 17:44:51.01: SIM {TimeUS : 40235566, Roll : 0.0, Pitch : 0.0, Yaw : 0.0, Alt : 30.1000003815, Lat : 49.28357, Lng : -123.11502, Q1 : 1.0, Q2 : 0.0, Q3 : 0.0, Q4 : 0.0}
2019-04-14 17:44:51.11: SIM {TimeUS : 40335526, Roll : 0.0, Pitch : 0.0, Yaw : 0.0, Alt : 30.1000003815, Lat : 49.28357, Lng : -123.11502, Q1 : 1.0, Q2 : 0.0, Q3 : 0.0, Q4 : 0.0}
2019-04-14 17:44:51.21: SIM {TimeUS : 40435486, Roll : 0.0, Pitch : 0.0, Yaw : 0.0, Alt : 30.1000003815, Lat : 49.28357, Lng : -123.11502, Q1 : 1.0, Q2 : 0.0, Q3 : 0.0, Q4 : 0.0}
2019-04-14 17:44:51.31: SIM {TimeUS : 40535446, Roll : 0.0, Pitch : 0.0, Yaw : 0.0, Alt : 30.1000003815, Lat : 49.28357, Lng : -123.11502, Q1 : 1.0, Q2 : 0.0, Q3 : 0.0, Q4 : 0.0}
2019-04-14 17:44:51.41: SIM {TimeUS : 40635406, Roll : 0.0, Pitch : 0.0, Yaw : 0.0, Alt : 30.1000003815, Lat : 49.28357, Lng : -123.11502, Q1 : 1.0, Q2 : 0.0, Q3 : 0.0, Q4 : 0.0}
2019-04-14 17:44:51.51: SIM {TimeUS : 40735366, Roll : 0.0, Pitch : 0.0, Yaw : 0.0, Alt : 30.1000003815, Lat : 49.28357, Lng : -123.11502, Q1 : 1.0, Q2 : 0.0, Q3 : 0.0, Q4 : 0.0}
2019-04-14 17:44:51.61: SIM {TimeUS : 40835326, Roll : 0.0, Pitch : 0.0, Yaw : 0.0, Alt : 30.1000003815, Lat : 49.28357, Lng : -123.11502, Q1 : 1.0, Q2 : 0.0, Q3 : 0.0, Q4 : 0.0}
2019-04-14 17:44:51.71: SIM {TimeUS : 40935286, Roll : 0.0, Pitch : 0.0, Yaw : 0.0, Alt : 30.1000003815, Lat : 49.28357, Lng : -123.11502, Q1 : 1.0, Q2 : 0.0, Q3 : 0.0, Q4 : 0.0}
2019-04-14 17:44:51.81: SIM {TimeUS : 41035246, Roll : 0.0, Pitch : 0.0, Yaw : 0.0, Alt : 30.1000003815, Lat : 49.28357, Lng : -123.11502, Q1 : 1.0, Q2 : 0.0, Q3 : 0.0, Q4 : 0.0}
2019-04-14 17:44:51.91: SIM {TimeUS : 41135206, Roll : 0.0, Pitch : 0.0, Yaw : 0.0, Alt : 30.1000003815, Lat : 49.28357, Lng : -123.11502, Q1 : 1.0, Q2 : 0.0, Q3 : 0.0, Q4 : 0.0}
2019-04-14 17:44:52.01: SIM {TimeUS : 41235166, Roll : 0.0, Pitch : 0.0, Yaw : 0.0, Alt : 30.1000003815, Lat : 49.28357, Lng : -123.11502, Q1 : 1.0, Q2 : 0.0, Q3 : 0.0, Q4 : 0.0}
2019-04-14 17:44:52.11: SIM {TimeUS : 41335126, Roll : 0.0, Pitch : 0.0, Yaw : 0.0, Alt : 30.1000003815, Lat : 49.28357, Lng : -123.11502, Q1 : 1.0, Q2 : 0.0, Q3 : 0.0, Q4 : 0.0}
2019-04-14 17:44:52.21: SIM {TimeUS : 41435086, Roll : 0.0, Pitch : 0.0, Yaw : 0.0, Alt : 30.1000003815, Lat : 49.28357, Lng : -123.11502, Q1 : 1.0, Q2 : 0.0, Q3 : 0.0, Q4 : 0.0}
2019-04-14 17:44:52.31: SIM {TimeUS : 41535046, Roll : 0.0, Pitch : 0.0, Yaw : 0.0, Alt : 30.1000003815, Lat : 49.28357, Lng : -123.11502, Q1 : 1.0, Q2 : 0.0, Q3 : 0.0, Q4 : 0.0}
2019-04-14 17:44:52.41: SIM {TimeUS : 41635006, Roll : 0.0, Pitch : 0.0, Yaw : 0.0, Alt : 30.1000003815, Lat : 49.28357, Lng : -123.11502, Q1 : 1.0, Q2 : 0.0, Q3 : 0.0, Q4 : 0.0}
2019-04-14 17:44:52.51: SIM {TimeUS : 41734966, Roll : 0.0, Pitch : 0.0, Yaw : 0.0, Alt : 30.1000003815, Lat : 49.28357, Lng : -123.11502, Q1 : 1.0, Q2 : 0.0, Q3 : 0.0, Q4 : 0.0}
2019-04-14 17:44:52.61: SIM {TimeUS : 41834926, Roll : 0.0, Pitch : 0.0, Yaw : 0.0, Alt : 30.1000003815, Lat : 49.28357, Lng : -123.11502, Q1 : 1.0, Q2 : 0.0, Q3 : 0.0, Q4 : 0.0}
2019-04-14 17:44:52.71: SIM {TimeUS : 41934886, Roll : 0.0, Pitch : 0.0, Yaw : 0.0, Alt : 30.1000003815, Lat : 49.28357, Lng : -123.11502, Q1 : 1.0, Q2 : 0.0, Q3 : 0.0, Q4 : 0.0}
2019-04-14 17:44:52.81: SIM {TimeUS : 42034846, Roll : 0.0, Pitch : 0.0, Yaw : 0.0, Alt : 30.1000003815, Lat : 49.28357, Lng : -123.11502, Q1 : 1.0, Q2 : 0.0, Q3 : 0.0, Q4 : 0.0}
2019-04-14 17:44:52.91: SIM {TimeUS : 42135639, Roll : 0.0, Pitch : 0.0, Yaw : 0.0, Alt : 30.1000003815, Lat : 49.28357, Lng : -123.11502, Q1 : 1.0, Q2 : 0.0, Q3 : 0.0, Q4 : 0.0}
2019-04-14 17:44:53.01: SIM {TimeUS : 42235599, Roll : 0.0, Pitch : 0.0, Yaw : 0.0, Alt : 30.1000003815, Lat : 49.28357, Lng : -123.11502, Q1 : 1.0, Q2 : 0.0, Q3 : 0.0, Q4 : 0.0}
2019-04-14 17:44:53.11: SIM {TimeUS : 42335559, Roll : 0.0, Pitch : 0.0, Yaw : 360.0, Alt : 30.1000003815, Lat : 49.28357, Lng : -123.11502, Q1 : 1.0, Q2 : 0.0, Q3 : 0.0, Q4 : -2.01208320838e-11}
2019-04-14 17:44:53.21: SIM {TimeUS : 42435519, Roll : 0.0, Pitch : 0.0, Yaw : 360.0, Alt : 30.1000003815, Lat : 49.28357, Lng : -123.11502, Q1 : 1.0, Q2 : 0.0, Q3 : 0.0, Q4 : -2.4061257875e-08}
2019-04-14 17:44:53.31: SIM {TimeUS : 42535479, Roll : 0.0, Pitch : 0.0, Yaw : 359.99, Alt : 30.1000003815, Lat : 49.28357, Lng : -123.11502, Q1 : 1.0, Q2 : 0.0, Q3 : 0.0, Q4 : -1.76404213903e-07}
2019-04-14 17:44:53.41: SIM {TimeUS : 42635439, Roll : 0.0, Pitch : 0.0, Yaw : 359.99, Alt : 30.1000003815, Lat : 49.28357, Lng : -123.11502, Q1 : 1.0, Q2 : 0.0, Q3 : 0.0, Q4 : -3.7829747157e-07}
2019-04-14 17:44:53.51: SIM {TimeUS : 42735399, Roll : 0.0, Pitch : 0.0, Yaw : 359.99, Alt : 30.1000003815, Lat : 49.28357, Lng : -123.11502, Q1 : 1.0, Q2 : 0.0, Q3 : 0.0, Q4 : -5.94307323354e-07}
2019-04-14 17:44:53.61: SIM {TimeUS : 42835359, Roll : 0.0, Pitch : 0.0, Yaw : 359.99, Alt : 30.1000003815, Lat : 49.28357, Lng : -123.11502, Q1 : 1.0, Q2 : 0.0, Q3 : 0.0, Q4 : -8.01472651801e-07}
2019-04-14 17:44:53.71: SIM {TimeUS : 42935319, Roll : 0.0, Pitch : 0.0, Yaw : 359.99, Alt : 30.1000003815, Lat : 49.28357, Lng : -123.11502, Q1 : 1.0, Q2 : 0.0, Q3 : 0.0, Q4 : -1.01273042219e-06}
2019-04-14 17:44:53.81: SIM {TimeUS : 43035279, Roll : 0.0, Pitch : 0.0, Yaw : 359.99, Alt : 30.1000003815, Lat : 49.28357, Lng : -123.11502, Q1 : 1.0, Q2 : 0.0, Q3 : 0.0, Q4 : -1.20238416912e-06}
2019-04-14 17:44:53.91: SIM {TimeUS : 43135239, Roll : 0.0, Pitch : 0.0, Yaw : 359.99, Alt : 30.1000003815, Lat : 49.28357, Lng : -123.11502, Q1 : 1.0, Q2 : 0.0, Q3 : 0.0, Q4 : -1.41943996823e-06}
2019-04-14 17:44:54.01: SIM {TimeUS : 43235199, Roll : 0.0, Pitch : 0.0, Yaw : 359.99, Alt : 30.1200008392, Lat : 49.28357, Lng : -123.11502, Q1 : 1.0, Q2 : 0.0, Q3 : 0.0, Q4 : -1.64446782946e-06}
2019-04-14 17:44:54.11: SIM {TimeUS : 43335159, Roll : 0.0, Pitch : 0.0, Yaw : 359.99, Alt : 30.1399993896, Lat : 49.28357, Lng : -123.11502, Q1 : 1.0, Q2 : 0.0, Q3 : 0.0, Q4 : -1.86859710993e-06}
2019-04-14 17:44:54.21: SIM {TimeUS : 43435119, Roll : 0.0, Pitch : 0.0, Yaw : 359.99, Alt : 30.1800003052, Lat : 49.28357, Lng : -123.11502, Q1 : 1.0, Q2 : 0.0, Q3 : 0.0, Q4 : -2.12001032196e-06}
2019-04-14 17:44:54.31: SIM {TimeUS : 43535079, Roll : 0.0, Pitch : 0.0, Yaw : 359.99, Alt : 30.2099990845, Lat : 49.28357, Lng : -123.11502, Q1 : 1.0, Q2 : -5.6468988987e-06, Q3 : -5.14284147357e-06, Q4 : -2.3627144401e-06}
2019-04-14 17:44:54.41: SIM {TimeUS : 43635039, Roll : -0.16, Pitch : -0.17, Yaw : 359.99, Alt : 30.2700004578, Lat : 49.28357, Lng : -123.11502, Q1 : 0.999997794628, Q2 : -0.00146584468894, Q3 : -0.00149887613952, Q4 : -1.83823540283e-05}
2019-04-14 17:44:54.51: SIM {TimeUS : 43734999, Roll : -0.46, Pitch : -0.48, Yaw : 359.99, Alt : 30.3899993896, Lat : 49.28357, Lng : -123.11502, Q1 : 0.999982535839, Q2 : -0.00409287912771, Q3 : -0.004265059717, Q4 : -6.43780294922e-05}
2019-04-14 17:44:54.61: SIM {TimeUS : 43834959, Roll : -0.72, Pitch : -0.73, Yaw : 359.98, Alt : 30.5400009155, Lat : 49.28357, Lng : -123.11502, Q1 : 0.999959409237, Q2 : -0.00634760828689, Q3 : -0.00639566266909, Q4 : -0.000134572968818}
2019-04-14 17:44:54.71: SIM {TimeUS : 43934919, Roll : -0.84, Pitch : -0.79, Yaw : 359.98, Alt : 30.7000007629, Lat : 49.28357, Lng : -123.11502, Q1 : 0.999949276447, Q2 : -0.00733195105568, Q3 : -0.00690419320017, Q4 : -0.000220431902562}
2019-04-14 17:44:54.81: SIM {TimeUS : 44034879, Roll : -0.79, Pitch : -0.69, Yaw : 359.96, Alt : 30.8500003815, Lat : 49.28357, Lng : -123.1150201, Q1 : 0.999957561493, Q2 : -0.0069165751338, Q3 : -0.00607989169657, Q4 : -0.00031364071765}
2019-04-14 17:44:54.91: SIM {TimeUS : 44134839, Roll : -0.63, Pitch : -0.51, Yaw : 359.95, Alt : 31.0100002289, Lat : 49.2835701, Lng : -123.1150201, Q1 : 0.999974608421, Q2 : -0.00550507660955, Q3 : -0.0045044911094, Q4 : -0.000399682932766}
2019-04-14 17:44:55.01: SIM {TimeUS : 44235632, Roll : -0.42, Pitch : -0.3, Yaw : 359.94, Alt : 31.1599998474, Lat : 49.2835701, Lng : -123.1150202, Q1 : 0.999989390373, Q2 : -0.00370148546062, Q3 : -0.00269014202058, Q4 : -0.000475880078739}
2019-04-14 17:44:55.11: SIM {TimeUS : 44335592, Roll : -0.22, Pitch : -0.13, Yaw : 359.93, Alt : 31.3299999237, Lat : 49.2835702, Lng : -123.1150203, Q1 : 0.999997198582, Q2 : -0.00199071504176, Q3 : -0.00118208455388, Q4 : -0.000539633270819}
2019-04-14 17:44:55.21: SIM {TimeUS : 44435552, Roll : -0.05, Pitch : -0.03, Yaw : 359.93, Alt : 31.5, Lat : 49.2835702, Lng : -123.1150204, Q1 : 0.999999642372, Q2 : -0.000481264083646, Q3 : -0.000330049486365, Q4 : -0.000588916940615}
2019-04-14 17:44:55.31: SIM {TimeUS : 44535512, Roll : 0.04, Pitch : 0.0, Yaw : 359.92, Alt : 31.6700000763, Lat : 49.2835702, Lng : -123.1150205, Q1 : 0.999999701977, Q2 : 0.0004252276849, Q3 : 3.36890334438e-05, Q4 : -0.000613637268543}
2019-04-14 17:44:55.41: SIM {TimeUS : 44635472, Roll : 0.07, Pitch : 0.02, Yaw : 359.92, Alt : 31.8500003815, Lat : 49.2835703, Lng : -123.1150205, Q1 : 0.999999582767, Q2 : 0.000648302666377, Q3 : 0.000176779591129, Q4 : -0.000616964651272}
2019-04-14 17:44:55.51: SIM {TimeUS : 44735432, Roll : 0.06, Pitch : 0.02, Yaw : 359.93, Alt : 32.0299987793, Lat : 49.2835703, Lng : -123.1150206, Q1 : 0.999999642372, Q2 : 0.000558304949664, Q3 : 0.000181569048436, Q4 : -0.000598950777203}
2019-04-14 17:44:55.61: SIM {TimeUS : 44835392, Roll : 0.06, Pitch : 0.02, Yaw : 359.93, Alt : 32.2200012207, Lat : 49.2835703, Lng : -123.1150207, Q1 : 0.999999701977, Q2 : 0.000530413410161, Q3 : 0.000221282985876, Q4 : -0.000568244897295}
2019-04-14 17:44:55.71: SIM {TimeUS : 44935352, Roll : 0.07, Pitch : 0.04, Yaw : 359.93, Alt : 32.4099998474, Lat : 49.2835703, Lng : -123.1150207, Q1 : 0.999999582767, Q2 : 0.000617056211922, Q3 : 0.000363988190657, Q4 : -0.00053418771131}
2019-04-14 17:44:55.81: SIM {TimeUS : 45035312, Roll : 0.09, Pitch : 0.06, Yaw : 359.94, Alt : 32.6100006104, Lat : 49.2835703, Lng : -123.1150208, Q1 : 0.999999403954, Q2 : 0.000810810481198, Q3 : 0.000530199322384, Q4 : -0.000504150229972}
2019-04-14 17:44:55.91: SIM {TimeUS : 45135272, Roll : 0.12, Pitch : 0.07, Yaw : 359.94, Alt : 32.8100013733, Lat : 49.2835703, Lng : -123.1150208, Q1 : 0.999999046326, Q2 : 0.00110765104182, Q3 : 0.000663374958094, Q4 : -0.000479332695249}
2019-04-14 17:44:56.01: SIM {TimeUS : 45235232, Roll : 0.15, Pitch : 0.1, Yaw : 359.94, Alt : 33.0099983215, Lat : 49.2835704, Lng : -123.1150208, Q1 : 0.999998569489, Q2 : 0.00134564435575, Q3 : 0.000915414071642, Q4 : -0.000460373354144}
2019-04-14 17:44:56.11: SIM {TimeUS : 45335192, Roll : 0.16, Pitch : 0.13, Yaw : 359.94, Alt : 33.2099990845, Lat : 49.2835704, Lng : -123.1150209, Q1 : 0.999998152256, Q2 : 0.00142327451613, Q3 : 0.00119778804947, Q4 : -0.000470082100946}
2019-04-14 17:44:56.21: SIM {TimeUS : 45435152, Roll : 0.16, Pitch : 0.16, Yaw : 359.94, Alt : 33.4099998474, Lat : 49.2835704, Lng : -123.1150209, Q1 : 0.999997913837, Q2 : 0.00140687252861, Q3 : 0.00141312635969, Q4 : -0.000484673626488}
2019-04-14 17:44:56.31: SIM {TimeUS : 45535112, Roll : 0.16, Pitch : 0.18, Yaw : 359.94, Alt : 33.6199989319, Lat : 49.2835704, Lng : -123.1150209, Q1 : 0.99999755621, Q2 : 0.00141631509177, Q3 : 0.00160798430443, Q4 : -0.000499395828228}
2019-04-14 17:44:56.41: SIM {TimeUS : 45635072, Roll : 0.16, Pitch : 0.18, Yaw : 359.94, Alt : 33.8300018311, Lat : 49.2835704, Lng : -123.1150209, Q1 : 0.999997437, Q2 : 0.0014711371623, Q3 : 0.00163368484937, Q4 : -0.000510688405484}
2019-04-14 17:44:56.51: SIM {TimeUS : 45735032, Roll : 0.16, Pitch : 0.18, Yaw : 359.93, Alt : 34.0400009155, Lat : 49.2835704, Lng : -123.1150209, Q1 : 0.999997496605, Q2 : 0.00145954254549, Q3 : 0.00159471761435, Q4 : -0.000526639749296}
2019-04-14 17:44:56.61: SIM {TimeUS : 45834992, Roll : 0.14, Pitch : 0.17, Yaw : 359.93, Alt : 34.25, Lat : 49.2835704, Lng : -123.1150209, Q1 : 0.999997854233, Q2 : 0.00127346860245, Q3 : 0.00154317147098, Q4 : -0.000546917202882}
2019-04-14 17:44:56.71: SIM {TimeUS : 45934952, Roll : 0.12, Pitch : 0.14, Yaw : 359.93, Alt : 34.4599990845, Lat : 49.2835704, Lng : -123.1150209, Q1 : 0.999998450279, Q2 : 0.00110495276749, Q3 : 0.00124739063904, Q4 : -0.000555928738322}
2019-04-14 17:44:56.81: SIM {TimeUS : 46034912, Roll : 0.11, Pitch : 0.08, Yaw : 359.93, Alt : 34.6699981689, Lat : 49.2835704, Lng : -123.1150209, Q1 : 0.999999046326, Q2 : 0.000991284614429, Q3 : 0.000762717623729, Q4 : -0.000556019076612}
2019-04-14 17:44:56.91: SIM {TimeUS : 46134872, Roll : 0.1, Pitch : 0.04, Yaw : 359.93, Alt : 34.8899993896, Lat : 49.2835704, Lng : -123.1150209, Q1 : 0.999999344349, Q2 : 0.000878723803908, Q3 : 0.000419101852458, Q4 : -0.000566426489968}
2019-04-14 17:44:57.01: SIM {TimeUS : 46234832, Roll : 0.08, Pitch : 0.02, Yaw : 359.93, Alt : 35.0999984741, Lat : 49.2835704, Lng : -123.1150209, Q1 : 0.999999523163, Q2 : 0.000769315520301, Q3 : 0.000239867949858, Q4 : -0.000589170493186}
2019-04-14 17:44:57.11: SIM {TimeUS : 46335625, Roll : 0.08, Pitch : 0.02, Yaw : 359.92, Alt : 35.3199996948, Lat : 49.2835704, Lng : -123.1150208, Q1 : 0.999999523163, Q2 : 0.000741910538636, Q3 : 0.000245633127633, Q4 : -0.00062838132726}
2019-04-14 17:44:57.21: SIM {TimeUS : 46435585, Roll : 0.07, Pitch : 0.01, Yaw : 359.92, Alt : 35.5400009155, Lat : 49.2835704, Lng : -123.1150208, Q1 : 0.999999582767, Q2 : 0.000615171040408, Q3 : 0.000126623752294, Q4 : -0.000676085241139}
2019-04-14 17:44:57.31: SIM {TimeUS : 46535545, Roll : 0.04, Pitch : 0.0, Yaw : 359.91, Alt : 35.7599983215, Lat : 49.2835704, Lng : -123.1150208, Q1 : 0.999999642372, Q2 : 0.000371872534743, Q3 : 2.29128727369e-05, Q4 : -0.000719664152712}
2019-04-14 17:44:57.41: SIM {TimeUS : 46635505, Roll : 0.01, Pitch : 0.0, Yaw : 359.91, Alt : 35.9799995422, Lat : 49.2835704, Lng : -123.1150208, Q1 : 0.999999701977, Q2 : 0.000148026025272, Q3 : 6.64788615268e-07, Q4 : -0.000759236747399}
2019-04-14 17:44:57.51: SIM {TimeUS : 46735465, Roll : 0.0, Pitch : 0.01, Yaw : 359.9, Alt : 36.2000007629, Lat : 49.2835704, Lng : -123.1150208, Q1 : 0.999999701977, Q2 : -1.54959593601e-06, Q3 : 9.78962198133e-05, Q4 : -0.00079698022455}
2019-04-14 17:44:57.61: SIM {TimeUS : 46835425, Roll : -0.01, Pitch : 0.01, Yaw : 359.9, Alt : 36.4199981689, Lat : 49.2835704, Lng : -123.1150207, Q1 : 0.999999642372, Q2 : -0.000146505539306, Q3 : 0.000101676603663, Q4 : -0.000830334320199}
2019-04-14 17:44:57.71: SIM {TimeUS : 46935385, Roll : -0.02, Pitch : 0.0, Yaw : 359.9, Alt : 36.6399993896, Lat : 49.2835704, Lng : -123.1150207, Q1 : 0.999999642372, Q2 : -0.000226125237532, Q3 : 3.56682721758e-05, Q4 : -0.000864838890266}
2019-04-14 17:44:57.81: SIM {TimeUS : 47035345, Roll : -0.02, Pitch : 0.0, Yaw : 359.89, Alt : 36.8600006104, Lat : 49.2835704, Lng : -123.1150207, Q1 : 0.999999582767, Q2 : -0.000259058841038, Q3 : -7.972826279e-05, Q4 : -0.000894169847015}
2019-04-14 17:44:57.91: SIM {TimeUS : 47135305, Roll : -0.02, Pitch : -0.02, Yaw : 359.89, Alt : 37.0900001526, Lat : 49.2835704, Lng : -123.1150207, Q1 : 0.999999523163, Q2 : -0.00020029314328, Q3 : -0.0002153985115, Q4 : -0.000917792262044}
2019-04-14 17:44:58.01: SIM {TimeUS : 47235265, Roll : 0.0, Pitch : -0.04, Yaw : 359.89, Alt : 37.3100013733, Lat : 49.2835704, Lng : -123.1150207, Q1 : 0.999999523163, Q2 : -8.10753499536e-06, Q3 : -0.000351319962647, Q4 : -0.000937244447414}
2019-04-14 17:44:58.11: SIM {TimeUS : 47335225, Roll : 0.0, Pitch : -0.05, Yaw : 359.89, Alt : 37.5400009155, Lat : 49.2835704, Lng : -123.1150207, Q1 : 0.999999403954, Q2 : 1.62945634656e-05, Q3 : -0.000515704334248, Q4 : -0.000946866464801}
2019-04-14 17:44:58.21: SIM {TimeUS : 47435185, Roll : -0.01, Pitch : -0.08, Yaw : 359.89, Alt : 37.7599983215, Lat : 49.2835704, Lng : -123.1150207, Q1 : 0.999999284744, Q2 : -0.000168632279383, Q3 : -0.000707956787664, Q4 : -0.000955171068199}
2019-04-14 17:44:58.31: SIM {TimeUS : 47535145, Roll : -0.05, Pitch : -0.09, Yaw : 359.88, Alt : 37.9900016785, Lat : 49.2835704, Lng : -123.1150207, Q1 : 0.99999910593, Q2 : -0.000487186043756, Q3 : -0.000806725816801, Q4 : -0.000969615939539}
2019-04-14 17:44:58.41: SIM {TimeUS : 47635105, Roll : -0.09, Pitch : -0.08, Yaw : 359.88, Alt : 38.2200012207, Lat : 49.2835704, Lng : -123.1150206, Q1 : 0.999998867512, Q2 : -0.000846543814987, Q3 : -0.000768080411945, Q4 : -0.000986075261608}
2019-04-14 17:44:58.51: SIM {TimeUS : 47735065, Roll : -0.12, Pitch : -0.07, Yaw : 359.88, Alt : 38.4500007629, Lat : 49.2835704, Lng : -123.1150206, Q1 : 0.999998688698, Q2 : -0.00107529363595, Q3 : -0.000693520414643, Q4 : -0.00100679672323}
2019-04-14 17:44:58.61: SIM {TimeUS : 47835025, Roll : -0.12, Pitch : -0.06, Yaw : 359.88, Alt : 38.6699981689, Lat : 49.2835704, Lng : -123.1150206, Q1 : 0.999998688698, Q2 : -0.00112800195348, Q3 : -0.000566350005101, Q4 : -0.00102892727591}
2019-04-14 17:44:58.71: SIM {TimeUS : 47934985, Roll : -0.11, Pitch : -0.03, Yaw : 359.87, Alt : 38.9000015259, Lat : 49.2835704, Lng : -123.1150206, Q1 : 0.999998927116, Q2 : -0.000970446621068, Q3 : -0.000347015127772, Q4 : -0.00105114979669}
2019-04-14 17:44:58.81: SIM {TimeUS : 48034945, Roll : -0.08, Pitch : -0.03, Yaw : 359.87, Alt : 39.1300010681, Lat : 49.2835704, Lng : -123.1150206, Q1 : 0.99999910593, Q2 : -0.000704708101694, Q3 : -0.000299740291666, Q4 : -0.00107391364872}
2019-04-14 17:44:58.91: SIM {TimeUS : 48134905, Roll : -0.06, Pitch : -0.03, Yaw : 359.87, Alt : 39.3600006104, Lat : 49.2835706, Lng : -123.1150206, Q1 : 0.999999165535, Q2 : -0.000563637819141, Q3 : -0.000334506272338, Q4 : -0.00110203854274}
2019-04-14 17:44:59.01: SIM {TimeUS : 48234865, Roll : -0.05, Pitch : -0.02, Yaw : 359.87, Alt : 39.5900001526, Lat : 49.2835706, Lng : -123.1150206, Q1 : 0.99999922514, Q2 : -0.000514499319252, Q3 : -0.000212740924326, Q4 : -0.0011245891219}
2019-04-14 17:44:59.11: SIM {TimeUS : 48334825, Roll : -0.07, Pitch : 0.0, Yaw : 359.86, Alt : 39.8199996948, Lat : 49.2835706, Lng : -123.1150206, Q1 : 0.999999165535, Q2 : -0.000652087095659, Q3 : 2.80696203845e-05, Q4 : -0.00114434235729}
2019-04-14 17:44:59.21: SIM {TimeUS : 48435618, Roll : -0.07, Pitch : 0.03, Yaw : 359.86, Alt : 40.0600013733, Lat : 49.2835706, Lng : -123.1150206, Q1 : 0.999999046326, Q2 : -0.000636559794657, Q3 : 0.00031864020275, Q4 : -0.00116751389578}
2019-04-14 17:44:59.31: SIM {TimeUS : 48535578, Roll : -0.05, Pitch : 0.07, Yaw : 359.86, Alt : 40.2900009155, Lat : 49.2835706, Lng : -123.1150206, Q1 : 0.999998986721, Q2 : -0.000452420441434, Q3 : 0.000655345327687, Q4 : -0.00119419698603}
2019-04-14 17:44:59.41: SIM {TimeUS : 48635538, Roll : -0.03, Pitch : 0.08, Yaw : 359.86, Alt : 40.5200004578, Lat : 49.2835706, Lng : -123.1150206, Q1 : 0.999998986721, Q2 : -0.000284550886136, Q3 : 0.000720730458852, Q4 : -0.00120932748541}
2019-04-14 17:44:59.51: SIM {TimeUS : 48735498, Roll : 0.0, Pitch : 0.08, Yaw : 359.86, Alt : 40.75, Lat : 49.2835706, Lng : -123.1150206, Q1 : 0.999998986721, Q2 : -4.4907847041e-05, Q3 : 0.000749124446884, Q4 : -0.00121845130343}
2019-04-14 17:44:59.61: SIM {TimeUS : 48835458, Roll : 0.03, Pitch : 0.1, Yaw : 359.85, Alt : 40.9799995422, Lat : 49.2835706, Lng : -123.1150207, Q1 : 0.999998807907, Q2 : 0.000271519325906, Q3 : 0.000910263566766, Q4 : -0.00122862472199}
2019-04-14 17:44:59.71: SIM {TimeUS : 48935418, Roll : 0.08, Pitch : 0.14, Yaw : 359.85, Alt : 41.2200012207, Lat : 49.2835706, Lng : -123.1150207, Q1 : 0.999998211861, Q2 : 0.000702445860952, Q3 : 0.00123334943783, Q4 : -0.00124087708537}
2019-04-14 17:44:59.81: SIM {TimeUS : 49035378, Roll : 0.1, Pitch : 0.17, Yaw : 359.85, Alt : 41.4500007629, Lat : 49.2835706, Lng : -123.1150207, Q1 : 0.99999755621, Q2 : 0.000956095813308, Q3 : 0.00155378459021, Q4 : -0.00125814299099}
2019-04-14 17:44:59.91: SIM {TimeUS : 49135338, Roll : 0.09, Pitch : 0.2, Yaw : 359.85, Alt : 41.6800003052, Lat : 49.2835706, Lng : -123.1150207, Q1 : 0.999997258186, Q2 : 0.00082975049736, Q3 : 0.00179023423698, Q4 : -0.00126490020193}
2019-04-14 17:45:00.01: SIM {TimeUS : 49235298, Roll : 0.04, Pitch : 0.22, Yaw : 359.85, Alt : 41.9199981689, Lat : 49.2835706, Lng : -123.1150207, Q1 : 0.999997258186, Q2 : 0.000373748393031, Q3 : 0.00193135754671, Q4 : -0.00127281923778}
2019-04-14 17:45:00.11: SIM {TimeUS : 49335258, Roll : 0.0, Pitch : 0.22, Yaw : 359.85, Alt : 42.1500015259, Lat : 49.2835706, Lng : -123.1150207, Q1 : 0.999997258186, Q2 : -7.6856049418e-05, Q3 : 0.00194465462118, Q4 : -0.00128818233497}
2019-04-14 17:45:00.21: SIM {TimeUS : 49435218, Roll : -0.03, Pitch : 0.18, Yaw : 359.85, Alt : 42.3800010681, Lat : 49.2835706, Lng : -123.1150207, Q1 : 0.999997735023, Q2 : -0.000272485340247, Q3 : 0.00165012991056, Q4 : -0.00130277744029}
2019-04-14 17:45:00.31: SIM {TimeUS : 49535178, Roll : -0.02, Pitch : 0.14, Yaw : 359.84, Alt : 42.6199989319, Lat : 49.2835706, Lng : -123.1150207, Q1 : 0.99999833107, Q2 : -0.000259021704551, Q3 : 0.00124720460735, Q4 : -0.00132104300428}
2019-04-14 17:45:00.41: SIM {TimeUS : 49635138, Roll : -0.01, Pitch : 0.12, Yaw : 359.84, Alt : 42.8499984741, Lat : 49.2835706, Lng : -123.1150207, Q1 : 0.999998450279, Q2 : -8.7747546786e-05, Q3 : 0.00111613830086, Q4 : -0.00134638370946}
2019-04-14 17:45:00.51: SIM {TimeUS : 49735098, Roll : 0.02, Pitch : 0.13, Yaw : 359.84, Alt : 43.0900001526, Lat : 49.2835706, Lng : -123.1150207, Q1 : 0.99999833107, Q2 : 0.000254275422776, Q3 : 0.00117508461699, Q4 : -0.00138140725903}
2019-04-14 17:45:00.61: SIM {TimeUS : 49835058, Roll : 0.08, Pitch : 0.14, Yaw : 359.83, Alt : 43.3199996948, Lat : 49.2835706, Lng : -123.1150207, Q1 : 0.999997913837, Q2 : 0.000719669682439, Q3 : 0.00127203541342, Q4 : -0.00141773105133}
2019-04-14 17:45:00.71: SIM {TimeUS : 49935018, Roll : 0.12, Pitch : 0.13, Yaw : 359.83, Alt : 43.5600013733, Lat : 49.2835706, Lng : -123.1150207, Q1 : 0.999997675419, Q2 : 0.00108031346463, Q3 : 0.00114539067727, Q4 : -0.00145895231981}
2019-04-14 17:45:00.81: SIM {TimeUS : 50034978, Roll : 0.12, Pitch : 0.1, Yaw : 359.82, Alt : 43.7900009155, Lat : 49.2835704, Lng : -123.1150207, Q1 : 0.999997854233, Q2 : 0.0010948474519, Q3 : 0.000929165049456, Q4 : -0.00149555900134}
2019-04-14 17:45:00.91: SIM {TimeUS : 50134938, Roll : 0.08, Pitch : 0.08, Yaw : 359.82, Alt : 44.0299987793, Lat : 49.2835704, Lng : -123.1150207, Q1 : 0.99999833107, Q2 : 0.000726020662114, Q3 : 0.000768115336541, Q4 : -0.00150867260527}
2019-04-14 17:45:01.01: SIM {TimeUS : 50234898, Roll : 0.02, Pitch : 0.07, Yaw : 359.82, Alt : 44.2700004578, Lat : 49.2835704, Lng : -123.1150206, Q1 : 0.999998629093, Q2 : 0.000218768851482, Q3 : 0.000667323125526, Q4 : -0.00151884416118}
2019-04-14 17:45:01.11: SIM {TimeUS : 50334858, Roll : -0.01, Pitch : 0.07, Yaw : 359.82, Alt : 44.5, Lat : 49.2835704, Lng : -123.1150206, Q1 : 0.999998569489, Q2 : -0.000150969164679, Q3 : 0.000661363534164, Q4 : -0.00153433799278}
2019-04-14 17:45:01.21: SIM {TimeUS : 50434818, Roll : -0.03, Pitch : 0.06, Yaw : 359.82, Alt : 44.7400016785, Lat : 49.2835704, Lng : -123.1150206, Q1 : 0.999998569489, Q2 : -0.000338622514391, Q3 : 0.00058209663257, Q4 : -0.00155290833209}
2019-04-14 17:45:01.31: SIM {TimeUS : 50535611, Roll : -0.03, Pitch : 0.04, Yaw : 359.81, Alt : 44.9799995422, Lat : 49.2835704, Lng : -123.1150206, Q1 : 0.999998629093, Q2 : -0.000330162845785, Q3 : 0.000386078434531, Q4 : -0.00157586496789}
2019-04-14 17:45:01.41: SIM {TimeUS : 50635571, Roll : -0.04, Pitch : 0.01, Yaw : 359.81, Alt : 45.2099990845, Lat : 49.2835703, Lng : -123.1150206, Q1 : 0.999998629093, Q2 : -0.000376117997803, Q3 : 0.000173586129677, Q4 : -0.00160269299522}
2019-04-14 17:45:01.51: SIM {TimeUS : 50735531, Roll : -0.03, Pitch : 0.0, Yaw : 359.81, Alt : 45.4500007629, Lat : 49.2835703, Lng : -123.1150206, Q1 : 0.999998629093, Q2 : -0.000327182380715, Q3 : 3.95994629798e-06, Q4 : -0.00163808872458}
2019-04-14 17:45:01.61: SIM {TimeUS : 50835491, Roll : -0.02, Pitch : 0.0, Yaw : 359.8, Alt : 45.6800003052, Lat : 49.2835703, Lng : -123.1150206, Q1 : 0.999998569489, Q2 : -0.000178998685442, Q3 : -4.9450845836e-05, Q4 : -0.00167467549909}
2019-04-14 17:45:01.71: SIM {TimeUS : 50935451, Roll : -0.01, Pitch : 0.0, Yaw : 359.8, Alt : 45.9099998474, Lat : 49.2835703, Lng : -123.1150206, Q1 : 0.999998509884, Q2 : -0.000129956126329, Q3 : -4.615187936e-05, Q4 : -0.00170959660318}
2019-04-14 17:45:01.81: SIM {TimeUS : 51035411, Roll : -0.01, Pitch : -0.01, Yaw : 359.79, Alt : 46.1399993896, Lat : 49.2835703, Lng : -123.1150205, Q1 : 0.999998450279, Q2 : -0.000160935902386, Q3 : -0.000131532025989, Q4 : -0.00174692214932}
2019-04-14 17:45:01.91: SIM {TimeUS : 51135371, Roll : -0.02, Pitch : -0.03, Yaw : 359.79, Alt : 46.3699989319, Lat : 49.2835703, Lng : -123.1150205, Q1 : 0.99999833107, Q2 : -0.000220792469918, Q3 : -0.000318316480843, Q4 : -0.0017822990194}
2019-04-14 17:45:02.01: SIM {TimeUS : 51235331, Roll : -0.03, Pitch : -0.05, Yaw : 359.79, Alt : 46.5900001526, Lat : 49.2835703, Lng : -123.1150205, Q1 : 0.999998211861, Q2 : -0.000263474270469, Q3 : -0.000454607303254, Q4 : -0.00181484979112}
2019-04-14 17:45:02.11: SIM {TimeUS : 51335291, Roll : -0.02, Pitch : -0.06, Yaw : 359.78, Alt : 46.8100013733, Lat : 49.2835703, Lng : -123.1150205, Q1 : 0.999998152256, Q2 : -0.000239000175497, Q3 : -0.00054401246598, Q4 : -0.00184510182589}
2019-04-14 17:45:02.21: SIM {TimeUS : 51435251, Roll : -0.03, Pitch : -0.06, Yaw : 359.78, Alt : 47.0200004578, Lat : 49.2835703, Lng : -123.1150205, Q1 : 0.999998033047, Q2 : -0.000276380364085, Q3 : -0.000554568308871, Q4 : -0.0018722495297}
2019-04-14 17:45:02.31: SIM {TimeUS : 51535211, Roll : -0.05, Pitch : -0.05, Yaw : 359.78, Alt : 47.2200012207, Lat : 49.2835703, Lng : -123.1150205, Q1 : 0.999997973442, Q2 : -0.000465190096293, Q3 : -0.000492121733259, Q4 : -0.00190324033611}
2019-04-14 17:45:02.41: SIM {TimeUS : 51635171, Roll : -0.08, Pitch : -0.04, Yaw : 359.77, Alt : 47.4199981689, Lat : 49.2835703, Lng : -123.1150205, Q1 : 0.999997794628, Q2 : -0.000743697746657, Q3 : -0.000423512276029, Q4 : -0.00193680974189}
2019-04-14 17:45:02.51: SIM {TimeUS : 51735131, Roll : -0.11, Pitch : -0.04, Yaw : 359.77, Alt : 47.5999984741, Lat : 49.2835703, Lng : -123.1150205, Q1 : 0.999997496605, Q2 : -0.000974043970928, Q3 : -0.000379322824301, Q4 : -0.00197004922666}
2019-04-14 17:45:02.61: SIM {TimeUS : 51835091, Roll : -0.15, Pitch : -0.05, Yaw : 359.77, Alt : 47.7799987793, Lat : 49.2835703, Lng : -123.1150205, Q1 : 0.999997019768, Q2 : -0.00131305668037, Q3 : -0.000519136257935, Q4 : -0.00200484879315}
2019-04-14 17:45:02.71: SIM {TimeUS : 51935051, Roll : -0.17, Pitch : -0.06, Yaw : 359.76, Alt : 47.9399986267, Lat : 49.2835703, Lng : -123.1150205, Q1 : 0.99999666214, Q2 : -0.0014849929139, Q3 : -0.000572659133468, Q4 : -0.00203544623218}
2019-04-14 17:45:02.81: SIM {TimeUS : 52035011, Roll : -0.16, Pitch : -0.06, Yaw : 359.76, Alt : 48.0900001526, Lat : 49.2835703, Lng : -123.1150205, Q1 : 0.999996721745, Q2 : -0.00143792876042, Q3 : -0.000540195964277, Q4 : -0.00206482456997}
2019-04-14 17:45:02.91: SIM {TimeUS : 52134971, Roll : -0.14, Pitch : -0.05, Yaw : 359.76, Alt : 48.2299995422, Lat : 49.2835703, Lng : -123.1150205, Q1 : 0.999996960163, Q2 : -0.00124579761177, Q3 : -0.000447572208941, Q4 : -0.00209200009704}
2019-04-14 17:45:03.01: SIM {TimeUS : 52234931, Roll : -0.11, Pitch : -0.04, Yaw : 359.75, Alt : 48.3600006104, Lat : 49.2835703, Lng : -123.1150205, Q1 : 0.999997198582, Q2 : -0.00101591018029, Q3 : -0.000363508850569, Q4 : -0.00212028762326}
2019-04-14 17:45:03.11: SIM {TimeUS : 52334891, Roll : -0.08, Pitch : -0.04, Yaw : 359.75, Alt : 48.4799995422, Lat : 49.2835703, Lng : -123.1150205, Q1 : 0.999997377396, Q2 : -0.000720649491996, Q3 : -0.00038020440843, Q4 : -0.00214795349166}
2019-04-14 17:45:03.21: SIM {TimeUS : 52434851, Roll : -0.04, Pitch : -0.05, Yaw : 359.75, Alt : 48.5800018311, Lat : 49.2835703, Lng : -123.1150205, Q1 : 0.999997437, Q2 : -0.00042031693738, Q3 : -0.000442796270363, Q4 : -0.00217370130122}
2019-04-14 17:45:03.31: SIM {TimeUS : 52535644, Roll : -0.03, Pitch : -0.06, Yaw : 359.74, Alt : 48.6800003052, Lat : 49.2835703, Lng : -123.1150205, Q1 : 0.999997377396, Q2 : -0.00027551772655, Q3 : -0.000526164774783, Q4 : -0.00220536277629}
2019-04-14 17:45:03.41: SIM {TimeUS : 52635604, Roll : -0.02, Pitch : -0.06, Yaw : 359.74, Alt : 48.7599983215, Lat : 49.2835703, Lng : -123.1150205, Q1 : 0.999997317791, Q2 : -0.000210201906157, Q3 : -0.000574338831939, Q4 : -0.00223857071251}
2019-04-14 17:45:03.51: SIM {TimeUS : 52735564, Roll : 0.0, Pitch : -0.05, Yaw : 359.74, Alt : 48.8300018311, Lat : 49.2835703, Lng : -123.1150205, Q1 : 0.999997317791, Q2 : 1.60367817443e-05, Q3 : -0.00048665390932, Q4 : -0.00226595695131}
2019-04-14 17:45:03.61: SIM {TimeUS : 52835524, Roll : 0.04, Pitch : -0.06, Yaw : 359.73, Alt : 48.8899993896, Lat : 49.2835703, Lng : -123.1150206, Q1 : 0.999997138977, Q2 : 0.000406623992603, Q3 : -0.000559694482945, Q4 : -0.00229113572277}
2019-04-14 17:45:03.71: SIM {TimeUS : 52935484, Roll : 0.17, Pitch : -0.19, Yaw : 359.73, Alt : 48.9399986267, Lat : 49.2835703, Lng : -123.1150206, Q1 : 0.999994695187, Q2 : 0.00149011262693, Q3 : -0.0017439754447, Q4 : -0.00230329297483}
2019-04-14 17:45:03.81: SIM {TimeUS : 53035444, Roll : 0.43, Pitch : -0.55, Yaw : 359.73, Alt : 48.9799995422, Lat : 49.2835703, Lng : -123.1150206, Q1 : 0.999978601933, Q2 : 0.00377718592063, Q3 : -0.00481458147988, Q4 : -0.00230668322183}
2019-04-14 17:45:03.91: SIM {TimeUS : 53135404, Roll : 0.84, Pitch : -1.13, Yaw : 359.72, Alt : 49.0200004578, Lat : 49.2835703, Lng : -123.1150206, Q1 : 0.99992108345, Q2 : 0.00736174825579, Q3 : -0.00991808064282, Q4 : -0.00230822898448}
2019-04-14 17:45:04.01: SIM {TimeUS : 53235364, Roll : 1.36, Pitch : -1.91, Yaw : 359.71, Alt : 49.0600013733, Lat : 49.2835703, Lng : -123.1150206, Q1 : 0.999787151814, Q2 : 0.011890755035, Q3 : -0.0167038161308, Q4 : -0.00229731900617}
2019-04-14 17:45:04.11: SIM {TimeUS : 53335324, Roll : 1.93, Pitch : -2.77, Yaw : 359.69, Alt : 49.0800018311, Lat : 49.2835704, Lng : -123.1150205, Q1 : 0.999562203884, Q2 : 0.0168416053057, Q3 : -0.0242222417146, Q4 : -0.00224650045857}
2019-04-14 17:45:04.21: SIM {TimeUS : 53435284, Roll : 2.48, Pitch : -3.57, Yaw : 359.67, Alt : 49.1100006104, Lat : 49.2835706, Lng : -123.1150204, Q1 : 0.999276161194, Q2 : 0.0215992927551, Q3 : -0.0312431845814, Q4 : -0.00213448377326}
2019-04-14 17:45:04.31: SIM {TimeUS : 53535244, Roll : 2.93, Pitch : -4.22, Yaw : 359.66, Alt : 49.1300010681, Lat : 49.2835707, Lng : -123.1150203, Q1 : 0.998991370201, Q2 : 0.0254875272512, Q3 : -0.0369153916836, Q4 : -0.0019621332176}
2019-04-14 17:45:04.41: SIM {TimeUS : 53635204, Roll : 3.27, Pitch : -4.69, Yaw : 359.66, Alt : 49.1500015259, Lat : 49.2835709, Lng : -123.1150201, Q1 : 0.998751461506, Q2 : 0.028455901891, Q3 : -0.0410221405327, Q4 : -0.00172759161796}
2019-04-14 17:45:04.51: SIM {TimeUS : 53735164, Roll : 3.54, Pitch : -5.02, Yaw : 359.67, Alt : 49.1599998474, Lat : 49.2835712, Lng : -123.1150199, Q1 : 0.998557686806, Q2 : 0.0308145154268, Q3 : -0.0439425222576, Q4 : -0.00145658000838}
2019-04-14 17:45:04.61: SIM {TimeUS : 53835124, Roll : 3.77, Pitch : -5.31, Yaw : 359.68, Alt : 49.1699981689, Lat : 49.2835715, Lng : -123.1150196, Q1 : 0.998384714127, Q2 : 0.0327829830348, Q3 : -0.0463888496161, Q4 : -0.00117753166705}
2019-04-14 17:45:04.71: SIM {TimeUS : 53935084, Roll : 3.99, Pitch : -5.6, Yaw : 359.69, Alt : 49.1899986267, Lat : 49.2835719, Lng : -123.1150192, Q1 : 0.998198032379, Q2 : 0.0346464402974, Q3 : -0.048985581845, Q4 : -0.000910415721592}
2019-04-14 17:45:04.81: SIM {TimeUS : 54035044, Roll : 4.19, Pitch : -5.93, Yaw : 359.7, Alt : 49.2000007629, Lat : 49.2835722, Lng : -123.1150188, Q1 : 0.997991979122, Q2 : 0.0364333763719, Q3 : -0.0518097318709, Q4 : -0.000669781176839}
2019-04-14 17:45:04.91: SIM {TimeUS : 54135004, Roll : 4.38, Pitch : -6.27, Yaw : 359.7, Alt : 49.2099990845, Lat : 49.2835727, Lng : -123.1150183, Q1 : 0.997769057751, Q2 : 0.0380807109177, Q3 : -0.054832264781, Q4 : -0.000459522678284}
2019-04-14 17:45:05.01: SIM {TimeUS : 54234964, Roll : 4.55, Pitch : -6.58, Yaw : 359.7, Alt : 49.2099990845, Lat : 49.2835733, Lng : -123.1150177, Q1 : 0.997564852238, Q2 : 0.0395046137273, Q3 : -0.0574782118201, Q4 : -0.000256899016676}
2019-04-14 17:45:05.11: SIM {TimeUS : 54334924, Roll : 4.69, Pitch : -6.79, Yaw : 359.71, Alt : 49.2200012207, Lat : 49.2835739, Lng : -123.1150171, Q1 : 0.997410297394, Q2 : 0.0407066866755, Q3 : -0.0592932216823, Q4 : -5.90157978877e-05}
2019-04-14 17:45:05.21: SIM {TimeUS : 54434884, Roll : 4.78, Pitch : -6.94, Yaw : 359.71, Alt : 49.2299995422, Lat : 49.2835745, Lng : -123.1150163, Q1 : 0.997297585011, Q2 : 0.0415569394827, Q3 : -0.0605851002038, Q4 : 8.3870596427e-05}
2019-04-14 17:45:05.31: SIM {TimeUS : 54534844, Roll : 4.86, Pitch : -7.05, Yaw : 359.72, Alt : 49.2299995422, Lat : 49.2835753, Lng : -123.1150156, Q1 : 0.997209727764, Q2 : 0.0422090739012, Q3 : -0.061572343111, Q4 : 0.000195359738427}
2019-04-14 17:45:05.41: SIM {TimeUS : 54635637, Roll : 4.93, Pitch : -7.15, Yaw : 359.72, Alt : 49.2400016785, Lat : 49.2835762, Lng : -123.1150147, Q1 : 0.997131407261, Q2 : 0.0427991487086, Q3 : -0.0624265633523, Q4 : 0.000290710304398}
2019-04-14 17:45:05.51: SIM {TimeUS : 54735597, Roll : 5.07, Pitch : -7.25, Yaw : 359.74, Alt : 49.2400016785, Lat : 49.283577, Lng : -123.1150138, Q1 : 0.99701911211, Q2 : 0.0440550372005, Q3 : -0.0633384436369, Q4 : 0.000586940906942}
2019-04-14 17:45:05.61: SIM {TimeUS : 54835557, Roll : 5.48, Pitch : -7.3, Yaw : 0.08, Alt : 49.25, Lat : 49.2835779, Lng : -123.1150129, Q1 : 0.996820747852, Q2 : 0.047835059464, Q3 : -0.0636047795415, Q4 : 0.00383373117074}
2019-04-14 17:45:05.71: SIM {TimeUS : 54935517, Roll : 6.13, Pitch : -7.34, Yaw : 1.41, Alt : 49.25, Lat : 49.2835788, Lng : -123.1150118, Q1 : 0.996394455433, Q2 : 0.0542138516903, Q3 : -0.0633333399892, Q4 : 0.015741886571}
2019-04-14 17:45:05.81: SIM {TimeUS : 55035477, Roll : 6.65, Pitch : -7.61, Yaw : 4.26, Alt : 49.25, Lat : 49.2835799, Lng : -123.1150107, Q1 : 0.995280146599, Q2 : 0.060309138149, Q3 : -0.0640941485763, Q4 : 0.040893111378}
2019-04-14 17:45:05.91: SIM {TimeUS : 55135437, Roll : 6.71, Pitch : -8.23, Yaw : 8.7, Alt : 49.25, Lat : 49.2835808, Lng : -123.1150095, Q1 : 0.992513239384, Q2 : 0.0637260228395, Q3 : -0.0670651718974, Q4 : 0.0797419771552}
2019-04-14 17:45:06.01: SIM {TimeUS : 55235397, Roll : 6.1, Pitch : -9.16, Yaw : 14.56, Alt : 49.2599983215, Lat : 49.2835819, Lng : -123.1150082, Q1 : 0.98682397604, Q2 : 0.0627993643284, Q3 : -0.0723936855793, Q4 : 0.130360379815}
2019-04-14 17:45:06.11: SIM {TimeUS : 55335357, Roll : 4.55, Pitch : -10.23, Yaw : 21.44, Alt : 49.2599983215, Lat : 49.2835831, Lng : -123.1150068, Q1 : 0.977178156376, Q2 : 0.0555132888258, Q3 : -0.0802349224687, Q4 : 0.188688933849}
2019-04-14 17:45:06.21: SIM {TimeUS : 55435317, Roll : 2.07, Pitch : -11.21, Yaw : 28.64, Alt : 49.2599983215, Lat : 49.2835843, Lng : -123.1150053, Q1 : 0.963694989681, Q2 : 0.0416091196239, Q3 : -0.0901978090405, Q4 : 0.247840553522}
2019-04-14 17:45:06.31: SIM {TimeUS : 55535277, Roll : -0.88, Pitch : -11.89, Yaw : 35.34, Alt : 49.2599983215, Lat : 49.2835855, Lng : -123.1150037, Q1 : 0.947898566723, Q2 : 0.0241620447487, Q3 : -0.101016171277, Q4 : 0.301164805889}
2019-04-14 17:45:06.41: SIM {TimeUS : 55635237, Roll : -3.63, Pitch : -12.21, Yaw : 40.86, Alt : 49.2599983215, Lat : 49.2835868, Lng : -123.115002, Q1 : 0.93247628212, Q2 : 0.00761640071869, Q3 : -0.110684141517, Q4 : 0.343771874905}
2019-04-14 17:45:06.51: SIM {TimeUS : 55735197, Roll : -5.62, Pitch : -12.32, Yaw : 44.74, Alt : 49.2700004578, Lat : 49.2835883, Lng : -123.1150004, Q1 : 0.920271456242, Q2 : -0.00427791615948, Q3 : -0.117684304714, Q4 : 0.373138874769}
2019-04-14 17:45:06.61: SIM {TimeUS : 55835157, Roll : -6.63, Pitch : -12.37, Yaw : 46.88, Alt : 49.2700004578, Lat : 49.2835897, Lng : -123.1149987, Q1 : 0.913064539433, Q2 : -0.00998777057976, Q3 : -0.121582269669, Q4 : 0.389141649008}
2019-04-14 17:45:06.71: SIM {TimeUS : 55935117, Roll : -6.71, Pitch : -12.5, Yaw : 47.43, Alt : 49.2700004578, Lat : 49.2835914, Lng : -123.1149971, Q1 : 0.911080479622, Q2 : -0.00956452079117, Q3 : -0.123001754284, Q4 : 0.393333733082}
2019-04-14 17:45:06.81: SIM {TimeUS : 56035077, Roll : -6.04, Pitch : -12.82, Yaw : 46.69, Alt : 49.2700004578, Lat : 49.2835931, Lng : -123.1149954, Q1 : 0.913428962231, Q2 : -0.00395298097283, Q3 : -0.12315005064, Q4 : 0.387899488211}
2019-04-14 17:45:06.91: SIM {TimeUS : 56135037, Roll : -4.86, Pitch : -13.34, Yaw : 44.99, Alt : 49.2700004578, Lat : 49.2835949, Lng : -123.1149938, Q1 : 0.918712735176, Q2 : 0.0054960954003, Q3 : -0.123350583017, Q4 : 0.375128507614}
2019-04-14 17:45:07.01: SIM {TimeUS : 56234997, Roll : -3.37, Pitch : -14.0, Yaw : 42.62, Alt : 49.2700004578, Lat : 49.2835968, Lng : -123.1149921, Q1 : 0.925566375256, Q2 : 0.0170848444104, Q3 : -0.124100998044, Q4 : 0.357258915901}
2019-04-14 17:45:07.11: SIM {TimeUS : 56334957, Roll : -1.79, Pitch : -14.65, Yaw : 39.9, Alt : 49.2700004578, Lat : 49.2835988, Lng : -123.1149903, Q1 : 0.932868719101, Q2 : 0.0289573613554, Q3 : -0.125201359391, Q4 : 0.336514681578}
2019-04-14 17:45:07.21: SIM {TimeUS : 56434917, Roll : -0.26, Pitch : -15.18, Yaw : 37.12, Alt : 49.2700004578, Lat : 49.2836007, Lng : -123.1149885, Q1 : 0.939753055573, Q2 : 0.0398713126779, Q3 : -0.125984162092, Q4 : 0.315281629562}
2019-04-14 17:45:07.31: SIM {TimeUS : 56534877, Roll : 1.07, Pitch : -15.52, Yaw : 34.61, Alt : 49.2799987793, Lat : 49.2836029, Lng : -123.1149865, Q1 : 0.945570468903, Q2 : 0.0490501523018, Q3 : -0.126151934266, Q4 : 0.295932978392}
2019-04-14 17:45:07.41: SIM {TimeUS : 56634837, Roll : 2.12, Pitch : -15.66, Yaw : 32.59, Alt : 49.2799987793, Lat : 49.2836049, Lng : -123.1149845, Q1 : 0.949996948242, Q2 : 0.0558730699122, Q3 : -0.125653579831, Q4 : 0.280348390341}
2019-04-14 17:45:07.51: SIM {TimeUS : 56735630, Roll : 2.8, Pitch : -15.69, Yaw : 31.2, Alt : 49.2799987793, Lat : 49.2836072, Lng : -123.1149824, Q1 : 0.952947735786, Q2 : 0.0600243732333, Q3 : -0.124912686646, Q4 : 0.269600600004}
2019-04-14 17:45:07.61: SIM {TimeUS : 56835590, Roll : 3.06, Pitch : -15.65, Yaw : 30.52, Alt : 49.2799987793, Lat : 49.2836093, Lng : -123.1149801, Q1 : 0.95443212986, Q2 : 0.0613705441356, Q3 : -0.1243917346, Q4 : 0.264234095812}
2019-04-14 17:45:07.71: SIM {TimeUS : 56935550, Roll : 2.93, Pitch : -15.62, Yaw : 30.49, Alt : 49.2799987793, Lat : 49.2836116, Lng : -123.1149777, Q1 : 0.954618275166, Q2 : 0.0601964332163, Q3 : -0.124463163316, Q4 : 0.26379776001}
2019-04-14 17:45:07.81: SIM {TimeUS : 57035510, Roll : 2.49, Pitch : -15.64, Yaw : 30.98, Alt : 49.2799987793, Lat : 49.283614, Lng : -123.1149753, Q1 : 0.953666746616, Q2 : 0.0571668185294, Q3 : -0.125369980931, Q4 : 0.267458677292}
2019-04-14 17:45:07.91: SIM {TimeUS : 57135470, Roll : 1.85, Pitch : -15.72, Yaw : 31.87, Alt : 49.2799987793, Lat : 49.2836164, Lng : -123.1149727, Q1 : 0.951798677444, Q2 : 0.0529488325119, Q3 : -0.127111762762, Q4 : 0.274077296257}
2019-04-14 17:45:08.01: SIM {TimeUS : 57235430, Roll : 1.09, Pitch : -15.84, Yaw : 32.98, Alt : 49.2799987793, Lat : 49.2836188, Lng : -123.1149701, Q1 : 0.949300229549, Q2 : 0.0481839217246, Q3 : -0.129463434219, Q4 : 0.282394349575}
2019-04-14 17:45:08.11: SIM {TimeUS : 57335390, Roll : 0.33, Pitch : -15.97, Yaw : 34.15, Alt : 49.2799987793, Lat : 49.2836212, Lng : -123.1149675, Q1 : 0.946510970592, Q2 : 0.0435717850924, Q3 : -0.131953835487, Q4 : 0.291215837002}
2019-04-14 17:45:08.21: SIM {TimeUS : 57435350, Roll : -0.34, Pitch : -16.09, Yaw : 35.25, Alt : 49.2799987793, Lat : 49.2836237, Lng : -123.1149646, Q1 : 0.943771541119, Q2 : 0.0395613461733, Q3 : -0.134347125888, Q4 : 0.299467951059}
2019-04-14 17:45:08.31: SIM {TimeUS : 57535310, Roll : -0.87, Pitch : -16.19, Yaw : 36.17, Alt : 49.2799987793, Lat : 49.2836262, Lng : -123.114962, Q1 : 0.941400229931, Q2 : 0.0365662612021, Q3 : -0.136261686683, Q4 : 0.306367784739}
2019-04-14 17:45:08.41: SIM {TimeUS : 57635270, Roll : -1.22, Pitch : -16.26, Yaw : 36.84, Alt : 49.2799987793, Lat : 49.2836287, Lng : -123.1149592, Q1 : 0.939632713795, Q2 : 0.0346799045801, Q3 : -0.137561798096, Q4 : 0.311391085386}
2019-04-14 17:45:08.51: SIM {TimeUS : 57735230, Roll : -1.38, Pitch : -16.31, Yaw : 37.22, Alt : 49.2799987793, Lat : 49.2836314, Lng : -123.1149564, Q1 : 0.938583076, Q2 : 0.0339504405856, Q3 : -0.138237610459, Q4 : 0.314323842525}
2019-04-14 17:45:08.61: SIM {TimeUS : 57835190, Roll : -1.35, Pitch : -16.34, Yaw : 37.33, Alt : 49.2799987793, Lat : 49.283634, Lng : -123.1149535, Q1 : 0.938243508339, Q2 : 0.0344009585679, Q3 : -0.138384133577, Q4 : 0.315223008394}
2019-04-14 17:45:08.71: SIM {TimeUS : 57935150, Roll : -1.17, Pitch : -16.38, Yaw : 37.2, Alt : 49.2799987793, Lat : 49.2836366, Lng : -123.1149506, Q1 : 0.938501954079, Q2 : 0.035856436938, Q3 : -0.138278231025, Q4 : 0.314336746931}
2019-04-14 17:45:08.81: SIM {TimeUS : 58035110, Roll : -0.89, Pitch : -16.44, Yaw : 36.88, Alt : 49.2799987793, Lat : 49.2836395, Lng : -123.1149476, Q1 : 0.939214766026, Q2 : 0.0379235260189, Q3 : -0.138082891703, Q4 : 0.312042564154}
2019-04-14 17:45:08.91: SIM {TimeUS : 58135070, Roll : -0.58, Pitch : -16.51, Yaw : 36.44, Alt : 49.2799987793, Lat : 49.2836422, Lng : -123.1149448, Q1 : 0.940209209919, Q2 : 0.0401346758008, Q3 : -0.137974083424, Q4 : 0.308802485466}
2019-04-14 17:45:09.01: SIM {TimeUS : 58235030, Roll : -0.27, Pitch : -16.56, Yaw : 35.96, Alt : 49.2799987793, Lat : 49.2836451, Lng : -123.1149418, Q1 : 0.9413433671, Q2 : 0.0422462150455, Q3 : -0.13775806129, Q4 : 0.305140376091}
2019-04-14 17:45:09.11: SIM {TimeUS : 58334990, Roll : 0.03, Pitch : -16.59, Yaw : 35.48, Alt : 49.2799987793, Lat : 49.2836479, Lng : -123.1149388, Q1 : 0.942462384701, Q2 : 0.0442352630198, Q3 : -0.137376666069, Q4 : 0.301555246115}
2019-04-14 17:45:09.21: SIM {TimeUS : 58434950, Roll : 0.27, Pitch : -16.62, Yaw : 35.06, Alt : 49.2799987793, Lat : 49.2836507, Lng : -123.1149358, Q1 : 0.943438649178, Q2 : 0.0457693785429, Q3 : -0.137116059661, Q4 : 0.298375487328}
2019-04-14 17:45:09.31: SIM {TimeUS : 58534910, Roll : 0.45, Pitch : -16.64, Yaw : 34.73, Alt : 49.2799987793, Lat : 49.2836536, Lng : -123.1149327, Q1 : 0.944176852703, Q2 : 0.0469825156033, Q3 : -0.136980071664, Q4 : 0.295904070139}
2019-04-14 17:45:09.41: SIM {TimeUS : 58634870, Roll : 0.58, Pitch : -16.66, Yaw : 34.52, Alt : 49.2799987793, Lat : 49.2836566, Lng : -123.1149296, Q1 : 0.944655954838, Q2 : 0.0478458367288, Q3 : -0.136850759387, Q4 : 0.294292002916}
2019-04-14 17:45:09.51: SIM {TimeUS : 58734830, Roll : 0.63, Pitch : -16.67, Yaw : 34.42, Alt : 49.2799987793, Lat : 49.2836596, Lng : -123.1149263, Q1 : 0.944883346558, Q2 : 0.0481222495437, Q3 : -0.136854872108, Q4 : 0.29351401329}
2019-04-14 17:45:09.61: SIM {TimeUS : 58835623, Roll : 0.58, Pitch : -16.7, Yaw : 34.42, Alt : 49.2799987793, Lat : 49.2836626, Lng : -123.1149232, Q1 : 0.944853663445, Q2 : 0.0478246957064, Q3 : -0.137228861451, Q4 : 0.293483674526}
2019-04-14 17:45:09.71: SIM {TimeUS : 58935583, Roll : 0.47, Pitch : -16.74, Yaw : 34.51, Alt : 49.2900009155, Lat : 49.2836655, Lng : -123.11492, Q1 : 0.944615423679, Q2 : 0.04708667472, Q3 : -0.13786020875, Q4 : 0.294073373079}
2019-04-14 17:45:09.81: SIM {TimeUS : 59035543, Roll : 0.31, Pitch : -16.81, Yaw : 34.66, Alt : 49.2900009155, Lat : 49.2836685, Lng : -123.1149167, Q1 : 0.944215416908, Q2 : 0.0461764000356, Q3 : -0.138727664948, Q4 : 0.295092523098}
2019-04-14 17:45:09.91: SIM {TimeUS : 59135503, Roll : 0.15, Pitch : -16.86, Yaw : 34.84, Alt : 49.2900009155, Lat : 49.2836716, Lng : -123.1149134, Q1 : 0.943747639656, Q2 : 0.0452179163694, Q3 : -0.13954603672, Q4 : 0.296348810196}
2019-04-14 17:45:10.01: SIM {TimeUS : 59235463, Roll : 0.02, Pitch : -16.91, Yaw : 35.02, Alt : 49.2900009155, Lat : 49.2836746, Lng : -123.1149101, Q1 : 0.943267405033, Q2 : 0.0444749221206, Q3 : -0.140211060643, Q4 : 0.297673463821}
2019-04-14 17:45:10.11: SIM {TimeUS : 59335423, Roll : -0.07, Pitch : -16.95, Yaw : 35.18, Alt : 49.2900009155, Lat : 49.2836776, Lng : -123.1149068, Q1 : 0.942830681801, Q2 : 0.0439640954137, Q3 : -0.140721589327, Q4 : 0.298889458179}
2019-04-14 17:45:10.21: SIM {TimeUS : 59435383, Roll : -0.12, Pitch : -16.98, Yaw : 35.31, Alt : 49.2900009155, Lat : 49.2836807, Lng : -123.1149035, Q1 : 0.942477107048, Q2 : 0.0437318347394, Q3 : -0.141056373715, Q4 : 0.299879163504}
2019-04-14 17:45:10.31: SIM {TimeUS : 59535343, Roll : -0.15, Pitch : -17.0, Yaw : 35.4, Alt : 49.2900009155, Lat : 49.2836838, Lng : -123.1149001, Q1 : 0.942242801189, Q2 : 0.043636251241, Q3 : -0.141238346696, Q4 : 0.300543010235}
2019-04-14 17:45:10.41: SIM {TimeUS : 59635303, Roll : -0.16, Pitch : -17.01, Yaw : 35.44, Alt : 49.2900009155, Lat : 49.2836869, Lng : -123.1148967, Q1 : 0.94212436676, Q2 : 0.0436934828758, Q3 : -0.141384318471, Q4 : 0.300837248564}
2019-04-14 17:45:10.51: SIM {TimeUS : 59735263, Roll : -0.14, Pitch : -17.03, Yaw : 35.43, Alt : 49.2900009155, Lat : 49.2836901, Lng : -123.1148933, Q1 : 0.94211179018, Q2 : 0.0439298599958, Q3 : -0.141490265727, Q4 : 0.300792485476}
2019-04-14 17:45:10.61: SIM {TimeUS : 59835223, Roll : -0.09, Pitch : -17.06, Yaw : 35.38, Alt : 49.2900009155, Lat : 49.2836931, Lng : -123.1148899, Q1 : 0.942181050777, Q2 : 0.0443030260503, Q3 : -0.141615286469, Q4 : 0.300461739302}
2019-04-14 17:45:10.71: SIM {TimeUS : 59935183, Roll : -0.04, Pitch : -17.09, Yaw : 35.31, Alt : 49.2999992371, Lat : 49.2836963, Lng : -123.1148865, Q1 : 0.942315757275, Q2 : 0.0447498038411, Q3 : -0.141764581203, Q4 : 0.299902170897}
2019-04-14 17:45:10.81: SIM {TimeUS : 60035143, Roll : 0.0, Pitch : -17.13, Yaw : 35.22, Alt : 49.2999992371, Lat : 49.2836996, Lng : -123.1148831, Q1 : 0.942487478256, Q2 : 0.0451313816011, Q3 : -0.14198936522, Q4 : 0.299198180437}
2019-04-14 17:45:10.91: SIM {TimeUS : 60135103, Roll : 0.02, Pitch : -17.17, Yaw : 35.12, Alt : 49.2999992371, Lat : 49.2837027, Lng : -123.1148796, Q1 : 0.942682921886, Q2 : 0.0452836938202, Q3 : -0.142280653119, Q4 : 0.298420011997}
2019-04-14 17:45:11.01: SIM {TimeUS : 60235063, Roll : 0.03, Pitch : -17.2, Yaw : 35.03, Alt : 49.2999992371, Lat : 49.2837059, Lng : -123.1148762, Q1 : 0.942880749702, Q2 : 0.0453414469957, Q3 : -0.14252910018, Q4 : 0.297666788101}
2019-04-14 17:45:11.11: SIM {TimeUS : 60335023, Roll : 0.04, Pitch : -17.23, Yaw : 34.95, Alt : 49.2999992371, Lat : 49.2837091, Lng : -123.1148727, Q1 : 0.943050563335, Q2 : 0.045360352844, Q3 : -0.142795786262, Q4 : 0.29699742794}
2019-04-14 17:45:11.21: SIM {TimeUS : 60434983, Roll : 0.06, Pitch : -17.27, Yaw : 34.88, Alt : 49.2999992371, Lat : 49.2837124, Lng : -123.1148692, Q1 : 0.943164348602, Q2 : 0.0455770343542, Q3 : -0.143055558205, Q4 : 0.296477466822}
2019-04-14 17:45:11.31: SIM {TimeUS : 60534943, Roll : 0.1, Pitch : -17.3, Yaw : 34.84, Alt : 49.2999992371, Lat : 49.2837156, Lng : -123.1148657, Q1 : 0.943226993084, Q2 : 0.0458923988044, Q3 : -0.143282368779, Q4 : 0.296119809151}
2019-04-14 17:45:11.41: SIM {TimeUS : 60634903, Roll : 0.13, Pitch : -17.33, Yaw : 34.81, Alt : 49.2999992371, Lat : 49.2837188, Lng : -123.1148622, Q1 : 0.943245410919, Q2 : 0.0462307035923, Q3 : -0.143477097154, Q4 : 0.295914083719}
2019-04-14 17:45:11.51: SIM {TimeUS : 60734863, Roll : 0.17, Pitch : -17.37, Yaw : 34.8, Alt : 49.2999992371, Lat : 49.2837221, Lng : -123.1148586, Q1 : 0.943226456642, Q2 : 0.0465659797192, Q3 : -0.143665120006, Q4 : 0.295830726624}
2019-04-14 17:45:11.61: SIM {TimeUS : 60834823, Roll : 0.17, Pitch : -17.39, Yaw : 34.8, Alt : 49.3100013733, Lat : 49.2837253, Lng : -123.1148551, Q1 : 0.94319665432, Q2 : 0.0466619767249, Q3 : -0.143847182393, Q4 : 0.295822143555}
2019-04-14 17:45:11.71: SIM {TimeUS : 60935616, Roll : 0.15, Pitch : -17.4, Yaw : 34.8, Alt : 49.3100013733, Lat : 49.2837287, Lng : -123.1148515, Q1 : 0.943172037601, Q2 : 0.0465253815055, Q3 : -0.143955990672, Q4 : 0.295869290829}
2019-04-14 17:45:11.81: SIM {TimeUS : 61035576, Roll : 0.11, Pitch : -17.4, Yaw : 34.82, Alt : 49.3100013733, Lat : 49.283732, Lng : -123.1148479, Q1 : 0.943148553371, Q2 : 0.0462371408939, Q3 : -0.144065007567, Q4 : 0.295936256647}
2019-04-14 17:45:11.91: SIM {TimeUS : 61135536, Roll : 0.09, Pitch : -17.39, Yaw : 34.83, Alt : 49.3100013733, Lat : 49.2837352, Lng : -123.1148443, Q1 : 0.943128764629, Q2 : 0.0460737161338, Q3 : -0.14405092597, Q4 : 0.296031594276}
2019-04-14 17:45:12.01: SIM {TimeUS : 61235496, Roll : 0.08, Pitch : -17.4, Yaw : 34.84, Alt : 49.3100013733, Lat : 49.2837387, Lng : -123.1148406, Q1 : 0.943100333214, Q2 : 0.046021990478, Q3 : -0.144101575017, Q4 : 0.296105563641}
2019-04-14 17:45:12.11: SIM {TimeUS : 61335456, Roll : 0.1, Pitch : -17.43, Yaw : 34.85, Alt : 49.3100013733, Lat : 49.2837419, Lng : -123.1148371, Q1 : 0.943044126034, Q2 : 0.0462128408253, Q3 : -0.14433939755, Q4 : 0.296139091253}
2019-04-14 17:45:12.21: SIM {TimeUS : 61435416, Roll : 0.11, Pitch : -17.49, Yaw : 34.84, Alt : 49.3100013733, Lat : 49.2837453, Lng : -123.1148335, Q1 : 0.942967772484, Q2 : 0.0464799180627, Q3 : -0.144827395678, Q4 : 0.296102106571}
2019-04-14 17:45:12.31: SIM {TimeUS : 61535376, Roll : 0.12, Pitch : -17.54, Yaw : 34.83, Alt : 49.3100013733, Lat : 49.2837486, Lng : -123.1148299, Q1 : 0.942935585976, Q2 : 0.0466379374266, Q3 : -0.145190194249, Q4 : 0.296002060175}
2019-04-14 17:45:12.41: SIM {TimeUS : 61635336, Roll : 0.12, Pitch : -17.55, Yaw : 34.82, Alt : 49.3100013733, Lat : 49.283752, Lng : -123.1148263, Q1 : 0.942963123322, Q2 : 0.046709254384, Q3 : -0.145236819983, Q4 : 0.295880317688}
2019-04-14 17:45:12.51: SIM {TimeUS : 61735296, Roll : 0.13, Pitch : -17.56, Yaw : 34.8, Alt : 49.3100013733, Lat : 49.2837553, Lng : -123.1148226, Q1 : 0.943000197411, Q2 : 0.04673274979, Q3 : -0.145325511694, Q4 : 0.295714855194}
2019-04-14 17:45:12.61: SIM {TimeUS : 61835256, Roll : 0.12, Pitch : -17.58, Yaw : 34.77, Alt : 49.3100013733, Lat : 49.2837587, Lng : -123.114819, Q1 : 0.943030059338, Q2 : 0.0467351637781, Q3 : -0.145541533828, Q4 : 0.295512676239}
2019-04-14 17:45:12.71: SIM {TimeUS : 61935216, Roll : 0.12, Pitch : -17.6, Yaw : 34.75, Alt : 49.3199996948, Lat : 49.283762, Lng : -123.1148154, Q1 : 0.943062603474, Q2 : 0.0467352457345, Q3 : -0.145735442638, Q4 : 0.295313328505}
2019-04-14 17:45:12.81: SIM {TimeUS : 62035176, Roll : 0.12, Pitch : -17.62, Yaw : 34.73, Alt : 49.3199996948, Lat : 49.2837655, Lng : -123.1148117, Q1 : 0.943094134331, Q2 : 0.0467562861741, Q3 : -0.14591306448, Q4 : 0.295121431351}
2019-04-14 17:45:12.91: SIM {TimeUS : 62135136, Roll : 0.13, Pitch : -17.64, Yaw : 34.71, Alt : 49.3199996948, Lat : 49.2837689, Lng : -123.114808, Q1 : 0.943127274513, Q2 : 0.0468316860497, Q3 : -0.146022289991, Q4 : 0.29494959116}
2019-04-14 17:45:13.01: SIM {TimeUS : 62235096, Roll : 0.15, Pitch : -17.65, Yaw : 34.69, Alt : 49.3199996948, Lat : 49.2837722, Lng : -123.1148044, Q1 : 0.94315379858, Q2 : 0.0469926856458, Q3 : -0.146093502641, Q4 : 0.294803857803}
2019-04-14 17:45:13.11: SIM {TimeUS : 62335056, Roll : 0.17, Pitch : -17.65, Yaw : 34.67, Alt : 49.3199996948, Lat : 49.2837757, Lng : -123.1148007, Q1 : 0.943188786507, Q2 : 0.0471657030284, Q3 : -0.146053463221, Q4 : 0.294684022665}
2019-04-14 17:45:13.21: SIM {TimeUS : 62435016, Roll : 0.19, Pitch : -17.66, Yaw : 34.65, Alt : 49.3199996948, Lat : 49.283779, Lng : -123.114797, Q1 : 0.94321668148, Q2 : 0.0473391972482, Q3 : -0.146043360233, Q4 : 0.294571876526}
2019-04-14 17:45:13.31: SIM {TimeUS : 62534976, Roll : 0.2, Pitch : -17.68, Yaw : 34.64, Alt : 49.3199996948, Lat : 49.2837825, Lng : -123.1147933, Q1 : 0.943226516247, Q2 : 0.0474810414016, Q3 : -0.146168723702, Q4 : 0.294455498457}
2019-04-14 17:45:13.41: SIM {TimeUS : 62634936, Roll : 0.2, Pitch : -17.72, Yaw : 34.62, Alt : 49.3199996948, Lat : 49.2837859, Lng : -123.1147896, Q1 : 0.943211019039, Q2 : 0.0475091636181, Q3 : -0.146531552076, Q4 : 0.294320225716}
2019-04-14 17:45:13.51: SIM {TimeUS : 62734896, Roll : 0.17, Pitch : -17.76, Yaw : 34.61, Alt : 49.3199996948, Lat : 49.2837893, Lng : -123.1147859, Q1 : 0.943194448948, Q2 : 0.0473599396646, Q3 : -0.146982654929, Q4 : 0.294172406197}
2019-04-14 17:45:13.61: SIM {TimeUS : 62834856, Roll : 0.14, Pitch : -17.81, Yaw : 34.6, Alt : 49.3199996948, Lat : 49.2837928, Lng : -123.1147822, Q1 : 0.943170309067, Q2 : 0.0472458451986, Q3 : -0.1474416852, Q4 : 0.294038563967}
2019-04-14 17:45:13.71: SIM {TimeUS : 62934816, Roll : 0.14, Pitch : -17.84, Yaw : 34.59, Alt : 49.3199996948, Lat : 49.2837962, Lng : -123.1147785, Q1 : 0.943152606487, Q2 : 0.0473070256412, Q3 : -0.147713631392, Q4 : 0.293948888779}
2019-04-14 17:45:13.81: SIM {TimeUS : 63035609, Roll : 0.16, Pitch : -17.84, Yaw : 34.58, Alt : 49.3199996948, Lat : 49.2837996, Lng : -123.1147747, Q1 : 0.943173885345, Q2 : 0.0474575608969, Q3 : -0.147637501359, Q4 : 0.293894559145}
2019-04-14 17:45:13.91: SIM {TimeUS : 63135569, Roll : 0.18, Pitch : -17.8, Yaw : 34.57, Alt : 49.3199996948, Lat : 49.2838032, Lng : -123.114771, Q1 : 0.943245768547, Q2 : 0.047525499016, Q3 : -0.147246345878, Q4 : 0.293849140406}
2019-04-14 17:45:14.01: SIM {TimeUS : 63235529, Roll : 0.18, Pitch : -17.77, Yaw : 34.56, Alt : 49.3199996948, Lat : 49.2838066, Lng : -123.1147672, Q1 : 0.943302869797, Q2 : 0.0474631860852, Q3 : -0.147031471133, Q4 : 0.29378336668}
2019-04-14 17:45:14.11: SIM {TimeUS : 63335489, Roll : 0.18, Pitch : -17.76, Yaw : 34.55, Alt : 49.3199996948, Lat : 49.28381, Lng : -123.1147635, Q1 : 0.943341374397, Q2 : 0.0474181436002, Q3 : -0.146946504712, Q4 : 0.293709605932}
2019-04-14 17:45:14.21: SIM {TimeUS : 63435449, Roll : 0.18, Pitch : -17.76, Yaw : 34.54, Alt : 49.3300018311, Lat : 49.2838135, Lng : -123.1147597, Q1 : 0.943363308907, Q2 : 0.0473833084106, Q3 : -0.146983325481, Q4 : 0.293626278639}
2019-04-14 17:45:14.31: SIM {TimeUS : 63535409, Roll : 0.17, Pitch : -17.79, Yaw : 34.53, Alt : 49.3300018311, Lat : 49.2838171, Lng : -123.114756, Q1 : 0.943362951279, Q2 : 0.0473828352988, Q3 : -0.14719337225, Q4 : 0.293522328138}
2019-04-14 17:45:14.41: SIM {TimeUS : 63635369, Roll : 0.18, Pitch : -17.81, Yaw : 34.52, Alt : 49.3300018311, Lat : 49.2838205, Lng : -123.1147522, Q1 : 0.94335603714, Q2 : 0.0474587455392, Q3 : -0.147410944104, Q4 : 0.293423056602}
2019-04-14 17:45:14.51: SIM {TimeUS : 63735329, Roll : 0.17, Pitch : -17.85, Yaw : 34.51, Alt : 49.3300018311, Lat : 49.2838239, Lng : -123.1147484, Q1 : 0.943333864212, Q2 : 0.0475049056113, Q3 : -0.147768720984, Q4 : 0.293306916952}
2019-04-14 17:45:14.61: SIM {TimeUS : 63835289, Roll : 0.16, Pitch : -17.9, Yaw : 34.5, Alt : 49.3300018311, Lat : 49.2838275, Lng : -123.1147447, Q1 : 0.94330561161, Q2 : 0.0475457906723, Q3 : -0.148176982999, Q4 : 0.293185174465}
2019-04-14 17:45:14.71: SIM {TimeUS : 63935249, Roll : 0.16, Pitch : -17.93, Yaw : 34.49, Alt : 49.3300018311, Lat : 49.283831, Lng : -123.1147409, Q1 : 0.943298459053, Q2 : 0.0475775748491, Q3 : -0.148435592651, Q4 : 0.293072074652}
2019-04-14 17:45:14.81: SIM {TimeUS : 64035209, Roll : 0.15, Pitch : -17.95, Yaw : 34.47, Alt : 49.3300018311, Lat : 49.2838345, Lng : -123.1147371, Q1 : 0.943303465843, Q2 : 0.0475462265313, Q3 : -0.148665592074, Q4 : 0.292944401503}
2019-04-14 17:45:14.91: SIM {TimeUS : 64135169, Roll : 0.14, Pitch : -17.97, Yaw : 34.46, Alt : 49.3300018311, Lat : 49.2838379, Lng : -123.1147333, Q1 : 0.943317770958, Q2 : 0.0475131757557, Q3 : -0.148827821016, Q4 : 0.292821377516}
2019-04-14 17:45:15.01: SIM {TimeUS : 64235129, Roll : 0.16, Pitch : -17.96, Yaw : 34.45, Alt : 49.3300018311, Lat : 49.2838415, Lng : -123.1147296, Q1 : 0.94335258007, Q2 : 0.0476061105728, Q3 : -0.148739770055, Q4 : 0.292738944292}
2019-04-14 17:45:15.11: SIM {TimeUS : 64335089, Roll : 0.19, Pitch : -17.97, Yaw : 34.44, Alt : 49.3300018311, Lat : 49.283845, Lng : -123.1147257, Q1 : 0.94337105751, Q2 : 0.0478260032833, Q3 : -0.148706838489, Q4 : 0.292660266161}
2019-04-14 17:45:15.21: SIM {TimeUS : 64435049, Roll : 0.2, Pitch : -17.98, Yaw : 34.42, Alt : 49.3300018311, Lat : 49.2838486, Lng : -123.114722, Q1 : 0.943379461765, Q2 : 0.0479749031365, Q3 : -0.148796930909, Q4 : 0.292562872171}
2019-04-14 17:45:15.31: SIM {TimeUS : 64535009, Roll : 0.21, Pitch : -17.99, Yaw : 34.41, Alt : 49.3300018311, Lat : 49.2838521, Lng : -123.1147182, Q1 : 0.943399429321, Q2 : 0.0480668731034, Q3 : -0.148819699883, Q4 : 0.292471915483}
2019-04-14 17:45:15.41: SIM {TimeUS : 64634969, Roll : 0.23, Pitch : -17.98, Yaw : 34.4, Alt : 49.3300018311, Lat : 49.2838555, Lng : -123.1147144, Q1 : 0.943430483341, Q2 : 0.0481348447502, Q3 : -0.14874817431, Q4 : 0.292397022247}
2019-04-14 17:45:15.51: SIM {TimeUS : 64734929, Roll : 0.23, Pitch : -17.98, Yaw : 34.39, Alt : 49.3300018311, Lat : 49.2838591, Lng : -123.1147106, Q1 : 0.943456530571, Q2 : 0.0481427013874, Q3 : -0.148726910353, Q4 : 0.292322486639}
2019-04-14 17:45:15.61: SIM {TimeUS : 64834889, Roll : 0.21, Pitch : -18.0, Yaw : 34.38, Alt : 49.3400001526, Lat : 49.2838627, Lng : -123.1147068, Q1 : 0.943462193012, Q2 : 0.048039149493, Q3 : -0.148917987943, Q4 : 0.292223900557}
2019-04-14 17:45:15.71: SIM {TimeUS : 64934849, Roll : 0.18, Pitch : -18.03, Yaw : 34.37, Alt : 49.3400001526, Lat : 49.2838662, Lng : -123.1147029, Q1 : 0.943447232246, Q2 : 0.0478798598051, Q3 : -0.149279043078, Q4 : 0.292113959789}
2019-04-14 17:45:15.81: SIM {TimeUS : 65035642, Roll : 0.17, Pitch : -18.04, Yaw : 34.37, Alt : 49.3400001526, Lat : 49.2838698, Lng : -123.1146991, Q1 : 0.943463027477, Q2 : 0.04773504287, Q3 : -0.149374678731, Q4 : 0.292037755251}
2019-04-14 17:45:15.91: SIM {TimeUS : 65135602, Roll : 0.17, Pitch : -18.01, Yaw : 34.36, Alt : 49.3400001526, Lat : 49.2838732, Lng : -123.1146953, Q1 : 0.943506658077, Q2 : 0.0477113090456, Q3 : -0.14916908741, Q4 : 0.292005777359}
2019-04-14 17:45:16.01: SIM {TimeUS : 65235562, Roll : 0.19, Pitch : -17.99, Yaw : 34.35, Alt : 49.3400001526, Lat : 49.2838768, Lng : -123.1146915, Q1 : 0.943542659283, Q2 : 0.0477755181491, Q3 : -0.148967385292, Q4 : 0.291981965303}
2019-04-14 17:45:16.11: SIM {TimeUS : 65335522, Roll : 0.2, Pitch : -18.0, Yaw : 34.35, Alt : 49.3400001526, Lat : 49.2838804, Lng : -123.1146876, Q1 : 0.943546116352, Q2 : 0.0478787869215, Q3 : -0.149014443159, Q4 : 0.29193007946}
2019-04-14 17:45:16.21: SIM {TimeUS : 65435482, Roll : 0.19, Pitch : -18.03, Yaw : 34.34, Alt : 49.3400001526, Lat : 49.283884, Lng : -123.1146838, Q1 : 0.943538367748, Q2 : 0.0478540882468, Q3 : -0.14925031364, Q4 : 0.291838407516}
2019-04-14 17:45:16.31: SIM {TimeUS : 65535442, Roll : 0.16, Pitch : -18.06, Yaw : 34.33, Alt : 49.3400001526, Lat : 49.2838875, Lng : -123.11468, Q1 : 0.943526923656, Q2 : 0.0477223359048, Q3 : -0.149589046836, Q4 : 0.291723579168}
2019-04-14 17:45:16.41: SIM {TimeUS : 65635402, Roll : 0.14, Pitch : -18.09, Yaw : 34.32, Alt : 49.3400001526, Lat : 49.2838911, Lng : -123.1146761, Q1 : 0.94352465868, Q2 : 0.0476239398122, Q3 : -0.149860009551, Q4 : 0.291607797146}
2019-04-14 17:45:16.51: SIM {TimeUS : 65735362, Roll : 0.14, Pitch : -18.11, Yaw : 34.31, Alt : 49.3400001526, Lat : 49.2838947, Lng : -123.1146723, Q1 : 0.943518638611, Q2 : 0.0476668849587, Q3 : -0.150083824992, Q4 : 0.291505247355}
2019-04-14 17:45:16.61: SIM {TimeUS : 65835322, Roll : 0.15, Pitch : -18.13, Yaw : 34.3, Alt : 49.3400001526, Lat : 49.2838981, Lng : -123.1146685, Q1 : 0.943518817425, Q2 : 0.0477582067251, Q3 : -0.150222316384, Q4 : 0.291418403387}
2019-04-14 17:45:16.71: SIM {TimeUS : 65935282, Roll : 0.17, Pitch : -18.14, Yaw : 34.29, Alt : 49.3400001526, Lat : 49.2839017, Lng : -123.1146646, Q1 : 0.943526923656, Q2 : 0.0479394383729, Q3 : -0.150244802237, Q4 : 0.291350752115}
