2019-04-14 17:19:35.80: SIM {TimeUS : 40816167, Roll : 0.0, Pitch : 0.0, Yaw : 0.0, Alt : 30.1000003815, Lat : 49.28357, Lng : -123.11502, Q1 : 1.0, Q2 : 0.0, Q3 : 0.0, Q4 : 0.0}
2019-04-14 17:19:35.91: SIM {TimeUS : 40935286, Roll : 0.0, Pitch : 0.0, Yaw : 0.0, Alt : 30.1000003815, Lat : 49.28357, Lng : -123.11502, Q1 : 1.0, Q2 : 0.0, Q3 : 0.0, Q4 : 0.0}
2019-04-14 17:19:36.01: SIM {TimeUS : 41035246, Roll : 0.0, Pitch : 0.0, Yaw : 0.0, Alt : 30.1000003815, Lat : 49.28357, Lng : -123.11502, Q1 : 1.0, Q2 : 0.0, Q3 : 0.0, Q4 : 0.0}
2019-04-14 17:19:36.11: SIM {TimeUS : 41135206, Roll : 0.0, Pitch : 0.0, Yaw : 0.0, Alt : 30.1000003815, Lat : 49.28357, Lng : -123.11502, Q1 : 1.0, Q2 : 0.0, Q3 : 0.0, Q4 : 0.0}
2019-04-14 17:19:36.21: SIM {TimeUS : 41235166, Roll : 0.0, Pitch : 0.0, Yaw : 0.0, Alt : 30.1000003815, Lat : 49.28357, Lng : -123.11502, Q1 : 1.0, Q2 : 0.0, Q3 : 0.0, Q4 : 0.0}
2019-04-14 17:19:36.31: SIM {TimeUS : 41335126, Roll : 0.0, Pitch : 0.0, Yaw : 0.0, Alt : 30.1000003815, Lat : 49.28357, Lng : -123.11502, Q1 : 1.0, Q2 : 0.0, Q3 : 0.0, Q4 : 0.0}
2019-04-14 17:19:36.41: SIM {TimeUS : 41435086, Roll : 0.0, Pitch : 0.0, Yaw : 0.0, Alt : 30.1000003815, Lat : 49.28357, Lng : -123.11502, Q1 : 1.0, Q2 : 0.0, Q3 : 0.0, Q4 : 0.0}
2019-04-14 17:19:36.51: SIM {TimeUS : 41535046, Roll : 0.0, Pitch : 0.0, Yaw : 0.0, Alt : 30.1000003815, Lat : 49.28357, Lng : -123.11502, Q1 : 1.0, Q2 : 0.0, Q3 : 0.0, Q4 : 0.0}
2019-04-14 17:19:36.61: SIM {TimeUS : 41635006, Roll : 0.0, Pitch : 0.0, Yaw : 0.0, Alt : 30.1000003815, Lat : 49.28357, Lng : -123.11502, Q1 : 1.0, Q2 : 0.0, Q3 : 0.0, Q4 : 0.0}
2019-04-14 17:19:36.71: SIM {TimeUS : 41734966, Roll : 0.0, Pitch : 0.0, Yaw : 0.0, Alt : 30.1000003815, Lat : 49.28357, Lng : -123.11502, Q1 : 1.0, Q2 : 0.0, Q3 : 0.0, Q4 : 0.0}
2019-04-14 17:19:36.81: SIM {TimeUS : 41834926, Roll : 0.0, Pitch : 0.0, Yaw : 0.0, Alt : 30.1000003815, Lat : 49.28357, Lng : -123.11502, Q1 : 1.0, Q2 : 0.0, Q3 : 0.0, Q4 : 0.0}
2019-04-14 17:19:36.91: SIM {TimeUS : 41934886, Roll : 0.0, Pitch : 0.0, Yaw : 0.0, Alt : 30.1000003815, Lat : 49.28357, Lng : -123.11502, Q1 : 1.0, Q2 : 0.0, Q3 : 0.0, Q4 : 0.0}
2019-04-14 17:19:37.01: SIM {TimeUS : 42034846, Roll : 0.0, Pitch : 0.0, Yaw : 0.0, Alt : 30.1000003815, Lat : 49.28357, Lng : -123.11502, Q1 : 1.0, Q2 : 0.0, Q3 : 0.0, Q4 : 0.0}
2019-04-14 17:19:37.11: SIM {TimeUS : 42134806, Roll : 0.0, Pitch : 0.0, Yaw : 0.0, Alt : 30.1000003815, Lat : 49.28357, Lng : -123.11502, Q1 : 1.0, Q2 : 0.0, Q3 : 0.0, Q4 : 0.0}
2019-04-14 17:19:37.21: SIM {TimeUS : 42234766, Roll : 0.0, Pitch : 0.0, Yaw : 0.0, Alt : 30.1000003815, Lat : 49.28357, Lng : -123.11502, Q1 : 1.0, Q2 : 0.0, Q3 : 0.0, Q4 : 0.0}
2019-04-14 17:19:37.31: SIM {TimeUS : 42334726, Roll : 0.0, Pitch : 0.0, Yaw : 0.0, Alt : 30.1000003815, Lat : 49.28357, Lng : -123.11502, Q1 : 1.0, Q2 : 0.0, Q3 : 0.0, Q4 : 0.0}
2019-04-14 17:19:37.41: SIM {TimeUS : 42434686, Roll : 0.0, Pitch : 0.0, Yaw : 0.0, Alt : 30.1000003815, Lat : 49.28357, Lng : -123.11502, Q1 : 1.0, Q2 : 0.0, Q3 : 0.0, Q4 : 0.0}
2019-04-14 17:19:37.51: SIM {TimeUS : 42534646, Roll : 0.0, Pitch : 0.0, Yaw : 0.0, Alt : 30.1000003815, Lat : 49.28357, Lng : -123.11502, Q1 : 1.0, Q2 : 0.0, Q3 : 0.0, Q4 : 0.0}
2019-04-14 17:19:37.61: SIM {TimeUS : 42634606, Roll : 0.0, Pitch : 0.0, Yaw : 0.0, Alt : 30.1000003815, Lat : 49.28357, Lng : -123.11502, Q1 : 1.0, Q2 : 0.0, Q3 : 0.0, Q4 : 0.0}
2019-04-14 17:19:37.71: SIM {TimeUS : 42734566, Roll : 0.0, Pitch : 0.0, Yaw : 0.0, Alt : 30.1000003815, Lat : 49.28357, Lng : -123.11502, Q1 : 1.0, Q2 : 0.0, Q3 : 0.0, Q4 : 0.0}
2019-04-14 17:19:37.81: SIM {TimeUS : 42834526, Roll : 0.0, Pitch : 0.0, Yaw : 0.0, Alt : 30.1000003815, Lat : 49.28357, Lng : -123.11502, Q1 : 1.0, Q2 : 0.0, Q3 : 0.0, Q4 : 0.0}
2019-04-14 17:19:37.91: SIM {TimeUS : 42935319, Roll : 0.0, Pitch : 0.0, Yaw : 0.0, Alt : 30.1000003815, Lat : 49.28357, Lng : -123.11502, Q1 : 1.0, Q2 : 0.0, Q3 : 0.0, Q4 : 0.0}
2019-04-14 17:19:38.01: SIM {TimeUS : 43035279, Roll : 0.0, Pitch : 0.0, Yaw : 0.0, Alt : 30.1000003815, Lat : 49.28357, Lng : -123.11502, Q1 : 1.0, Q2 : 0.0, Q3 : 0.0, Q4 : 0.0}
2019-04-14 17:19:38.11: SIM {TimeUS : 43135239, Roll : 0.0, Pitch : 0.0, Yaw : 360.0, Alt : 30.1000003815, Lat : 49.28357, Lng : -123.11502, Q1 : 1.0, Q2 : 0.0, Q3 : 0.0, Q4 : -1.30378364355e-11}
2019-04-14 17:19:38.21: SIM {TimeUS : 43235199, Roll : 0.0, Pitch : 0.0, Yaw : 360.0, Alt : 30.1000003815, Lat : 49.28357, Lng : -123.11502, Q1 : 1.0, Q2 : 0.0, Q3 : 0.0, Q4 : -1.61347042393e-08}
2019-04-14 17:19:38.31: SIM {TimeUS : 43335159, Roll : 0.0, Pitch : 0.0, Yaw : 359.99, Alt : 30.1000003815, Lat : 49.28357, Lng : -123.11502, Q1 : 1.0, Q2 : 0.0, Q3 : 0.0, Q4 : -2.09382506e-07}
2019-04-14 17:19:38.41: SIM {TimeUS : 43435119, Roll : 0.0, Pitch : 0.0, Yaw : 359.99, Alt : 30.1000003815, Lat : 49.28357, Lng : -123.11502, Q1 : 1.0, Q2 : 0.0, Q3 : 0.0, Q4 : -4.00170875992e-07}
2019-04-14 17:19:38.51: SIM {TimeUS : 43535079, Roll : 0.0, Pitch : 0.0, Yaw : 359.99, Alt : 30.1000003815, Lat : 49.28357, Lng : -123.11502, Q1 : 1.0, Q2 : 0.0, Q3 : 0.0, Q4 : -6.04654758263e-07}
2019-04-14 17:19:38.61: SIM {TimeUS : 43635039, Roll : 0.0, Pitch : 0.0, Yaw : 359.99, Alt : 30.1000003815, Lat : 49.28357, Lng : -123.11502, Q1 : 1.0, Q2 : 0.0, Q3 : 0.0, Q4 : -8.06728564839e-07}
2019-04-14 17:19:38.71: SIM {TimeUS : 43734999, Roll : 0.0, Pitch : 0.0, Yaw : 359.99, Alt : 30.1000003815, Lat : 49.28357, Lng : -123.11502, Q1 : 1.0, Q2 : 0.0, Q3 : 0.0, Q4 : -9.79351852948e-07}
2019-04-14 17:19:38.81: SIM {TimeUS : 43834959, Roll : 0.0, Pitch : 0.0, Yaw : 359.99, Alt : 30.1000003815, Lat : 49.28357, Lng : -123.11502, Q1 : 1.0, Q2 : 0.0, Q3 : 0.0, Q4 : -1.16358160085e-06}
2019-04-14 17:19:38.91: SIM {TimeUS : 43934919, Roll : 0.0, Pitch : 0.0, Yaw : 359.99, Alt : 30.1000003815, Lat : 49.28357, Lng : -123.11502, Q1 : 1.0, Q2 : 0.0, Q3 : 0.0, Q4 : -1.3643946204e-06}
2019-04-14 17:19:39.01: SIM {TimeUS : 44034879, Roll : 0.0, Pitch : 0.0, Yaw : 359.99, Alt : 30.1200008392, Lat : 49.28357, Lng : -123.11502, Q1 : 1.0, Q2 : 0.0, Q3 : 0.0, Q4 : -1.56417638664e-06}
2019-04-14 17:19:39.11: SIM {TimeUS : 44134839, Roll : 0.0, Pitch : 0.0, Yaw : 359.99, Alt : 30.1499996185, Lat : 49.28357, Lng : -123.11502, Q1 : 1.0, Q2 : 0.0, Q3 : 0.0, Q4 : -1.8268748363e-06}
2019-04-14 17:19:39.21: SIM {TimeUS : 44234799, Roll : 0.0, Pitch : 0.0, Yaw : 359.99, Alt : 30.1800003052, Lat : 49.28357, Lng : -123.11502, Q1 : 1.0, Q2 : 0.0, Q3 : 0.0, Q4 : -2.07798871088e-06}
2019-04-14 17:19:39.31: SIM {TimeUS : 44334759, Roll : 0.0, Pitch : 0.0, Yaw : 359.99, Alt : 30.2099990845, Lat : 49.28357, Lng : -123.11502, Q1 : 1.0, Q2 : -7.32536864234e-06, Q3 : -7.54408029024e-06, Q4 : -2.19450134864e-06}
2019-04-14 17:19:39.41: SIM {TimeUS : 44434719, Roll : -0.16, Pitch : -0.16, Yaw : 359.99, Alt : 30.2700004578, Lat : 49.28357, Lng : -123.11502, Q1 : 0.999998033047, Q2 : -0.00141816423275, Q3 : -0.00140721607022, Q4 : -1.70446801349e-05}
2019-04-14 17:19:39.51: SIM {TimeUS : 44534679, Roll : -0.47, Pitch : -0.41, Yaw : 359.99, Alt : 30.3899993896, Lat : 49.28357, Lng : -123.11502, Q1 : 0.999985039234, Q2 : -0.00414197286591, Q3 : -0.00357813131995, Q4 : -6.00887105975e-05}
2019-04-14 17:19:39.61: SIM {TimeUS : 44634639, Roll : -0.76, Pitch : -0.6, Yaw : 359.99, Alt : 30.5400009155, Lat : 49.28357, Lng : -123.11502, Q1 : 0.999964177608, Q2 : -0.00665154028684, Q3 : -0.00524007948115, Q4 : -0.00012201024947}
2019-04-14 17:19:39.71: SIM {TimeUS : 44734599, Roll : -0.88, Pitch : -0.68, Yaw : 359.98, Alt : 30.7000007629, Lat : 49.28357, Lng : -123.11502, Q1 : 0.999952077866, Q2 : -0.00775701925159, Q3 : -0.00597026897594, Q4 : -0.00019612867618}
2019-04-14 17:19:39.81: SIM {TimeUS : 44834559, Roll : -0.83, Pitch : -0.65, Yaw : 359.97, Alt : 30.8500003815, Lat : 49.28357, Lng : -123.11502, Q1 : 0.999957382679, Q2 : -0.00724811619148, Q3 : -0.00571205513552, Q4 : -0.000276602309896}
2019-04-14 17:19:39.91: SIM {TimeUS : 44934519, Roll : -0.64, Pitch : -0.53, Yaw : 359.96, Alt : 31.0100002289, Lat : 49.28357, Lng : -123.1150201, Q1 : 0.999973416328, Q2 : -0.00558897713199, Q3 : -0.00467302510515, Q4 : -0.000352211354766}
2019-04-14 17:19:40.01: SIM {TimeUS : 45035312, Roll : -0.38, Pitch : -0.36, Yaw : 359.95, Alt : 31.1599998474, Lat : 49.2835701, Lng : -123.1150202, Q1 : 0.999989151955, Q2 : -0.0033712501172, Q3 : -0.00319107086398, Q4 : -0.000416041788412}
2019-04-14 17:19:40.11: SIM {TimeUS : 45135272, Roll : -0.14, Pitch : -0.19, Yaw : 359.94, Alt : 31.3299999237, Lat : 49.2835701, Lng : -123.1150203, Q1 : 0.999997615814, Q2 : -0.00129855552223, Q3 : -0.00168697058689, Q4 : -0.000464972690679}
2019-04-14 17:19:40.21: SIM {TimeUS : 45235232, Roll : 0.01, Pitch : -0.04, Yaw : 359.94, Alt : 31.5, Lat : 49.2835702, Lng : -123.1150203, Q1 : 0.999999821186, Q2 : 0.000121689685329, Q3 : -0.000387287407648, Q4 : -0.000498711655382}
2019-04-14 17:19:40.31: SIM {TimeUS : 45335192, Roll : 0.08, Pitch : 0.06, Yaw : 359.94, Alt : 31.6700000763, Lat : 49.2835702, Lng : -123.1150204, Q1 : 0.999999463558, Q2 : 0.000756484630983, Q3 : 0.000527420314029, Q4 : -0.000520299712662}
2019-04-14 17:19:40.41: SIM {TimeUS : 45435152, Roll : 0.07, Pitch : 0.11, Yaw : 359.93, Alt : 31.8500003815, Lat : 49.2835703, Lng : -123.1150205, Q1 : 0.99999910593, Q2 : 0.000677271280438, Q3 : 0.0010106965201, Q4 : -0.000528091040906}
2019-04-14 17:19:40.51: SIM {TimeUS : 45535112, Roll : 0.05, Pitch : 0.13, Yaw : 359.93, Alt : 32.0400009155, Lat : 49.2835703, Lng : -123.1150205, Q1 : 0.999998986721, Q2 : 0.000481133494759, Q3 : 0.00121787551325, Q4 : -0.000540228793398}
2019-04-14 17:19:40.61: SIM {TimeUS : 45635072, Roll : 0.04, Pitch : 0.14, Yaw : 359.93, Alt : 32.2200012207, Lat : 49.2835703, Lng : -123.1150206, Q1 : 0.999998986721, Q2 : 0.000378824654035, Q3 : 0.00123173859902, Q4 : -0.000550613447558}
2019-04-14 17:19:40.71: SIM {TimeUS : 45735032, Roll : 0.03, Pitch : 0.14, Yaw : 359.93, Alt : 32.4199981689, Lat : 49.2835703, Lng : -123.1150206, Q1 : 0.999999046326, Q2 : 0.000328345893649, Q3 : 0.00122532458045, Q4 : -0.000558178348001}
2019-04-14 17:19:40.81: SIM {TimeUS : 45834992, Roll : 0.05, Pitch : 0.15, Yaw : 359.93, Alt : 32.6100006104, Lat : 49.2835703, Lng : -123.1150207, Q1 : 0.999998807907, Q2 : 0.000479994050693, Q3 : 0.00134368380532, Q4 : -0.000544843787793}
2019-04-14 17:19:40.91: SIM {TimeUS : 45934952, Roll : 0.08, Pitch : 0.14, Yaw : 359.93, Alt : 32.8100013733, Lat : 49.2835703, Lng : -123.1150207, Q1 : 0.999998748302, Q2 : 0.00076093361713, Q3 : 0.00126935984008, Q4 : -0.000526470073964}
2019-04-14 17:19:41.01: SIM {TimeUS : 46034912, Roll : 0.12, Pitch : 0.11, Yaw : 359.94, Alt : 33.0099983215, Lat : 49.2835704, Lng : -123.1150207, Q1 : 0.999998748302, Q2 : 0.00108774239197, Q3 : 0.00102590455208, Q4 : -0.000508329190779}
2019-04-14 17:19:41.11: SIM {TimeUS : 46134872, Roll : 0.15, Pitch : 0.09, Yaw : 359.94, Alt : 33.2099990845, Lat : 49.2835704, Lng : -123.1150208, Q1 : 0.999998569489, Q2 : 0.00139435182791, Q3 : 0.000855293183122, Q4 : -0.00049065798521}
2019-04-14 17:19:41.21: SIM {TimeUS : 46234832, Roll : 0.18, Pitch : 0.09, Yaw : 359.94, Alt : 33.4099998474, Lat : 49.2835704, Lng : -123.1150208, Q1 : 0.999998271465, Q2 : 0.00159796816297, Q3 : 0.000858445710037, Q4 : -0.000468521669973}
2019-04-14 17:19:41.31: SIM {TimeUS : 46334792, Roll : 0.19, Pitch : 0.11, Yaw : 359.94, Alt : 33.6199989319, Lat : 49.2835704, Lng : -123.1150208, Q1 : 0.999997973442, Q2 : 0.00171100138687, Q3 : 0.000992434797809, Q4 : -0.000447806087323}
2019-04-14 17:19:41.41: SIM {TimeUS : 46434752, Roll : 0.18, Pitch : 0.12, Yaw : 359.94, Alt : 33.8300018311, Lat : 49.2835704, Lng : -123.1150208, Q1 : 0.999997973442, Q2 : 0.00163256039377, Q3 : 0.00107175996527, Q4 : -0.000438848888734}
2019-04-14 17:19:41.51: SIM {TimeUS : 46534712, Roll : 0.15, Pitch : 0.12, Yaw : 359.95, Alt : 34.0400009155, Lat : 49.2835704, Lng : -123.1150208, Q1 : 0.99999833107, Q2 : 0.00136733578984, Q3 : 0.00113129639067, Q4 : -0.000430348678492}
2019-04-14 17:19:41.61: SIM {TimeUS : 46634672, Roll : 0.12, Pitch : 0.13, Yaw : 359.95, Alt : 34.25, Lat : 49.2835704, Lng : -123.1150208, Q1 : 0.999998629093, Q2 : 0.00108616461512, Q3 : 0.00117601361126, Q4 : -0.000429480540333}
2019-04-14 17:19:41.71: SIM {TimeUS : 46734632, Roll : 0.09, Pitch : 0.13, Yaw : 359.95, Alt : 34.4599990845, Lat : 49.2835704, Lng : -123.1150208, Q1 : 0.999998867512, Q2 : 0.000852892466355, Q3 : 0.00115116068628, Q4 : -0.000433346023783}
2019-04-14 17:19:41.81: SIM {TimeUS : 46834592, Roll : 0.08, Pitch : 0.09, Yaw : 359.94, Alt : 34.6699981689, Lat : 49.2835704, Lng : -123.1150208, Q1 : 0.99999922514, Q2 : 0.000780758913606, Q3 : 0.000825854658615, Q4 : -0.000459476723336}
2019-04-14 17:19:41.91: SIM {TimeUS : 46934552, Roll : 0.08, Pitch : 0.05, Yaw : 359.94, Alt : 34.8899993896, Lat : 49.2835704, Lng : -123.1150208, Q1 : 0.999999463558, Q2 : 0.00077364576282, Q3 : 0.00049871642841, Q4 : -0.000501137168612}
2019-04-14 17:19:42.01: SIM {TimeUS : 47034512, Roll : 0.07, Pitch : 0.03, Yaw : 359.93, Alt : 35.0999984741, Lat : 49.2835704, Lng : -123.1150207, Q1 : 0.999999582767, Q2 : 0.000656328455079, Q3 : 0.000324637745507, Q4 : -0.000545309856534}
2019-04-14 17:19:42.11: SIM {TimeUS : 47135305, Roll : 0.06, Pitch : 0.03, Yaw : 359.93, Alt : 35.3199996948, Lat : 49.2835704, Lng : -123.1150207, Q1 : 0.999999642372, Q2 : 0.000544404087123, Q3 : 0.000283340457827, Q4 : -0.000586774549447}
2019-04-14 17:19:42.21: SIM {TimeUS : 47235265, Roll : 0.05, Pitch : 0.02, Yaw : 359.92, Alt : 35.5400009155, Lat : 49.2835704, Lng : -123.1150207, Q1 : 0.999999642372, Q2 : 0.000503062910866, Q3 : 0.000253186590271, Q4 : -0.000622770981863}
2019-04-14 17:19:42.31: SIM {TimeUS : 47335225, Roll : 0.03, Pitch : 0.0, Yaw : 359.92, Alt : 35.7599983215, Lat : 49.2835704, Lng : -123.1150207, Q1 : 0.999999761581, Q2 : 0.000271879776847, Q3 : 2.86579306703e-05, Q4 : -0.000655570009258}
2019-04-14 17:19:42.41: SIM {TimeUS : 47435185, Roll : 0.0, Pitch : -0.03, Yaw : 359.92, Alt : 35.9799995422, Lat : 49.2835704, Lng : -123.1150207, Q1 : 0.999999761581, Q2 : -4.97644905408e-05, Q3 : -0.000319130980643, Q4 : -0.000684566213749}
2019-04-14 17:19:42.51: SIM {TimeUS : 47535145, Roll : -0.04, Pitch : -0.06, Yaw : 359.91, Alt : 36.2000007629, Lat : 49.2835704, Lng : -123.1150207, Q1 : 0.999999523163, Q2 : -0.000379253411666, Q3 : -0.000547012663446, Q4 : -0.00071714411024}
2019-04-14 17:19:42.61: SIM {TimeUS : 47635105, Roll : -0.07, Pitch : -0.07, Yaw : 359.91, Alt : 36.4199981689, Lat : 49.2835704, Lng : -123.1150207, Q1 : 0.999999284744, Q2 : -0.000647601322271, Q3 : -0.000670052017085, Q4 : -0.000746965350118}
2019-04-14 17:19:42.71: SIM {TimeUS : 47735065, Roll : -0.07, Pitch : -0.07, Yaw : 359.91, Alt : 36.6399993896, Lat : 49.2835704, Lng : -123.1150206, Q1 : 0.99999922514, Q2 : -0.000693179375958, Q3 : -0.000688376196194, Q4 : -0.000767492922023}
2019-04-14 17:19:42.81: SIM {TimeUS : 47835025, Roll : -0.08, Pitch : -0.07, Yaw : 359.91, Alt : 36.8699989319, Lat : 49.2835704, Lng : -123.1150206, Q1 : 0.99999922514, Q2 : -0.000702235498466, Q3 : -0.000646647938993, Q4 : -0.000784888572525}
2019-04-14 17:19:42.91: SIM {TimeUS : 47934985, Roll : -0.07, Pitch : -0.05, Yaw : 359.9, Alt : 37.0900001526, Lat : 49.2835704, Lng : -123.1150206, Q1 : 0.999999344349, Q2 : -0.00066121009877, Q3 : -0.000496479216963, Q4 : -0.000800024659839}
2019-04-14 17:19:43.01: SIM {TimeUS : 48034945, Roll : -0.06, Pitch : -0.04, Yaw : 359.9, Alt : 37.3199996948, Lat : 49.2835704, Lng : -123.1150206, Q1 : 0.999999403954, Q2 : -0.000589662231505, Q3 : -0.000400641554734, Q4 : -0.000808008422609}
2019-04-14 17:19:43.11: SIM {TimeUS : 48134905, Roll : -0.07, Pitch : -0.04, Yaw : 359.9, Alt : 37.5400009155, Lat : 49.2835704, Lng : -123.1150206, Q1 : 0.999999403954, Q2 : -0.000625458429568, Q3 : -0.000407263694797, Q4 : -0.000815547653474}
2019-04-14 17:19:43.21: SIM {TimeUS : 48234865, Roll : -0.07, Pitch : -0.03, Yaw : 359.9, Alt : 37.7700004578, Lat : 49.2835704, Lng : -123.1150206, Q1 : 0.999999403954, Q2 : -0.000689955020789, Q3 : -0.000280985987047, Q4 : -0.000831390090752}
2019-04-14 17:19:43.31: SIM {TimeUS : 48334825, Roll : -0.09, Pitch : -0.01, Yaw : 359.9, Alt : 37.9900016785, Lat : 49.2835704, Lng : -123.1150206, Q1 : 0.999999284744, Q2 : -0.00086290872423, Q3 : -0.000113981492177, Q4 : -0.000849584350362}
2019-04-14 17:19:43.41: SIM {TimeUS : 48434785, Roll : -0.1, Pitch : 0.0, Yaw : 359.9, Alt : 38.2200012207, Lat : 49.2835704, Lng : -123.1150206, Q1 : 0.999999284744, Q2 : -0.000873932323884, Q3 : 2.10160324059e-05, Q4 : -0.00086354376981}
2019-04-14 17:19:43.51: SIM {TimeUS : 48534745, Roll : -0.07, Pitch : 0.03, Yaw : 359.89, Alt : 38.4500007629, Lat : 49.2835704, Lng : -123.1150206, Q1 : 0.999999344349, Q2 : -0.000679176417179, Q3 : 0.000298537110211, Q4 : -0.000875982746948}
2019-04-14 17:19:43.61: SIM {TimeUS : 48634705, Roll : -0.05, Pitch : 0.03, Yaw : 359.89, Alt : 38.6800003052, Lat : 49.2835704, Lng : -123.1150206, Q1 : 0.999999463558, Q2 : -0.000465273478767, Q3 : 0.000287738192128, Q4 : -0.000894257100299}
2019-04-14 17:19:43.71: SIM {TimeUS : 48734665, Roll : -0.02, Pitch : 0.02, Yaw : 359.89, Alt : 38.9099998474, Lat : 49.2835704, Lng : -123.1150206, Q1 : 0.999999582767, Q2 : -0.000201666174689, Q3 : 0.000183301934157, Q4 : -0.000911246228497}
2019-04-14 17:19:43.81: SIM {TimeUS : 48834625, Roll : 0.01, Pitch : 0.03, Yaw : 359.89, Alt : 39.1399993896, Lat : 49.2835704, Lng : -123.1150206, Q1 : 0.999999523163, Q2 : 0.000124788464746, Q3 : 0.000276083213976, Q4 : -0.000926808803342}
2019-04-14 17:19:43.91: SIM {TimeUS : 48934585, Roll : 0.05, Pitch : 0.05, Yaw : 359.89, Alt : 39.3600006104, Lat : 49.2835704, Lng : -123.1150206, Q1 : 0.999999284744, Q2 : 0.000450153340353, Q3 : 0.000480558781419, Q4 : -0.00094823143445}
2019-04-14 17:19:44.01: SIM {TimeUS : 49034545, Roll : 0.07, Pitch : 0.08, Yaw : 359.88, Alt : 39.5999984741, Lat : 49.2835704, Lng : -123.1150206, Q1 : 0.999999046326, Q2 : 0.000697811075952, Q3 : 0.000711691332981, Q4 : -0.000974035589024}
2019-04-14 17:19:44.11: SIM {TimeUS : 49134505, Roll : 0.07, Pitch : 0.1, Yaw : 359.88, Alt : 39.8300018311, Lat : 49.2835706, Lng : -123.1150206, Q1 : 0.999998867512, Q2 : 0.000627080095001, Q3 : 0.000940673984587, Q4 : -0.000995765440166}
2019-04-14 17:19:44.21: SIM {TimeUS : 49235298, Roll : 0.02, Pitch : 0.13, Yaw : 359.88, Alt : 40.0600013733, Lat : 49.2835706, Lng : -123.1150206, Q1 : 0.999998807907, Q2 : 0.00021185958758, Q3 : 0.00114559661597, Q4 : -0.00103368738201}
2019-04-14 17:19:44.31: SIM {TimeUS : 49335258, Roll : -0.01, Pitch : 0.12, Yaw : 359.87, Alt : 40.2900009155, Lat : 49.2835706, Lng : -123.1150206, Q1 : 0.999998867512, Q2 : -0.000117115268949, Q3 : 0.00106184498873, Q4 : -0.00105928326957}
2019-04-14 17:19:44.41: SIM {TimeUS : 49435218, Roll : -0.03, Pitch : 0.08, Yaw : 359.87, Alt : 40.5200004578, Lat : 49.2835706, Lng : -123.1150206, Q1 : 0.999999046326, Q2 : -0.000326966779539, Q3 : 0.000767376855947, Q4 : -0.001090034144}
2019-04-14 17:19:44.51: SIM {TimeUS : 49535178, Roll : -0.04, Pitch : 0.06, Yaw : 359.87, Alt : 40.75, Lat : 49.2835706, Lng : -123.1150206, Q1 : 0.99999910593, Q2 : -0.000432963337516, Q3 : 0.000568849791307, Q4 : -0.00112066103611}
2019-04-14 17:19:44.61: SIM {TimeUS : 49635138, Roll : -0.03, Pitch : 0.07, Yaw : 359.86, Alt : 40.9900016785, Lat : 49.2835706, Lng : -123.1150206, Q1 : 0.99999910593, Q2 : -0.000343545310898, Q3 : 0.000667148677167, Q4 : -0.0011495599756}
2019-04-14 17:19:44.71: SIM {TimeUS : 49735098, Roll : 0.0, Pitch : 0.11, Yaw : 359.86, Alt : 41.2200012207, Lat : 49.2835706, Lng : -123.1150206, Q1 : 0.999998807907, Q2 : 4.26944825449e-06, Q3 : 0.000988834304735, Q4 : -0.00117255118676}
2019-04-14 17:19:44.81: SIM {TimeUS : 49835058, Roll : 0.05, Pitch : 0.13, Yaw : 359.86, Alt : 41.4500007629, Lat : 49.2835706, Lng : -123.1150206, Q1 : 0.999998450279, Q2 : 0.00045294984011, Q3 : 0.00119724264368, Q4 : -0.00119893928058}
2019-04-14 17:19:44.91: SIM {TimeUS : 49935018, Roll : 0.08, Pitch : 0.11, Yaw : 359.85, Alt : 41.6899986267, Lat : 49.2835706, Lng : -123.1150207, Q1 : 0.999998450279, Q2 : 0.000745968776755, Q3 : 0.00100646249484, Q4 : -0.00122918828856}
2019-04-14 17:19:45.01: SIM {TimeUS : 50034978, Roll : 0.08, Pitch : 0.07, Yaw : 359.85, Alt : 41.9199981689, Lat : 49.2835706, Lng : -123.1150207, Q1 : 0.999998748302, Q2 : 0.000737944501452, Q3 : 0.000612140807789, Q4 : -0.00125875859521}
2019-04-14 17:19:45.11: SIM {TimeUS : 50134938, Roll : 0.04, Pitch : 0.03, Yaw : 359.85, Alt : 42.1500015259, Lat : 49.2835706, Lng : -123.1150207, Q1 : 0.999999046326, Q2 : 0.000389002991142, Q3 : 0.000329730071826, Q4 : -0.00128355028573}
2019-04-14 17:19:45.21: SIM {TimeUS : 50234898, Roll : -0.01, Pitch : 0.03, Yaw : 359.85, Alt : 42.3899993896, Lat : 49.2835706, Lng : -123.1150206, Q1 : 0.99999910593, Q2 : -9.31792965275e-05, Q3 : 0.000294294237392, Q4 : -0.00129972817376}
2019-04-14 17:19:45.31: SIM {TimeUS : 50334858, Roll : -0.04, Pitch : 0.06, Yaw : 359.84, Alt : 42.6199989319, Lat : 49.2835706, Lng : -123.1150206, Q1 : 0.999998927116, Q2 : -0.000392689777073, Q3 : 0.000538578198757, Q4 : -0.00130999437533}
2019-04-14 17:19:45.41: SIM {TimeUS : 50434818, Roll : -0.05, Pitch : 0.08, Yaw : 359.84, Alt : 42.8600006104, Lat : 49.2835704, Lng : -123.1150206, Q1 : 0.999998688698, Q2 : -0.000509849342052, Q3 : 0.000748418329749, Q4 : -0.0013206055155}
2019-04-14 17:19:45.51: SIM {TimeUS : 50534778, Roll : -0.05, Pitch : 0.08, Yaw : 359.84, Alt : 43.0900001526, Lat : 49.2835704, Lng : -123.1150206, Q1 : 0.999998748302, Q2 : -0.000457737594843, Q3 : 0.000725751218852, Q4 : -0.00133348326199}
2019-04-14 17:19:45.61: SIM {TimeUS : 50634738, Roll : -0.04, Pitch : 0.06, Yaw : 359.84, Alt : 43.3300018311, Lat : 49.2835704, Lng : -123.1150206, Q1 : 0.999998807907, Q2 : -0.000431948341429, Q3 : 0.000581667700317, Q4 : -0.00134822446853}
2019-04-14 17:19:45.71: SIM {TimeUS : 50734698, Roll : -0.04, Pitch : 0.05, Yaw : 359.84, Alt : 43.5600013733, Lat : 49.2835704, Lng : -123.1150206, Q1 : 0.999998867512, Q2 : -0.000362942693755, Q3 : 0.000449779705377, Q4 : -0.00136771250982}
2019-04-14 17:19:45.81: SIM {TimeUS : 50834658, Roll : -0.02, Pitch : 0.04, Yaw : 359.84, Alt : 43.7999992371, Lat : 49.2835704, Lng : -123.1150206, Q1 : 0.999998927116, Q2 : -0.000249438628089, Q3 : 0.000394820148358, Q4 : -0.00139107205905}
2019-04-14 17:19:45.91: SIM {TimeUS : 50934618, Roll : -0.01, Pitch : 0.04, Yaw : 359.83, Alt : 44.0299987793, Lat : 49.2835704, Lng : -123.1150206, Q1 : 0.999998927116, Q2 : -0.000168644124642, Q3 : 0.000403281155741, Q4 : -0.00141614896711}
2019-04-14 17:19:46.01: SIM {TimeUS : 51034578, Roll : -0.02, Pitch : 0.02, Yaw : 359.83, Alt : 44.2700004578, Lat : 49.2835704, Lng : -123.1150206, Q1 : 0.999998927116, Q2 : -0.000183201103937, Q3 : 0.00025190867018, Q4 : -0.00144154287409}
2019-04-14 17:19:46.11: SIM {TimeUS : 51134538, Roll : -0.02, Pitch : 0.0, Yaw : 359.83, Alt : 44.5, Lat : 49.2835704, Lng : -123.1150206, Q1 : 0.999998927116, Q2 : -0.000258726475295, Q3 : -7.6232397987e-05, Q4 : -0.00146833877079}
2019-04-14 17:19:46.21: SIM {TimeUS : 51234498, Roll : -0.03, Pitch : -0.03, Yaw : 359.82, Alt : 44.7400016785, Lat : 49.2835704, Lng : -123.1150206, Q1 : 0.999998807907, Q2 : -0.000270102376817, Q3 : -0.000271037948551, Q4 : -0.00149938755203}
2019-04-14 17:19:46.31: SIM {TimeUS : 51335291, Roll : -0.01, Pitch : -0.03, Yaw : 359.82, Alt : 44.9799995422, Lat : 49.2835704, Lng : -123.1150206, Q1 : 0.999998748302, Q2 : -0.000168992963154, Q3 : -0.000331623654347, Q4 : -0.0015318300575}
2019-04-14 17:19:46.41: SIM {TimeUS : 51435251, Roll : -0.02, Pitch : -0.04, Yaw : 359.82, Alt : 45.2099990845, Lat : 49.2835704, Lng : -123.1150206, Q1 : 0.999998688698, Q2 : -0.000181746829185, Q3 : -0.000353633629857, Q4 : -0.00156339909881}
2019-04-14 17:19:46.51: SIM {TimeUS : 51535211, Roll : -0.04, Pitch : -0.04, Yaw : 359.81, Alt : 45.4500007629, Lat : 49.2835704, Lng : -123.1150206, Q1 : 0.999998569489, Q2 : -0.000381813530112, Q3 : -0.000350806076312, Q4 : -0.0016008943785}
2019-04-14 17:19:46.61: SIM {TimeUS : 51635171, Roll : -0.08, Pitch : -0.03, Yaw : 359.81, Alt : 45.6800003052, Lat : 49.2835704, Lng : -123.1150206, Q1 : 0.99999833107, Q2 : -0.000702651275788, Q3 : -0.000330197479343, Q4 : -0.00164014147595}
2019-04-14 17:19:46.71: SIM {TimeUS : 51735131, Roll : -0.1, Pitch : -0.03, Yaw : 359.8, Alt : 45.9199981689, Lat : 49.2835703, Lng : -123.1150206, Q1 : 0.999998092651, Q2 : -0.000935724761803, Q3 : -0.000311429495923, Q4 : -0.00167654070538}
2019-04-14 17:19:46.81: SIM {TimeUS : 51835091, Roll : -0.11, Pitch : -0.01, Yaw : 359.8, Alt : 46.1500015259, Lat : 49.2835703, Lng : -123.1150206, Q1 : 0.999998033047, Q2 : -0.000979670090601, Q3 : -0.000149942788994, Q4 : -0.00171273259912}
2019-04-14 17:19:46.91: SIM {TimeUS : 51935051, Roll : -0.09, Pitch : 0.01, Yaw : 359.79, Alt : 46.3699989319, Lat : 49.2835704, Lng : -123.1150206, Q1 : 0.999998092651, Q2 : -0.000839251209982, Q3 : 0.000145780315506, Q4 : -0.0017498821253}
2019-04-14 17:19:47.01: SIM {TimeUS : 52035011, Roll : -0.06, Pitch : 0.03, Yaw : 359.79, Alt : 46.5900001526, Lat : 49.2835704, Lng : -123.1150206, Q1 : 0.999998211861, Q2 : -0.000586628622841, Q3 : 0.000331988092512, Q4 : -0.00178096990567}
2019-04-14 17:19:47.11: SIM {TimeUS : 52134971, Roll : -0.04, Pitch : 0.03, Yaw : 359.79, Alt : 46.8100013733, Lat : 49.2835704, Lng : -123.1150206, Q1 : 0.999998271465, Q2 : -0.000384103012038, Q3 : 0.000342939747497, Q4 : -0.00180598557927}
2019-04-14 17:19:47.21: SIM {TimeUS : 52234931, Roll : -0.03, Pitch : 0.02, Yaw : 359.79, Alt : 47.0200004578, Lat : 49.2835704, Lng : -123.1150206, Q1 : 0.999998271465, Q2 : -0.000265626702458, Q3 : 0.000193409345229, Q4 : -0.00182613520883}
2019-04-14 17:19:47.31: SIM {TimeUS : 52334891, Roll : -0.01, Pitch : -0.01, Yaw : 359.78, Alt : 47.2200012207, Lat : 49.2835704, Lng : -123.1150206, Q1 : 0.99999833107, Q2 : -0.000122119585285, Q3 : -9.80078912107e-05, Q4 : -0.0018382051494}
2019-04-14 17:19:47.41: SIM {TimeUS : 52434851, Roll : 0.0, Pitch : -0.04, Yaw : 359.78, Alt : 47.4199981689, Lat : 49.2835703, Lng : -123.1150206, Q1 : 0.999998211861, Q2 : 7.01224707882e-05, Q3 : -0.00039866406587, Q4 : -0.00184468179941}
2019-04-14 17:19:47.51: SIM {TimeUS : 52534811, Roll : 0.01, Pitch : -0.07, Yaw : 359.78, Alt : 47.5999984741, Lat : 49.2835703, Lng : -123.1150206, Q1 : 0.999998092651, Q2 : 0.000150793726789, Q3 : -0.000640788697638, Q4 : -0.00184875039849}
2019-04-14 17:19:47.61: SIM {TimeUS : 52634771, Roll : 0.02, Pitch : -0.11, Yaw : 359.78, Alt : 47.7799987793, Lat : 49.2835703, Lng : -123.1150206, Q1 : 0.999997794628, Q2 : 0.000205206277315, Q3 : -0.000971739005763, Q4 : -0.00185713428073}
2019-04-14 17:19:47.71: SIM {TimeUS : 52734731, Roll : 0.05, Pitch : -0.12, Yaw : 359.78, Alt : 47.9399986267, Lat : 49.2835703, Lng : -123.1150206, Q1 : 0.99999755621, Q2 : 0.00044438560144, Q3 : -0.00110994454008, Q4 : -0.00187195290346}
2019-04-14 17:19:47.81: SIM {TimeUS : 52834691, Roll : 0.07, Pitch : -0.11, Yaw : 359.78, Alt : 48.0999984741, Lat : 49.2835703, Lng : -123.1150206, Q1 : 0.999997437, Q2 : 0.00068796868436, Q3 : -0.00103740359191, Q4 : -0.00188968796283}
2019-04-14 17:19:47.91: SIM {TimeUS : 52934651, Roll : 0.09, Pitch : -0.09, Yaw : 359.78, Alt : 48.2400016785, Lat : 49.2835704, Lng : -123.1150206, Q1 : 0.999997437, Q2 : 0.000840689695906, Q3 : -0.000837812200189, Q4 : -0.00191280478612}
2019-04-14 17:19:48.01: SIM {TimeUS : 53034611, Roll : 0.09, Pitch : -0.06, Yaw : 359.77, Alt : 48.3600006104, Lat : 49.2835704, Lng : -123.1150206, Q1 : 0.999997615814, Q2 : 0.000820085930172, Q3 : -0.000588086200878, Q4 : -0.0019393847324}
2019-04-14 17:19:48.11: SIM {TimeUS : 53134571, Roll : 0.08, Pitch : -0.04, Yaw : 359.77, Alt : 48.4799995422, Lat : 49.2835704, Lng : -123.1150206, Q1 : 0.999997675419, Q2 : 0.000749044469558, Q3 : -0.000423669174779, Q4 : -0.00197027157992}
2019-04-14 17:19:48.21: SIM {TimeUS : 53234531, Roll : 0.06, Pitch : -0.04, Yaw : 359.77, Alt : 48.5900001526, Lat : 49.2835704, Lng : -123.1150206, Q1 : 0.999997735023, Q2 : 0.000605548149906, Q3 : -0.000433749926742, Q4 : -0.00200296170078}
2019-04-14 17:19:48.31: SIM {TimeUS : 53335324, Roll : 0.04, Pitch : -0.04, Yaw : 359.76, Alt : 48.6800003052, Lat : 49.2835704, Lng : -123.1150206, Q1 : 0.999997735023, Q2 : 0.000371494010324, Q3 : -0.000434416608186, Q4 : -0.00204130471684}
2019-04-14 17:19:48.41: SIM {TimeUS : 53435284, Roll : 0.02, Pitch : -0.04, Yaw : 359.76, Alt : 48.7599983215, Lat : 49.2835704, Lng : -123.1150206, Q1 : 0.999997735023, Q2 : 0.00017906667199, Q3 : -0.000361423561117, Q4 : -0.00208003842272}
2019-04-14 17:19:48.51: SIM {TimeUS : 53535244, Roll : 0.0, Pitch : -0.02, Yaw : 359.75, Alt : 48.8300018311, Lat : 49.2835704, Lng : -123.1150206, Q1 : 0.999997735023, Q2 : 1.89688980754e-05, Q3 : -0.000251138175372, Q4 : -0.00211520004086}
2019-04-14 17:19:48.61: SIM {TimeUS : 53635204, Roll : 0.0, Pitch : 0.0, Yaw : 359.75, Alt : 48.8899993896, Lat : 49.2835704, Lng : -123.1150206, Q1 : 0.999997675419, Q2 : -2.89840445475e-05, Q3 : -8.18213084131e-06, Q4 : -0.0021506648045}
2019-04-14 17:19:48.71: SIM {TimeUS : 53735164, Roll : 0.01, Pitch : 0.03, Yaw : 359.74, Alt : 48.9399986267, Lat : 49.2835704, Lng : -123.1150206, Q1 : 0.99999755621, Q2 : 9.36856376939e-05, Q3 : 0.000293851888273, Q4 : -0.00218401756138}
2019-04-14 17:19:48.81: SIM {TimeUS : 53835124, Roll : 0.05, Pitch : 0.02, Yaw : 359.74, Alt : 48.9799995422, Lat : 49.2835704, Lng : -123.1150206, Q1 : 0.999997437, Q2 : 0.000451950792922, Q3 : 0.000237365151406, Q4 : -0.0022063604556}
2019-04-14 17:19:48.91: SIM {TimeUS : 53935084, Roll : 0.17, Pitch : -0.14, Yaw : 359.74, Alt : 49.0200004578, Lat : 49.2835704, Lng : -123.1150206, Q1 : 0.999995589256, Q2 : 0.00154340476729, Q3 : -0.00123141030781, Q4 : -0.00221876846626}
2019-04-14 17:19:49.01: SIM {TimeUS : 54035044, Roll : 0.42, Pitch : -0.53, Yaw : 359.74, Alt : 49.0499992371, Lat : 49.2835704, Lng : -123.1150206, Q1 : 0.999979972839, Q2 : 0.00369456829503, Q3 : -0.00463672773913, Q4 : -0.00222872151062}
2019-04-14 17:19:49.11: SIM {TimeUS : 54135004, Roll : 0.8, Pitch : -1.15, Yaw : 359.73, Alt : 49.0800018311, Lat : 49.2835704, Lng : -123.1150206, Q1 : 0.999922037125, Q2 : 0.00702987890691, Q3 : -0.0100771803409, Q4 : -0.00222949311137}
2019-04-14 17:19:49.21: SIM {TimeUS : 54234964, Roll : 1.31, Pitch : -1.95, Yaw : 359.72, Alt : 49.1100006104, Lat : 49.2835706, Lng : -123.1150206, Q1 : 0.999786496162, Q2 : 0.0114703122526, Q3 : -0.0170466378331, Q4 : -0.00221016048454}
2019-04-14 17:19:49.31: SIM {TimeUS : 54334924, Roll : 1.9, Pitch : -2.81, Yaw : 359.7, Alt : 49.1300010681, Lat : 49.2835706, Lng : -123.1150205, Q1 : 0.999557435513, Q2 : 0.0165397003293, Q3 : -0.0246316976845, Q4 : -0.00216031586751}
2019-04-14 17:19:49.41: SIM {TimeUS : 54434884, Roll : 2.46, Pitch : -3.63, Yaw : 359.68, Alt : 49.1399993896, Lat : 49.2835707, Lng : -123.1150204, Q1 : 0.999263823032, Q2 : 0.0213843621314, Q3 : -0.0317840985954, Q4 : -0.00205758819357}
2019-04-14 17:19:49.51: SIM {TimeUS : 54534844, Roll : 2.92, Pitch : -4.29, Yaw : 359.67, Alt : 49.1599998474, Lat : 49.2835709, Lng : -123.1150203, Q1 : 0.998972117901, Q2 : 0.0253668166697, Q3 : -0.0375192165375, Q4 : -0.00189855822828}
2019-04-14 17:19:49.61: SIM {TimeUS : 54634804, Roll : 3.25, Pitch : -4.76, Yaw : 359.67, Alt : 49.1699981689, Lat : 49.283571, Lng : -123.11502, Q1 : 0.998731553555, Q2 : 0.0282627213746, Q3 : -0.0416374988854, Q4 : -0.00169042032212}
2019-04-14 17:19:49.71: SIM {TimeUS : 54734764, Roll : 3.49, Pitch : -5.11, Yaw : 359.67, Alt : 49.1899986267, Lat : 49.2835713, Lng : -123.1150199, Q1 : 0.998540401459, Q2 : 0.030313115567, Q3 : -0.0446776822209, Q4 : -0.00144911615644}
2019-04-14 17:19:49.81: SIM {TimeUS : 54834724, Roll : 3.69, Pitch : -5.4, Yaw : 359.68, Alt : 49.2000007629, Lat : 49.2835715, Lng : -123.1150196, Q1 : 0.998367786407, Q2 : 0.0321076959372, Q3 : -0.0472181737423, Q4 : -0.0011816668557}
2019-04-14 17:19:49.91: SIM {TimeUS : 54934684, Roll : 3.9, Pitch : -5.68, Yaw : 359.7, Alt : 49.2000007629, Lat : 49.283572, Lng : -123.1150192, Q1 : 0.998188138008, Q2 : 0.0339196994901, Q3 : -0.049689296633, Q4 : -0.000907192996237}
2019-04-14 17:19:50.01: SIM {TimeUS : 55034644, Roll : 4.11, Pitch : -5.98, Yaw : 359.71, Alt : 49.2099990845, Lat : 49.2835724, Lng : -123.1150187, Q1 : 0.997993171215, Q2 : 0.0357359088957, Q3 : -0.052270591259, Q4 : -0.000638362020254}
2019-04-14 17:19:50.11: SIM {TimeUS : 55134604, Roll : 4.31, Pitch : -6.3, Yaw : 359.71, Alt : 49.2200012207, Lat : 49.2835728, Lng : -123.1150182, Q1 : 0.997782886028, Q2 : 0.0374281220138, Q3 : -0.055029887706, Q4 : -0.000396102346713}
2019-04-14 17:19:50.21: SIM {TimeUS : 55234564, Roll : 4.47, Pitch : -6.58, Yaw : 359.72, Alt : 49.2299995422, Lat : 49.2835734, Lng : -123.1150175, Q1 : 0.997591078281, Q2 : 0.0388058200479, Q3 : -0.0574985481799, Q4 : -0.000187276193174}
2019-04-14 17:19:50.31: SIM {TimeUS : 55334524, Roll : 4.59, Pitch : -6.78, Yaw : 359.72, Alt : 49.2299995422, Lat : 49.283574, Lng : -123.1150169, Q1 : 0.997447371483, Q2 : 0.0398711934686, Q3 : -0.0592369362712, Q4 : 1.64495645549e-06}
2019-04-14 17:19:50.41: SIM {TimeUS : 55435317, Roll : 4.68, Pitch : -6.91, Yaw : 359.73, Alt : 49.2400016785, Lat : 49.2835747, Lng : -123.1150162, Q1 : 0.997345268726, Q2 : 0.0406916923821, Q3 : -0.0603873543441, Q4 : 0.000162907759659}
2019-04-14 17:19:50.51: SIM {TimeUS : 55535277, Roll : 4.75, Pitch : -7.01, Yaw : 359.73, Alt : 49.2400016785, Lat : 49.2835755, Lng : -123.1150154, Q1 : 0.99726754427, Q2 : 0.0413026511669, Q3 : -0.0612495467067, Q4 : 0.000269739801297}
2019-04-14 17:19:50.61: SIM {TimeUS : 55635237, Roll : 4.83, Pitch : -7.11, Yaw : 359.73, Alt : 49.25, Lat : 49.2835763, Lng : -123.1150146, Q1 : 0.997189164162, Q2 : 0.0419841371477, Q3 : -0.0620565526187, Q4 : 0.000344330765074}
2019-04-14 17:19:50.71: SIM {TimeUS : 55735197, Roll : 5.02, Pitch : -7.21, Yaw : 359.75, Alt : 49.25, Lat : 49.2835771, Lng : -123.1150137, Q1 : 0.997062206268, Q2 : 0.043654076755, Q3 : -0.0629362016916, Q4 : 0.000617324316408}
2019-04-14 17:19:50.81: SIM {TimeUS : 55835157, Roll : 5.48, Pitch : -7.25, Yaw : 0.08, Alt : 49.2599983215, Lat : 49.2835781, Lng : -123.1150127, Q1 : 0.996853590012, Q2 : 0.0477872081101, Q3 : -0.063130363822, Q4 : 0.00372708821669}
2019-04-14 17:19:50.91: SIM {TimeUS : 55935117, Roll : 6.14, Pitch : -7.28, Yaw : 1.37, Alt : 49.2599983215, Lat : 49.2835791, Lng : -123.1150117, Q1 : 0.996435284615, Q2 : 0.0542146526277, Q3 : -0.0627884343266, Q4 : 0.0153325209394}
2019-04-14 17:19:51.01: SIM {TimeUS : 56035077, Roll : 6.66, Pitch : -7.54, Yaw : 4.17, Alt : 49.2599983215, Lat : 49.28358, Lng : -123.1150106, Q1 : 0.995346784592, Q2 : 0.0603234618902, Q3 : -0.0635308772326, Q4 : 0.0401213057339}
2019-04-14 17:19:51.11: SIM {TimeUS : 56135037, Roll : 6.73, Pitch : -8.17, Yaw : 8.57, Alt : 49.2599983215, Lat : 49.2835811, Lng : -123.1150094, Q1 : 0.992636144161, Q2 : 0.0637394860387, Q3 : -0.0665369778872, Q4 : 0.07863625139}
2019-04-14 17:19:51.21: SIM {TimeUS : 56234997, Roll : 6.15, Pitch : -9.11, Yaw : 14.4, Alt : 49.2599983215, Lat : 49.2835822, Lng : -123.1150081, Q1 : 0.98701363802, Q2 : 0.0630571395159, Q3 : -0.0720221027732, Q4 : 0.128998756409}
2019-04-14 17:19:51.31: SIM {TimeUS : 56334957, Roll : 4.63, Pitch : -10.22, Yaw : 21.26, Alt : 49.2599983215, Lat : 49.2835834, Lng : -123.1150067, Q1 : 0.977444887161, Q2 : 0.0560156740248, Q3 : -0.0801131874323, Q4 : 0.187204897404}
2019-04-14 17:19:51.41: SIM {TimeUS : 56434917, Roll : 2.16, Pitch : -11.24, Yaw : 28.46, Alt : 49.2700004578, Lat : 49.2835844, Lng : -123.1150052, Q1 : 0.96401655674, Q2 : 0.0423279963434, Q3 : -0.0903459191322, Q4 : 0.24641032517}
2019-04-14 17:19:51.51: SIM {TimeUS : 56534877, Roll : -0.77, Pitch : -11.96, Yaw : 35.18, Alt : 49.2700004578, Lat : 49.2835858, Lng : -123.1150036, Q1 : 0.9482178092, Q2 : 0.0251303631812, Q3 : -0.101386137307, Q4 : 0.299953937531}
2019-04-14 17:19:51.61: SIM {TimeUS : 56634837, Roll : -3.52, Pitch : -12.32, Yaw : 40.75, Alt : 49.2700004578, Lat : 49.2835871, Lng : -123.115002, Q1 : 0.932718515396, Q2 : 0.0086980490014, Q3 : -0.111273437738, Q4 : 0.34289753437}
2019-04-14 17:19:51.71: SIM {TimeUS : 56734797, Roll : -5.54, Pitch : -12.45, Yaw : 44.68, Alt : 49.2700004578, Lat : 49.2835885, Lng : -123.1150003, Q1 : 0.920375287533, Q2 : -0.00329428678378, Q3 : -0.118486322463, Q4 : 0.372638434172}
2019-04-14 17:19:51.81: SIM {TimeUS : 56834757, Roll : -6.59, Pitch : -12.51, Yaw : 46.87, Alt : 49.2700004578, Lat : 49.2835899, Lng : -123.1149987, Q1 : 0.913004994392, Q2 : -0.00913801975548, Q3 : -0.122574403882, Q4 : 0.388990908861}
2019-04-14 17:19:51.91: SIM {TimeUS : 56934717, Roll : -6.7, Pitch : -12.63, Yaw : 47.46, Alt : 49.2700004578, Lat : 49.2835916, Lng : -123.114997, Q1 : 0.910890460014, Q2 : -0.00895844120532, Q3 : -0.12395850569, Q4 : 0.393487781286}
2019-04-14 17:19:52.01: SIM {TimeUS : 57034677, Roll : -6.05, Pitch : -12.91, Yaw : 46.76, Alt : 49.2700004578, Lat : 49.2835933, Lng : -123.1149954, Q1 : 0.913148164749, Q2 : -0.00359223317355, Q3 : -0.123906336725, Q4 : 0.388323009014}
2019-04-14 17:19:52.11: SIM {TimeUS : 57134637, Roll : -4.88, Pitch : -13.38, Yaw : 45.07, Alt : 49.2700004578, Lat : 49.2835951, Lng : -123.1149937, Q1 : 0.918398678303, Q2 : 0.00556573551148, Q3 : -0.123751856387, Q4 : 0.37576380372}
2019-04-14 17:19:52.21: SIM {TimeUS : 57234597, Roll : -3.41, Pitch : -13.97, Yaw : 42.72, Alt : 49.2700004578, Lat : 49.283597, Lng : -123.114992, Q1 : 0.925278425217, Q2 : 0.0167572144419, Q3 : -0.12403973937, Q4 : 0.358040809631}
2019-04-14 17:19:52.31: SIM {TimeUS : 57334557, Roll : -1.83, Pitch : -14.57, Yaw : 40.01, Alt : 49.2700004578, Lat : 49.2835989, Lng : -123.1149902, Q1 : 0.932639479637, Q2 : 0.0284430738539, Q3 : -0.124610818923, Q4 : 0.337411850691}
2019-04-14 17:19:52.41: SIM {TimeUS : 57434517, Roll : -0.31, Pitch : -15.07, Yaw : 37.24, Alt : 49.2799987793, Lat : 49.283601, Lng : -123.1149884, Q1 : 0.939571857452, Q2 : 0.039309412241, Q3 : -0.12515988946, Q4 : 0.316219061613}
2019-04-14 17:19:52.51: SIM {TimeUS : 57535310, Roll : 1.02, Pitch : -15.4, Yaw : 34.7, Alt : 49.2799987793, Lat : 49.2836031, Lng : -123.1149864, Q1 : 0.94548279047, Q2 : 0.0484542250633, Q3 : -0.125299230218, Q4 : 0.296672552824}
2019-04-14 17:19:52.61: SIM {TimeUS : 57635270, Roll : 2.04, Pitch : -15.56, Yaw : 32.67, Alt : 49.2799987793, Lat : 49.2836053, Lng : -123.1149844, Q1 : 0.949951589108, Q2 : 0.0550456680357, Q3 : -0.124934703112, Q4 : 0.280986219645}
2019-04-14 17:19:52.71: SIM {TimeUS : 57735230, Roll : 2.68, Pitch : -15.59, Yaw : 31.28, Alt : 49.2799987793, Lat : 49.2836074, Lng : -123.1149822, Q1 : 0.952934622765, Q2 : 0.0589439384639, Q3 : -0.124314881861, Q4 : 0.270161092281}
2019-04-14 17:19:52.81: SIM {TimeUS : 57835190, Roll : 2.95, Pitch : -15.57, Yaw : 30.58, Alt : 49.2799987793, Lat : 49.2836097, Lng : -123.1149799, Q1 : 0.954456031322, Q2 : 0.0603763535619, Q3 : -0.123947821558, Q4 : 0.264585345984}
2019-04-14 17:19:52.91: SIM {TimeUS : 57935150, Roll : 2.86, Pitch : -15.59, Yaw : 30.51, Alt : 49.2799987793, Lat : 49.283612, Lng : -123.1149776, Q1 : 0.954636514187, Q2 : 0.0595597065985, Q3 : -0.124324329197, Q4 : 0.263941764832}
2019-04-14 17:19:53.01: SIM {TimeUS : 58035110, Roll : 2.46, Pitch : -15.66, Yaw : 30.98, Alt : 49.2799987793, Lat : 49.2836142, Lng : -123.1149751, Q1 : 0.953666687012, Q2 : 0.0569237060845, Q3 : -0.125563204288, Q4 : 0.267419964075}
2019-04-14 17:19:53.11: SIM {TimeUS : 58135070, Roll : 1.84, Pitch : -15.78, Yaw : 31.85, Alt : 49.2799987793, Lat : 49.2836165, Lng : -123.1149725, Q1 : 0.951784908772, Q2 : 0.052978541702, Q3 : -0.127621769905, Q4 : 0.273882329464}
2019-04-14 17:19:53.21: SIM {TimeUS : 58235030, Roll : 1.1, Pitch : -15.9, Yaw : 32.94, Alt : 49.2799987793, Lat : 49.2836189, Lng : -123.11497, Q1 : 0.949304997921, Q2 : 0.0484152846038, Q3 : -0.129977688193, Q4 : 0.282102406025}
2019-04-14 17:19:53.31: SIM {TimeUS : 58334990, Roll : 0.38, Pitch : -16.01, Yaw : 34.11, Alt : 49.2799987793, Lat : 49.2836214, Lng : -123.1149673, Q1 : 0.946553111076, Q2 : 0.0440247915685, Q3 : -0.132231980562, Q4 : 0.290884375572}
2019-04-14 17:19:53.41: SIM {TimeUS : 58434950, Roll : -0.27, Pitch : -16.11, Yaw : 35.2, Alt : 49.2799987793, Lat : 49.2836238, Lng : -123.1149646, Q1 : 0.943858921528, Q2 : 0.0401166938245, Q3 : -0.134306520224, Q4 : 0.299136698246}
2019-04-14 17:19:53.51: SIM {TimeUS : 58534910, Roll : -0.78, Pitch : -16.18, Yaw : 36.12, Alt : 49.2799987793, Lat : 49.2836263, Lng : -123.1149618, Q1 : 0.941512584686, Q2 : 0.0372207127512, Q3 : -0.135964885354, Q4 : 0.306075543165}
2019-04-14 17:19:53.61: SIM {TimeUS : 58634870, Roll : -1.09, Pitch : -16.22, Yaw : 36.8, Alt : 49.2799987793, Lat : 49.283629, Lng : -123.114959, Q1 : 0.939754843712, Q2 : 0.0355554893613, Q3 : -0.136929705739, Q4 : 0.311202406883}
2019-04-14 17:19:53.71: SIM {TimeUS : 58734830, Roll : -1.23, Pitch : -16.24, Yaw : 37.19, Alt : 49.2799987793, Lat : 49.2836316, Lng : -123.1149562, Q1 : 0.938699960709, Q2 : 0.0349938049912, Q3 : -0.137327432632, Q4 : 0.314259558916}
2019-04-14 17:19:53.81: SIM {TimeUS : 58834790, Roll : -1.22, Pitch : -16.27, Yaw : 37.31, Alt : 49.2799987793, Lat : 49.2836342, Lng : -123.1149534, Q1 : 0.938334345818, Q2 : 0.035259205848, Q3 : -0.137518972158, Q4 : 0.315236419439}
2019-04-14 17:19:53.91: SIM {TimeUS : 58934750, Roll : -1.09, Pitch : -16.32, Yaw : 37.19, Alt : 49.2799987793, Lat : 49.283637, Lng : -123.1149505, Q1 : 0.938561677933, Q2 : 0.0363056361675, Q3 : -0.137622743845, Q4 : 0.31439447403}
2019-04-14 17:19:54.01: SIM {TimeUS : 59034710, Roll : -0.87, Pitch : -16.4, Yaw : 36.89, Alt : 49.2799987793, Lat : 49.2836397, Lng : -123.1149476, Q1 : 0.939236998558, Q2 : 0.0379350855947, Q3 : -0.137722611427, Q4 : 0.312133431435}
2019-04-14 17:19:54.11: SIM {TimeUS : 59134670, Roll : -0.6, Pitch : -16.47, Yaw : 36.46, Alt : 49.2799987793, Lat : 49.2836425, Lng : -123.1149446, Q1 : 0.940217018127, Q2 : 0.0398261025548, Q3 : -0.137697607279, Q4 : 0.308942109346}
2019-04-14 17:19:54.21: SIM {TimeUS : 59234630, Roll : -0.31, Pitch : -16.53, Yaw : 35.98, Alt : 49.2799987793, Lat : 49.2836452, Lng : -123.1149416, Q1 : 0.941327929497, Q2 : 0.0418391525745, Q3 : -0.137569397688, Q4 : 0.305329114199}
2019-04-14 17:19:54.31: SIM {TimeUS : 59334590, Roll : -0.02, Pitch : -16.58, Yaw : 35.51, Alt : 49.2900009155, Lat : 49.2836481, Lng : -123.1149385, Q1 : 0.94241964817, Q2 : 0.043772932142, Q3 : -0.137381970882, Q4 : 0.301753789186}
2019-04-14 17:19:54.41: SIM {TimeUS : 59434550, Roll : 0.22, Pitch : -16.62, Yaw : 35.09, Alt : 49.2900009155, Lat : 49.2836511, Lng : -123.1149356, Q1 : 0.943368434906, Q2 : 0.0454464070499, Q3 : -0.13721947372, Q4 : 0.298599213362}
2019-04-14 17:19:54.51: SIM {TimeUS : 59534510, Roll : 0.41, Pitch : -16.65, Yaw : 34.76, Alt : 49.2900009155, Lat : 49.2836539, Lng : -123.1149325, Q1 : 0.944102823734, Q2 : 0.0467136278749, Q3 : -0.137104928493, Q4 : 0.296124905348}
2019-04-14 17:19:54.61: SIM {TimeUS : 59635303, Roll : 0.54, Pitch : -16.67, Yaw : 34.54, Alt : 49.2900009155, Lat : 49.2836568, Lng : -123.1149294, Q1 : 0.944583833218, Q2 : 0.0475418418646, Q3 : -0.137093290687, Q4 : 0.294459760189}
2019-04-14 17:19:54.71: SIM {TimeUS : 59735263, Roll : 0.58, Pitch : -16.7, Yaw : 34.44, Alt : 49.2900009155, Lat : 49.2836597, Lng : -123.1149262, Q1 : 0.944801867008, Q2 : 0.0478488691151, Q3 : -0.137236222625, Q4 : 0.293642938137}
2019-04-14 17:19:54.81: SIM {TimeUS : 59835223, Roll : 0.55, Pitch : -16.73, Yaw : 34.44, Alt : 49.2900009155, Lat : 49.2836627, Lng : -123.114923, Q1 : 0.944772422314, Q2 : 0.047696929425, Q3 : -0.137582182884, Q4 : 0.29360049963}
2019-04-14 17:19:54.91: SIM {TimeUS : 59935183, Roll : 0.48, Pitch : -16.78, Yaw : 34.52, Alt : 49.2900009155, Lat : 49.2836657, Lng : -123.1149198, Q1 : 0.944534182549, Q2 : 0.0472894832492, Q3 : -0.138102859259, Q4 : 0.294187903404}
2019-04-14 17:19:55.01: SIM {TimeUS : 60035143, Roll : 0.36, Pitch : -16.82, Yaw : 34.67, Alt : 49.2900009155, Lat : 49.2836688, Lng : -123.1149166, Q1 : 0.944160103798, Q2 : 0.0465763509274, Q3 : -0.138761535287, Q4 : 0.295190870762}
2019-04-14 17:19:55.11: SIM {TimeUS : 60135103, Roll : 0.19, Pitch : -16.86, Yaw : 34.84, Alt : 49.2900009155, Lat : 49.2836718, Lng : -123.1149133, Q1 : 0.943724751472, Q2 : 0.0455581434071, Q3 : -0.139441043139, Q4 : 0.296419113874}
2019-04-14 17:19:55.21: SIM {TimeUS : 60235063, Roll : 0.03, Pitch : -16.89, Yaw : 35.02, Alt : 49.2900009155, Lat : 49.2836748, Lng : -123.11491, Q1 : 0.943287730217, Q2 : 0.044517993927, Q3 : -0.139986485243, Q4 : 0.297708183527}
2019-04-14 17:19:55.31: SIM {TimeUS : 60335023, Roll : -0.1, Pitch : -16.91, Yaw : 35.19, Alt : 49.2900009155, Lat : 49.2836779, Lng : -123.1149067, Q1 : 0.942884802818, Q2 : 0.0435972623527, Q3 : -0.140505030751, Q4 : 0.298874348402}
2019-04-14 17:19:55.41: SIM {TimeUS : 60434983, Roll : -0.19, Pitch : -16.95, Yaw : 35.32, Alt : 49.2900009155, Lat : 49.2836809, Lng : -123.1149033, Q1 : 0.94253629446, Q2 : 0.0430811420083, Q3 : -0.140992477536, Q4 : 0.299817472696}
2019-04-14 17:19:55.51: SIM {TimeUS : 60534943, Roll : -0.23, Pitch : -17.0, Yaw : 35.4, Alt : 49.2999992371, Lat : 49.283684, Lng : -123.1149, Q1 : 0.942269325256, Q2 : 0.0429875664413, Q3 : -0.141463324428, Q4 : 0.300447553396}
2019-04-14 17:19:55.61: SIM {TimeUS : 60634903, Roll : -0.22, Pitch : -17.06, Yaw : 35.44, Alt : 49.2999992371, Lat : 49.283687, Lng : -123.1148966, Q1 : 0.942096233368, Q2 : 0.0432879179716, Q3 : -0.141931071877, Q4 : 0.300726473331}
2019-04-14 17:19:55.71: SIM {TimeUS : 60734863, Roll : -0.17, Pitch : -17.12, Yaw : 35.42, Alt : 49.2999992371, Lat : 49.2836902, Lng : -123.1148932, Q1 : 0.94203042984, Q2 : 0.0438616536558, Q3 : -0.142317771912, Q4 : 0.300666809082}
2019-04-14 17:19:55.81: SIM {TimeUS : 60834823, Roll : -0.12, Pitch : -17.16, Yaw : 35.37, Alt : 49.2999992371, Lat : 49.2836934, Lng : -123.1148898, Q1 : 0.94209253788, Q2 : 0.0443507172167, Q3 : -0.142535760999, Q4 : 0.300297021866}
2019-04-14 17:19:55.91: SIM {TimeUS : 60934783, Roll : -0.07, Pitch : -17.18, Yaw : 35.3, Alt : 49.2999992371, Lat : 49.2836966, Lng : -123.1148864, Q1 : 0.942263841629, Q2 : 0.0446499474347, Q3 : -0.142554968596, Q4 : 0.299705296755}
2019-04-14 17:19:56.01: SIM {TimeUS : 61034743, Roll : -0.03, Pitch : -17.18, Yaw : 35.2, Alt : 49.2999992371, Lat : 49.2836997, Lng : -123.1148829, Q1 : 0.942493319511, Q2 : 0.0448764190078, Q3 : -0.142464458942, Q4 : 0.298992246389}
2019-04-14 17:19:56.11: SIM {TimeUS : 61134703, Roll : 0.02, Pitch : -17.17, Yaw : 35.1, Alt : 49.2999992371, Lat : 49.2837028, Lng : -123.1148795, Q1 : 0.942735373974, Q2 : 0.0452123843133, Q3 : -0.142309457064, Q4 : 0.298251479864}
2019-04-14 17:19:56.21: SIM {TimeUS : 61234663, Roll : 0.07, Pitch : -17.18, Yaw : 35.01, Alt : 49.2999992371, Lat : 49.283706, Lng : -123.114876, Q1 : 0.942946910858, Q2 : 0.0455893836915, Q3 : -0.142317205667, Q4 : 0.297520816326}
2019-04-14 17:19:56.31: SIM {TimeUS : 61334623, Roll : 0.14, Pitch : -17.22, Yaw : 34.92, Alt : 49.2999992371, Lat : 49.2837094, Lng : -123.1148726, Q1 : 0.943098247051, Q2 : 0.0460965260863, Q3 : -0.142483010888, Q4 : 0.296882748604}
2019-04-14 17:19:56.41: SIM {TimeUS : 61434583, Roll : 0.19, Pitch : -17.28, Yaw : 34.85, Alt : 49.3100013733, Lat : 49.2837126, Lng : -123.1148691, Q1 : 0.94317984581, Q2 : 0.0466124564409, Q3 : -0.142835795879, Q4 : 0.296373188496}
2019-04-14 17:19:56.51: SIM {TimeUS : 61534543, Roll : 0.22, Pitch : -17.31, Yaw : 34.81, Alt : 49.3100013733, Lat : 49.2837157, Lng : -123.1148655, Q1 : 0.943245410919, Q2 : 0.0468679070473, Q3 : -0.143077641726, Q4 : 0.296007305384}
2019-04-14 17:19:56.61: SIM {TimeUS : 61634503, Roll : 0.22, Pitch : -17.31, Yaw : 34.78, Alt : 49.3100013733, Lat : 49.2837191, Lng : -123.1148619, Q1 : 0.943313419819, Q2 : 0.046874396503, Q3 : -0.143047347665, Q4 : 0.29580399394}
2019-04-14 17:19:56.71: SIM {TimeUS : 61735296, Roll : 0.21, Pitch : -17.32, Yaw : 34.77, Alt : 49.3100013733, Lat : 49.2837223, Lng : -123.1148585, Q1 : 0.943324148655, Q2 : 0.0468046292663, Q3 : -0.143163964152, Q4 : 0.295724511147}
2019-04-14 17:19:56.81: SIM {TimeUS : 61835256, Roll : 0.18, Pitch : -17.35, Yaw : 34.78, Alt : 49.3100013733, Lat : 49.2837257, Lng : -123.1148549, Q1 : 0.943287849426, Q2 : 0.0466024056077, Q3 : -0.143461868167, Q4 : 0.295727908611}
2019-04-14 17:19:56.91: SIM {TimeUS : 61935216, Roll : 0.15, Pitch : -17.37, Yaw : 34.8, Alt : 49.3100013733, Lat : 49.283729, Lng : -123.1148514, Q1 : 0.943225443363, Q2 : 0.0464145317674, Q3 : -0.143769204617, Q4 : 0.295807242393}
2019-04-14 17:19:57.01: SIM {TimeUS : 62035176, Roll : 0.12, Pitch : -17.4, Yaw : 34.82, Alt : 49.3100013733, Lat : 49.2837321, Lng : -123.1148478, Q1 : 0.94315135479, Q2 : 0.0462728366256, Q3 : -0.144046500325, Q4 : 0.295930534601}
2019-04-14 17:19:57.11: SIM {TimeUS : 62135136, Roll : 0.1, Pitch : -17.42, Yaw : 34.84, Alt : 49.3100013733, Lat : 49.2837356, Lng : -123.1148442, Q1 : 0.943081617355, Q2 : 0.0461790189147, Q3 : -0.144259363413, Q4 : 0.296063780785}
2019-04-14 17:19:57.21: SIM {TimeUS : 62235096, Roll : 0.09, Pitch : -17.44, Yaw : 34.85, Alt : 49.3100013733, Lat : 49.2837388, Lng : -123.1148406, Q1 : 0.943008899689, Q2 : 0.0462107099593, Q3 : -0.144459158182, Q4 : 0.296193033457}
2019-04-14 17:19:57.31: SIM {TimeUS : 62335056, Roll : 0.09, Pitch : -17.46, Yaw : 34.87, Alt : 49.3100013733, Lat : 49.2837422, Lng : -123.114837, Q1 : 0.942960560322, Q2 : 0.0462754406035, Q3 : -0.144575506449, Q4 : 0.29628020525}
2019-04-14 17:19:57.41: SIM {TimeUS : 62435016, Roll : 0.1, Pitch : -17.48, Yaw : 34.87, Alt : 49.3100013733, Lat : 49.2837454, Lng : -123.1148334, Q1 : 0.942928314209, Q2 : 0.0464151576161, Q3 : -0.144694969058, Q4 : 0.296302556992}
2019-04-14 17:19:57.51: SIM {TimeUS : 62534976, Roll : 0.12, Pitch : -17.51, Yaw : 34.86, Alt : 49.3100013733, Lat : 49.2837489, Lng : -123.1148298, Q1 : 0.9429012537, Q2 : 0.0466256886721, Q3 : -0.144914060831, Q4 : 0.296248435974}
2019-04-14 17:19:57.61: SIM {TimeUS : 62634936, Roll : 0.12, Pitch : -17.55, Yaw : 34.84, Alt : 49.3199996948, Lat : 49.2837521, Lng : -123.1148262, Q1 : 0.942891180515, Q2 : 0.0467048995197, Q3 : -0.14527413249, Q4 : 0.296091645956}
2019-04-14 17:19:57.71: SIM {TimeUS : 62734896, Roll : 0.1, Pitch : -17.6, Yaw : 34.82, Alt : 49.3199996948, Lat : 49.2837556, Lng : -123.1148226, Q1 : 0.942897856236, Q2 : 0.0466363839805, Q3 : -0.145724758506, Q4 : 0.29585981369}
2019-04-14 17:19:57.81: SIM {TimeUS : 62834856, Roll : 0.09, Pitch : -17.64, Yaw : 34.79, Alt : 49.3199996948, Lat : 49.2837588, Lng : -123.1148189, Q1 : 0.942913472652, Q2 : 0.0466840788722, Q3 : -0.14613083005, Q4 : 0.295602113008}
2019-04-14 17:19:57.91: SIM {TimeUS : 62934816, Roll : 0.12, Pitch : -17.67, Yaw : 34.76, Alt : 49.3199996948, Lat : 49.2837623, Lng : -123.1148153, Q1 : 0.942943155766, Q2 : 0.0469432510436, Q3 : -0.14632858336, Q4 : 0.295368432999}
2019-04-14 17:19:58.01: SIM {TimeUS : 63034776, Roll : 0.15, Pitch : -17.68, Yaw : 34.73, Alt : 49.3199996948, Lat : 49.2837656, Lng : -123.1148116, Q1 : 0.943002641201, Q2 : 0.0471829436719, Q3 : -0.146275863051, Q4 : 0.295166432858}
2019-04-14 17:19:58.11: SIM {TimeUS : 63134736, Roll : 0.18, Pitch : -17.65, Yaw : 34.7, Alt : 49.3199996948, Lat : 49.2837691, Lng : -123.1148079, Q1 : 0.943087339401, Q2 : 0.0473388917744, Q3 : -0.146023482084, Q4 : 0.294995814562}
2019-04-14 17:19:58.21: SIM {TimeUS : 63234696, Roll : 0.19, Pitch : -17.63, Yaw : 34.68, Alt : 49.3199996948, Lat : 49.2837725, Lng : -123.1148043, Q1 : 0.943172097206, Q2 : 0.0472965240479, Q3 : -0.145853325725, Q4 : 0.294815659523}
2019-04-14 17:19:58.31: SIM {TimeUS : 63334656, Roll : 0.18, Pitch : -17.62, Yaw : 34.66, Alt : 49.3199996948, Lat : 49.2837758, Lng : -123.1148006, Q1 : 0.943246245384, Q2 : 0.0472055785358, Q3 : -0.145767092705, Q4 : 0.294635623693}
2019-04-14 17:19:58.41: SIM {TimeUS : 63434616, Roll : 0.18, Pitch : -17.61, Yaw : 34.64, Alt : 49.3199996948, Lat : 49.2837793, Lng : -123.1147968, Q1 : 0.943313598633, Q2 : 0.047090344131, Q3 : -0.14571852982, Q4 : 0.294462352991}
2019-04-14 17:19:58.51: SIM {TimeUS : 63534576, Roll : 0.17, Pitch : -17.63, Yaw : 34.62, Alt : 49.3199996948, Lat : 49.2837828, Lng : -123.1147932, Q1 : 0.943339467049, Q2 : 0.04703053087, Q3 : -0.145907595754, Q4 : 0.294295400381}
2019-04-14 17:19:58.61: SIM {TimeUS : 63634536, Roll : 0.16, Pitch : -17.66, Yaw : 34.61, Alt : 49.3199996948, Lat : 49.2837861, Lng : -123.1147894, Q1 : 0.943342447281, Q2 : 0.0470446273685, Q3 : -0.146162778139, Q4 : 0.294156938791}
2019-04-14 17:19:58.71: SIM {TimeUS : 63734496, Roll : 0.15, Pitch : -17.71, Yaw : 34.6, Alt : 49.3199996948, Lat : 49.2837896, Lng : -123.1147857, Q1 : 0.94331485033, Q2 : 0.0470567159355, Q3 : -0.146584793925, Q4 : 0.294033557177}
2019-04-14 17:19:58.81: SIM {TimeUS : 63835289, Roll : 0.15, Pitch : -17.77, Yaw : 34.59, Alt : 49.3199996948, Lat : 49.283793, Lng : -123.114782, Q1 : 0.943260848522, Q2 : 0.0471664741635, Q3 : -0.147082179785, Q4 : 0.293940752745}
2019-04-14 17:19:58.91: SIM {TimeUS : 63935249, Roll : 0.15, Pitch : -17.79, Yaw : 34.58, Alt : 49.3199996948, Lat : 49.2837965, Lng : -123.1147783, Q1 : 0.943240582943, Q2 : 0.0472897104919, Q3 : -0.147268041968, Q4 : 0.293892890215}
2019-04-14 17:19:59.01: SIM {TimeUS : 64035209, Roll : 0.15, Pitch : -17.81, Yaw : 34.58, Alt : 49.3300018311, Lat : 49.2838, Lng : -123.1147745, Q1 : 0.943226993084, Q2 : 0.0473355092108, Q3 : -0.147441729903, Q4 : 0.293842017651}
2019-04-14 17:19:59.11: SIM {TimeUS : 64135169, Roll : 0.15, Pitch : -17.82, Yaw : 34.57, Alt : 49.3300018311, Lat : 49.2838033, Lng : -123.1147707, Q1 : 0.943226695061, Q2 : 0.0473205000162, Q3 : -0.147566139698, Q4 : 0.293782919645}
2019-04-14 17:19:59.21: SIM {TimeUS : 64235129, Roll : 0.16, Pitch : -17.81, Yaw : 34.56, Alt : 49.3300018311, Lat : 49.2838068, Lng : -123.114767, Q1 : 0.943255186081, Q2 : 0.0473392941058, Q3 : -0.147475734353, Q4 : 0.293733805418}
2019-04-14 17:19:59.31: SIM {TimeUS : 64335089, Roll : 0.17, Pitch : -17.82, Yaw : 34.55, Alt : 49.3300018311, Lat : 49.2838104, Lng : -123.1147633, Q1 : 0.943259000778, Q2 : 0.0474691055715, Q3 : -0.147524431348, Q4 : 0.293676316738}
2019-04-14 17:19:59.41: SIM {TimeUS : 64435049, Roll : 0.18, Pitch : -17.85, Yaw : 34.54, Alt : 49.3300018311, Lat : 49.2838138, Lng : -123.1147595, Q1 : 0.943252980709, Q2 : 0.0475923344493, Q3 : -0.147691190243, Q4 : 0.293591737747}
2019-04-14 17:19:59.51: SIM {TimeUS : 64535009, Roll : 0.19, Pitch : -17.87, Yaw : 34.53, Alt : 49.3300018311, Lat : 49.2838172, Lng : -123.1147558, Q1 : 0.943256437778, Q2 : 0.0476836301386, Q3 : -0.147822588682, Q4 : 0.293499737978}
2019-04-14 17:19:59.61: SIM {TimeUS : 64634969, Roll : 0.2, Pitch : -17.87, Yaw : 34.52, Alt : 49.3300018311, Lat : 49.2838208, Lng : -123.114752, Q1 : 0.94328379631, Q2 : 0.0477671101689, Q3 : -0.147813692689, Q4 : 0.293402552605}
2019-04-14 17:19:59.71: SIM {TimeUS : 64734929, Roll : 0.2, Pitch : -17.87, Yaw : 34.51, Alt : 49.3300018311, Lat : 49.2838243, Lng : -123.1147482, Q1 : 0.943310976028, Q2 : 0.0477692782879, Q3 : -0.147870019078, Q4 : 0.293286591768}
2019-04-14 17:19:59.81: SIM {TimeUS : 64834889, Roll : 0.19, Pitch : -17.89, Yaw : 34.49, Alt : 49.3300018311, Lat : 49.2838278, Lng : -123.1147445, Q1 : 0.943326175213, Q2 : 0.0476948320866, Q3 : -0.148076727986, Q4 : 0.293145298958}
2019-04-14 17:19:59.91: SIM {TimeUS : 64934849, Roll : 0.16, Pitch : -17.93, Yaw : 34.48, Alt : 49.3300018311, Lat : 49.2838312, Lng : -123.1147407, Q1 : 0.943324327469, Q2 : 0.0475742705166, Q3 : -0.148454770446, Q4 : 0.292979627848}
2019-04-14 17:20:00.01: SIM {TimeUS : 65034809, Roll : 0.15, Pitch : -17.94, Yaw : 34.46, Alt : 49.3300018311, Lat : 49.2838348, Lng : -123.1147369, Q1 : 0.943357467651, Q2 : 0.0474635511637, Q3 : -0.148549869657, Q4 : 0.292842656374}
2019-04-14 17:20:00.11: SIM {TimeUS : 65134769, Roll : 0.15, Pitch : -17.93, Yaw : 34.45, Alt : 49.3300018311, Lat : 49.2838383, Lng : -123.1147331, Q1 : 0.943404912949, Q2 : 0.0474592670798, Q3 : -0.148451656103, Q4 : 0.292740255594}
2019-04-14 17:20:00.21: SIM {TimeUS : 65234729, Roll : 0.17, Pitch : -17.92, Yaw : 34.43, Alt : 49.3300018311, Lat : 49.2838418, Lng : -123.1147293, Q1 : 0.943442881107, Q2 : 0.0475877448916, Q3 : -0.14833034575, Q4 : 0.292658627033}
2019-04-14 17:20:00.31: SIM {TimeUS : 65334689, Roll : 0.19, Pitch : -17.93, Yaw : 34.42, Alt : 49.3300018311, Lat : 49.2838452, Lng : -123.1147256, Q1 : 0.94346165657, Q2 : 0.0477027073503, Q3 : -0.148363947868, Q4 : 0.292562484741}
2019-04-14 17:20:00.41: SIM {TimeUS : 65434649, Roll : 0.18, Pitch : -17.95, Yaw : 34.41, Alt : 49.3300018311, Lat : 49.2838488, Lng : -123.1147218, Q1 : 0.94346678257, Q2 : 0.0476937405765, Q3 : -0.148543536663, Q4 : 0.292456150055}
2019-04-14 17:20:00.51: SIM {TimeUS : 65534609, Roll : 0.16, Pitch : -17.97, Yaw : 34.4, Alt : 49.3400001526, Lat : 49.2838524, Lng : -123.114718, Q1 : 0.943475842476, Q2 : 0.0475592054427, Q3 : -0.148770838976, Q4 : 0.292333245277}
2019-04-14 17:20:00.61: SIM {TimeUS : 65634569, Roll : 0.15, Pitch : -17.99, Yaw : 34.39, Alt : 49.3400001526, Lat : 49.2838559, Lng : -123.1147142, Q1 : 0.943480074406, Q2 : 0.0474874563515, Q3 : -0.148977860808, Q4 : 0.29222586751}
2019-04-14 17:20:00.71: SIM {TimeUS : 65734529, Roll : 0.15, Pitch : -18.0, Yaw : 34.38, Alt : 49.3400001526, Lat : 49.2838594, Lng : -123.1147104, Q1 : 0.943485558033, Q2 : 0.0475545041263, Q3 : -0.149087965488, Q4 : 0.292140960693}
2019-04-14 17:20:00.81: SIM {TimeUS : 65835322, Roll : 0.16, Pitch : -18.01, Yaw : 34.37, Alt : 49.3400001526, Lat : 49.2838629, Lng : -123.1147065, Q1 : 0.943491339684, Q2 : 0.0476661324501, Q3 : -0.149163961411, Q4 : 0.292065382004}
2019-04-14 17:20:00.91: SIM {TimeUS : 65935282, Roll : 0.18, Pitch : -18.03, Yaw : 34.36, Alt : 49.3400001526, Lat : 49.2838664, Lng : -123.1147027, Q1 : 0.943486988544, Q2 : 0.0478418916464, Q3 : -0.149243339896, Q4 : 0.292010247707}
2019-04-14 17:20:01.01: SIM {TimeUS : 66035242, Roll : 0.19, Pitch : -18.05, Yaw : 34.35, Alt : 49.3400001526, Lat : 49.28387, Lng : -123.1146989, Q1 : 0.943481147289, Q2 : 0.0479477420449, Q3 : -0.149370640516, Q4 : 0.29194650054}
2019-04-14 17:20:01.11: SIM {TimeUS : 66135202, Roll : 0.2, Pitch : -18.07, Yaw : 34.34, Alt : 49.3400001526, Lat : 49.2838736, Lng : -123.1146951, Q1 : 0.943468868732, Q2 : 0.0480640083551, Q3 : -0.149529591203, Q4 : 0.291885733604}
2019-04-14 17:20:01.21: SIM {TimeUS : 66235162, Roll : 0.21, Pitch : -18.09, Yaw : 34.34, Alt : 49.3400001526, Lat : 49.2838772, Lng : -123.1146913, Q1 : 0.943455040455, Q2 : 0.0482001528144, Q3 : -0.149680405855, Q4 : 0.291830599308}
2019-04-14 17:20:01.31: SIM {TimeUS : 66335122, Roll : 0.23, Pitch : -18.1, Yaw : 34.33, Alt : 49.3400001526, Lat : 49.2838807, Lng : -123.1146874, Q1 : 0.943443775177, Q2 : 0.0484114028513, Q3 : -0.149745777249, Q4 : 0.291798651218}
2019-04-14 17:20:01.41: SIM {TimeUS : 66435082, Roll : 0.26, Pitch : -18.12, Yaw : 34.32, Alt : 49.3400001526, Lat : 49.2838842, Lng : -123.1146836, Q1 : 0.94342982769, Q2 : 0.0486898683012, Q3 : -0.149777963758, Q4 : 0.291780918837}
2019-04-14 17:20:01.51: SIM {TimeUS : 66535042, Roll : 0.26, Pitch : -18.11, Yaw : 34.32, Alt : 49.3400001526, Lat : 49.2838877, Lng : -123.1146798, Q1 : 0.943452775478, Q2 : 0.0486612804234, Q3 : -0.149734199047, Q4 : 0.291733771563}
2019-04-14 17:20:01.61: SIM {TimeUS : 66635002, Roll : 0.24, Pitch : -18.11, Yaw : 34.31, Alt : 49.3400001526, Lat : 49.2838913, Lng : -123.114676, Q1 : 0.94347256422, Q2 : 0.0484587773681, Q3 : -0.149834513664, Q4 : 0.291652083397}
2019-04-14 17:20:01.71: SIM {TimeUS : 66734962, Roll : 0.21, Pitch : -18.13, Yaw : 34.31, Alt : 49.3400001526, Lat : 49.2838949, Lng : -123.1146721, Q1 : 0.943472325802, Q2 : 0.0482634566724, Q3 : -0.150074928999, Q4 : 0.291561514139}
