2019-04-14 16:36:34.90: SIM {TimeUS : 40516287, Roll : 0.0, Pitch : 0.0, Yaw : 0.0, Alt : 30.1000003815, Lat : 49.28357, Lng : -123.11502, Q1 : 1.0, Q2 : 0.0, Q3 : 0.0, Q4 : 0.0}
2019-04-14 16:36:35.01: SIM {TimeUS : 40635406, Roll : 0.0, Pitch : 0.0, Yaw : 0.0, Alt : 30.1000003815, Lat : 49.28357, Lng : -123.11502, Q1 : 1.0, Q2 : 0.0, Q3 : 0.0, Q4 : 0.0}
2019-04-14 16:36:35.11: SIM {TimeUS : 40735366, Roll : 0.0, Pitch : 0.0, Yaw : 0.0, Alt : 30.1000003815, Lat : 49.28357, Lng : -123.11502, Q1 : 1.0, Q2 : 0.0, Q3 : 0.0, Q4 : 0.0}
2019-04-14 16:36:35.21: SIM {TimeUS : 40835326, Roll : 0.0, Pitch : 0.0, Yaw : 0.0, Alt : 30.1000003815, Lat : 49.28357, Lng : -123.11502, Q1 : 1.0, Q2 : 0.0, Q3 : 0.0, Q4 : 0.0}
2019-04-14 16:36:35.31: SIM {TimeUS : 40935286, Roll : 0.0, Pitch : 0.0, Yaw : 0.0, Alt : 30.1000003815, Lat : 49.28357, Lng : -123.11502, Q1 : 1.0, Q2 : 0.0, Q3 : 0.0, Q4 : 0.0}
2019-04-14 16:36:35.41: SIM {TimeUS : 41035246, Roll : 0.0, Pitch : 0.0, Yaw : 0.0, Alt : 30.1000003815, Lat : 49.28357, Lng : -123.11502, Q1 : 1.0, Q2 : 0.0, Q3 : 0.0, Q4 : 0.0}
2019-04-14 16:36:35.51: SIM {TimeUS : 41135206, Roll : 0.0, Pitch : 0.0, Yaw : 0.0, Alt : 30.1000003815, Lat : 49.28357, Lng : -123.11502, Q1 : 1.0, Q2 : 0.0, Q3 : 0.0, Q4 : 0.0}
2019-04-14 16:36:35.61: SIM {TimeUS : 41235166, Roll : 0.0, Pitch : 0.0, Yaw : 0.0, Alt : 30.1000003815, Lat : 49.28357, Lng : -123.11502, Q1 : 1.0, Q2 : 0.0, Q3 : 0.0, Q4 : 0.0}
2019-04-14 16:36:35.71: SIM {TimeUS : 41335126, Roll : 0.0, Pitch : 0.0, Yaw : 0.0, Alt : 30.1000003815, Lat : 49.28357, Lng : -123.11502, Q1 : 1.0, Q2 : 0.0, Q3 : 0.0, Q4 : 0.0}
2019-04-14 16:36:35.81: SIM {TimeUS : 41435086, Roll : 0.0, Pitch : 0.0, Yaw : 0.0, Alt : 30.1000003815, Lat : 49.28357, Lng : -123.11502, Q1 : 1.0, Q2 : 0.0, Q3 : 0.0, Q4 : 0.0}
2019-04-14 16:36:35.91: SIM {TimeUS : 41535046, Roll : 0.0, Pitch : 0.0, Yaw : 0.0, Alt : 30.1000003815, Lat : 49.28357, Lng : -123.11502, Q1 : 1.0, Q2 : 0.0, Q3 : 0.0, Q4 : 0.0}
2019-04-14 16:36:36.01: SIM {TimeUS : 41635006, Roll : 0.0, Pitch : 0.0, Yaw : 0.0, Alt : 30.1000003815, Lat : 49.28357, Lng : -123.11502, Q1 : 1.0, Q2 : 0.0, Q3 : 0.0, Q4 : 0.0}
2019-04-14 16:36:36.11: SIM {TimeUS : 41734966, Roll : 0.0, Pitch : 0.0, Yaw : 0.0, Alt : 30.1000003815, Lat : 49.28357, Lng : -123.11502, Q1 : 1.0, Q2 : 0.0, Q3 : 0.0, Q4 : 0.0}
2019-04-14 16:36:36.21: SIM {TimeUS : 41834926, Roll : 0.0, Pitch : 0.0, Yaw : 0.0, Alt : 30.1000003815, Lat : 49.28357, Lng : -123.11502, Q1 : 1.0, Q2 : 0.0, Q3 : 0.0, Q4 : 0.0}
2019-04-14 16:36:36.31: SIM {TimeUS : 41934886, Roll : 0.0, Pitch : 0.0, Yaw : 0.0, Alt : 30.1000003815, Lat : 49.28357, Lng : -123.11502, Q1 : 1.0, Q2 : 0.0, Q3 : 0.0, Q4 : 0.0}
2019-04-14 16:36:36.41: SIM {TimeUS : 42034846, Roll : 0.0, Pitch : 0.0, Yaw : 0.0, Alt : 30.1000003815, Lat : 49.28357, Lng : -123.11502, Q1 : 1.0, Q2 : 0.0, Q3 : 0.0, Q4 : 0.0}
2019-04-14 16:36:36.51: SIM {TimeUS : 42134806, Roll : 0.0, Pitch : 0.0, Yaw : 0.0, Alt : 30.1000003815, Lat : 49.28357, Lng : -123.11502, Q1 : 1.0, Q2 : 0.0, Q3 : 0.0, Q4 : 0.0}
2019-04-14 16:36:36.61: SIM {TimeUS : 42234766, Roll : 0.0, Pitch : 0.0, Yaw : 0.0, Alt : 30.1000003815, Lat : 49.28357, Lng : -123.11502, Q1 : 1.0, Q2 : 0.0, Q3 : 0.0, Q4 : 0.0}
2019-04-14 16:36:36.71: SIM {TimeUS : 42334726, Roll : 0.0, Pitch : 0.0, Yaw : 0.0, Alt : 30.1000003815, Lat : 49.28357, Lng : -123.11502, Q1 : 1.0, Q2 : 0.0, Q3 : 0.0, Q4 : 0.0}
2019-04-14 16:36:36.81: SIM {TimeUS : 42434686, Roll : 0.0, Pitch : 0.0, Yaw : 0.0, Alt : 30.1000003815, Lat : 49.28357, Lng : -123.11502, Q1 : 1.0, Q2 : 0.0, Q3 : 0.0, Q4 : 0.0}
2019-04-14 16:36:36.91: SIM {TimeUS : 42534646, Roll : 0.0, Pitch : 0.0, Yaw : 0.0, Alt : 30.1000003815, Lat : 49.28357, Lng : -123.11502, Q1 : 1.0, Q2 : 0.0, Q3 : 0.0, Q4 : 0.0}
2019-04-14 16:36:37.02: SIM {TimeUS : 42635439, Roll : 0.0, Pitch : 0.0, Yaw : 0.0, Alt : 30.1000003815, Lat : 49.28357, Lng : -123.11502, Q1 : 1.0, Q2 : 0.0, Q3 : 0.0, Q4 : 0.0}
2019-04-14 16:36:37.11: SIM {TimeUS : 42735399, Roll : 0.0, Pitch : 0.0, Yaw : 0.0, Alt : 30.1000003815, Lat : 49.28357, Lng : -123.11502, Q1 : 1.0, Q2 : 0.0, Q3 : 0.0, Q4 : 0.0}
2019-04-14 16:36:37.21: SIM {TimeUS : 42835359, Roll : 0.0, Pitch : 0.0, Yaw : 360.0, Alt : 30.1000003815, Lat : 49.28357, Lng : -123.11502, Q1 : 1.0, Q2 : 0.0, Q3 : 0.0, Q4 : -2.13179517441e-12}
2019-04-14 16:36:37.31: SIM {TimeUS : 42935319, Roll : 0.0, Pitch : 0.0, Yaw : 360.0, Alt : 30.1000003815, Lat : 49.28357, Lng : -123.11502, Q1 : 1.0, Q2 : 0.0, Q3 : 0.0, Q4 : -1.45634632825e-11}
2019-04-14 16:36:37.41: SIM {TimeUS : 43035279, Roll : 0.0, Pitch : 0.0, Yaw : 360.0, Alt : 30.1000003815, Lat : 49.28357, Lng : -123.11502, Q1 : 1.0, Q2 : 0.0, Q3 : 0.0, Q4 : -1.21618512594e-07}
2019-04-14 16:36:37.51: SIM {TimeUS : 43135239, Roll : 0.0, Pitch : 0.0, Yaw : 359.99, Alt : 30.1000003815, Lat : 49.28357, Lng : -123.11502, Q1 : 1.0, Q2 : 0.0, Q3 : 0.0, Q4 : -2.98910435959e-07}
2019-04-14 16:36:37.61: SIM {TimeUS : 43235199, Roll : 0.0, Pitch : 0.0, Yaw : 359.99, Alt : 30.1000003815, Lat : 49.28357, Lng : -123.11502, Q1 : 1.0, Q2 : 0.0, Q3 : 0.0, Q4 : -4.35641339891e-07}
2019-04-14 16:36:37.71: SIM {TimeUS : 43335159, Roll : 0.0, Pitch : 0.0, Yaw : 359.99, Alt : 30.1000003815, Lat : 49.28357, Lng : -123.11502, Q1 : 1.0, Q2 : 0.0, Q3 : 0.0, Q4 : -6.28317309292e-07}
2019-04-14 16:36:37.81: SIM {TimeUS : 43435119, Roll : 0.0, Pitch : 0.0, Yaw : 359.99, Alt : 30.1000003815, Lat : 49.28357, Lng : -123.11502, Q1 : 1.0, Q2 : 0.0, Q3 : 0.0, Q4 : -8.09646451216e-07}
2019-04-14 16:36:37.91: SIM {TimeUS : 43535079, Roll : 0.0, Pitch : 0.0, Yaw : 359.99, Alt : 30.1000003815, Lat : 49.28357, Lng : -123.11502, Q1 : 1.0, Q2 : 0.0, Q3 : 0.0, Q4 : -9.82880237643e-07}
2019-04-14 16:36:38.01: SIM {TimeUS : 43635039, Roll : 0.0, Pitch : 0.0, Yaw : 359.99, Alt : 30.1000003815, Lat : 49.28357, Lng : -123.11502, Q1 : 1.0, Q2 : 0.0, Q3 : 0.0, Q4 : -1.21734956338e-06}
2019-04-14 16:36:38.11: SIM {TimeUS : 43734999, Roll : 0.0, Pitch : 0.0, Yaw : 359.99, Alt : 30.1100006104, Lat : 49.28357, Lng : -123.11502, Q1 : 1.0, Q2 : 0.0, Q3 : 0.0, Q4 : -1.42122758007e-06}
2019-04-14 16:36:38.21: SIM {TimeUS : 43834959, Roll : 0.0, Pitch : 0.0, Yaw : 359.99, Alt : 30.1299991608, Lat : 49.28357, Lng : -123.11502, Q1 : 1.0, Q2 : 0.0, Q3 : 0.0, Q4 : -1.65368737726e-06}
2019-04-14 16:36:38.31: SIM {TimeUS : 43934919, Roll : 0.0, Pitch : 0.0, Yaw : 359.99, Alt : 30.1499996185, Lat : 49.28357, Lng : -123.11502, Q1 : 1.0, Q2 : 0.0, Q3 : 0.0, Q4 : -1.86923159617e-06}
2019-04-14 16:36:38.41: SIM {TimeUS : 44034879, Roll : 0.0, Pitch : 0.0, Yaw : 359.99, Alt : 30.1900005341, Lat : 49.28357, Lng : -123.11502, Q1 : 1.0, Q2 : 0.0, Q3 : 0.0, Q4 : -2.09415702557e-06}
2019-04-14 16:36:38.51: SIM {TimeUS : 44134839, Roll : -0.03, Pitch : -0.02, Yaw : 359.99, Alt : 30.2299995422, Lat : 49.28357, Lng : -123.11502, Q1 : 0.999999940395, Q2 : -0.000303572131088, Q3 : -0.00024302181555, Q4 : -4.76392733617e-06}
2019-04-14 16:36:38.61: SIM {TimeUS : 44234799, Roll : -0.29, Pitch : -0.25, Yaw : 359.99, Alt : 30.2999992371, Lat : 49.28357, Lng : -123.11502, Q1 : 0.999994218349, Q2 : -0.00258537381887, Q3 : -0.0022102498915, Q4 : -2.92172717309e-05}
2019-04-14 16:36:38.71: SIM {TimeUS : 44334759, Roll : -0.61, Pitch : -0.53, Yaw : 359.99, Alt : 30.4300003052, Lat : 49.28357, Lng : -123.11502, Q1 : 0.999974906445, Q2 : -0.0053292484954, Q3 : -0.00465922290459, Q4 : -8.20576315164e-05}
2019-04-14 16:36:38.81: SIM {TimeUS : 44434719, Roll : -0.79, Pitch : -0.73, Yaw : 359.98, Alt : 30.5900001526, Lat : 49.28357, Lng : -123.11502, Q1 : 0.999954938889, Q2 : -0.00697457138449, Q3 : -0.00643827859312, Q4 : -0.000156825932208}
2019-04-14 16:36:38.91: SIM {TimeUS : 44534679, Roll : -0.82, Pitch : -0.78, Yaw : 359.97, Alt : 30.75, Lat : 49.28357, Lng : -123.11502, Q1 : 0.999950349331, Q2 : -0.00722796889022, Q3 : -0.0068545457907, Q4 : -0.000240445660893}
2019-04-14 16:36:39.01: SIM {TimeUS : 44634639, Roll : -0.73, Pitch : -0.68, Yaw : 359.96, Alt : 30.8999996185, Lat : 49.28357, Lng : -123.1150201, Q1 : 0.999961256981, Q2 : -0.00641419738531, Q3 : -0.00601893151179, Q4 : -0.000330666312948}
2019-04-14 16:36:39.12: SIM {TimeUS : 44735432, Roll : -0.55, Pitch : -0.5, Yaw : 359.95, Alt : 31.0599994659, Lat : 49.2835701, Lng : -123.1150202, Q1 : 0.999978482723, Q2 : -0.00483019184321, Q3 : -0.00442975992337, Q4 : -0.000416034657974}
2019-04-14 16:36:39.21: SIM {TimeUS : 44835392, Roll : -0.33, Pitch : -0.3, Yaw : 359.94, Alt : 31.2199993134, Lat : 49.2835701, Lng : -123.1150202, Q1 : 0.999992191792, Q2 : -0.00292071327567, Q3 : -0.0026211461518, Q4 : -0.000486305274535}
2019-04-14 16:36:39.31: SIM {TimeUS : 44935352, Roll : -0.13, Pitch : -0.12, Yaw : 359.93, Alt : 31.3799991608, Lat : 49.2835702, Lng : -123.1150203, Q1 : 0.999998629093, Q2 : -0.00115785910748, Q3 : -0.00105231557973, Q4 : -0.000536559324246}
2019-04-14 16:36:39.41: SIM {TimeUS : 45035312, Roll : 0.01, Pitch : 0.0, Yaw : 359.93, Alt : 31.5499992371, Lat : 49.2835702, Lng : -123.1150204, Q1 : 0.999999821186, Q2 : 0.000119246986287, Q3 : -5.24704992131e-05, Q4 : -0.000565693248063}
2019-04-14 16:36:39.51: SIM {TimeUS : 45135272, Roll : 0.09, Pitch : 0.04, Yaw : 359.93, Alt : 31.7299995422, Lat : 49.2835702, Lng : -123.1150205, Q1 : 0.999999403954, Q2 : 0.000829156313557, Q3 : 0.000403561571147, Q4 : -0.00057607103372}
2019-04-14 16:36:39.61: SIM {TimeUS : 45235232, Roll : 0.11, Pitch : 0.06, Yaw : 359.93, Alt : 31.9099998474, Lat : 49.2835703, Lng : -123.1150205, Q1 : 0.999999165535, Q2 : 0.00100641022436, Q3 : 0.000575753278099, Q4 : -0.000573313445784}
2019-04-14 16:36:39.71: SIM {TimeUS : 45335192, Roll : 0.09, Pitch : 0.07, Yaw : 359.93, Alt : 32.0999984741, Lat : 49.2835703, Lng : -123.1150206, Q1 : 0.99999922514, Q2 : 0.000868939911015, Q3 : 0.000696470378898, Q4 : -0.000567849085201}
2019-04-14 16:36:39.81: SIM {TimeUS : 45435152, Roll : 0.07, Pitch : 0.09, Yaw : 359.93, Alt : 32.2799987793, Lat : 49.2835703, Lng : -123.1150206, Q1 : 0.999999344349, Q2 : 0.000617775775027, Q3 : 0.000811952922959, Q4 : -0.000551982200705}
2019-04-14 16:36:39.91: SIM {TimeUS : 45535112, Roll : 0.06, Pitch : 0.1, Yaw : 359.93, Alt : 32.4799995422, Lat : 49.2835703, Lng : -123.1150207, Q1 : 0.999999284744, Q2 : 0.000551198376343, Q3 : 0.000947504304349, Q4 : -0.000527911295649}
2019-04-14 16:36:40.01: SIM {TimeUS : 45635072, Roll : 0.08, Pitch : 0.12, Yaw : 359.94, Alt : 32.6699981689, Lat : 49.2835703, Lng : -123.1150207, Q1 : 0.999998927116, Q2 : 0.000774437910877, Q3 : 0.0011197195854, Q4 : -0.000503672112245}
2019-04-14 16:36:40.11: SIM {TimeUS : 45735032, Roll : 0.12, Pitch : 0.14, Yaw : 359.94, Alt : 32.8699989319, Lat : 49.2835704, Lng : -123.1150208, Q1 : 0.999998509884, Q2 : 0.00105024932418, Q3 : 0.00129760906566, Q4 : -0.000484558579046}
2019-04-14 16:36:40.21: SIM {TimeUS : 45834992, Roll : 0.14, Pitch : 0.17, Yaw : 359.94, Alt : 33.0699996948, Lat : 49.2835704, Lng : -123.1150208, Q1 : 0.999998033047, Q2 : 0.00124425895046, Q3 : 0.0014879986411, Q4 : -0.000466000841698}
2019-04-14 16:36:40.31: SIM {TimeUS : 45934952, Roll : 0.15, Pitch : 0.16, Yaw : 359.94, Alt : 33.2700004578, Lat : 49.2835704, Lng : -123.1150208, Q1 : 0.999997913837, Q2 : 0.00136627873871, Q3 : 0.00146566866897, Q4 : -0.00044848312973}
2019-04-14 16:36:40.41: SIM {TimeUS : 46034912, Roll : 0.15, Pitch : 0.13, Yaw : 359.94, Alt : 33.4799995422, Lat : 49.2835704, Lng : -123.1150208, Q1 : 0.999998211861, Q2 : 0.00137965613976, Q3 : 0.00120784051251, Q4 : -0.00044887047261}
2019-04-14 16:36:40.51: SIM {TimeUS : 46134872, Roll : 0.15, Pitch : 0.12, Yaw : 359.94, Alt : 33.6800003052, Lat : 49.2835704, Lng : -123.1150208, Q1 : 0.999998450279, Q2 : 0.00131198775489, Q3 : 0.00107622798532, Q4 : -0.000455182918813}
2019-04-14 16:36:40.61: SIM {TimeUS : 46234832, Roll : 0.14, Pitch : 0.12, Yaw : 359.94, Alt : 33.8899993896, Lat : 49.2835704, Lng : -123.1150208, Q1 : 0.999998509884, Q2 : 0.0012674133759, Q3 : 0.00106634339318, Q4 : -0.000477392051835}
2019-04-14 16:36:40.71: SIM {TimeUS : 46334792, Roll : 0.15, Pitch : 0.13, Yaw : 359.94, Alt : 34.0999984741, Lat : 49.2835704, Lng : -123.1150208, Q1 : 0.99999833107, Q2 : 0.00131352443714, Q3 : 0.00116567162331, Q4 : -0.00050986307906}
2019-04-14 16:36:40.81: SIM {TimeUS : 46434752, Roll : 0.14, Pitch : 0.11, Yaw : 359.93, Alt : 34.3100013733, Lat : 49.2835704, Lng : -123.1150208, Q1 : 0.999998569489, Q2 : 0.00125406577718, Q3 : 0.00102857663296, Q4 : -0.00053278967971}
2019-04-14 16:36:40.91: SIM {TimeUS : 46534712, Roll : 0.12, Pitch : 0.09, Yaw : 359.93, Alt : 34.5299987793, Lat : 49.2835704, Lng : -123.1150208, Q1 : 0.999998867512, Q2 : 0.00109351659194, Q3 : 0.000871283409651, Q4 : -0.000552977144253}
2019-04-14 16:36:41.01: SIM {TimeUS : 46634672, Roll : 0.09, Pitch : 0.08, Yaw : 359.93, Alt : 34.7400016785, Lat : 49.2835704, Lng : -123.1150208, Q1 : 0.99999922514, Q2 : 0.000857252336573, Q3 : 0.000745446770452, Q4 : -0.000576369464397}
2019-04-14 16:36:41.11: SIM {TimeUS : 46734632, Roll : 0.06, Pitch : 0.07, Yaw : 359.93, Alt : 34.9599990845, Lat : 49.2835704, Lng : -123.1150208, Q1 : 0.999999463558, Q2 : 0.000578150327783, Q3 : 0.000636332842987, Q4 : -0.000597201753408}
2019-04-14 16:36:41.22: SIM {TimeUS : 46835425, Roll : 0.04, Pitch : 0.03, Yaw : 359.92, Alt : 35.1699981689, Lat : 49.2835704, Lng : -123.1150208, Q1 : 0.999999701977, Q2 : 0.000405210768804, Q3 : 0.000312278309138, Q4 : -0.000618218968157}
2019-04-14 16:36:41.31: SIM {TimeUS : 46935385, Roll : 0.03, Pitch : 0.0, Yaw : 359.92, Alt : 35.3899993896, Lat : 49.2835704, Lng : -123.1150208, Q1 : 0.999999761581, Q2 : 0.000284329085844, Q3 : 5.60092194064e-05, Q4 : -0.000635287782643}
2019-04-14 16:36:41.41: SIM {TimeUS : 47035345, Roll : 0.0, Pitch : 0.0, Yaw : 359.92, Alt : 35.6100006104, Lat : 49.2835704, Lng : -123.1150208, Q1 : 0.999999821186, Q2 : 6.60435471218e-05, Q3 : -3.48416347151e-06, Q4 : -0.00066214276012}
2019-04-14 16:36:41.51: SIM {TimeUS : 47135305, Roll : 0.0, Pitch : 0.0, Yaw : 359.92, Alt : 35.8300018311, Lat : 49.2835704, Lng : -123.1150208, Q1 : 0.999999761581, Q2 : -2.47118464358e-06, Q3 : 1.55144443852e-05, Q4 : -0.000685057195369}
2019-04-14 16:36:41.61: SIM {TimeUS : 47235265, Roll : 0.0, Pitch : 0.0, Yaw : 359.91, Alt : 36.0499992371, Lat : 49.2835704, Lng : -123.1150207, Q1 : 0.999999761581, Q2 : 5.24923489138e-05, Q3 : 4.0134837036e-05, Q4 : -0.000709139334504}
2019-04-14 16:36:41.71: SIM {TimeUS : 47335225, Roll : 0.0, Pitch : -0.01, Yaw : 359.91, Alt : 36.2700004578, Lat : 49.2835704, Lng : -123.1150207, Q1 : 0.999999701977, Q2 : -6.01467545494e-05, Q3 : -0.000162179523613, Q4 : -0.000733649765607}
2019-04-14 16:36:41.81: SIM {TimeUS : 47435185, Roll : -0.03, Pitch : -0.05, Yaw : 359.91, Alt : 36.4900016785, Lat : 49.2835704, Lng : -123.1150207, Q1 : 0.999999523163, Q2 : -0.000309182767523, Q3 : -0.000501863076352, Q4 : -0.000761708128266}
2019-04-14 16:36:41.91: SIM {TimeUS : 47535145, Roll : -0.06, Pitch : -0.08, Yaw : 359.9, Alt : 36.7099990845, Lat : 49.2835704, Lng : -123.1150207, Q1 : 0.999999284744, Q2 : -0.00059397512814, Q3 : -0.000713675457519, Q4 : -0.000792053819168}
2019-04-14 16:36:42.01: SIM {TimeUS : 47635105, Roll : -0.09, Pitch : -0.1, Yaw : 359.9, Alt : 36.9399986267, Lat : 49.2835704, Lng : -123.1150207, Q1 : 0.999998927116, Q2 : -0.000869870069437, Q3 : -0.000875349913258, Q4 : -0.000821097870357}
2019-04-14 16:36:42.11: SIM {TimeUS : 47735065, Roll : -0.1, Pitch : -0.09, Yaw : 359.9, Alt : 37.1599998474, Lat : 49.2835704, Lng : -123.1150207, Q1 : 0.999998867512, Q2 : -0.000908901100047, Q3 : -0.000863863737322, Q4 : -0.00084962073015}
2019-04-14 16:36:42.21: SIM {TimeUS : 47835025, Roll : -0.09, Pitch : -0.08, Yaw : 359.89, Alt : 37.3899993896, Lat : 49.2835704, Lng : -123.1150207, Q1 : 0.999999046326, Q2 : -0.000815570005216, Q3 : -0.000723956618458, Q4 : -0.000877294398379}
2019-04-14 16:36:42.31: SIM {TimeUS : 47934985, Roll : -0.07, Pitch : -0.05, Yaw : 359.89, Alt : 37.6100006104, Lat : 49.2835704, Lng : -123.1150207, Q1 : 0.999999284744, Q2 : -0.000661921338178, Q3 : -0.000467984122224, Q4 : -0.000903234991711}
2019-04-14 16:36:42.41: SIM {TimeUS : 48034945, Roll : -0.05, Pitch : -0.03, Yaw : 359.89, Alt : 37.8400001526, Lat : 49.2835704, Lng : -123.1150207, Q1 : 0.999999403954, Q2 : -0.000508197408635, Q3 : -0.000281154178083, Q4 : -0.000923654122744}
2019-04-14 16:36:42.51: SIM {TimeUS : 48134905, Roll : -0.06, Pitch : -0.03, Yaw : 359.89, Alt : 38.0600013733, Lat : 49.2835704, Lng : -123.1150207, Q1 : 0.999999344349, Q2 : -0.000540196197107, Q3 : -0.000276660459349, Q4 : -0.000939077290241}
2019-04-14 16:36:42.61: SIM {TimeUS : 48234865, Roll : -0.07, Pitch : -0.02, Yaw : 359.89, Alt : 38.2900009155, Lat : 49.2835704, Lng : -123.1150207, Q1 : 0.999999344349, Q2 : -0.000622887921054, Q3 : -0.000190381178982, Q4 : -0.000949313223828}
2019-04-14 16:36:42.71: SIM {TimeUS : 48334825, Roll : -0.09, Pitch : 0.0, Yaw : 359.88, Alt : 38.5200004578, Lat : 49.2835704, Lng : -123.1150207, Q1 : 0.99999922514, Q2 : -0.00082528119674, Q3 : -6.95094859111e-05, Q4 : -0.000961104873568}
2019-04-14 16:36:42.81: SIM {TimeUS : 48434785, Roll : -0.09, Pitch : 0.0, Yaw : 359.88, Alt : 38.75, Lat : 49.2835704, Lng : -123.1150207, Q1 : 0.999999165535, Q2 : -0.000846971990541, Q3 : 4.19290881837e-05, Q4 : -0.000967834843323}
2019-04-14 16:36:42.91: SIM {TimeUS : 48534745, Roll : -0.07, Pitch : 0.02, Yaw : 359.88, Alt : 38.9799995422, Lat : 49.2835706, Lng : -123.1150207, Q1 : 0.999999284744, Q2 : -0.000664558610879, Q3 : 0.000253255653661, Q4 : -0.000978169264272}
2019-04-14 16:36:43.01: SIM {TimeUS : 48634705, Roll : -0.04, Pitch : 0.02, Yaw : 359.88, Alt : 39.2099990845, Lat : 49.2835706, Lng : -123.1150207, Q1 : 0.999999403954, Q2 : -0.000396288844058, Q3 : 0.000231932805036, Q4 : -0.000987699371763}
2019-04-14 16:36:43.11: SIM {TimeUS : 48734665, Roll : 0.0, Pitch : 0.01, Yaw : 359.88, Alt : 39.4399986267, Lat : 49.2835706, Lng : -123.1150207, Q1 : 0.999999523163, Q2 : -8.2177000877e-05, Q3 : 0.000173862485099, Q4 : -0.000998043920845}
2019-04-14 16:36:43.21: SIM {TimeUS : 48834625, Roll : 0.03, Pitch : 0.04, Yaw : 359.88, Alt : 39.6699981689, Lat : 49.2835706, Lng : -123.1150207, Q1 : 0.999999403954, Q2 : 0.000299253675621, Q3 : 0.000351211201632, Q4 : -0.00100792187732}
2019-04-14 16:36:43.32: SIM {TimeUS : 48935418, Roll : 0.07, Pitch : 0.07, Yaw : 359.88, Alt : 39.9000015259, Lat : 49.2835706, Lng : -123.1150207, Q1 : 0.999998986721, Q2 : 0.000697250012308, Q3 : 0.000678790849634, Q4 : -0.00102362618782}
2019-04-14 16:36:43.41: SIM {TimeUS : 49035378, Roll : 0.1, Pitch : 0.11, Yaw : 359.88, Alt : 40.1300010681, Lat : 49.2835706, Lng : -123.1150207, Q1 : 0.999998509884, Q2 : 0.000949371722527, Q3 : 0.000981009681709, Q4 : -0.00104606768582}
2019-04-14 16:36:43.51: SIM {TimeUS : 49135338, Roll : 0.09, Pitch : 0.14, Yaw : 359.87, Alt : 40.3600006104, Lat : 49.2835706, Lng : -123.1150207, Q1 : 0.999998271465, Q2 : 0.000848141789902, Q3 : 0.00128094386309, Q4 : -0.00106356409378}
2019-04-14 16:36:43.61: SIM {TimeUS : 49235298, Roll : 0.04, Pitch : 0.17, Yaw : 359.87, Alt : 40.5900001526, Lat : 49.2835706, Lng : -123.1150207, Q1 : 0.999998092651, Q2 : 0.000413348403526, Q3 : 0.00155536597595, Q4 : -0.00109633686952}
2019-04-14 16:36:43.71: SIM {TimeUS : 49335258, Roll : 0.0, Pitch : 0.19, Yaw : 359.87, Alt : 40.8300018311, Lat : 49.2835706, Lng : -123.1150207, Q1 : 0.999997973442, Q2 : 1.28948113343e-05, Q3 : 0.00166703609284, Q4 : -0.00111818197183}
2019-04-14 16:36:43.81: SIM {TimeUS : 49435218, Roll : -0.02, Pitch : 0.17, Yaw : 359.87, Alt : 41.0600013733, Lat : 49.2835706, Lng : -123.1150207, Q1 : 0.999998211861, Q2 : -0.000244330149144, Q3 : 0.00149107573088, Q4 : -0.00113200361375}
2019-04-14 16:36:43.91: SIM {TimeUS : 49535178, Roll : -0.04, Pitch : 0.14, Yaw : 359.86, Alt : 41.2900009155, Lat : 49.2835706, Lng : -123.1150207, Q1 : 0.999998509884, Q2 : -0.000365530169802, Q3 : 0.00123259925749, Q4 : -0.00115612347145}
2019-04-14 16:36:44.01: SIM {TimeUS : 49635138, Roll : -0.03, Pitch : 0.13, Yaw : 359.86, Alt : 41.5299987793, Lat : 49.2835706, Lng : -123.1150207, Q1 : 0.999998569489, Q2 : -0.000274660997093, Q3 : 0.00115069863386, Q4 : -0.00119010359049}
2019-04-14 16:36:44.11: SIM {TimeUS : 49735098, Roll : 0.0, Pitch : 0.14, Yaw : 359.85, Alt : 41.7599983215, Lat : 49.2835706, Lng : -123.1150207, Q1 : 0.999998509884, Q2 : 8.40756329126e-05, Q3 : 0.00123314140365, Q4 : -0.00123202044051}
2019-04-14 16:36:44.21: SIM {TimeUS : 49835058, Roll : 0.06, Pitch : 0.14, Yaw : 359.85, Alt : 41.9900016785, Lat : 49.2835706, Lng : -123.1150207, Q1 : 0.999998211861, Q2 : 0.000547617964912, Q3 : 0.00126645551063, Q4 : -0.00127636478283}
2019-04-14 16:36:44.31: SIM {TimeUS : 49935018, Roll : 0.1, Pitch : 0.11, Yaw : 359.84, Alt : 42.2299995422, Lat : 49.2835706, Lng : -123.1150207, Q1 : 0.999998152256, Q2 : 0.00090350973187, Q3 : 0.00103952130303, Q4 : -0.00132189085707}
2019-04-14 16:36:44.41: SIM {TimeUS : 50034978, Roll : 0.1, Pitch : 0.08, Yaw : 359.84, Alt : 42.4599990845, Lat : 49.2835706, Lng : -123.1150207, Q1 : 0.99999833107, Q2 : 0.000948685104959, Q3 : 0.000717399118003, Q4 : -0.00136296497658}
2019-04-14 16:36:44.51: SIM {TimeUS : 50134938, Roll : 0.07, Pitch : 0.06, Yaw : 359.84, Alt : 42.7000007629, Lat : 49.2835706, Lng : -123.1150207, Q1 : 0.999998688698, Q2 : 0.000622040010057, Q3 : 0.000529450364411, Q4 : -0.00139259325806}
2019-04-14 16:36:44.61: SIM {TimeUS : 50234898, Roll : 0.01, Pitch : 0.05, Yaw : 359.83, Alt : 42.9300003052, Lat : 49.2835706, Lng : -123.1150207, Q1 : 0.999998867512, Q2 : 0.000126729690237, Q3 : 0.000507380696945, Q4 : -0.00141369504854}
2019-04-14 16:36:44.71: SIM {TimeUS : 50334858, Roll : -0.02, Pitch : 0.07, Yaw : 359.83, Alt : 43.1599998474, Lat : 49.2835704, Lng : -123.1150207, Q1 : 0.999998748302, Q2 : -0.000239318687818, Q3 : 0.000689709908329, Q4 : -0.0014281795593}
2019-04-14 16:36:44.81: SIM {TimeUS : 50434818, Roll : -0.05, Pitch : 0.09, Yaw : 359.83, Alt : 43.4000015259, Lat : 49.2835704, Lng : -123.1150207, Q1 : 0.999998569489, Q2 : -0.000437873211922, Q3 : 0.000800215057097, Q4 : -0.00143876019865}
2019-04-14 16:36:44.91: SIM {TimeUS : 50534778, Roll : -0.05, Pitch : 0.08, Yaw : 359.83, Alt : 43.6399993896, Lat : 49.2835704, Lng : -123.1150207, Q1 : 0.999998569489, Q2 : -0.000439280818682, Q3 : 0.000704941805452, Q4 : -0.0014493042836}
2019-04-14 16:36:45.01: SIM {TimeUS : 50634738, Roll : -0.05, Pitch : 0.06, Yaw : 359.83, Alt : 43.8699989319, Lat : 49.2835704, Lng : -123.1150207, Q1 : 0.999998688698, Q2 : -0.000489359779749, Q3 : 0.000565409602132, Q4 : -0.00146421068348}
2019-04-14 16:36:45.11: SIM {TimeUS : 50734698, Roll : -0.05, Pitch : 0.04, Yaw : 359.83, Alt : 44.1100006104, Lat : 49.2835704, Lng : -123.1150206, Q1 : 0.999998748302, Q2 : -0.000448775390396, Q3 : 0.000396114046453, Q4 : -0.00147861836012}
2019-04-14 16:36:45.21: SIM {TimeUS : 50834658, Roll : -0.03, Pitch : 0.03, Yaw : 359.82, Alt : 44.3400001526, Lat : 49.2835704, Lng : -123.1150206, Q1 : 0.999998807907, Q2 : -0.000316752091749, Q3 : 0.000277409941191, Q4 : -0.00149411242455}
2019-04-14 16:36:45.31: SIM {TimeUS : 50934618, Roll : -0.02, Pitch : 0.02, Yaw : 359.82, Alt : 44.5800018311, Lat : 49.2835704, Lng : -123.1150206, Q1 : 0.999998807907, Q2 : -0.000242927490035, Q3 : 0.000225829164265, Q4 : -0.00151007820386}
2019-04-14 16:36:45.41: SIM {TimeUS : 51035411, Roll : -0.02, Pitch : 0.0, Yaw : 359.82, Alt : 44.8199996948, Lat : 49.2835704, Lng : -123.1150206, Q1 : 0.999998807907, Q2 : -0.000248266616836, Q3 : 7.86640375736e-05, Q4 : -0.00152917183004}
2019-04-14 16:36:45.51: SIM {TimeUS : 51135371, Roll : -0.03, Pitch : -0.02, Yaw : 359.82, Alt : 45.0499992371, Lat : 49.2835704, Lng : -123.1150206, Q1 : 0.999998748302, Q2 : -0.000282183114905, Q3 : -0.000226705989917, Q4 : -0.00155356316827}
2019-04-14 16:36:45.61: SIM {TimeUS : 51235331, Roll : -0.03, Pitch : -0.04, Yaw : 359.81, Alt : 45.2900009155, Lat : 49.2835703, Lng : -123.1150206, Q1 : 0.999998629093, Q2 : -0.000304580433294, Q3 : -0.000409456028137, Q4 : -0.00158369645942}
2019-04-14 16:36:45.71: SIM {TimeUS : 51335291, Roll : -0.02, Pitch : -0.05, Yaw : 359.81, Alt : 45.5200004578, Lat : 49.2835703, Lng : -123.1150206, Q1 : 0.999998569489, Q2 : -0.000204543641303, Q3 : -0.000443495577201, Q4 : -0.00161852338351}
2019-04-14 16:36:45.81: SIM {TimeUS : 51435251, Roll : -0.02, Pitch : -0.04, Yaw : 359.81, Alt : 45.7599983215, Lat : 49.2835703, Lng : -123.1150206, Q1 : 0.999998509884, Q2 : -0.000210423284443, Q3 : -0.000398137635784, Q4 : -0.00165681145154}
2019-04-14 16:36:45.91: SIM {TimeUS : 51535211, Roll : -0.04, Pitch : -0.03, Yaw : 359.8, Alt : 45.9900016785, Lat : 49.2835703, Lng : -123.1150206, Q1 : 0.999998450279, Q2 : -0.000398745207349, Q3 : -0.000297553546261, Q4 : -0.00169808627106}
2019-04-14 16:36:46.01: SIM {TimeUS : 51635171, Roll : -0.08, Pitch : -0.02, Yaw : 359.8, Alt : 46.2200012207, Lat : 49.2835703, Lng : -123.1150206, Q1 : 0.999998211861, Q2 : -0.000724917044863, Q3 : -0.000239415050601, Q4 : -0.00173586420715}
2019-04-14 16:36:46.11: SIM {TimeUS : 51735131, Roll : -0.11, Pitch : -0.02, Yaw : 359.79, Alt : 46.4399986267, Lat : 49.2835703, Lng : -123.1150206, Q1 : 0.999997913837, Q2 : -0.00097685738001, Q3 : -0.000226385949645, Q4 : -0.00177008425817}
2019-04-14 16:36:46.21: SIM {TimeUS : 51835091, Roll : -0.12, Pitch : -0.01, Yaw : 359.79, Alt : 46.6599998474, Lat : 49.2835703, Lng : -123.1150206, Q1 : 0.999997794628, Q2 : -0.00104862474836, Q3 : -0.000161127536558, Q4 : -0.00179703440517}
2019-04-14 16:36:46.31: SIM {TimeUS : 51935051, Roll : -0.11, Pitch : 0.0, Yaw : 359.79, Alt : 46.8800010681, Lat : 49.2835703, Lng : -123.1150206, Q1 : 0.999997913837, Q2 : -0.000960824952926, Q3 : -7.48567617848e-06, Q4 : -0.00181824923493}
2019-04-14 16:36:46.41: SIM {TimeUS : 52035011, Roll : -0.08, Pitch : 0.0, Yaw : 359.78, Alt : 47.0900001526, Lat : 49.2835703, Lng : -123.1150206, Q1 : 0.999998033047, Q2 : -0.000773182837293, Q3 : 5.76151905989e-05, Q4 : -0.00183843227569}
2019-04-14 16:36:46.51: SIM {TimeUS : 52134971, Roll : -0.06, Pitch : 0.0, Yaw : 359.78, Alt : 47.2900009155, Lat : 49.2835703, Lng : -123.1150206, Q1 : 0.999998092651, Q2 : -0.000598429527599, Q3 : 1.99780861294e-05, Q4 : -0.00185685453471}
2019-04-14 16:36:46.61: SIM {TimeUS : 52234931, Roll : -0.05, Pitch : -0.01, Yaw : 359.78, Alt : 47.4799995422, Lat : 49.2835703, Lng : -123.1150206, Q1 : 0.999998092651, Q2 : -0.000493941479363, Q3 : -0.000130939413793, Q4 : -0.00187239958905}
2019-04-14 16:36:46.71: SIM {TimeUS : 52334891, Roll : -0.04, Pitch : -0.04, Yaw : 359.78, Alt : 47.6599998474, Lat : 49.2835703, Lng : -123.1150206, Q1 : 0.999998092651, Q2 : -0.000395295879571, Q3 : -0.000360314646969, Q4 : -0.00189063150901}
2019-04-14 16:36:46.81: SIM {TimeUS : 52434851, Roll : -0.03, Pitch : -0.07, Yaw : 359.78, Alt : 47.8300018311, Lat : 49.2835703, Lng : -123.1150206, Q1 : 0.999997913837, Q2 : -0.000332028314006, Q3 : -0.000615237746388, Q4 : -0.00191163062118}
2019-04-14 16:36:46.91: SIM {TimeUS : 52534811, Roll : -0.03, Pitch : -0.1, Yaw : 359.77, Alt : 47.9900016785, Lat : 49.2835703, Lng : -123.1150206, Q1 : 0.999997675419, Q2 : -0.000315810699249, Q3 : -0.000904797110707, Q4 : -0.00193505582865}
2019-04-14 16:36:47.01: SIM {TimeUS : 52634771, Roll : -0.03, Pitch : -0.12, Yaw : 359.77, Alt : 48.1399993896, Lat : 49.2835703, Lng : -123.1150206, Q1 : 0.999997377396, Q2 : -0.000346679094946, Q3 : -0.00111357157584, Q4 : -0.00195937883109}
2019-04-14 16:36:47.11: SIM {TimeUS : 52734731, Roll : -0.01, Pitch : -0.12, Yaw : 359.77, Alt : 48.2799987793, Lat : 49.2835703, Lng : -123.1150206, Q1 : 0.999997437, Q2 : -0.000112574867671, Q3 : -0.00109083321877, Q4 : -0.0019839964807}
2019-04-14 16:36:47.21: SIM {TimeUS : 52834691, Roll : 0.02, Pitch : -0.1, Yaw : 359.76, Alt : 48.4000015259, Lat : 49.2835703, Lng : -123.1150206, Q1 : 0.999997496605, Q2 : 0.000211494494579, Q3 : -0.000931921647862, Q4 : -0.00201122579165}
2019-04-14 16:36:47.31: SIM {TimeUS : 52934651, Roll : 0.05, Pitch : -0.07, Yaw : 359.76, Alt : 48.5200004578, Lat : 49.2835703, Lng : -123.1150207, Q1 : 0.99999755621, Q2 : 0.000487390818307, Q3 : -0.00067626836244, Q4 : -0.00204206374474}
2019-04-14 16:36:47.42: SIM {TimeUS : 53035444, Roll : 0.06, Pitch : -0.04, Yaw : 359.76, Alt : 48.6199989319, Lat : 49.2835703, Lng : -123.1150207, Q1 : 0.999997615814, Q2 : 0.000596053199843, Q3 : -0.000410344626289, Q4 : -0.00207168725319}
2019-04-14 16:36:47.51: SIM {TimeUS : 53135404, Roll : 0.07, Pitch : -0.02, Yaw : 359.75, Alt : 48.7000007629, Lat : 49.2835703, Lng : -123.1150207, Q1 : 0.99999755621, Q2 : 0.000679554999806, Q3 : -0.000235919898842, Q4 : -0.00210269633681}
2019-04-14 16:36:47.61: SIM {TimeUS : 53235364, Roll : 0.07, Pitch : -0.03, Yaw : 359.75, Alt : 48.7799987793, Lat : 49.2835703, Lng : -123.1150207, Q1 : 0.999997496605, Q2 : 0.000636109325569, Q3 : -0.000264928035904, Q4 : -0.0021346390713}
2019-04-14 16:36:47.71: SIM {TimeUS : 53335324, Roll : 0.04, Pitch : -0.03, Yaw : 359.75, Alt : 48.8499984741, Lat : 49.2835703, Lng : -123.1150207, Q1 : 0.99999755621, Q2 : 0.000382177095162, Q3 : -0.000292507378617, Q4 : -0.00216331263073}
2019-04-14 16:36:47.81: SIM {TimeUS : 53435284, Roll : 0.01, Pitch : -0.02, Yaw : 359.74, Alt : 48.9099998474, Lat : 49.2835703, Lng : -123.1150207, Q1 : 0.99999755621, Q2 : 0.000147057682625, Q3 : -0.000205806267331, Q4 : -0.00218849326484}
2019-04-14 16:36:47.91: SIM {TimeUS : 53535244, Roll : 0.0, Pitch : -0.01, Yaw : 359.74, Alt : 48.9500007629, Lat : 49.2835704, Lng : -123.1150207, Q1 : 0.99999755621, Q2 : -2.45753781201e-05, Q3 : -0.000147301587276, Q4 : -0.00221199961379}
2019-04-14 16:36:48.01: SIM {TimeUS : 53635204, Roll : 0.01, Pitch : -0.02, Yaw : 359.74, Alt : 49.0, Lat : 49.2835704, Lng : -123.1150207, Q1 : 0.999997496605, Q2 : 9.24057821976e-05, Q3 : -0.000243682181463, Q4 : -0.00223615672439}
2019-04-14 16:36:48.11: SIM {TimeUS : 53735164, Roll : 0.13, Pitch : -0.15, Yaw : 359.74, Alt : 49.0299987793, Lat : 49.2835704, Lng : -123.1150207, Q1 : 0.999995827675, Q2 : 0.0011978050461, Q3 : -0.00135852990206, Q4 : -0.00226117973216}
2019-04-14 16:36:48.21: SIM {TimeUS : 53835124, Roll : 0.42, Pitch : -0.51, Yaw : 359.73, Alt : 49.0600013733, Lat : 49.2835704, Lng : -123.1150207, Q1 : 0.999980688095, Q2 : 0.00366240181029, Q3 : -0.0044769551605, Q4 : -0.00227877125144}
2019-04-14 16:36:48.31: SIM {TimeUS : 53935084, Roll : 0.84, Pitch : -1.11, Yaw : 359.72, Alt : 49.0900001526, Lat : 49.2835704, Lng : -123.1150207, Q1 : 0.999922454357, Q2 : 0.00735011743382, Q3 : -0.00978885032237, Q4 : -0.00229609501548}
2019-04-14 16:36:48.41: SIM {TimeUS : 54035044, Roll : 1.36, Pitch : -1.9, Yaw : 359.71, Alt : 49.1100006104, Lat : 49.2835704, Lng : -123.1150207, Q1 : 0.999788045883, Q2 : 0.01188270282, Q3 : -0.0166558455676, Q4 : -0.00229824171402}
2019-04-14 16:36:48.51: SIM {TimeUS : 54135004, Roll : 1.93, Pitch : -2.78, Yaw : 359.69, Alt : 49.1300010681, Lat : 49.2835706, Lng : -123.1150206, Q1 : 0.999558866024, Q2 : 0.0168465208262, Q3 : -0.0243555009365, Q4 : -0.0022564784158}
2019-04-14 16:36:48.61: SIM {TimeUS : 54234964, Roll : 2.48, Pitch : -3.62, Yaw : 359.67, Alt : 49.1500015259, Lat : 49.2835707, Lng : -123.1150205, Q1 : 0.999261379242, Q2 : 0.021609030664, Q3 : -0.0317037329078, Q4 : -0.00215220497921}
2019-04-14 16:36:48.71: SIM {TimeUS : 54334924, Roll : 2.94, Pitch : -4.28, Yaw : 359.66, Alt : 49.1599998474, Lat : 49.2835708, Lng : -123.1150204, Q1 : 0.998968422413, Q2 : 0.025565745309, Q3 : -0.0374779179692, Q4 : -0.00197262549773}
2019-04-14 16:36:48.81: SIM {TimeUS : 54434884, Roll : 3.27, Pitch : -4.77, Yaw : 359.66, Alt : 49.1800003052, Lat : 49.2835709, Lng : -123.1150202, Q1 : 0.998724460602, Q2 : 0.0284450855106, Q3 : -0.0416806675494, Q4 : -0.00173845945392}
2019-04-14 16:36:48.91: SIM {TimeUS : 54534844, Roll : 3.52, Pitch : -5.12, Yaw : 359.67, Alt : 49.1899986267, Lat : 49.2835713, Lng : -123.11502, Q1 : 0.998528540134, Q2 : 0.0305958613753, Q3 : -0.0447497107089, Q4 : -0.0014700157335}
2019-04-14 16:36:49.01: SIM {TimeUS : 54634804, Roll : 3.71, Pitch : -5.4, Yaw : 359.68, Alt : 49.2000007629, Lat : 49.2835715, Lng : -123.1150197, Q1 : 0.998362004757, Q2 : 0.0322485715151, Q3 : -0.0472422800958, Q4 : -0.00119857676327}
2019-04-14 16:36:49.11: SIM {TimeUS : 54734764, Roll : 3.89, Pitch : -5.69, Yaw : 359.69, Alt : 49.2099990845, Lat : 49.283572, Lng : -123.1150193, Q1 : 0.998188078403, Q2 : 0.03380099684, Q3 : -0.0497706159949, Q4 : -0.00094344781246}
2019-04-14 16:36:49.21: SIM {TimeUS : 54834724, Roll : 4.1, Pitch : -6.02, Yaw : 359.7, Alt : 49.2200012207, Lat : 49.2835724, Lng : -123.1150188, Q1 : 0.997977435589, Q2 : 0.0356701165438, Q3 : -0.0526143014431, Q4 : -0.000689755601343}
2019-04-14 16:36:49.31: SIM {TimeUS : 54934684, Roll : 4.33, Pitch : -6.34, Yaw : 359.7, Alt : 49.2200012207, Lat : 49.2835728, Lng : -123.1150183, Q1 : 0.997753024101, Q2 : 0.0376656390727, Q3 : -0.0554081313312, Q4 : -0.000429904117482}
2019-04-14 16:36:49.41: SIM {TimeUS : 55034644, Roll : 4.52, Pitch : -6.6, Yaw : 359.71, Alt : 49.2299995422, Lat : 49.2835734, Lng : -123.1150177, Q1 : 0.997564435005, Q2 : 0.03928168118, Q3 : -0.0576381534338, Q4 : -0.000188804930076}
2019-04-14 16:36:49.52: SIM {TimeUS : 55135437, Roll : 4.66, Pitch : -6.79, Yaw : 359.72, Alt : 49.2299995422, Lat : 49.283574, Lng : -123.1150171, Q1 : 0.997421622276, Q2 : 0.0404425784945, Q3 : -0.0592829994857, Q4 : 4.72840929433e-06}
2019-04-14 16:36:49.61: SIM {TimeUS : 55235397, Roll : 4.73, Pitch : -6.92, Yaw : 359.72, Alt : 49.2400016785, Lat : 49.2835747, Lng : -123.1150163, Q1 : 0.997326433659, Q2 : 0.0410760901868, Q3 : -0.0604375936091, Q4 : 0.00014239459415}
2019-04-14 16:36:49.71: SIM {TimeUS : 55335357, Roll : 4.78, Pitch : -7.01, Yaw : 359.73, Alt : 49.2400016785, Lat : 49.2835755, Lng : -123.1150156, Q1 : 0.997257828712, Q2 : 0.0415362901986, Q3 : -0.0612492375076, Q4 : 0.000243622169364}
2019-04-14 16:36:49.81: SIM {TimeUS : 55435317, Roll : 4.84, Pitch : -7.1, Yaw : 359.73, Alt : 49.25, Lat : 49.2835763, Lng : -123.1150147, Q1 : 0.997190892696, Q2 : 0.0420194156468, Q3 : -0.0620045028627, Q4 : 0.000301059742924}
2019-04-14 16:36:49.91: SIM {TimeUS : 55535277, Roll : 5.0, Pitch : -7.2, Yaw : 359.75, Alt : 49.25, Lat : 49.2835771, Lng : -123.1150138, Q1 : 0.997076153755, Q2 : 0.0434063673019, Q3 : -0.0628862604499, Q4 : 0.000593762670178}
2019-04-14 16:36:50.01: SIM {TimeUS : 55635237, Roll : 5.44, Pitch : -7.25, Yaw : 0.11, Alt : 49.2599983215, Lat : 49.2835781, Lng : -123.1150129, Q1 : 0.996870756149, Q2 : 0.0474318452179, Q3 : -0.0631125196815, Q4 : 0.00395989045501}
2019-04-14 16:36:50.11: SIM {TimeUS : 55735197, Roll : 6.11, Pitch : -7.29, Yaw : 1.46, Alt : 49.2599983215, Lat : 49.2835789, Lng : -123.1150118, Q1 : 0.996425271034, Q2 : 0.0540538541973, Q3 : -0.0628812238574, Q4 : 0.0161484964192}
2019-04-14 16:36:50.21: SIM {TimeUS : 55835157, Roll : 6.65, Pitch : -7.58, Yaw : 4.35, Alt : 49.2599983215, Lat : 49.28358, Lng : -123.1150107, Q1 : 0.995264410973, Q2 : 0.0603753626347, Q3 : -0.0637905746698, Q4 : 0.0416460894048}
2019-04-14 16:36:50.31: SIM {TimeUS : 55935117, Roll : 6.72, Pitch : -8.21, Yaw : 8.82, Alt : 49.2599983215, Lat : 49.2835811, Lng : -123.1150095, Q1 : 0.992438614368, Q2 : 0.0638378039002, Q3 : -0.0667566284537, Q4 : 0.0808321237564}
2019-04-14 16:36:50.41: SIM {TimeUS : 56035077, Roll : 6.11, Pitch : -9.13, Yaw : 14.71, Alt : 49.2599983215, Lat : 49.2835822, Lng : -123.1150082, Q1 : 0.986662685871, Q2 : 0.0628949180245, Q3 : -0.0720405876637, Q4 : 0.131723731756}
2019-04-14 16:36:50.51: SIM {TimeUS : 56135037, Roll : 4.54, Pitch : -10.22, Yaw : 21.62, Alt : 49.2599983215, Lat : 49.2835832, Lng : -123.1150068, Q1 : 0.976911723614, Q2 : 0.055469058454, Q3 : -0.0800533443689, Q4 : 0.190153032541}
2019-04-14 16:36:50.61: SIM {TimeUS : 56234997, Roll : 2.04, Pitch : -11.24, Yaw : 28.8, Alt : 49.2700004578, Lat : 49.2835844, Lng : -123.1150053, Q1 : 0.96332269907, Q2 : 0.0415664725006, Q3 : -0.0904634445906, Q4 : 0.249194607139}
2019-04-14 16:36:50.71: SIM {TimeUS : 56334957, Roll : -0.91, Pitch : -11.96, Yaw : 35.48, Alt : 49.2700004578, Lat : 49.2835856, Lng : -123.1150037, Q1 : 0.947477161884, Q2 : 0.0242125336081, Q3 : -0.101665131748, Q4 : 0.302266359329}
2019-04-14 16:36:50.81: SIM {TimeUS : 56434917, Roll : -3.66, Pitch : -12.31, Yaw : 40.97, Alt : 49.2700004578, Lat : 49.2835871, Lng : -123.1150021, Q1 : 0.932080149651, Q2 : 0.00774379074574, Q3 : -0.111561268568, Q4 : 0.344558775425}
2019-04-14 16:36:50.91: SIM {TimeUS : 56534877, Roll : -5.65, Pitch : -12.43, Yaw : 44.82, Alt : 49.2700004578, Lat : 49.2835885, Lng : -123.1150004, Q1 : 0.919953286648, Q2 : -0.00407657353207, Q3 : -0.118661731482, Q4 : 0.373615771532}
2019-04-14 16:36:51.01: SIM {TimeUS : 56634837, Roll : -6.64, Pitch : -12.48, Yaw : 46.92, Alt : 49.2700004578, Lat : 49.2835899, Lng : -123.1149988, Q1 : 0.91284930706, Q2 : -0.0095963543281, Q3 : -0.122490249574, Q4 : 0.389371544123}
2019-04-14 16:36:51.11: SIM {TimeUS : 56734797, Roll : -6.67, Pitch : -12.62, Yaw : 47.45, Alt : 49.2700004578, Lat : 49.2835916, Lng : -123.1149971, Q1 : 0.910955905914, Q2 : -0.00880238693208, Q3 : -0.123769626021, Q4 : 0.393399268389}
2019-04-14 16:36:51.21: SIM {TimeUS : 56834757, Roll : -5.96, Pitch : -12.94, Yaw : 46.69, Alt : 49.2700004578, Lat : 49.2835933, Lng : -123.1149955, Q1 : 0.913354456425, Q2 : -0.00285613164306, Q3 : -0.123874567449, Q4 : 0.38785392046}
2019-04-14 16:36:51.31: SIM {TimeUS : 56934717, Roll : -4.77, Pitch : -13.44, Yaw : 44.97, Alt : 49.2700004578, Lat : 49.2835951, Lng : -123.1149938, Q1 : 0.918683826923, Q2 : 0.00654628593475, Q3 : -0.123903788626, Q4 : 0.374999940395}
2019-04-14 16:36:51.41: SIM {TimeUS : 57034677, Roll : -3.29, Pitch : -14.05, Yaw : 42.6, Alt : 49.2700004578, Lat : 49.283597, Lng : -123.1149921, Q1 : 0.925588190556, Q2 : 0.017838658765, Q3 : -0.124271094799, Q4 : 0.357106387615}
2019-04-14 16:36:51.51: SIM {TimeUS : 57134637, Roll : -1.71, Pitch : -14.64, Yaw : 39.88, Alt : 49.2700004578, Lat : 49.2835989, Lng : -123.1149903, Q1 : 0.932930886745, Q2 : 0.0294763855636, Q3 : -0.124853365123, Q4 : 0.336426496506}
2019-04-14 16:36:51.62: SIM {TimeUS : 57235430, Roll : -0.19, Pitch : -15.11, Yaw : 37.09, Alt : 49.2799987793, Lat : 49.283601, Lng : -123.1149885, Q1 : 0.939884841442, Q2 : 0.0402278155088, Q3 : -0.125219970942, Q4 : 0.31514787674}
2019-04-14 16:36:51.71: SIM {TimeUS : 57335390, Roll : 1.11, Pitch : -15.4, Yaw : 34.6, Alt : 49.2799987793, Lat : 49.2836031, Lng : -123.1149865, Q1 : 0.945704936981, Q2 : 0.049035128206, Q3 : -0.125056147575, Q4 : 0.295970767736}
2019-04-14 16:36:51.81: SIM {TimeUS : 57435350, Roll : 2.1, Pitch : -15.53, Yaw : 32.61, Alt : 49.2799987793, Lat : 49.2836053, Lng : -123.1149845, Q1 : 0.950107038021, Q2 : 0.0553915351629, Q3 : -0.124574959278, Q4 : 0.280552119017}
2019-04-14 16:36:51.91: SIM {TimeUS : 57535310, Roll : 2.71, Pitch : -15.56, Yaw : 31.26, Alt : 49.2799987793, Lat : 49.2836074, Lng : -123.1149823, Q1 : 0.953000187874, Q2 : 0.0591187179089, Q3 : -0.124036505818, Q4 : 0.270019620657}
2019-04-14 16:36:52.01: SIM {TimeUS : 57635270, Roll : 2.94, Pitch : -15.56, Yaw : 30.6, Alt : 49.2799987793, Lat : 49.2836097, Lng : -123.11498, Q1 : 0.9544454813, Q2 : 0.0602296814322, Q3 : -0.123826369643, Q4 : 0.264713525772}
2019-04-14 16:36:52.11: SIM {TimeUS : 57735230, Roll : 2.79, Pitch : -15.57, Yaw : 30.56, Alt : 49.2799987793, Lat : 49.2836118, Lng : -123.1149777, Q1 : 0.954577863216, Q2 : 0.0590433105826, Q3 : -0.12425519526, Q4 : 0.264302194118}
2019-04-14 16:36:52.21: SIM {TimeUS : 57835190, Roll : 2.37, Pitch : -15.62, Yaw : 31.06, Alt : 49.2799987793, Lat : 49.2836142, Lng : -123.1149752, Q1 : 0.95356887579, Q2 : 0.056211348623, Q3 : -0.125459998846, Q4 : 0.267967313528}
2019-04-14 16:36:52.31: SIM {TimeUS : 57935150, Roll : 1.76, Pitch : -15.74, Yaw : 31.94, Alt : 49.2799987793, Lat : 49.2836165, Lng : -123.1149727, Q1 : 0.951638698578, Q2 : 0.0523868761957, Q3 : -0.127497568727, Q4 : 0.274561196566}
2019-04-14 16:36:52.41: SIM {TimeUS : 58035110, Roll : 1.05, Pitch : -15.9, Yaw : 33.03, Alt : 49.2799987793, Lat : 49.2836189, Lng : -123.1149701, Q1 : 0.949097931385, Q2 : 0.0480978377163, Q3 : -0.130047947168, Q4 : 0.282820224762}
2019-04-14 16:36:52.51: SIM {TimeUS : 58135070, Roll : 0.33, Pitch : -16.06, Yaw : 34.19, Alt : 49.2799987793, Lat : 49.2836214, Lng : -123.1149674, Q1 : 0.946292877197, Q2 : 0.0438240021467, Q3 : -0.132736235857, Q4 : 0.291531085968}
2019-04-14 16:36:52.61: SIM {TimeUS : 58235030, Roll : -0.31, Pitch : -16.17, Yaw : 35.28, Alt : 49.2799987793, Lat : 49.2836238, Lng : -123.1149646, Q1 : 0.943601310253, Q2 : 0.0400260798633, Q3 : -0.134939581156, Q4 : 0.299676090479}
2019-04-14 16:36:52.71: SIM {TimeUS : 58334990, Roll : -0.81, Pitch : -16.24, Yaw : 36.18, Alt : 49.2799987793, Lat : 49.2836263, Lng : -123.1149619, Q1 : 0.94130885601, Q2 : 0.0371995940804, Q3 : -0.136451229453, Q4 : 0.306488007307}
2019-04-14 16:36:52.81: SIM {TimeUS : 58434950, Roll : -1.14, Pitch : -16.27, Yaw : 36.83, Alt : 49.2799987793, Lat : 49.283629, Lng : -123.1149591, Q1 : 0.939619719982, Q2 : 0.0353074073792, Q3 : -0.137416124344, Q4 : 0.311424106359}
2019-04-14 16:36:52.91: SIM {TimeUS : 58534910, Roll : -1.28, Pitch : -16.29, Yaw : 37.21, Alt : 49.2799987793, Lat : 49.2836316, Lng : -123.1149563, Q1 : 0.938615500927, Q2 : 0.0347039662302, Q3 : -0.137859672308, Q4 : 0.314310818911}
2019-04-14 16:36:53.01: SIM {TimeUS : 58634870, Roll : -1.23, Pitch : -16.3, Yaw : 37.31, Alt : 49.2799987793, Lat : 49.2836342, Lng : -123.1149534, Q1 : 0.938310861588, Q2 : 0.035244051367, Q3 : -0.137755826116, Q4 : 0.315204739571}
2019-04-14 16:36:53.11: SIM {TimeUS : 58734830, Roll : -1.06, Pitch : -16.31, Yaw : 37.18, Alt : 49.2799987793, Lat : 49.283637, Lng : -123.1149506, Q1 : 0.938609600067, Q2 : 0.0365338586271, Q3 : -0.137427523732, Q4 : 0.314310371876}
2019-04-14 16:36:53.21: SIM {TimeUS : 58834790, Roll : -0.82, Pitch : -16.35, Yaw : 36.86, Alt : 49.2799987793, Lat : 49.2836397, Lng : -123.1149476, Q1 : 0.939338862896, Q2 : 0.0382583886385, Q3 : -0.137216225266, Q4 : 0.312010526657}
2019-04-14 16:36:53.31: SIM {TimeUS : 58934750, Roll : -0.54, Pitch : -16.42, Yaw : 36.43, Alt : 49.2799987793, Lat : 49.2836425, Lng : -123.1149447, Q1 : 0.940325319767, Q2 : 0.0402076095343, Q3 : -0.137188270688, Q4 : 0.30878970027}
2019-04-14 16:36:53.41: SIM {TimeUS : 59034710, Roll : -0.25, Pitch : -16.51, Yaw : 35.95, Alt : 49.2799987793, Lat : 49.2836452, Lng : -123.1149417, Q1 : 0.941406905651, Q2 : 0.0422070585191, Q3 : -0.137301906943, Q4 : 0.305155426264}
2019-04-14 16:36:53.51: SIM {TimeUS : 59134670, Roll : 0.0, Pitch : -16.58, Yaw : 35.48, Alt : 49.2799987793, Lat : 49.2836481, Lng : -123.1149387, Q1 : 0.94247251749, Q2 : 0.0439633913338, Q3 : -0.137350484729, Q4 : 0.301575422287}
2019-04-14 16:36:53.61: SIM {TimeUS : 59234630, Roll : 0.22, Pitch : -16.63, Yaw : 35.07, Alt : 49.2900009155, Lat : 49.2836511, Lng : -123.1149357, Q1 : 0.943403601646, Q2 : 0.0454265028238, Q3 : -0.137339279056, Q4 : 0.298435926437}
2019-04-14 16:36:53.72: SIM {TimeUS : 59335423, Roll : 0.39, Pitch : -16.66, Yaw : 34.75, Alt : 49.2900009155, Lat : 49.283654, Lng : -123.1149325, Q1 : 0.944127082825, Q2 : 0.0465516224504, Q3 : -0.137299612164, Q4 : 0.295982897282}
2019-04-14 16:36:53.81: SIM {TimeUS : 59435383, Roll : 0.5, Pitch : -16.69, Yaw : 34.54, Alt : 49.2900009155, Lat : 49.2836568, Lng : -123.1149294, Q1 : 0.944584310055, Q2 : 0.0472823232412, Q3 : -0.137362003326, Q4 : 0.294374912977}
2019-04-14 16:36:53.91: SIM {TimeUS : 59535343, Roll : 0.54, Pitch : -16.71, Yaw : 34.44, Alt : 49.2900009155, Lat : 49.2836597, Lng : -123.1149263, Q1 : 0.944795072079, Q2 : 0.0475731790066, Q3 : -0.137454524636, Q4 : 0.293607443571}
2019-04-14 16:36:54.01: SIM {TimeUS : 59635303, Roll : 0.54, Pitch : -16.74, Yaw : 34.44, Alt : 49.2900009155, Lat : 49.2836627, Lng : -123.1149231, Q1 : 0.944762229919, Q2 : 0.0475708246231, Q3 : -0.137677624822, Q4 : 0.293609082699}
2019-04-14 16:36:54.11: SIM {TimeUS : 59735263, Roll : 0.47, Pitch : -16.76, Yaw : 34.53, Alt : 49.2900009155, Lat : 49.2836657, Lng : -123.1149199, Q1 : 0.94454318285, Q2 : 0.047173012048, Q3 : -0.138013899326, Q4 : 0.294219404459}
2019-04-14 16:36:54.21: SIM {TimeUS : 59835223, Roll : 0.36, Pitch : -16.79, Yaw : 34.67, Alt : 49.2900009155, Lat : 49.2836688, Lng : -123.1149166, Q1 : 0.944186270237, Q2 : 0.0465003624558, Q3 : -0.138490691781, Q4 : 0.295246273279}
2019-04-14 16:36:54.31: SIM {TimeUS : 59935183, Roll : 0.23, Pitch : -16.84, Yaw : 34.84, Alt : 49.2900009155, Lat : 49.2836718, Lng : -123.1149133, Q1 : 0.943735480309, Q2 : 0.0458008274436, Q3 : -0.13912242651, Q4 : 0.296497195959}
2019-04-14 16:36:54.41: SIM {TimeUS : 60035143, Roll : 0.1, Pitch : -16.89, Yaw : 35.02, Alt : 49.2900009155, Lat : 49.2836748, Lng : -123.11491, Q1 : 0.943265676498, Q2 : 0.0450441725552, Q3 : -0.139835119247, Q4 : 0.297770023346}
2019-04-14 16:36:54.51: SIM {TimeUS : 60135103, Roll : -0.03, Pitch : -16.94, Yaw : 35.18, Alt : 49.2900009155, Lat : 49.2836779, Lng : -123.1149067, Q1 : 0.942842006683, Q2 : 0.0442300327122, Q3 : -0.14053234458, Q4 : 0.298903554678}
2019-04-14 16:36:54.61: SIM {TimeUS : 60235063, Roll : -0.15, Pitch : -16.97, Yaw : 35.31, Alt : 49.2900009155, Lat : 49.2836809, Lng : -123.1149034, Q1 : 0.942516803741, Q2 : 0.0435235276818, Q3 : -0.141026318073, Q4 : 0.299798816442}
2019-04-14 16:36:54.71: SIM {TimeUS : 60335023, Roll : -0.23, Pitch : -17.0, Yaw : 35.39, Alt : 49.2900009155, Lat : 49.283684, Lng : -123.1149, Q1 : 0.942293226719, Q2 : 0.0430119000375, Q3 : -0.141483798623, Q4 : 0.300359398127}
2019-04-14 16:36:54.81: SIM {TimeUS : 60434983, Roll : -0.25, Pitch : -17.04, Yaw : 35.42, Alt : 49.2999992371, Lat : 49.283687, Lng : -123.1148966, Q1 : 0.942160904408, Q2 : 0.0429862886667, Q3 : -0.141861751676, Q4 : 0.300599962473}
2019-04-14 16:36:54.91: SIM {TimeUS : 60534943, Roll : -0.23, Pitch : -17.08, Yaw : 35.41, Alt : 49.2999992371, Lat : 49.2836902, Lng : -123.1148932, Q1 : 0.942134618759, Q2 : 0.0432598032057, Q3 : -0.142137810588, Q4 : 0.300512671471}
2019-04-14 16:36:55.01: SIM {TimeUS : 60634903, Roll : -0.17, Pitch : -17.13, Yaw : 35.36, Alt : 49.2999992371, Lat : 49.2836934, Lng : -123.1148898, Q1 : 0.942185044289, Q2 : 0.043831974268, Q3 : -0.142357930541, Q4 : 0.300167173147}
2019-04-14 16:36:55.11: SIM {TimeUS : 60734863, Roll : -0.08, Pitch : -17.17, Yaw : 35.29, Alt : 49.2999992371, Lat : 49.2836966, Lng : -123.1148864, Q1 : 0.942298948765, Q2 : 0.0445772893727, Q3 : -0.14249868691, Q4 : 0.299632549286}
2019-04-14 16:36:55.21: SIM {TimeUS : 60834823, Roll : 0.0, Pitch : -17.2, Yaw : 35.19, Alt : 49.2999992371, Lat : 49.2836998, Lng : -123.114883, Q1 : 0.942468583584, Q2 : 0.0452217198908, Q3 : -0.142601579428, Q4 : 0.298952817917}
2019-04-14 16:36:55.31: SIM {TimeUS : 60934783, Roll : 0.05, Pitch : -17.22, Yaw : 35.1, Alt : 49.2999992371, Lat : 49.2837029, Lng : -123.1148795, Q1 : 0.942679047585, Q2 : 0.0456443279982, Q3 : -0.142606243491, Q4 : 0.298221886158}
2019-04-14 16:36:55.41: SIM {TimeUS : 61034743, Roll : 0.09, Pitch : -17.22, Yaw : 35.0, Alt : 49.2999992371, Lat : 49.2837062, Lng : -123.1148761, Q1 : 0.942898869514, Q2 : 0.045835416764, Q3 : -0.142575755715, Q4 : 0.297511488199}
2019-04-14 16:36:55.51: SIM {TimeUS : 61134703, Roll : 0.13, Pitch : -17.22, Yaw : 34.92, Alt : 49.2999992371, Lat : 49.2837094, Lng : -123.1148726, Q1 : 0.943091213703, Q2 : 0.0460295155644, Q3 : -0.142541006207, Q4 : 0.296887874603}
2019-04-14 16:36:55.61: SIM {TimeUS : 61234663, Roll : 0.15, Pitch : -17.24, Yaw : 34.86, Alt : 49.3100013733, Lat : 49.2837126, Lng : -123.1148691, Q1 : 0.943225860596, Q2 : 0.0461774282157, Q3 : -0.142664387822, Q4 : 0.296377301216}
2019-04-14 16:36:55.71: SIM {TimeUS : 61334623, Roll : 0.18, Pitch : -17.28, Yaw : 34.81, Alt : 49.3100013733, Lat : 49.2837159, Lng : -123.1148655, Q1 : 0.943280398846, Q2 : 0.0464621521533, Q3 : -0.142947807908, Q4 : 0.296022415161}
2019-04-14 16:36:55.82: SIM {TimeUS : 61435416, Roll : 0.2, Pitch : -17.34, Yaw : 34.79, Alt : 49.3100013733, Lat : 49.2837191, Lng : -123.1148619, Q1 : 0.943264007568, Q2 : 0.0467954203486, Q3 : -0.143388003111, Q4 : 0.29580911994}
2019-04-14 16:36:55.91: SIM {TimeUS : 61535376, Roll : 0.2, Pitch : -17.37, Yaw : 34.78, Alt : 49.3100013733, Lat : 49.2837223, Lng : -123.1148585, Q1 : 0.943251132965, Q2 : 0.0468646101654, Q3 : -0.143624544144, Q4 : 0.295724540949}
2019-04-14 16:36:56.01: SIM {TimeUS : 61635336, Roll : 0.19, Pitch : -17.37, Yaw : 34.78, Alt : 49.3100013733, Lat : 49.2837257, Lng : -123.114855, Q1 : 0.943247199059, Q2 : 0.0467716306448, Q3 : -0.143612578511, Q4 : 0.295757710934}
2019-04-14 16:36:56.11: SIM {TimeUS : 61735296, Roll : 0.17, Pitch : -17.37, Yaw : 34.8, Alt : 49.3100013733, Lat : 49.283729, Lng : -123.1148514, Q1 : 0.943222463131, Q2 : 0.0466004274786, Q3 : -0.143654599786, Q4 : 0.29584312439}
2019-04-14 16:36:56.21: SIM {TimeUS : 61835256, Roll : 0.14, Pitch : -17.39, Yaw : 34.81, Alt : 49.3100013733, Lat : 49.2837322, Lng : -123.1148478, Q1 : 0.94316470623, Q2 : 0.0464183315635, Q3 : -0.143898561597, Q4 : 0.295937329531}
2019-04-14 16:36:56.31: SIM {TimeUS : 61935216, Roll : 0.12, Pitch : -17.41, Yaw : 34.83, Alt : 49.3100013733, Lat : 49.2837356, Lng : -123.1148442, Q1 : 0.943093955517, Q2 : 0.0463509373367, Q3 : -0.144159153104, Q4 : 0.296046584845}
2019-04-14 16:36:56.41: SIM {TimeUS : 62035176, Roll : 0.1, Pitch : -17.45, Yaw : 34.84, Alt : 49.3100013733, Lat : 49.2837388, Lng : -123.1148406, Q1 : 0.943025410175, Q2 : 0.0463151931763, Q3 : -0.144469991326, Q4 : 0.296118944883}
2019-04-14 16:36:56.51: SIM {TimeUS : 62135136, Roll : 0.09, Pitch : -17.47, Yaw : 34.85, Alt : 49.3100013733, Lat : 49.2837422, Lng : -123.1148371, Q1 : 0.942983210087, Q2 : 0.0462840050459, Q3 : -0.144713208079, Q4 : 0.296139448881}
2019-04-14 16:36:56.61: SIM {TimeUS : 62235096, Roll : 0.09, Pitch : -17.5, Yaw : 34.85, Alt : 49.3100013733, Lat : 49.2837454, Lng : -123.1148334, Q1 : 0.942950904369, Q2 : 0.0463567487895, Q3 : -0.144916549325, Q4 : 0.296131461859}
2019-04-14 16:36:56.71: SIM {TimeUS : 62335056, Roll : 0.1, Pitch : -17.51, Yaw : 34.84, Alt : 49.3100013733, Lat : 49.2837489, Lng : -123.1148298, Q1 : 0.942949295044, Q2 : 0.0464587435126, Q3 : -0.144982770085, Q4 : 0.296088129282}
2019-04-14 16:36:56.81: SIM {TimeUS : 62435016, Roll : 0.12, Pitch : -17.52, Yaw : 34.83, Alt : 49.3199996948, Lat : 49.2837521, Lng : -123.1148262, Q1 : 0.942959725857, Q2 : 0.0466071665287, Q3 : -0.145049825311, Q4 : 0.295998811722}
2019-04-14 16:36:56.91: SIM {TimeUS : 62534976, Roll : 0.13, Pitch : -17.55, Yaw : 34.81, Alt : 49.3199996948, Lat : 49.2837556, Lng : -123.1148226, Q1 : 0.942967891693, Q2 : 0.0467972829938, Q3 : -0.145225375891, Q4 : 0.295856624842}
2019-04-14 16:36:57.01: SIM {TimeUS : 62634936, Roll : 0.14, Pitch : -17.59, Yaw : 34.79, Alt : 49.3199996948, Lat : 49.2837589, Lng : -123.1148189, Q1 : 0.942978680134, Q2 : 0.0469092130661, Q3 : -0.145556360483, Q4 : 0.295641869307}
2019-04-14 16:36:57.11: SIM {TimeUS : 62734896, Roll : 0.13, Pitch : -17.63, Yaw : 34.76, Alt : 49.3199996948, Lat : 49.2837623, Lng : -123.1148153, Q1 : 0.942995965481, Q2 : 0.0468987599015, Q3 : -0.145945176482, Q4 : 0.295396625996}
2019-04-14 16:36:57.21: SIM {TimeUS : 62834856, Roll : 0.12, Pitch : -17.67, Yaw : 34.73, Alt : 49.3199996948, Lat : 49.2837656, Lng : -123.1148116, Q1 : 0.943017244339, Q2 : 0.0469202660024, Q3 : -0.146325334907, Q4 : 0.295137107372}
2019-04-14 16:36:57.31: SIM {TimeUS : 62934816, Roll : 0.14, Pitch : -17.7, Yaw : 34.7, Alt : 49.3199996948, Lat : 49.2837691, Lng : -123.1148079, Q1 : 0.943049669266, Q2 : 0.0470781177282, Q3 : -0.146516770124, Q4 : 0.294913262129}
2019-04-14 16:36:57.41: SIM {TimeUS : 63034776, Roll : 0.16, Pitch : -17.7, Yaw : 34.68, Alt : 49.3199996948, Lat : 49.2837725, Lng : -123.1148043, Q1 : 0.943107962608, Q2 : 0.0471933670342, Q3 : -0.146481588483, Q4 : 0.294725984335}
2019-04-14 16:36:57.51: SIM {TimeUS : 63134736, Roll : 0.17, Pitch : -17.68, Yaw : 34.66, Alt : 49.3199996948, Lat : 49.2837758, Lng : -123.1148006, Q1 : 0.943182706833, Q2 : 0.0472592636943, Q3 : -0.146305546165, Q4 : 0.294563442469}
2019-04-14 16:36:57.61: SIM {TimeUS : 63234696, Roll : 0.17, Pitch : -17.67, Yaw : 34.64, Alt : 49.3199996948, Lat : 49.2837793, Lng : -123.1147968, Q1 : 0.943252801895, Q2 : 0.0471732206643, Q3 : -0.146211743355, Q4 : 0.294399321079}
2019-04-14 16:36:57.71: SIM {TimeUS : 63334656, Roll : 0.16, Pitch : -17.66, Yaw : 34.62, Alt : 49.3199996948, Lat : 49.2837828, Lng : -123.1147932, Q1 : 0.94331240654, Q2 : 0.0470880419016, Q3 : -0.146154895425, Q4 : 0.294250190258}
2019-04-14 16:36:57.81: SIM {TimeUS : 63434616, Roll : 0.17, Pitch : -17.65, Yaw : 34.6, Alt : 49.3199996948, Lat : 49.2837861, Lng : -123.1147895, Q1 : 0.943358361721, Q2 : 0.0470598228276, Q3 : -0.146088376641, Q4 : 0.294140428305}
2019-04-14 16:36:57.91: SIM {TimeUS : 63535409, Roll : 0.17, Pitch : -17.67, Yaw : 34.59, Alt : 49.3199996948, Lat : 49.2837897, Lng : -123.1147857, Q1 : 0.943368852139, Q2 : 0.0471023954451, Q3 : -0.146197572351, Q4 : 0.294045716524}
2019-04-14 16:36:58.01: SIM {TimeUS : 63635369, Roll : 0.17, Pitch : -17.69, Yaw : 34.58, Alt : 49.3199996948, Lat : 49.283793, Lng : -123.114782, Q1 : 0.943359673023, Q2 : 0.0471724420786, Q3 : -0.146407440305, Q4 : 0.29395955801}
2019-04-14 16:36:58.11: SIM {TimeUS : 63735329, Roll : 0.16, Pitch : -17.74, Yaw : 34.58, Alt : 49.3199996948, Lat : 49.2837965, Lng : -123.1147783, Q1 : 0.943325161934, Q2 : 0.0471903495491, Q3 : -0.146804526448, Q4 : 0.29386934638}
2019-04-14 16:36:58.21: SIM {TimeUS : 63835289, Roll : 0.15, Pitch : -17.79, Yaw : 34.57, Alt : 49.3199996948, Lat : 49.2838, Lng : -123.1147745, Q1 : 0.943277359009, Q2 : 0.0472511425614, Q3 : -0.147251278162, Q4 : 0.293789386749}
2019-04-14 16:36:58.31: SIM {TimeUS : 63935249, Roll : 0.15, Pitch : -17.82, Yaw : 34.56, Alt : 49.3300018311, Lat : 49.2838035, Lng : -123.1147707, Q1 : 0.943254292011, Q2 : 0.0473146438599, Q3 : -0.1475020051, Q4 : 0.293727636337}
2019-04-14 16:36:58.41: SIM {TimeUS : 64035209, Roll : 0.15, Pitch : -17.84, Yaw : 34.56, Alt : 49.3300018311, Lat : 49.2838068, Lng : -123.1147671, Q1 : 0.943240106106, Q2 : 0.0473236553371, Q3 : -0.147725865245, Q4 : 0.293659180403}
2019-04-14 16:36:58.51: SIM {TimeUS : 64135169, Roll : 0.14, Pitch : -17.86, Yaw : 34.55, Alt : 49.3300018311, Lat : 49.2838104, Lng : -123.1147633, Q1 : 0.94323861599, Q2 : 0.0473177284002, Q3 : -0.147876381874, Q4 : 0.293589144945}
2019-04-14 16:36:58.61: SIM {TimeUS : 64235129, Roll : 0.16, Pitch : -17.85, Yaw : 34.54, Alt : 49.3300018311, Lat : 49.2838139, Lng : -123.1147596, Q1 : 0.943264722824, Q2 : 0.0474091768265, Q3 : -0.147773131728, Q4 : 0.293542414904}
2019-04-14 16:36:58.71: SIM {TimeUS : 64335089, Roll : 0.18, Pitch : -17.86, Yaw : 34.53, Alt : 49.3300018311, Lat : 49.2838172, Lng : -123.1147558, Q1 : 0.943266510963, Q2 : 0.0476405359805, Q3 : -0.147777870297, Q4 : 0.29349681735}
2019-04-14 16:36:58.81: SIM {TimeUS : 64435049, Roll : 0.2, Pitch : -17.88, Yaw : 34.52, Alt : 49.3300018311, Lat : 49.2838208, Lng : -123.1147521, Q1 : 0.94325709343, Q2 : 0.0478053167462, Q3 : -0.1479190588, Q4 : 0.293429255486}
2019-04-14 16:36:58.91: SIM {TimeUS : 64535009, Roll : 0.21, Pitch : -17.9, Yaw : 34.51, Alt : 49.3300018311, Lat : 49.2838243, Lng : -123.1147482, Q1 : 0.943257689476, Q2 : 0.0478952005506, Q3 : -0.148040339351, Q4 : 0.293351531029}
2019-04-14 16:36:59.01: SIM {TimeUS : 64634969, Roll : 0.21, Pitch : -17.89, Yaw : 34.5, Alt : 49.3300018311, Lat : 49.2838278, Lng : -123.1147445, Q1 : 0.943290054798, Q2 : 0.0479175448418, Q3 : -0.1480076015, Q4 : 0.293260276318}
2019-04-14 16:36:59.11: SIM {TimeUS : 64734929, Roll : 0.21, Pitch : -17.9, Yaw : 34.49, Alt : 49.3300018311, Lat : 49.2838312, Lng : -123.1147407, Q1 : 0.943324267864, Q2 : 0.0478746630251, Q3 : -0.14803442359, Q4 : 0.293143689632}
2019-04-14 16:36:59.21: SIM {TimeUS : 64834889, Roll : 0.19, Pitch : -17.91, Yaw : 34.47, Alt : 49.3300018311, Lat : 49.2838348, Lng : -123.114737, Q1 : 0.943345606327, Q2 : 0.0477298796177, Q3 : -0.148248538375, Q4 : 0.292990207672}
2019-04-14 16:36:59.31: SIM {TimeUS : 64934849, Roll : 0.16, Pitch : -17.95, Yaw : 34.46, Alt : 49.3300018311, Lat : 49.2838383, Lng : -123.1147332, Q1 : 0.943348526955, Q2 : 0.0475502461195, Q3 : -0.148638337851, Q4 : 0.292812526226}
2019-04-14 16:36:59.41: SIM {TimeUS : 65034809, Roll : 0.14, Pitch : -17.96, Yaw : 34.44, Alt : 49.3300018311, Lat : 49.2838418, Lng : -123.1147293, Q1 : 0.943379819393, Q2 : 0.0474339798093, Q3 : -0.148748233914, Q4 : 0.292674809694}
2019-04-14 16:36:59.51: SIM {TimeUS : 65134769, Roll : 0.15, Pitch : -17.95, Yaw : 34.43, Alt : 49.3300018311, Lat : 49.2838452, Lng : -123.1147256, Q1 : 0.943420648575, Q2 : 0.0474527254701, Q3 : -0.148672938347, Q4 : 0.292578339577}
2019-04-14 16:36:59.61: SIM {TimeUS : 65234729, Roll : 0.17, Pitch : -17.94, Yaw : 34.42, Alt : 49.3300018311, Lat : 49.2838488, Lng : -123.1147218, Q1 : 0.943453729153, Q2 : 0.0476108826697, Q3 : -0.148557290435, Q4 : 0.292504757643}
2019-04-14 16:36:59.71: SIM {TimeUS : 65334689, Roll : 0.19, Pitch : -17.95, Yaw : 34.41, Alt : 49.3300018311, Lat : 49.2838524, Lng : -123.114718, Q1 : 0.943468987942, Q2 : 0.0477588996291, Q3 : -0.148578479886, Q4 : 0.292420595884}
2019-04-14 16:36:59.81: SIM {TimeUS : 65434649, Roll : 0.18, Pitch : -17.97, Yaw : 34.39, Alt : 49.3400001526, Lat : 49.2838559, Lng : -123.1147142, Q1 : 0.943479835987, Q2 : 0.0477474443614, Q3 : -0.148725196719, Q4 : 0.292312830687}
2019-04-14 16:36:59.92: SIM {TimeUS : 65535442, Roll : 0.16, Pitch : -17.98, Yaw : 34.38, Alt : 49.3400001526, Lat : 49.2838595, Lng : -123.1147104, Q1 : 0.943494796753, Q2 : 0.0475850068033, Q3 : -0.148928537965, Q4 : 0.292187571526}
2019-04-14 16:37:00.01: SIM {TimeUS : 65635402, Roll : 0.15, Pitch : -18.0, Yaw : 34.37, Alt : 49.3400001526, Lat : 49.2838629, Lng : -123.1147065, Q1 : 0.943505764008, Q2 : 0.0475077629089, Q3 : -0.149087846279, Q4 : 0.292083352804}
2019-04-14 16:37:00.11: SIM {TimeUS : 65735362, Roll : 0.15, Pitch : -18.01, Yaw : 34.36, Alt : 49.3400001526, Lat : 49.2838664, Lng : -123.1147027, Q1 : 0.943512916565, Q2 : 0.0475634858012, Q3 : -0.149201631546, Q4 : 0.291993260384}
2019-04-14 16:37:00.21: SIM {TimeUS : 65835322, Roll : 0.16, Pitch : -18.03, Yaw : 34.35, Alt : 49.3400001526, Lat : 49.28387, Lng : -123.1146989, Q1 : 0.943520247936, Q2 : 0.0476519986987, Q3 : -0.149283468723, Q4 : 0.291913181543}
2019-04-14 16:37:00.31: SIM {TimeUS : 65935282, Roll : 0.19, Pitch : -18.04, Yaw : 34.34, Alt : 49.3400001526, Lat : 49.2838736, Lng : -123.1146951, Q1 : 0.943511009216, Q2 : 0.0478782132268, Q3 : -0.149351581931, Q4 : 0.291871100664}
2019-04-14 16:37:00.41: SIM {TimeUS : 66035242, Roll : 0.2, Pitch : -18.06, Yaw : 34.34, Alt : 49.3400001526, Lat : 49.2838772, Lng : -123.1146913, Q1 : 0.94349616766, Q2 : 0.0480122305453, Q3 : -0.149516165257, Q4 : 0.291812956333}
2019-04-14 16:37:00.51: SIM {TimeUS : 66135202, Roll : 0.21, Pitch : -18.09, Yaw : 34.33, Alt : 49.3400001526, Lat : 49.2838807, Lng : -123.1146874, Q1 : 0.943477392197, Q2 : 0.0481622442603, Q3 : -0.149696290493, Q4 : 0.291756570339}
2019-04-14 16:37:00.61: SIM {TimeUS : 66235162, Roll : 0.22, Pitch : -18.11, Yaw : 34.32, Alt : 49.3400001526, Lat : 49.2838842, Lng : -123.1146836, Q1 : 0.943462014198, Q2 : 0.0483288578689, Q3 : -0.149835839868, Q4 : 0.29170691967}
2019-04-14 16:37:00.71: SIM {TimeUS : 66335122, Roll : 0.25, Pitch : -18.12, Yaw : 34.31, Alt : 49.3400001526, Lat : 49.2838877, Lng : -123.1146798, Q1 : 0.943460822105, Q2 : 0.0485377535224, Q3 : -0.149835020304, Q4 : 0.291676521301}
2019-04-14 16:37:00.81: SIM {TimeUS : 66435082, Roll : 0.28, Pitch : -18.12, Yaw : 34.31, Alt : 49.3400001526, Lat : 49.2838913, Lng : -123.114676, Q1 : 0.943455517292, Q2 : 0.0487896390259, Q3 : -0.149822056293, Q4 : 0.291658371687}
