2019-04-14 18:40:02.50: SIM {TimeUS : 40516287, Roll : 0.0, Pitch : 0.0, Yaw : 0.0, Alt : 30.1000003815, Lat : 49.28357, Lng : -123.11502, Q1 : 1.0, Q2 : 0.0, Q3 : 0.0, Q4 : 0.0}
2019-04-14 18:40:02.61: SIM {TimeUS : 40635406, Roll : 0.0, Pitch : 0.0, Yaw : 0.0, Alt : 30.1000003815, Lat : 49.28357, Lng : -123.11502, Q1 : 1.0, Q2 : 0.0, Q3 : 0.0, Q4 : 0.0}
2019-04-14 18:40:02.71: SIM {TimeUS : 40735366, Roll : 0.0, Pitch : 0.0, Yaw : 0.0, Alt : 30.1000003815, Lat : 49.28357, Lng : -123.11502, Q1 : 1.0, Q2 : 0.0, Q3 : 0.0, Q4 : 0.0}
2019-04-14 18:40:02.81: SIM {TimeUS : 40835326, Roll : 0.0, Pitch : 0.0, Yaw : 0.0, Alt : 30.1000003815, Lat : 49.28357, Lng : -123.11502, Q1 : 1.0, Q2 : 0.0, Q3 : 0.0, Q4 : 0.0}
2019-04-14 18:40:02.91: SIM {TimeUS : 40935286, Roll : 0.0, Pitch : 0.0, Yaw : 0.0, Alt : 30.1000003815, Lat : 49.28357, Lng : -123.11502, Q1 : 1.0, Q2 : 0.0, Q3 : 0.0, Q4 : 0.0}
2019-04-14 18:40:03.01: SIM {TimeUS : 41035246, Roll : 0.0, Pitch : 0.0, Yaw : 0.0, Alt : 30.1000003815, Lat : 49.28357, Lng : -123.11502, Q1 : 1.0, Q2 : 0.0, Q3 : 0.0, Q4 : 0.0}
2019-04-14 18:40:03.11: SIM {TimeUS : 41135206, Roll : 0.0, Pitch : 0.0, Yaw : 0.0, Alt : 30.1000003815, Lat : 49.28357, Lng : -123.11502, Q1 : 1.0, Q2 : 0.0, Q3 : 0.0, Q4 : 0.0}
2019-04-14 18:40:03.21: SIM {TimeUS : 41235166, Roll : 0.0, Pitch : 0.0, Yaw : 0.0, Alt : 30.1000003815, Lat : 49.28357, Lng : -123.11502, Q1 : 1.0, Q2 : 0.0, Q3 : 0.0, Q4 : 0.0}
2019-04-14 18:40:03.31: SIM {TimeUS : 41335126, Roll : 0.0, Pitch : 0.0, Yaw : 0.0, Alt : 30.1000003815, Lat : 49.28357, Lng : -123.11502, Q1 : 1.0, Q2 : 0.0, Q3 : 0.0, Q4 : 0.0}
2019-04-14 18:40:03.41: SIM {TimeUS : 41435086, Roll : 0.0, Pitch : 0.0, Yaw : 0.0, Alt : 30.1000003815, Lat : 49.28357, Lng : -123.11502, Q1 : 1.0, Q2 : 0.0, Q3 : 0.0, Q4 : 0.0}
2019-04-14 18:40:03.51: SIM {TimeUS : 41535046, Roll : 0.0, Pitch : 0.0, Yaw : 0.0, Alt : 30.1000003815, Lat : 49.28357, Lng : -123.11502, Q1 : 1.0, Q2 : 0.0, Q3 : 0.0, Q4 : 0.0}
2019-04-14 18:40:03.61: SIM {TimeUS : 41635006, Roll : 0.0, Pitch : 0.0, Yaw : 0.0, Alt : 30.1000003815, Lat : 49.28357, Lng : -123.11502, Q1 : 1.0, Q2 : 0.0, Q3 : 0.0, Q4 : 0.0}
2019-04-14 18:40:03.71: SIM {TimeUS : 41734966, Roll : 0.0, Pitch : 0.0, Yaw : 0.0, Alt : 30.1000003815, Lat : 49.28357, Lng : -123.11502, Q1 : 1.0, Q2 : 0.0, Q3 : 0.0, Q4 : 0.0}
2019-04-14 18:40:03.81: SIM {TimeUS : 41834926, Roll : 0.0, Pitch : 0.0, Yaw : 0.0, Alt : 30.1000003815, Lat : 49.28357, Lng : -123.11502, Q1 : 1.0, Q2 : 0.0, Q3 : 0.0, Q4 : 0.0}
2019-04-14 18:40:03.91: SIM {TimeUS : 41934886, Roll : 0.0, Pitch : 0.0, Yaw : 0.0, Alt : 30.1000003815, Lat : 49.28357, Lng : -123.11502, Q1 : 1.0, Q2 : 0.0, Q3 : 0.0, Q4 : 0.0}
2019-04-14 18:40:04.01: SIM {TimeUS : 42034846, Roll : 0.0, Pitch : 0.0, Yaw : 0.0, Alt : 30.1000003815, Lat : 49.28357, Lng : -123.11502, Q1 : 1.0, Q2 : 0.0, Q3 : 0.0, Q4 : 0.0}
2019-04-14 18:40:04.11: SIM {TimeUS : 42134806, Roll : 0.0, Pitch : 0.0, Yaw : 0.0, Alt : 30.1000003815, Lat : 49.28357, Lng : -123.11502, Q1 : 1.0, Q2 : 0.0, Q3 : 0.0, Q4 : 0.0}
2019-04-14 18:40:04.21: SIM {TimeUS : 42234766, Roll : 0.0, Pitch : 0.0, Yaw : 0.0, Alt : 30.1000003815, Lat : 49.28357, Lng : -123.11502, Q1 : 1.0, Q2 : 0.0, Q3 : 0.0, Q4 : 0.0}
2019-04-14 18:40:04.31: SIM {TimeUS : 42334726, Roll : 0.0, Pitch : 0.0, Yaw : 0.0, Alt : 30.1000003815, Lat : 49.28357, Lng : -123.11502, Q1 : 1.0, Q2 : 0.0, Q3 : 0.0, Q4 : 0.0}
2019-04-14 18:40:04.41: SIM {TimeUS : 42434686, Roll : 0.0, Pitch : 0.0, Yaw : 0.0, Alt : 30.1000003815, Lat : 49.28357, Lng : -123.11502, Q1 : 1.0, Q2 : 0.0, Q3 : 0.0, Q4 : 0.0}
2019-04-14 18:40:04.51: SIM {TimeUS : 42534646, Roll : 0.0, Pitch : 0.0, Yaw : 0.0, Alt : 30.1000003815, Lat : 49.28357, Lng : -123.11502, Q1 : 1.0, Q2 : 0.0, Q3 : 0.0, Q4 : 0.0}
2019-04-14 18:40:04.62: SIM {TimeUS : 42635439, Roll : 0.0, Pitch : 0.0, Yaw : 0.0, Alt : 30.1000003815, Lat : 49.28357, Lng : -123.11502, Q1 : 1.0, Q2 : 0.0, Q3 : 0.0, Q4 : 0.0}
2019-04-14 18:40:04.71: SIM {TimeUS : 42735399, Roll : 0.0, Pitch : 0.0, Yaw : 0.0, Alt : 30.1000003815, Lat : 49.28357, Lng : -123.11502, Q1 : 1.0, Q2 : 0.0, Q3 : 0.0, Q4 : 0.0}
2019-04-14 18:40:04.81: SIM {TimeUS : 42835359, Roll : 0.0, Pitch : 0.0, Yaw : 360.0, Alt : 30.1000003815, Lat : 49.28357, Lng : -123.11502, Q1 : 1.0, Q2 : 0.0, Q3 : 0.0, Q4 : -2.77582514266e-12}
2019-04-14 18:40:04.91: SIM {TimeUS : 42935319, Roll : 0.0, Pitch : 0.0, Yaw : 360.0, Alt : 30.1000003815, Lat : 49.28357, Lng : -123.11502, Q1 : 1.0, Q2 : 0.0, Q3 : 0.0, Q4 : -1.29439896301e-11}
2019-04-14 18:40:05.01: SIM {TimeUS : 43035279, Roll : 0.0, Pitch : 0.0, Yaw : 360.0, Alt : 30.1000003815, Lat : 49.28357, Lng : -123.11502, Q1 : 1.0, Q2 : 0.0, Q3 : 0.0, Q4 : -1.05486080315e-07}
2019-04-14 18:40:05.11: SIM {TimeUS : 43135239, Roll : 0.0, Pitch : 0.0, Yaw : 359.99, Alt : 30.1000003815, Lat : 49.28357, Lng : -123.11502, Q1 : 1.0, Q2 : 0.0, Q3 : 0.0, Q4 : -2.82765824977e-07}
2019-04-14 18:40:05.21: SIM {TimeUS : 43235199, Roll : 0.0, Pitch : 0.0, Yaw : 359.99, Alt : 30.1000003815, Lat : 49.28357, Lng : -123.11502, Q1 : 1.0, Q2 : 0.0, Q3 : 0.0, Q4 : -4.51791038358e-07}
2019-04-14 18:40:05.31: SIM {TimeUS : 43335159, Roll : 0.0, Pitch : 0.0, Yaw : 359.99, Alt : 30.1000003815, Lat : 49.28357, Lng : -123.11502, Q1 : 1.0, Q2 : 0.0, Q3 : 0.0, Q4 : -6.12165308667e-07}
2019-04-14 18:40:05.41: SIM {TimeUS : 43435119, Roll : 0.0, Pitch : 0.0, Yaw : 359.99, Alt : 30.1000003815, Lat : 49.28357, Lng : -123.11502, Q1 : 1.0, Q2 : 0.0, Q3 : 0.0, Q4 : -7.77330114943e-07}
2019-04-14 18:40:05.51: SIM {TimeUS : 43535079, Roll : 0.0, Pitch : 0.0, Yaw : 359.99, Alt : 30.1000003815, Lat : 49.28357, Lng : -123.11502, Q1 : 1.0, Q2 : 0.0, Q3 : 0.0, Q4 : -9.82871483757e-07}
2019-04-14 18:40:05.61: SIM {TimeUS : 43635039, Roll : 0.0, Pitch : 0.0, Yaw : 359.99, Alt : 30.1000003815, Lat : 49.28357, Lng : -123.11502, Q1 : 1.0, Q2 : 0.0, Q3 : 0.0, Q4 : -1.22541712244e-06}
2019-04-14 18:40:05.71: SIM {TimeUS : 43734999, Roll : 0.0, Pitch : 0.0, Yaw : 359.99, Alt : 30.1100006104, Lat : 49.28357, Lng : -123.11502, Q1 : 1.0, Q2 : 0.0, Q3 : 0.0, Q4 : -1.4373609929e-06}
2019-04-14 18:40:05.81: SIM {TimeUS : 43834959, Roll : 0.0, Pitch : 0.0, Yaw : 359.99, Alt : 30.1299991608, Lat : 49.28357, Lng : -123.11502, Q1 : 1.0, Q2 : 0.0, Q3 : 0.0, Q4 : -1.66174788774e-06}
2019-04-14 18:40:05.91: SIM {TimeUS : 43934919, Roll : 0.0, Pitch : 0.0, Yaw : 359.99, Alt : 30.1599998474, Lat : 49.28357, Lng : -123.11502, Q1 : 1.0, Q2 : 0.0, Q3 : 0.0, Q4 : -1.8369053123e-06}
2019-04-14 18:40:06.01: SIM {TimeUS : 44034879, Roll : 0.0, Pitch : 0.0, Yaw : 359.99, Alt : 30.1900005341, Lat : 49.28357, Lng : -123.11502, Q1 : 1.0, Q2 : 0.0, Q3 : 0.0, Q4 : -2.05376409212e-06}
2019-04-14 18:40:06.11: SIM {TimeUS : 44134839, Roll : -0.03, Pitch : -0.03, Yaw : 359.99, Alt : 30.2299995422, Lat : 49.28357, Lng : -123.11502, Q1 : 0.999999880791, Q2 : -0.00034046950168, Q3 : -0.000270151474979, Q4 : -5.69964231545e-06}
2019-04-14 18:40:06.21: SIM {TimeUS : 44234799, Roll : -0.3, Pitch : -0.26, Yaw : 359.99, Alt : 30.3099994659, Lat : 49.28357, Lng : -123.11502, Q1 : 0.999993860722, Q2 : -0.0026596961543, Q3 : -0.00227534398437, Q4 : -3.54790463462e-05}
2019-04-14 18:40:06.31: SIM {TimeUS : 44334759, Roll : -0.61, Pitch : -0.54, Yaw : 359.99, Alt : 30.4400005341, Lat : 49.28357, Lng : -123.11502, Q1 : 0.999974370003, Q2 : -0.00536936242133, Q3 : -0.00474025961012, Q4 : -9.44537387113e-05}
2019-04-14 18:40:06.41: SIM {TimeUS : 44434719, Roll : -0.79, Pitch : -0.74, Yaw : 359.98, Alt : 30.5900001526, Lat : 49.28357, Lng : -123.11502, Q1 : 0.99995470047, Q2 : -0.00694061908871, Q3 : -0.00650725653395, Q4 : -0.000176037487108}
2019-04-14 18:40:06.51: SIM {TimeUS : 44534679, Roll : -0.82, Pitch : -0.79, Yaw : 359.97, Alt : 30.75, Lat : 49.28357, Lng : -123.11502, Q1 : 0.99995046854, Q2 : -0.00717409839854, Q3 : -0.00689552724361, Q4 : -0.000260526750935}
2019-04-14 18:40:06.61: SIM {TimeUS : 44634639, Roll : -0.72, Pitch : -0.69, Yaw : 359.96, Alt : 30.9099998474, Lat : 49.28357, Lng : -123.1150201, Q1 : 0.999961674213, Q2 : -0.00633876025677, Q3 : -0.00602885708213, Q4 : -0.000344325992046}
2019-04-14 18:40:06.72: SIM {TimeUS : 44735432, Roll : -0.54, Pitch : -0.5, Yaw : 359.95, Alt : 31.0599994659, Lat : 49.2835701, Lng : -123.1150202, Q1 : 0.999978899956, Q2 : -0.00474303215742, Q3 : -0.00441988371313, Q4 : -0.000415438116761}
2019-04-14 18:40:06.81: SIM {TimeUS : 44835392, Roll : -0.32, Pitch : -0.29, Yaw : 359.94, Alt : 31.2199993134, Lat : 49.2835701, Lng : -123.1150202, Q1 : 0.999992489815, Q2 : -0.00286049838178, Q3 : -0.00258782994933, Q4 : -0.000474660744658}
2019-04-14 18:40:06.91: SIM {TimeUS : 44935352, Roll : -0.13, Pitch : -0.11, Yaw : 359.94, Alt : 31.3899993896, Lat : 49.2835701, Lng : -123.1150203, Q1 : 0.999998688698, Q2 : -0.00113553169649, Q3 : -0.00101898331195, Q4 : -0.000521107867826}
2019-04-14 18:40:07.01: SIM {TimeUS : 45035312, Roll : 0.01, Pitch : 0.0, Yaw : 359.93, Alt : 31.5599994659, Lat : 49.2835702, Lng : -123.1150204, Q1 : 0.999999821186, Q2 : 0.000130379004986, Q3 : -2.07645098271e-05, Q4 : -0.000551465316676}
2019-04-14 18:40:07.11: SIM {TimeUS : 45135272, Roll : 0.09, Pitch : 0.04, Yaw : 359.93, Alt : 31.7299995422, Lat : 49.2835702, Lng : -123.1150205, Q1 : 0.999999403954, Q2 : 0.000842481676955, Q3 : 0.000418274867116, Q4 : -0.000562825414818}
2019-04-14 18:40:07.21: SIM {TimeUS : 45235232, Roll : 0.11, Pitch : 0.06, Yaw : 359.93, Alt : 31.9200000763, Lat : 49.2835703, Lng : -123.1150205, Q1 : 0.999999165535, Q2 : 0.00102505029645, Q3 : 0.000580836785957, Q4 : -0.000561677035876}
2019-04-14 18:40:07.31: SIM {TimeUS : 45335192, Roll : 0.1, Pitch : 0.08, Yaw : 359.93, Alt : 32.0999984741, Lat : 49.2835703, Lng : -123.1150206, Q1 : 0.999999165535, Q2 : 0.000885447778273, Q3 : 0.000705854734406, Q4 : -0.000552081561182}
2019-04-14 18:40:07.41: SIM {TimeUS : 45435152, Roll : 0.07, Pitch : 0.09, Yaw : 359.93, Alt : 32.2900009155, Lat : 49.2835703, Lng : -123.1150206, Q1 : 0.999999284744, Q2 : 0.000628450652584, Q3 : 0.000836156134028, Q4 : -0.000532670004759}
2019-04-14 18:40:07.51: SIM {TimeUS : 45535112, Roll : 0.06, Pitch : 0.11, Yaw : 359.94, Alt : 32.4799995422, Lat : 49.2835703, Lng : -123.1150207, Q1 : 0.99999922514, Q2 : 0.000540665641893, Q3 : 0.0009700722876, Q4 : -0.00051229755627}
2019-04-14 18:40:07.61: SIM {TimeUS : 45635072, Roll : 0.08, Pitch : 0.12, Yaw : 359.94, Alt : 32.6800003052, Lat : 49.2835703, Lng : -123.1150207, Q1 : 0.999998986721, Q2 : 0.000720568466932, Q3 : 0.00112123903818, Q4 : -0.000498047389556}
2019-04-14 18:40:07.71: SIM {TimeUS : 45735032, Roll : 0.11, Pitch : 0.14, Yaw : 359.94, Alt : 32.8800010681, Lat : 49.2835703, Lng : -123.1150208, Q1 : 0.999998569489, Q2 : 0.000994319561869, Q3 : 0.00130332587287, Q4 : -0.000483573821839}
2019-04-14 18:40:07.81: SIM {TimeUS : 45834992, Roll : 0.13, Pitch : 0.17, Yaw : 359.94, Alt : 33.0800018311, Lat : 49.2835704, Lng : -123.1150208, Q1 : 0.999998092651, Q2 : 0.00118579494301, Q3 : 0.00149188237265, Q4 : -0.000465835182695}
2019-04-14 18:40:07.91: SIM {TimeUS : 45934952, Roll : 0.14, Pitch : 0.16, Yaw : 359.94, Alt : 33.2799987793, Lat : 49.2835704, Lng : -123.1150208, Q1 : 0.999997973442, Q2 : 0.00130581518169, Q3 : 0.00145400234032, Q4 : -0.000447979138698}
2019-04-14 18:40:08.01: SIM {TimeUS : 46034912, Roll : 0.15, Pitch : 0.13, Yaw : 359.94, Alt : 33.4799995422, Lat : 49.2835704, Lng : -123.1150208, Q1 : 0.99999833107, Q2 : 0.00133168813772, Q3 : 0.00118722778279, Q4 : -0.000447937578429}
2019-04-14 18:40:08.11: SIM {TimeUS : 46134872, Roll : 0.14, Pitch : 0.12, Yaw : 359.94, Alt : 33.6899986267, Lat : 49.2835704, Lng : -123.1150208, Q1 : 0.999998450279, Q2 : 0.00129102892242, Q3 : 0.0010711948853, Q4 : -0.00045190716628}
2019-04-14 18:40:08.21: SIM {TimeUS : 46234832, Roll : 0.14, Pitch : 0.12, Yaw : 359.94, Alt : 33.9000015259, Lat : 49.2835704, Lng : -123.1150208, Q1 : 0.999998509884, Q2 : 0.00129576644395, Q3 : 0.00106557668187, Q4 : -0.000469267193694}
2019-04-14 18:40:08.31: SIM {TimeUS : 46334792, Roll : 0.15, Pitch : 0.13, Yaw : 359.94, Alt : 34.1100006104, Lat : 49.2835704, Lng : -123.1150209, Q1 : 0.999998271465, Q2 : 0.00134726124816, Q3 : 0.00117047666572, Q4 : -0.000496496621054}
2019-04-14 18:40:08.41: SIM {TimeUS : 46434752, Roll : 0.14, Pitch : 0.11, Yaw : 359.94, Alt : 34.3199996948, Lat : 49.2835704, Lng : -123.1150208, Q1 : 0.999998509884, Q2 : 0.00127640110441, Q3 : 0.00102925824467, Q4 : -0.000518087937962}
2019-04-14 18:40:08.51: SIM {TimeUS : 46534712, Roll : 0.12, Pitch : 0.09, Yaw : 359.93, Alt : 34.5299987793, Lat : 49.2835704, Lng : -123.1150208, Q1 : 0.999998867512, Q2 : 0.00110385729931, Q3 : 0.000868741422892, Q4 : -0.000536096980795}
2019-04-14 18:40:08.61: SIM {TimeUS : 46634672, Roll : 0.09, Pitch : 0.08, Yaw : 359.93, Alt : 34.75, Lat : 49.2835704, Lng : -123.1150208, Q1 : 0.99999922514, Q2 : 0.000849870790262, Q3 : 0.000720662763342, Q4 : -0.000557786377613}
2019-04-14 18:40:08.71: SIM {TimeUS : 46734632, Roll : 0.06, Pitch : 0.06, Yaw : 359.93, Alt : 34.9599990845, Lat : 49.2835704, Lng : -123.1150208, Q1 : 0.999999523163, Q2 : 0.000560389948077, Q3 : 0.000607010966633, Q4 : -0.000583280285355}
2019-04-14 18:40:08.82: SIM {TimeUS : 46835425, Roll : 0.04, Pitch : 0.03, Yaw : 359.92, Alt : 35.1800003052, Lat : 49.2835704, Lng : -123.1150208, Q1 : 0.999999701977, Q2 : 0.000391159264836, Q3 : 0.000288104143692, Q4 : -0.000612020143308}
2019-04-14 18:40:08.91: SIM {TimeUS : 46935385, Roll : 0.03, Pitch : 0.0, Yaw : 359.92, Alt : 35.4000015259, Lat : 49.2835704, Lng : -123.1150208, Q1 : 0.999999701977, Q2 : 0.000311763200443, Q3 : 4.20205942646e-05, Q4 : -0.000646801257972}
2019-04-14 18:40:09.01: SIM {TimeUS : 47035345, Roll : 0.01, Pitch : 0.0, Yaw : 359.92, Alt : 35.6100006104, Lat : 49.2835704, Lng : -123.1150208, Q1 : 0.999999761581, Q2 : 0.000107417283289, Q3 : -3.39196158166e-05, Q4 : -0.000681528646965}
2019-04-14 18:40:09.11: SIM {TimeUS : 47135305, Roll : 0.0, Pitch : 0.0, Yaw : 359.91, Alt : 35.8300018311, Lat : 49.2835704, Lng : -123.1150208, Q1 : 0.999999761581, Q2 : 5.17044572916e-05, Q3 : -1.02538560895e-05, Q4 : -0.000711550062988}
2019-04-14 18:40:09.21: SIM {TimeUS : 47235265, Roll : 0.01, Pitch : 0.0, Yaw : 359.91, Alt : 36.0499992371, Lat : 49.2835704, Lng : -123.1150207, Q1 : 0.999999701977, Q2 : 0.000104211459984, Q3 : 2.46415729634e-05, Q4 : -0.000742278120015}
2019-04-14 18:40:09.31: SIM {TimeUS : 47335225, Roll : 0.0, Pitch : -0.01, Yaw : 359.91, Alt : 36.2700004578, Lat : 49.2835704, Lng : -123.1150207, Q1 : 0.999999701977, Q2 : -1.11231711344e-05, Q3 : -0.000151583997649, Q4 : -0.000769866979681}
2019-04-14 18:40:09.41: SIM {TimeUS : 47435185, Roll : -0.03, Pitch : -0.05, Yaw : 359.9, Alt : 36.5, Lat : 49.2835704, Lng : -123.1150207, Q1 : 0.999999523163, Q2 : -0.000290426803986, Q3 : -0.000477106077597, Q4 : -0.000791930244304}
2019-04-14 18:40:09.51: SIM {TimeUS : 47535145, Roll : -0.06, Pitch : -0.07, Yaw : 359.9, Alt : 36.7200012207, Lat : 49.2835704, Lng : -123.1150207, Q1 : 0.999999284744, Q2 : -0.000604049826507, Q3 : -0.000659186160192, Q4 : -0.000807501026429}
2019-04-14 18:40:09.61: SIM {TimeUS : 47635105, Roll : -0.1, Pitch : -0.09, Yaw : 359.9, Alt : 36.9399986267, Lat : 49.2835704, Lng : -123.1150207, Q1 : 0.999998927116, Q2 : -0.000906655564904, Q3 : -0.000811680860352, Q4 : -0.000822853122372}
2019-04-14 18:40:09.71: SIM {TimeUS : 47735065, Roll : -0.1, Pitch : -0.09, Yaw : 359.9, Alt : 37.1699981689, Lat : 49.2835704, Lng : -123.1150207, Q1 : 0.999998867512, Q2 : -0.000956953328568, Q3 : -0.000815637409687, Q4 : -0.000845885078888}
2019-04-14 18:40:09.81: SIM {TimeUS : 47835025, Roll : -0.09, Pitch : -0.07, Yaw : 359.89, Alt : 37.3899993896, Lat : 49.2835704, Lng : -123.1150207, Q1 : 0.999999046326, Q2 : -0.000857047736645, Q3 : -0.000683431862853, Q4 : -0.000874470919371}
2019-04-14 18:40:09.91: SIM {TimeUS : 47934985, Roll : -0.08, Pitch : -0.05, Yaw : 359.89, Alt : 37.6199989319, Lat : 49.2835704, Lng : -123.1150207, Q1 : 0.999999284744, Q2 : -0.000703078869265, Q3 : -0.000442147575086, Q4 : -0.000901899067685}
2019-04-14 18:40:10.01: SIM {TimeUS : 48034945, Roll : -0.06, Pitch : -0.03, Yaw : 359.89, Alt : 37.8400001526, Lat : 49.2835704, Lng : -123.1150207, Q1 : 0.999999403954, Q2 : -0.000543898844626, Q3 : -0.000264392467216, Q4 : -0.000925388478208}
2019-04-14 18:40:10.11: SIM {TimeUS : 48134905, Roll : -0.06, Pitch : -0.03, Yaw : 359.89, Alt : 38.0699996948, Lat : 49.2835704, Lng : -123.1150207, Q1 : 0.999999344349, Q2 : -0.000564737361856, Q3 : -0.000270739954431, Q4 : -0.000942846585531}
2019-04-14 18:40:10.21: SIM {TimeUS : 48234865, Roll : -0.07, Pitch : -0.02, Yaw : 359.89, Alt : 38.2999992371, Lat : 49.2835704, Lng : -123.1150207, Q1 : 0.999999344349, Q2 : -0.000652994785924, Q3 : -0.000187577010365, Q4 : -0.000956759846304}
2019-04-14 18:40:10.31: SIM {TimeUS : 48334825, Roll : -0.09, Pitch : 0.0, Yaw : 359.88, Alt : 38.5299987793, Lat : 49.2835704, Lng : -123.1150207, Q1 : 0.999999165535, Q2 : -0.000840571708977, Q3 : -6.03274784226e-05, Q4 : -0.000969541724771}
2019-04-14 18:40:10.41: SIM {TimeUS : 48434785, Roll : -0.09, Pitch : 0.0, Yaw : 359.88, Alt : 38.75, Lat : 49.2835704, Lng : -123.1150207, Q1 : 0.999999165535, Q2 : -0.000837731873617, Q3 : 5.53613390366e-05, Q4 : -0.000974582624622}
2019-04-14 18:40:10.51: SIM {TimeUS : 48534745, Roll : -0.07, Pitch : 0.03, Yaw : 359.88, Alt : 38.9799995422, Lat : 49.2835706, Lng : -123.1150207, Q1 : 0.999999284744, Q2 : -0.000628890120424, Q3 : 0.000280285108602, Q4 : -0.000980707467534}
2019-04-14 18:40:10.61: SIM {TimeUS : 48634705, Roll : -0.04, Pitch : 0.03, Yaw : 359.88, Alt : 39.2099990845, Lat : 49.2835706, Lng : -123.1150207, Q1 : 0.999999463558, Q2 : -0.000349726236891, Q3 : 0.000267445459031, Q4 : -0.000982732162811}
2019-04-14 18:40:10.71: SIM {TimeUS : 48734665, Roll : 0.0, Pitch : 0.02, Yaw : 359.88, Alt : 39.4399986267, Lat : 49.2835706, Lng : -123.1150207, Q1 : 0.999999463558, Q2 : -4.23322271672e-05, Q3 : 0.000213052495383, Q4 : -0.000985466758721}
2019-04-14 18:40:10.81: SIM {TimeUS : 48834625, Roll : 0.03, Pitch : 0.04, Yaw : 359.88, Alt : 39.6699981689, Lat : 49.2835706, Lng : -123.1150207, Q1 : 0.999999403954, Q2 : 0.000301421358017, Q3 : 0.000387906213291, Q4 : -0.00098617025651}
2019-04-14 18:40:10.92: SIM {TimeUS : 48935418, Roll : 0.07, Pitch : 0.08, Yaw : 359.88, Alt : 39.9099998474, Lat : 49.2835706, Lng : -123.1150207, Q1 : 0.999999046326, Q2 : 0.000657062744722, Q3 : 0.000708126171958, Q4 : -0.000995444483124}
2019-04-14 18:40:11.01: SIM {TimeUS : 49035378, Roll : 0.1, Pitch : 0.11, Yaw : 359.88, Alt : 40.1399993896, Lat : 49.2835706, Lng : -123.1150207, Q1 : 0.999998569489, Q2 : 0.00091686763335, Q3 : 0.00099391292315, Q4 : -0.00101585523225}
2019-04-14 18:40:11.11: SIM {TimeUS : 49135338, Roll : 0.09, Pitch : 0.14, Yaw : 359.88, Alt : 40.3699989319, Lat : 49.2835706, Lng : -123.1150207, Q1 : 0.99999833107, Q2 : 0.000833878293633, Q3 : 0.00127062643878, Q4 : -0.00102937407792}
2019-04-14 18:40:11.21: SIM {TimeUS : 49235298, Roll : 0.04, Pitch : 0.16, Yaw : 359.87, Alt : 40.5999984741, Lat : 49.2835706, Lng : -123.1150207, Q1 : 0.999998271465, Q2 : 0.000390850851545, Q3 : 0.00148027855903, Q4 : -0.00105913018342}
2019-04-14 18:40:11.31: SIM {TimeUS : 49335258, Roll : 0.0, Pitch : 0.18, Yaw : 359.87, Alt : 40.8300018311, Lat : 49.2835706, Lng : -123.1150207, Q1 : 0.999998152256, Q2 : -3.2224907045e-05, Q3 : 0.00158127187751, Q4 : -0.00108672410715}
2019-04-14 18:40:11.41: SIM {TimeUS : 49435218, Roll : -0.03, Pitch : 0.16, Yaw : 359.87, Alt : 41.0600013733, Lat : 49.2835706, Lng : -123.1150207, Q1 : 0.999998390675, Q2 : -0.000281475426164, Q3 : 0.00140402419493, Q4 : -0.00110870588105}
2019-04-14 18:40:11.51: SIM {TimeUS : 49535178, Roll : -0.04, Pitch : 0.13, Yaw : 359.86, Alt : 41.2999992371, Lat : 49.2835706, Lng : -123.1150207, Q1 : 0.999998629093, Q2 : -0.000374766765162, Q3 : 0.00113969598897, Q4 : -0.00113969494123}
2019-04-14 18:40:11.61: SIM {TimeUS : 49635138, Roll : -0.02, Pitch : 0.12, Yaw : 359.86, Alt : 41.5299987793, Lat : 49.2835706, Lng : -123.1150207, Q1 : 0.999998688698, Q2 : -0.000255317921983, Q3 : 0.0010903935181, Q4 : -0.00117736204993}
2019-04-14 18:40:11.71: SIM {TimeUS : 49735098, Roll : 0.01, Pitch : 0.13, Yaw : 359.86, Alt : 41.7599983215, Lat : 49.2835706, Lng : -123.1150207, Q1 : 0.999998509884, Q2 : 0.000119701762742, Q3 : 0.00121226836927, Q4 : -0.00122107472271}
2019-04-14 18:40:11.81: SIM {TimeUS : 49835058, Roll : 0.06, Pitch : 0.14, Yaw : 359.85, Alt : 42.0, Lat : 49.2835706, Lng : -123.1150207, Q1 : 0.999998211861, Q2 : 0.000574216770474, Q3 : 0.00128184491768, Q4 : -0.00126619043294}
2019-04-14 18:40:11.91: SIM {TimeUS : 49935018, Roll : 0.1, Pitch : 0.12, Yaw : 359.84, Alt : 42.2299995422, Lat : 49.2835706, Lng : -123.1150207, Q1 : 0.999998152256, Q2 : 0.000904200482182, Q3 : 0.00108533969615, Q4 : -0.00131404853892}
2019-04-14 18:40:12.01: SIM {TimeUS : 50034978, Roll : 0.1, Pitch : 0.08, Yaw : 359.84, Alt : 42.4700012207, Lat : 49.2835706, Lng : -123.1150207, Q1 : 0.99999833107, Q2 : 0.000930128910113, Q3 : 0.000755176704843, Q4 : -0.00135700358078}
2019-04-14 18:40:12.11: SIM {TimeUS : 50134938, Roll : 0.06, Pitch : 0.05, Yaw : 359.84, Alt : 42.7000007629, Lat : 49.2835706, Lng : -123.1150207, Q1 : 0.999998748302, Q2 : 0.000588107330259, Q3 : 0.000519561464898, Q4 : -0.00138489727397}
2019-04-14 18:40:12.21: SIM {TimeUS : 50234898, Roll : 0.01, Pitch : 0.05, Yaw : 359.83, Alt : 42.9399986267, Lat : 49.2835706, Lng : -123.1150207, Q1 : 0.999998867512, Q2 : 0.00010009536345, Q3 : 0.000463614269393, Q4 : -0.00140447262675}
2019-04-14 18:40:12.31: SIM {TimeUS : 50334858, Roll : -0.02, Pitch : 0.07, Yaw : 359.83, Alt : 43.1699981689, Lat : 49.2835704, Lng : -123.1150207, Q1 : 0.999998748302, Q2 : -0.000254648621194, Q3 : 0.000655283452943, Q4 : -0.00141873024404}
2019-04-14 18:40:12.41: SIM {TimeUS : 50434818, Roll : -0.04, Pitch : 0.08, Yaw : 359.83, Alt : 43.4099998474, Lat : 49.2835704, Lng : -123.1150207, Q1 : 0.999998569489, Q2 : -0.000435149151599, Q3 : 0.000772846688051, Q4 : -0.00142789317761}
2019-04-14 18:40:12.51: SIM {TimeUS : 50534778, Roll : -0.04, Pitch : 0.07, Yaw : 359.83, Alt : 43.6399993896, Lat : 49.2835704, Lng : -123.1150207, Q1 : 0.999998629093, Q2 : -0.000425947015174, Q3 : 0.00068833224941, Q4 : -0.00143954507075}
2019-04-14 18:40:12.61: SIM {TimeUS : 50634738, Roll : -0.05, Pitch : 0.05, Yaw : 359.83, Alt : 43.8800010681, Lat : 49.2835704, Lng : -123.1150207, Q1 : 0.999998688698, Q2 : -0.000448517268524, Q3 : 0.00050929869758, Q4 : -0.00145372282714}
2019-04-14 18:40:12.71: SIM {TimeUS : 50734698, Roll : -0.04, Pitch : 0.04, Yaw : 359.83, Alt : 44.1100006104, Lat : 49.2835704, Lng : -123.1150206, Q1 : 0.999998807907, Q2 : -0.000399934098823, Q3 : 0.000374374882085, Q4 : -0.00147194112651}
2019-04-14 18:40:12.81: SIM {TimeUS : 50834658, Roll : -0.03, Pitch : 0.03, Yaw : 359.82, Alt : 44.3499984741, Lat : 49.2835704, Lng : -123.1150206, Q1 : 0.999998748302, Q2 : -0.000271587807219, Q3 : 0.00034758952097, Q4 : -0.00149458856322}
2019-04-14 18:40:12.91: SIM {TimeUS : 50934618, Roll : -0.01, Pitch : 0.04, Yaw : 359.82, Alt : 44.5800018311, Lat : 49.2835704, Lng : -123.1150206, Q1 : 0.999998748302, Q2 : -0.000165062112501, Q3 : 0.000356717820978, Q4 : -0.00151800247841}
2019-04-14 18:40:13.01: SIM {TimeUS : 51035411, Roll : -0.01, Pitch : 0.01, Yaw : 359.82, Alt : 44.8199996948, Lat : 49.2835704, Lng : -123.1150206, Q1 : 0.999998807907, Q2 : -0.000165873323567, Q3 : 0.000156184047228, Q4 : -0.00155295315199}
2019-04-14 18:40:13.11: SIM {TimeUS : 51135371, Roll : -0.02, Pitch : -0.01, Yaw : 359.81, Alt : 45.0600013733, Lat : 49.2835704, Lng : -123.1150206, Q1 : 0.999998688698, Q2 : -0.000184022865142, Q3 : -0.000172135303728, Q4 : -0.00159308768343}
2019-04-14 18:40:13.21: SIM {TimeUS : 51235331, Roll : -0.02, Pitch : -0.04, Yaw : 359.81, Alt : 45.2900009155, Lat : 49.2835703, Lng : -123.1150206, Q1 : 0.999998569489, Q2 : -0.0002064887085, Q3 : -0.000395439186832, Q4 : -0.00163115956821}
2019-04-14 18:40:13.31: SIM {TimeUS : 51335291, Roll : -0.02, Pitch : -0.05, Yaw : 359.8, Alt : 45.5299987793, Lat : 49.2835703, Lng : -123.1150206, Q1 : 0.999998450279, Q2 : -0.000203808391234, Q3 : -0.000518953078426, Q4 : -0.00166338612325}
2019-04-14 18:40:13.41: SIM {TimeUS : 51435251, Roll : -0.03, Pitch : -0.05, Yaw : 359.8, Alt : 45.7599983215, Lat : 49.2835703, Lng : -123.1150206, Q1 : 0.999998390675, Q2 : -0.000317325291689, Q3 : -0.000498562469147, Q4 : -0.00169307657052}
2019-04-14 18:40:13.51: SIM {TimeUS : 51535211, Roll : -0.06, Pitch : -0.04, Yaw : 359.8, Alt : 46.0, Lat : 49.2835703, Lng : -123.1150206, Q1 : 0.999998271465, Q2 : -0.000551649951376, Q3 : -0.000384976301575, Q4 : -0.00171981146559}
2019-04-14 18:40:13.61: SIM {TimeUS : 51635171, Roll : -0.1, Pitch : -0.03, Yaw : 359.8, Alt : 46.2200012207, Lat : 49.2835703, Lng : -123.1150206, Q1 : 0.999998033047, Q2 : -0.000886724970769, Q3 : -0.000286256661639, Q4 : -0.00174316135235}
2019-04-14 18:40:13.71: SIM {TimeUS : 51735131, Roll : -0.12, Pitch : -0.02, Yaw : 359.79, Alt : 46.4500007629, Lat : 49.2835703, Lng : -123.1150206, Q1 : 0.999997794628, Q2 : -0.00112185569014, Q3 : -0.000227953205467, Q4 : -0.00176523020491}
2019-04-14 18:40:13.81: SIM {TimeUS : 51835091, Roll : -0.13, Pitch : -0.01, Yaw : 359.79, Alt : 46.6699981689, Lat : 49.2835703, Lng : -123.1150206, Q1 : 0.999997735023, Q2 : -0.00114779779688, Q3 : -0.000140407952131, Q4 : -0.00178753293585}
2019-04-14 18:40:13.91: SIM {TimeUS : 51935051, Roll : -0.11, Pitch : 0.0, Yaw : 359.79, Alt : 46.8800010681, Lat : 49.2835703, Lng : -123.1150206, Q1 : 0.999997854233, Q2 : -0.000988095533103, Q3 : 2.65836260951e-05, Q4 : -0.00180672307033}
2019-04-14 18:40:14.01: SIM {TimeUS : 52035011, Roll : -0.08, Pitch : 0.01, Yaw : 359.79, Alt : 47.0900001526, Lat : 49.2835703, Lng : -123.1150206, Q1 : 0.999998092651, Q2 : -0.000729022489395, Q3 : 9.41935941228e-05, Q4 : -0.0018261265941}
2019-04-14 18:40:14.11: SIM {TimeUS : 52134971, Roll : -0.05, Pitch : 0.0, Yaw : 359.78, Alt : 47.2900009155, Lat : 49.2835703, Lng : -123.1150206, Q1 : 0.999998152256, Q2 : -0.000500288791955, Q3 : 5.35272447451e-05, Q4 : -0.00184763863217}
2019-04-14 18:40:14.21: SIM {TimeUS : 52234931, Roll : -0.04, Pitch : -0.01, Yaw : 359.78, Alt : 47.4799995422, Lat : 49.2835703, Lng : -123.1150206, Q1 : 0.999998152256, Q2 : -0.000387670675991, Q3 : -0.000107445426693, Q4 : -0.00187132577412}
2019-04-14 18:40:14.31: SIM {TimeUS : 52334891, Roll : -0.03, Pitch : -0.04, Yaw : 359.78, Alt : 47.6699981689, Lat : 49.2835703, Lng : -123.1150206, Q1 : 0.999998092651, Q2 : -0.000298307859339, Q3 : -0.00038379264879, Q4 : -0.00189656810835}
2019-04-14 18:40:14.41: SIM {TimeUS : 52434851, Roll : -0.02, Pitch : -0.07, Yaw : 359.77, Alt : 47.8400001526, Lat : 49.2835703, Lng : -123.1150206, Q1 : 0.999997913837, Q2 : -0.000239023531321, Q3 : -0.000663225888275, Q4 : -0.001921976218}
2019-04-14 18:40:14.51: SIM {TimeUS : 52534811, Roll : -0.02, Pitch : -0.1, Yaw : 359.77, Alt : 48.0, Lat : 49.2835703, Lng : -123.1150206, Q1 : 0.999997615814, Q2 : -0.000221541122301, Q3 : -0.00094227847876, Q4 : -0.00194599560928}
2019-04-14 18:40:14.61: SIM {TimeUS : 52634771, Roll : -0.03, Pitch : -0.13, Yaw : 359.77, Alt : 48.1399993896, Lat : 49.2835703, Lng : -123.1150206, Q1 : 0.999997377396, Q2 : -0.000265259906882, Q3 : -0.00113610550761, Q4 : -0.00196832837537}
2019-04-14 18:40:14.71: SIM {TimeUS : 52734731, Roll : 0.0, Pitch : -0.12, Yaw : 359.77, Alt : 48.2799987793, Lat : 49.2835703, Lng : -123.1150206, Q1 : 0.999997437, Q2 : -6.0209305957e-05, Q3 : -0.00107627979014, Q4 : -0.00198773480952}
2019-04-14 18:40:14.81: SIM {TimeUS : 52834691, Roll : 0.02, Pitch : -0.1, Yaw : 359.76, Alt : 48.4099998474, Lat : 49.2835703, Lng : -123.1150206, Q1 : 0.99999755621, Q2 : 0.000232599239098, Q3 : -0.000900067796465, Q4 : -0.00201165815815}
2019-04-14 18:40:14.91: SIM {TimeUS : 52934651, Roll : 0.05, Pitch : -0.07, Yaw : 359.76, Alt : 48.5200004578, Lat : 49.2835703, Lng : -123.1150207, Q1 : 0.999997615814, Q2 : 0.00048575020628, Q3 : -0.000655448995531, Q4 : -0.00204122974537}
2019-04-14 18:40:15.02: SIM {TimeUS : 53035444, Roll : 0.06, Pitch : -0.04, Yaw : 359.76, Alt : 48.6199989319, Lat : 49.2835703, Lng : -123.1150207, Q1 : 0.999997615814, Q2 : 0.000603388703894, Q3 : -0.000414396054111, Q4 : -0.00207459018566}
2019-04-14 18:40:15.11: SIM {TimeUS : 53135404, Roll : 0.07, Pitch : -0.03, Yaw : 359.75, Alt : 48.7099990845, Lat : 49.2835703, Lng : -123.1150207, Q1 : 0.999997496605, Q2 : 0.000668784487061, Q3 : -0.000310640258249, Q4 : -0.00210692011751}
2019-04-14 18:40:15.21: SIM {TimeUS : 53235364, Roll : 0.06, Pitch : -0.04, Yaw : 359.75, Alt : 48.7799987793, Lat : 49.2835703, Lng : -123.1150207, Q1 : 0.999997496605, Q2 : 0.000586664362345, Q3 : -0.00035612663487, Q4 : -0.00214034481905}
2019-04-14 18:40:15.31: SIM {TimeUS : 53335324, Roll : 0.03, Pitch : -0.04, Yaw : 359.75, Alt : 48.8499984741, Lat : 49.2835703, Lng : -123.1150207, Q1 : 0.999997496605, Q2 : 0.000326143403072, Q3 : -0.000351889117155, Q4 : -0.00216675014235}
2019-04-14 18:40:15.41: SIM {TimeUS : 53435284, Roll : 0.01, Pitch : -0.02, Yaw : 359.74, Alt : 48.9099998474, Lat : 49.2835703, Lng : -123.1150207, Q1 : 0.99999755621, Q2 : 0.000116538598377, Q3 : -0.000250045122812, Q4 : -0.00219015986659}
2019-04-14 18:40:15.51: SIM {TimeUS : 53535244, Roll : 0.0, Pitch : -0.02, Yaw : 359.74, Alt : 48.9599990845, Lat : 49.2835704, Lng : -123.1150207, Q1 : 0.99999755621, Q2 : -6.43143221168e-06, Q3 : -0.00019665248692, Q4 : -0.00220991601236}
2019-04-14 18:40:15.61: SIM {TimeUS : 53635204, Roll : 0.03, Pitch : -0.06, Yaw : 359.74, Alt : 49.0, Lat : 49.2835704, Lng : -123.1150207, Q1 : 0.999997317791, Q2 : 0.000311583018629, Q3 : -0.000574316014536, Q4 : -0.00222903862596}
2019-04-14 18:40:15.71: SIM {TimeUS : 53735164, Roll : 0.21, Pitch : -0.26, Yaw : 359.74, Alt : 49.0299987793, Lat : 49.2835704, Lng : -123.1150207, Q1 : 0.999993145466, Q2 : 0.00184904050548, Q3 : -0.00228771497495, Q4 : -0.00224480824545}
2019-04-14 18:40:15.81: SIM {TimeUS : 53835124, Roll : 0.54, Pitch : -0.69, Yaw : 359.73, Alt : 49.0699996948, Lat : 49.2835704, Lng : -123.1150207, Q1 : 0.999967753887, Q2 : 0.00478553818539, Q3 : -0.00604300852865, Q4 : -0.00225582532585}
2019-04-14 18:40:15.91: SIM {TimeUS : 53935084, Roll : 1.02, Pitch : -1.36, Yaw : 359.72, Alt : 49.0900001526, Lat : 49.2835704, Lng : -123.1150207, Q1 : 0.999887287617, Q2 : 0.00887543521821, Q3 : -0.0118947084993, Q4 : -0.00226633599959}
2019-04-14 18:40:16.01: SIM {TimeUS : 54035044, Roll : 1.57, Pitch : -2.18, Yaw : 359.71, Alt : 49.1100006104, Lat : 49.2835704, Lng : -123.1150207, Q1 : 0.99972140789, Q2 : 0.0136642931029, Q3 : -0.0191127303988, Q4 : -0.00225419783965}
2019-04-14 18:40:16.11: SIM {TimeUS : 54135004, Roll : 2.13, Pitch : -3.07, Yaw : 359.69, Alt : 49.1300010681, Lat : 49.2835706, Lng : -123.1150206, Q1 : 0.999463438988, Q2 : 0.0185833591968, Q3 : -0.0268840156496, Q4 : -0.00220066821203}
2019-04-14 18:40:16.21: SIM {TimeUS : 54234964, Roll : 2.65, Pitch : -3.87, Yaw : 359.67, Alt : 49.1500015259, Lat : 49.2835707, Lng : -123.1150205, Q1 : 0.999158918858, Q2 : 0.0230530947447, Q3 : -0.0338478833437, Q4 : -0.00207779649645}
2019-04-14 18:40:16.31: SIM {TimeUS : 54334924, Roll : 3.06, Pitch : -4.47, Yaw : 359.66, Alt : 49.1699981689, Lat : 49.2835709, Lng : -123.1150203, Q1 : 0.998879849911, Q2 : 0.0266026370227, Q3 : -0.0390878133476, Q4 : -0.00188721111044}
2019-04-14 18:40:16.41: SIM {TimeUS : 54434884, Roll : 3.36, Pitch : -4.9, Yaw : 359.66, Alt : 49.1800003052, Lat : 49.283571, Lng : -123.1150201, Q1 : 0.998651742935, Q2 : 0.0291857942939, Q3 : -0.0428975857794, Q4 : -0.00163790897932}
2019-04-14 18:40:16.51: SIM {TimeUS : 54534844, Roll : 3.59, Pitch : -5.22, Yaw : 359.68, Alt : 49.1899986267, Lat : 49.2835714, Lng : -123.1150199, Q1 : 0.998469114304, Q2 : 0.031164849177, Q3 : -0.0456768423319, Q4 : -0.00135688530281}
2019-04-14 18:40:16.61: SIM {TimeUS : 54634804, Roll : 3.77, Pitch : -5.5, Yaw : 359.69, Alt : 49.2000007629, Lat : 49.2835716, Lng : -123.1150196, Q1 : 0.998304545879, Q2 : 0.0328110419214, Q3 : -0.0480663329363, Q4 : -0.00107087322976}
2019-04-14 18:40:16.71: SIM {TimeUS : 54734764, Roll : 3.96, Pitch : -5.8, Yaw : 359.7, Alt : 49.2099990845, Lat : 49.2835721, Lng : -123.1150191, Q1 : 0.998122513294, Q2 : 0.0344181060791, Q3 : -0.0506579689682, Q4 : -0.000812710786704}
2019-04-14 18:40:16.81: SIM {TimeUS : 54834724, Roll : 4.18, Pitch : -6.13, Yaw : 359.71, Alt : 49.2200012207, Lat : 49.2835726, Lng : -123.1150187, Q1 : 0.997902095318, Q2 : 0.036340188235, Q3 : -0.0535777322948, Q4 : -0.000554926635232}
2019-04-14 18:40:16.91: SIM {TimeUS : 54934684, Roll : 4.41, Pitch : -6.45, Yaw : 359.71, Alt : 49.2200012207, Lat : 49.2835731, Lng : -123.1150181, Q1 : 0.997676968575, Q2 : 0.0382833145559, Q3 : -0.0563465766609, Q4 : -0.000294377823593}
2019-04-14 18:40:17.01: SIM {TimeUS : 55034644, Roll : 4.58, Pitch : -6.69, Yaw : 359.72, Alt : 49.2299995422, Lat : 49.2835737, Lng : -123.1150175, Q1 : 0.997497916222, Q2 : 0.0397602841258, Q3 : -0.0584554336965, Q4 : -5.6037610193e-05}
2019-04-14 18:40:17.12: SIM {TimeUS : 55135437, Roll : 4.69, Pitch : -6.86, Yaw : 359.73, Alt : 49.2400016785, Lat : 49.2835743, Lng : -123.1150168, Q1 : 0.997367560863, Q2 : 0.0407876297832, Q3 : -0.0599527060986, Q4 : 0.000125023318105}
2019-04-14 18:40:17.21: SIM {TimeUS : 55235397, Roll : 4.76, Pitch : -6.98, Yaw : 359.73, Alt : 49.2400016785, Lat : 49.283575, Lng : -123.1150161, Q1 : 0.997284114361, Q2 : 0.0413475967944, Q3 : -0.0609489455819, Q4 : 0.000248506607022}
2019-04-14 18:40:17.31: SIM {TimeUS : 55335357, Roll : 4.81, Pitch : -7.06, Yaw : 359.73, Alt : 49.2400016785, Lat : 49.2835758, Lng : -123.1150153, Q1 : 0.997222363949, Q2 : 0.0417763628066, Q3 : -0.0616627149284, Q4 : 0.000323359534377}
2019-04-14 18:40:17.41: SIM {TimeUS : 55435317, Roll : 4.88, Pitch : -7.14, Yaw : 359.73, Alt : 49.25, Lat : 49.2835765, Lng : -123.1150144, Q1 : 0.997154057026, Q2 : 0.0423668883741, Q3 : -0.0623598024249, Q4 : 0.000371638481738}
2019-04-14 18:40:17.51: SIM {TimeUS : 55535277, Roll : 5.11, Pitch : -7.22, Yaw : 359.8, Alt : 49.25, Lat : 49.2835775, Lng : -123.1150135, Q1 : 0.997023165226, Q2 : 0.0444679260254, Q3 : -0.0629776716232, Q4 : 0.00115122459829}
2019-04-14 18:40:17.61: SIM {TimeUS : 55635237, Roll : 5.64, Pitch : -7.24, Yaw : 0.4, Alt : 49.2599983215, Lat : 49.2835783, Lng : -123.1150125, Q1 : 0.996771275997, Q2 : 0.0493907816708, Q3 : -0.0629530400038, Q4 : 0.00667916983366}
2019-04-14 18:40:17.71: SIM {TimeUS : 55735197, Roll : 6.31, Pitch : -7.36, Yaw : 2.22, Alt : 49.2599983215, Lat : 49.2835794, Lng : -123.1150115, Q1 : 0.996165573597, Q2 : 0.056208986789, Q3 : -0.0630113556981, Q4 : 0.0228972882032}
2019-04-14 18:40:17.81: SIM {TimeUS : 55835157, Roll : 6.73, Pitch : -7.76, Yaw : 5.63, Alt : 49.2599983215, Lat : 49.2835804, Lng : -123.1150103, Q1 : 0.994582414627, Q2 : 0.0618526898324, Q3 : -0.0646254569292, Q4 : 0.0529488250613}
2019-04-14 18:40:17.91: SIM {TimeUS : 55935117, Roll : 6.61, Pitch : -8.49, Yaw : 10.6, Alt : 49.2599983215, Lat : 49.2835814, Lng : -123.1150091, Q1 : 0.990939617157, Q2 : 0.064094170928, Q3 : -0.0683515667915, Q4 : 0.0962220579386}
2019-04-14 18:40:18.01: SIM {TimeUS : 56035077, Roll : 5.72, Pitch : -9.48, Yaw : 16.88, Alt : 49.2599983215, Lat : 49.2835825, Lng : -123.1150077, Q1 : 0.983941078186, Q2 : 0.0613480955362, Q3 : -0.0744091495872, Q4 : 0.150198757648}
2019-04-14 18:40:18.11: SIM {TimeUS : 56135037, Roll : 3.82, Pitch : -10.57, Yaw : 23.96, Alt : 49.2599983215, Lat : 49.2835837, Lng : -123.1150063, Q1 : 0.972866535187, Q2 : 0.0516212396324, Q3 : -0.0831812918186, Q4 : 0.2096349895}
2019-04-14 18:40:18.21: SIM {TimeUS : 56234997, Roll : 1.12, Pitch : -11.49, Yaw : 31.06, Alt : 49.2700004578, Lat : 49.2835849, Lng : -123.1150047, Q1 : 0.958311975002, Q2 : 0.0362169295549, Q3 : -0.0939133167267, Q4 : 0.267407536507}
2019-04-14 18:40:18.31: SIM {TimeUS : 56334957, Roll : -1.84, Pitch : -12.09, Yaw : 37.42, Alt : 49.2700004578, Lat : 49.2835861, Lng : -123.1150031, Q1 : 0.942286670208, Q2 : 0.0186681505293, Q3 : -0.104890294373, Q4 : 0.317404091358}
2019-04-14 18:40:18.41: SIM {TimeUS : 56434917, Roll : -4.39, Pitch : -12.35, Yaw : 42.41, Alt : 49.2700004578, Lat : 49.2835874, Lng : -123.1150015, Q1 : 0.927669763565, Q2 : 0.00333568523638, Q3 : -0.114061817527, Q4 : 0.355538487434}
2019-04-14 18:40:18.51: SIM {TimeUS : 56534877, Roll : -6.08, Pitch : -12.44, Yaw : 45.69, Alt : 49.2700004578, Lat : 49.283589, Lng : -123.1149999, Q1 : 0.917051255703, Q2 : -0.00657694321126, Q3 : -0.120205633342, Q4 : 0.380163490772}
2019-04-14 18:40:18.61: SIM {TimeUS : 56634837, Roll : -6.76, Pitch : -12.51, Yaw : 47.26, Alt : 49.2700004578, Lat : 49.2835904, Lng : -123.1149981, Q1 : 0.911675572395, Q2 : -0.0100696599111, Q3 : -0.123207092285, Q4 : 0.391875386238}
2019-04-14 18:40:18.71: SIM {TimeUS : 56734797, Roll : -6.53, Pitch : -12.71, Yaw : 47.33, Alt : 49.2700004578, Lat : 49.2835922, Lng : -123.1149966, Q1 : 0.911309421062, Q2 : -0.00750404829159, Q3 : -0.124002240598, Q4 : 0.392533183098}
2019-04-14 18:40:18.81: SIM {TimeUS : 56834757, Roll : -5.63, Pitch : -13.1, Yaw : 46.22, Alt : 49.2700004578, Lat : 49.2835939, Lng : -123.1149949, Q1 : 0.914814889431, Q2 : -0.000188686462934, Q3 : -0.124003857374, Q4 : 0.384365320206}
2019-04-14 18:40:18.91: SIM {TimeUS : 56934717, Roll : -4.31, Pitch : -13.65, Yaw : 44.26, Alt : 49.2700004578, Lat : 49.2835958, Lng : -123.1149932, Q1 : 0.920794010162, Q2 : 0.0100958188996, Q3 : -0.124152481556, Q4 : 0.369625002146}
2019-04-14 18:40:19.01: SIM {TimeUS : 57034677, Roll : -2.78, Pitch : -14.27, Yaw : 41.74, Alt : 49.2700004578, Lat : 49.2835976, Lng : -123.1149914, Q1 : 0.927953660488, Q2 : 0.0217082500458, Q3 : -0.124623015523, Q4 : 0.350570648909}
2019-04-14 18:40:19.11: SIM {TimeUS : 57134637, Roll : -1.2, Pitch : -14.83, Yaw : 38.97, Alt : 49.2799987793, Lat : 49.2835996, Lng : -123.1149897, Q1 : 0.935242533684, Q2 : 0.0331912450492, Q3 : -0.125153616071, Q4 : 0.329478770494}
2019-04-14 18:40:19.22: SIM {TimeUS : 57235430, Roll : 0.26, Pitch : -15.24, Yaw : 36.24, Alt : 49.2799987793, Lat : 49.2836018, Lng : -123.1149878, Q1 : 0.941901743412, Q2 : 0.0434367693961, Q3 : -0.125353559852, Q4 : 0.308578848839}
2019-04-14 18:40:19.31: SIM {TimeUS : 57335390, Roll : 1.48, Pitch : -15.47, Yaw : 33.89, Alt : 49.2799987793, Lat : 49.2836038, Lng : -123.1149858, Q1 : 0.947287201881, Q2 : 0.0515124574304, Q3 : -0.125015959144, Q4 : 0.290455639362}
2019-04-14 18:40:19.41: SIM {TimeUS : 57435350, Roll : 2.35, Pitch : -15.56, Yaw : 32.09, Alt : 49.2799987793, Lat : 49.283606, Lng : -123.1149837, Q1 : 0.951203525066, Q2 : 0.0570003092289, Q3 : -0.124463744462, Q4 : 0.276535093784}
2019-04-14 18:40:19.51: SIM {TimeUS : 57535310, Roll : 2.84, Pitch : -15.57, Yaw : 30.97, Alt : 49.2799987793, Lat : 49.2836081, Lng : -123.1149815, Q1 : 0.953613877296, Q2 : 0.0598465427756, Q3 : -0.124021925032, Q4 : 0.267689138651}
2019-04-14 18:40:19.61: SIM {TimeUS : 57635270, Roll : 2.93, Pitch : -15.58, Yaw : 30.51, Alt : 49.2799987793, Lat : 49.2836104, Lng : -123.1149792, Q1 : 0.954612076283, Q2 : 0.0601281747222, Q3 : -0.124052330852, Q4 : 0.26402926445}
2019-04-14 18:40:19.71: SIM {TimeUS : 57735230, Roll : 2.68, Pitch : -15.6, Yaw : 30.67, Alt : 49.2799987793, Lat : 49.2836127, Lng : -123.1149768, Q1 : 0.954354703426, Q2 : 0.0583108104765, Q3 : -0.124718300998, Q4 : 0.26505151391}
2019-04-14 18:40:19.81: SIM {TimeUS : 57835190, Roll : 2.19, Pitch : -15.66, Yaw : 31.31, Alt : 49.2799987793, Lat : 49.2836151, Lng : -123.1149743, Q1 : 0.953029870987, Q2 : 0.0550643354654, Q3 : -0.126095056534, Q4 : 0.269818544388}
2019-04-14 18:40:19.91: SIM {TimeUS : 57935150, Roll : 1.54, Pitch : -15.78, Yaw : 32.28, Alt : 49.2799987793, Lat : 49.2836174, Lng : -123.1149718, Q1 : 0.950876116753, Q2 : 0.0510218553245, Q3 : -0.128200769424, Q4 : 0.277120858431}
2019-04-14 18:40:20.01: SIM {TimeUS : 58035110, Roll : 0.83, Pitch : -15.93, Yaw : 33.41, Alt : 49.2799987793, Lat : 49.2836197, Lng : -123.1149691, Q1 : 0.948214769363, Q2 : 0.0467282533646, Q3 : -0.130706146359, Q4 : 0.285694152117}
2019-04-14 18:40:20.11: SIM {TimeUS : 58135070, Roll : 0.12, Pitch : -16.08, Yaw : 34.57, Alt : 49.2799987793, Lat : 49.2836223, Lng : -123.1149665, Q1 : 0.945397615433, Q2 : 0.042605843395, Q3 : -0.133264958858, Q4 : 0.294361263514}
2019-04-14 18:40:20.21: SIM {TimeUS : 58235030, Roll : -0.48, Pitch : -16.18, Yaw : 35.61, Alt : 49.2799987793, Lat : 49.2836248, Lng : -123.1149637, Q1 : 0.942791700363, Q2 : 0.039036501199, Q3 : -0.135341823101, Q4 : 0.302163124084}
2019-04-14 18:40:20.31: SIM {TimeUS : 58334990, Roll : -0.93, Pitch : -16.24, Yaw : 36.44, Alt : 49.2799987793, Lat : 49.2836273, Lng : -123.114961, Q1 : 0.940661132336, Q2 : 0.0365216620266, Q3 : -0.136718660593, Q4 : 0.308432877064}
2019-04-14 18:40:20.41: SIM {TimeUS : 58434950, Roll : -1.2, Pitch : -16.27, Yaw : 37.0, Alt : 49.2799987793, Lat : 49.2836299, Lng : -123.1149581, Q1 : 0.939177691936, Q2 : 0.0350256673992, Q3 : -0.137560933828, Q4 : 0.312722831964}
2019-04-14 18:40:20.51: SIM {TimeUS : 58534910, Roll : -1.29, Pitch : -16.3, Yaw : 37.28, Alt : 49.2799987793, Lat : 49.2836324, Lng : -123.1149553, Q1 : 0.938393235207, Q2 : 0.0347239822149, Q3 : -0.137963205576, Q4 : 0.31492626667}
2019-04-14 18:40:20.61: SIM {TimeUS : 58634870, Roll : -1.2, Pitch : -16.32, Yaw : 37.3, Alt : 49.2799987793, Lat : 49.2836352, Lng : -123.1149524, Q1 : 0.938298642635, Q2 : 0.0355233438313, Q3 : -0.137821123004, Q4 : 0.315181106329}
2019-04-14 18:40:20.71: SIM {TimeUS : 58734830, Roll : -0.99, Pitch : -16.33, Yaw : 37.1, Alt : 49.2799987793, Lat : 49.2836378, Lng : -123.1149495, Q1 : 0.938773453236, Q2 : 0.0370109155774, Q3 : -0.137422442436, Q4 : 0.313767015934}
2019-04-14 18:40:20.81: SIM {TimeUS : 58834790, Roll : -0.73, Pitch : -16.37, Yaw : 36.74, Alt : 49.2799987793, Lat : 49.2836407, Lng : -123.1149466, Q1 : 0.939629614353, Q2 : 0.0388181656599, Q3 : -0.137161403894, Q4 : 0.311088591814}
2019-04-14 18:40:20.91: SIM {TimeUS : 58934750, Roll : -0.45, Pitch : -16.44, Yaw : 36.28, Alt : 49.2799987793, Lat : 49.2836434, Lng : -123.1149437, Q1 : 0.940683543682, Q2 : 0.0408032909036, Q3 : -0.13710783422, Q4 : 0.307654112577}
2019-04-14 18:40:21.01: SIM {TimeUS : 59034710, Roll : -0.17, Pitch : -16.52, Yaw : 35.79, Alt : 49.2799987793, Lat : 49.2836463, Lng : -123.1149407, Q1 : 0.941777467728, Q2 : 0.0427825599909, Q3 : -0.137235581875, Q4 : 0.303959429264}
2019-04-14 18:40:21.11: SIM {TimeUS : 59134670, Roll : 0.07, Pitch : -16.59, Yaw : 35.34, Alt : 49.2799987793, Lat : 49.2836492, Lng : -123.1149376, Q1 : 0.942808628082, Q2 : 0.0444741509855, Q3 : -0.137331753969, Q4 : 0.300456136465}
2019-04-14 18:40:21.21: SIM {TimeUS : 59234630, Roll : 0.28, Pitch : -16.65, Yaw : 34.95, Alt : 49.2900009155, Lat : 49.2836519, Lng : -123.1149346, Q1 : 0.943672478199, Q2 : 0.0458460003138, Q3 : -0.137406393886, Q4 : 0.297489345074}
2019-04-14 18:40:21.32: SIM {TimeUS : 59335423, Roll : 0.43, Pitch : -16.69, Yaw : 34.66, Alt : 49.2900009155, Lat : 49.2836549, Lng : -123.1149315, Q1 : 0.944309473038, Q2 : 0.046867530793, Q3 : -0.137469723821, Q4 : 0.295271247625}
2019-04-14 18:40:21.41: SIM {TimeUS : 59435383, Roll : 0.52, Pitch : -16.72, Yaw : 34.48, Alt : 49.2900009155, Lat : 49.2836578, Lng : -123.1149283, Q1 : 0.944687366486, Q2 : 0.0474339947104, Q3 : -0.137570038438, Q4 : 0.2939222157}
2019-04-14 18:40:21.51: SIM {TimeUS : 59535343, Roll : 0.54, Pitch : -16.74, Yaw : 34.42, Alt : 49.2900009155, Lat : 49.2836608, Lng : -123.1149251, Q1 : 0.944822728634, Q2 : 0.0475679598749, Q3 : -0.137692466378, Q4 : 0.293407768011}
2019-04-14 18:40:21.61: SIM {TimeUS : 59635303, Roll : 0.51, Pitch : -16.76, Yaw : 34.45, Alt : 49.2900009155, Lat : 49.2836638, Lng : -123.114922, Q1 : 0.944723010063, Q2 : 0.0474606081843, Q3 : -0.137924000621, Q4 : 0.29363745451}
2019-04-14 18:40:21.71: SIM {TimeUS : 59735263, Roll : 0.44, Pitch : -16.78, Yaw : 34.56, Alt : 49.2900009155, Lat : 49.2836668, Lng : -123.1149187, Q1 : 0.944449782372, Q2 : 0.0470060445368, Q3 : -0.13825571537, Q4 : 0.29443231225}
2019-04-14 18:40:21.81: SIM {TimeUS : 59835223, Roll : 0.32, Pitch : -16.82, Yaw : 34.72, Alt : 49.2900009155, Lat : 49.2836698, Lng : -123.1149155, Q1 : 0.944047749043, Q2 : 0.0463323555887, Q3 : -0.138772472739, Q4 : 0.295583099127}
2019-04-14 18:40:21.91: SIM {TimeUS : 59935183, Roll : 0.19, Pitch : -16.86, Yaw : 34.9, Alt : 49.2900009155, Lat : 49.2836728, Lng : -123.1149122, Q1 : 0.943585634232, Q2 : 0.0455586053431, Q3 : -0.139383837581, Q4 : 0.296888381243}
2019-04-14 18:40:22.01: SIM {TimeUS : 60035143, Roll : 0.05, Pitch : -16.91, Yaw : 35.08, Alt : 49.2900009155, Lat : 49.2836759, Lng : -123.1149089, Q1 : 0.943115651608, Q2 : 0.0447823852301, Q3 : -0.140092074871, Q4 : 0.298163712025}
2019-04-14 18:40:22.11: SIM {TimeUS : 60135103, Roll : -0.07, Pitch : -16.95, Yaw : 35.23, Alt : 49.2900009155, Lat : 49.2836789, Lng : -123.1149056, Q1 : 0.942715406418, Q2 : 0.0440157316625, Q3 : -0.140686690807, Q4 : 0.299261778593}
2019-04-14 18:40:22.21: SIM {TimeUS : 60235063, Roll : -0.17, Pitch : -16.98, Yaw : 35.34, Alt : 49.2900009155, Lat : 49.283682, Lng : -123.1149022, Q1 : 0.942414522171, Q2 : 0.0433785952628, Q3 : -0.141188815236, Q4 : 0.300064861774}
2019-04-14 18:40:22.31: SIM {TimeUS : 60335023, Roll : -0.25, Pitch : -17.01, Yaw : 35.41, Alt : 49.2900009155, Lat : 49.2836851, Lng : -123.1148988, Q1 : 0.942228674889, Q2 : 0.0429010465741, Q3 : -0.141631737351, Q4 : 0.300508022308}
2019-04-14 18:40:22.41: SIM {TimeUS : 60434983, Roll : -0.27, Pitch : -17.05, Yaw : 35.43, Alt : 49.2999992371, Lat : 49.2836882, Lng : -123.1148955, Q1 : 0.942140102386, Q2 : 0.042891509831, Q3 : -0.141974836588, Q4 : 0.30062520504}
2019-04-14 18:40:22.51: SIM {TimeUS : 60534943, Roll : -0.23, Pitch : -17.09, Yaw : 35.4, Alt : 49.2999992371, Lat : 49.2836913, Lng : -123.1148921, Q1 : 0.942154586315, Q2 : 0.0432486645877, Q3 : -0.142167627811, Q4 : 0.300437390804}
2019-04-14 18:40:22.61: SIM {TimeUS : 60634903, Roll : -0.16, Pitch : -17.12, Yaw : 35.34, Alt : 49.2999992371, Lat : 49.2836944, Lng : -123.1148886, Q1 : 0.942248165607, Q2 : 0.0438628084958, Q3 : -0.14227502048, Q4 : 0.300003737211}
2019-04-14 18:40:22.71: SIM {TimeUS : 60734863, Roll : -0.07, Pitch : -17.16, Yaw : 35.26, Alt : 49.2999992371, Lat : 49.2836977, Lng : -123.1148852, Q1 : 0.942388415337, Q2 : 0.0446109548211, Q3 : -0.142382994294, Q4 : 0.299401193857}
2019-04-14 18:40:22.81: SIM {TimeUS : 60834823, Roll : 0.01, Pitch : -17.19, Yaw : 35.16, Alt : 49.2999992371, Lat : 49.2837009, Lng : -123.1148818, Q1 : 0.942566215992, Q2 : 0.045290954411, Q3 : -0.142478436232, Q4 : 0.298693090677}
2019-04-14 18:40:22.91: SIM {TimeUS : 60934783, Roll : 0.07, Pitch : -17.22, Yaw : 35.06, Alt : 49.2999992371, Lat : 49.283704, Lng : -123.1148783, Q1 : 0.942763566971, Q2 : 0.0457395352423, Q3 : -0.142574861646, Q4 : 0.297954946756}
2019-04-14 18:40:23.01: SIM {TimeUS : 61034743, Roll : 0.1, Pitch : -17.23, Yaw : 34.97, Alt : 49.2999992371, Lat : 49.2837072, Lng : -123.1148749, Q1 : 0.942969977856, Q2 : 0.045920651406, Q3 : -0.142612576485, Q4 : 0.297255039215}
2019-04-14 18:40:23.11: SIM {TimeUS : 61134703, Roll : 0.13, Pitch : -17.23, Yaw : 34.9, Alt : 49.2999992371, Lat : 49.2837105, Lng : -123.1148714, Q1 : 0.943154513836, Q2 : 0.0460690744221, Q3 : -0.14255040884, Q4 : 0.296675950289}
2019-04-14 18:40:23.21: SIM {TimeUS : 61234663, Roll : 0.15, Pitch : -17.24, Yaw : 34.84, Alt : 49.3100013733, Lat : 49.2837137, Lng : -123.1148679, Q1 : 0.943281114101, Q2 : 0.0461852326989, Q3 : -0.142630457878, Q4 : 0.296216696501}
2019-04-14 18:40:23.31: SIM {TimeUS : 61334623, Roll : 0.18, Pitch : -17.28, Yaw : 34.8, Alt : 49.3100013733, Lat : 49.2837169, Lng : -123.1148643, Q1 : 0.943321287632, Q2 : 0.0464764349163, Q3 : -0.142882600427, Q4 : 0.2959215343}
2019-04-14 18:40:23.42: SIM {TimeUS : 61435416, Roll : 0.21, Pitch : -17.33, Yaw : 34.78, Alt : 49.3100013733, Lat : 49.2837203, Lng : -123.1148608, Q1 : 0.943291068077, Q2 : 0.0467985011637, Q3 : -0.143296688795, Q4 : 0.295766711235}
2019-04-14 18:40:23.51: SIM {TimeUS : 61535376, Roll : 0.21, Pitch : -17.36, Yaw : 34.78, Alt : 49.3100013733, Lat : 49.2837235, Lng : -123.1148573, Q1 : 0.943261027336, Q2 : 0.0468842089176, Q3 : -0.143534705043, Q4 : 0.295733451843}
2019-04-14 18:40:23.61: SIM {TimeUS : 61635336, Roll : 0.2, Pitch : -17.36, Yaw : 34.79, Alt : 49.3100013733, Lat : 49.2837267, Lng : -123.1148537, Q1 : 0.943243384361, Q2 : 0.0467973016202, Q3 : -0.143565744162, Q4 : 0.295788496733}
2019-04-14 18:40:23.71: SIM {TimeUS : 61735296, Roll : 0.17, Pitch : -17.37, Yaw : 34.8, Alt : 49.3100013733, Lat : 49.2837301, Lng : -123.1148502, Q1 : 0.943203628063, Q2 : 0.0466376543045, Q3 : -0.143666788936, Q4 : 0.295891344547}
2019-04-14 18:40:23.81: SIM {TimeUS : 61835256, Roll : 0.14, Pitch : -17.39, Yaw : 34.82, Alt : 49.3100013733, Lat : 49.2837333, Lng : -123.1148466, Q1 : 0.943140745163, Q2 : 0.0464427247643, Q3 : -0.143927514553, Q4 : 0.295995771885}
2019-04-14 18:40:23.91: SIM {TimeUS : 61935216, Roll : 0.12, Pitch : -17.42, Yaw : 34.84, Alt : 49.3100013733, Lat : 49.2837367, Lng : -123.114843, Q1 : 0.943076968193, Q2 : 0.0463496930897, Q3 : -0.144174546003, Q4 : 0.296093285084}
2019-04-14 18:40:24.01: SIM {TimeUS : 62035176, Roll : 0.1, Pitch : -17.45, Yaw : 34.85, Alt : 49.3100013733, Lat : 49.2837399, Lng : -123.1148394, Q1 : 0.943015575409, Q2 : 0.0463061369956, Q3 : -0.144483074546, Q4 : 0.296145170927}
2019-04-14 18:40:24.11: SIM {TimeUS : 62135136, Roll : 0.09, Pitch : -17.48, Yaw : 34.85, Alt : 49.3100013733, Lat : 49.2837434, Lng : -123.1148358, Q1 : 0.942976772785, Q2 : 0.0463125109673, Q3 : -0.144725054502, Q4 : 0.296149790287}
2019-04-14 18:40:24.21: SIM {TimeUS : 62235096, Roll : 0.1, Pitch : -17.5, Yaw : 34.85, Alt : 49.3100013733, Lat : 49.2837466, Lng : -123.1148322, Q1 : 0.942947864532, Q2 : 0.0464002527297, Q3 : -0.144914522767, Q4 : 0.296135485172}
2019-04-14 18:40:24.31: SIM {TimeUS : 62335056, Roll : 0.1, Pitch : -17.51, Yaw : 34.84, Alt : 49.3100013733, Lat : 49.28375, Lng : -123.1148286, Q1 : 0.942946612835, Q2 : 0.0464993864298, Q3 : -0.144997149706, Q4 : 0.296083271503}
2019-04-14 18:40:24.41: SIM {TimeUS : 62435016, Roll : 0.12, Pitch : -17.53, Yaw : 34.83, Alt : 49.3199996948, Lat : 49.2837533, Lng : -123.114825, Q1 : 0.942958474159, Q2 : 0.0466397330165, Q3 : -0.145074799657, Q4 : 0.295985430479}
2019-04-14 18:40:24.51: SIM {TimeUS : 62534976, Roll : 0.14, Pitch : -17.55, Yaw : 34.81, Alt : 49.3199996948, Lat : 49.2837568, Lng : -123.1148213, Q1 : 0.942971408367, Q2 : 0.0468341596425, Q3 : -0.145237118006, Q4 : 0.295833915472}
2019-04-14 18:40:24.61: SIM {TimeUS : 62634936, Roll : 0.14, Pitch : -17.59, Yaw : 34.78, Alt : 49.3199996948, Lat : 49.28376, Lng : -123.1148177, Q1 : 0.942985594273, Q2 : 0.0469524338841, Q3 : -0.145560547709, Q4 : 0.295610934496}
2019-04-14 18:40:24.71: SIM {TimeUS : 62734896, Roll : 0.13, Pitch : -17.63, Yaw : 34.75, Alt : 49.3199996948, Lat : 49.2837635, Lng : -123.114814, Q1 : 0.943007349968, Q2 : 0.0469325333834, Q3 : -0.145949363708, Q4 : 0.295352727175}
2019-04-14 18:40:24.81: SIM {TimeUS : 62834856, Roll : 0.12, Pitch : -17.68, Yaw : 34.73, Alt : 49.3199996948, Lat : 49.2837668, Lng : -123.1148104, Q1 : 0.943028330803, Q2 : 0.0469392612576, Q3 : -0.146347284317, Q4 : 0.295087724924}
2019-04-14 18:40:24.91: SIM {TimeUS : 62934816, Roll : 0.14, Pitch : -17.7, Yaw : 34.7, Alt : 49.3199996948, Lat : 49.2837703, Lng : -123.1148067, Q1 : 0.943059146404, Q2 : 0.0470847673714, Q3 : -0.146560356021, Q4 : 0.2948602736}
2019-04-14 18:40:25.01: SIM {TimeUS : 63034776, Roll : 0.15, Pitch : -17.71, Yaw : 34.67, Alt : 49.3199996948, Lat : 49.2837737, Lng : -123.114803, Q1 : 0.94310849905, Q2 : 0.0471982248127, Q3 : -0.146605744958, Q4 : 0.294661551714}
2019-04-14 18:40:25.11: SIM {TimeUS : 63134736, Roll : 0.17, Pitch : -17.7, Yaw : 34.65, Alt : 49.3199996948, Lat : 49.283777, Lng : -123.1147993, Q1 : 0.943180084229, Q2 : 0.0472410544753, Q3 : -0.1464741081, Q4 : 0.294490993023}
2019-04-14 18:40:25.21: SIM {TimeUS : 63234696, Roll : 0.17, Pitch : -17.69, Yaw : 34.63, Alt : 49.3199996948, Lat : 49.2837805, Lng : -123.1147956, Q1 : 0.943243801594, Q2 : 0.0471926853061, Q3 : -0.146386429667, Q4 : 0.294338405132}
2019-04-14 18:40:25.31: SIM {TimeUS : 63334656, Roll : 0.16, Pitch : -17.68, Yaw : 34.61, Alt : 49.3199996948, Lat : 49.2837838, Lng : -123.1147919, Q1 : 0.943300783634, Q2 : 0.0471246466041, Q3 : -0.146316662431, Q4 : 0.294201135635}
2019-04-14 18:40:25.41: SIM {TimeUS : 63434616, Roll : 0.16, Pitch : -17.67, Yaw : 34.6, Alt : 49.3199996948, Lat : 49.2837873, Lng : -123.1147882, Q1 : 0.943347871304, Q2 : 0.0470790192485, Q3 : -0.146241813898, Q4 : 0.294094800949}
2019-04-14 18:40:25.51: SIM {TimeUS : 63535409, Roll : 0.16, Pitch : -17.68, Yaw : 34.59, Alt : 49.3199996948, Lat : 49.2837908, Lng : -123.1147845, Q1 : 0.943362176418, Q2 : 0.0470514148474, Q3 : -0.146362215281, Q4 : 0.293993383646}
2019-04-14 18:40:25.61: SIM {TimeUS : 63635369, Roll : 0.16, Pitch : -17.7, Yaw : 34.58, Alt : 49.3199996948, Lat : 49.2837942, Lng : -123.1147807, Q1 : 0.94336104393, Q2 : 0.0470921099186, Q3 : -0.146535381675, Q4 : 0.293904185295}
2019-04-14 18:40:25.71: SIM {TimeUS : 63735329, Roll : 0.15, Pitch : -17.74, Yaw : 34.57, Alt : 49.3199996948, Lat : 49.2837977, Lng : -123.114777, Q1 : 0.943334817886, Q2 : 0.0471142791212, Q3 : -0.146888718009, Q4 : 0.293808609247}
2019-04-14 18:40:25.81: SIM {TimeUS : 63835289, Roll : 0.15, Pitch : -17.79, Yaw : 34.56, Alt : 49.3300018311, Lat : 49.2838012, Lng : -123.1147733, Q1 : 0.943286836147, Q2 : 0.0472190715373, Q3 : -0.147328928113, Q4 : 0.293725252151}
2019-04-14 18:40:25.91: SIM {TimeUS : 63935249, Roll : 0.16, Pitch : -17.83, Yaw : 34.56, Alt : 49.3300018311, Lat : 49.2838045, Lng : -123.1147695, Q1 : 0.943258225918, Q2 : 0.047374047339, Q3 : -0.147579848766, Q4 : 0.293666243553}
2019-04-14 18:40:26.01: SIM {TimeUS : 64035209, Roll : 0.16, Pitch : -17.86, Yaw : 34.55, Alt : 49.3300018311, Lat : 49.283808, Lng : -123.1147658, Q1 : 0.943237304688, Q2 : 0.0474301613867, Q3 : -0.147839695215, Q4 : 0.293593645096}
2019-04-14 18:40:26.11: SIM {TimeUS : 64135169, Roll : 0.15, Pitch : -17.88, Yaw : 34.54, Alt : 49.3300018311, Lat : 49.2838116, Lng : -123.114762, Q1 : 0.943237304688, Q2 : 0.0473920963705, Q3 : -0.148013740778, Q4 : 0.293512076139}
2019-04-14 18:40:26.21: SIM {TimeUS : 64235129, Roll : 0.15, Pitch : -17.86, Yaw : 34.53, Alt : 49.3300018311, Lat : 49.283815, Lng : -123.1147583, Q1 : 0.943270027637, Q2 : 0.0474078841507, Q3 : -0.147906377912, Q4 : 0.293458491564}
2019-04-14 18:40:26.31: SIM {TimeUS : 64335089, Roll : 0.17, Pitch : -17.87, Yaw : 34.52, Alt : 49.3300018311, Lat : 49.2838184, Lng : -123.1147545, Q1 : 0.943279504776, Q2 : 0.0475739873946, Q3 : -0.147906392813, Q4 : 0.293401181698}
2019-04-14 18:40:26.41: SIM {TimeUS : 64435049, Roll : 0.19, Pitch : -17.89, Yaw : 34.51, Alt : 49.3300018311, Lat : 49.283822, Lng : -123.1147508, Q1 : 0.943278729916, Q2 : 0.0477194450796, Q3 : -0.148014873266, Q4 : 0.29332524538}
2019-04-14 18:40:26.51: SIM {TimeUS : 64535009, Roll : 0.2, Pitch : -17.9, Yaw : 34.5, Alt : 49.3300018311, Lat : 49.2838255, Lng : -123.114747, Q1 : 0.943283438683, Q2 : 0.0478439331055, Q3 : -0.148093611002, Q4 : 0.293250143528}
2019-04-14 18:40:26.61: SIM {TimeUS : 64634969, Roll : 0.21, Pitch : -17.9, Yaw : 34.49, Alt : 49.3300018311, Lat : 49.283829, Lng : -123.1147432, Q1 : 0.943316102028, Q2 : 0.0478939525783, Q3 : -0.14803647995, Q4 : 0.293165802956}
2019-04-14 18:40:26.71: SIM {TimeUS : 64734929, Roll : 0.21, Pitch : -17.89, Yaw : 34.48, Alt : 49.3300018311, Lat : 49.2838324, Lng : -123.1147395, Q1 : 0.943352997303, Q2 : 0.0478748604655, Q3 : -0.148015156388, Q4 : 0.293060868979}
2019-04-14 18:40:26.81: SIM {TimeUS : 64834889, Roll : 0.19, Pitch : -17.91, Yaw : 34.46, Alt : 49.3300018311, Lat : 49.283836, Lng : -123.1147357, Q1 : 0.943373203278, Q2 : 0.0477500744164, Q3 : -0.148210391402, Q4 : 0.292917370796}
2019-04-14 18:40:26.91: SIM {TimeUS : 64934849, Roll : 0.16, Pitch : -17.95, Yaw : 34.45, Alt : 49.3300018311, Lat : 49.2838395, Lng : -123.1147319, Q1 : 0.94337117672, Q2 : 0.0475780665874, Q3 : -0.148608803749, Q4 : 0.292750000954}
2019-04-14 18:40:27.01: SIM {TimeUS : 65034809, Roll : 0.15, Pitch : -17.96, Yaw : 34.44, Alt : 49.3300018311, Lat : 49.283843, Lng : -123.1147281, Q1 : 0.943398058414, Q2 : 0.0474824346602, Q3 : -0.14873559773, Q4 : 0.292614549398}
2019-04-14 18:40:27.11: SIM {TimeUS : 65134769, Roll : 0.16, Pitch : -17.95, Yaw : 34.42, Alt : 49.3300018311, Lat : 49.2838464, Lng : -123.1147243, Q1 : 0.94343739748, Q2 : 0.0475278422236, Q3 : -0.148660555482, Q4 : 0.292518496513}
2019-04-14 18:40:27.21: SIM {TimeUS : 65234729, Roll : 0.18, Pitch : -17.94, Yaw : 34.41, Alt : 49.3300018311, Lat : 49.28385, Lng : -123.1147205, Q1 : 0.943472027779, Q2 : 0.0476613417268, Q3 : -0.148552760482, Q4 : 0.292439877987}
2019-04-14 18:40:27.31: SIM {TimeUS : 65334689, Roll : 0.2, Pitch : -17.95, Yaw : 34.4, Alt : 49.3300018311, Lat : 49.2838536, Lng : -123.1147167, Q1 : 0.943487882614, Q2 : 0.0478026159108, Q3 : -0.148570388556, Q4 : 0.292356610298}
2019-04-14 18:40:27.41: SIM {TimeUS : 65434649, Roll : 0.19, Pitch : -17.97, Yaw : 34.39, Alt : 49.3400001526, Lat : 49.2838571, Lng : -123.1147129, Q1 : 0.943497180939, Q2 : 0.0477678850293, Q3 : -0.14873854816, Q4 : 0.292246848345}
2019-04-14 18:40:27.52: SIM {TimeUS : 65535442, Roll : 0.16, Pitch : -17.99, Yaw : 34.37, Alt : 49.3400001526, Lat : 49.2838607, Lng : -123.1147091, Q1 : 0.943509995937, Q2 : 0.0475833900273, Q3 : -0.148961320519, Q4 : 0.292122006416}
2019-04-14 18:40:27.61: SIM {TimeUS : 65635402, Roll : 0.14, Pitch : -18.0, Yaw : 34.37, Alt : 49.3400001526, Lat : 49.2838641, Lng : -123.1147053, Q1 : 0.943520486355, Q2 : 0.0474766008556, Q3 : -0.149141311646, Q4 : 0.292013525963}
2019-04-14 18:40:27.71: SIM {TimeUS : 65735362, Roll : 0.15, Pitch : -18.02, Yaw : 34.35, Alt : 49.3400001526, Lat : 49.2838677, Lng : -123.1147014, Q1 : 0.943526208401, Q2 : 0.0475176870823, Q3 : -0.149276584387, Q4 : 0.291919261217}
2019-04-14 18:40:27.81: SIM {TimeUS : 65835322, Roll : 0.16, Pitch : -18.03, Yaw : 34.34, Alt : 49.3400001526, Lat : 49.2838713, Lng : -123.1146976, Q1 : 0.943530678749, Q2 : 0.0476238355041, Q3 : -0.149371296167, Q4 : 0.291839152575}
2019-04-14 18:40:27.91: SIM {TimeUS : 65935282, Roll : 0.18, Pitch : -18.05, Yaw : 34.34, Alt : 49.3400001526, Lat : 49.2838748, Lng : -123.1146938, Q1 : 0.943523526192, Q2 : 0.0478623434901, Q3 : -0.149421185255, Q4 : 0.291797667742}
2019-04-14 18:40:28.01: SIM {TimeUS : 66035242, Roll : 0.2, Pitch : -18.07, Yaw : 34.33, Alt : 49.3400001526, Lat : 49.2838784, Lng : -123.11469, Q1 : 0.943508684635, Q2 : 0.0480246022344, Q3 : -0.149545103312, Q4 : 0.291755586863}
2019-04-14 18:40:28.11: SIM {TimeUS : 66135202, Roll : 0.21, Pitch : -18.09, Yaw : 34.32, Alt : 49.3400001526, Lat : 49.283882, Lng : -123.1146862, Q1 : 0.94349193573, Q2 : 0.0481923930347, Q3 : -0.149674892426, Q4 : 0.291715472937}
2019-04-14 18:40:28.21: SIM {TimeUS : 66235162, Roll : 0.23, Pitch : -18.11, Yaw : 34.32, Alt : 49.3400001526, Lat : 49.2838854, Lng : -123.1146823, Q1 : 0.943473875523, Q2 : 0.0483636297286, Q3 : -0.14979955554, Q4 : 0.291681557894}
2019-04-14 18:40:28.31: SIM {TimeUS : 66335122, Roll : 0.25, Pitch : -18.12, Yaw : 34.31, Alt : 49.3400001526, Lat : 49.283889, Lng : -123.1146785, Q1 : 0.943461060524, Q2 : 0.048573795706, Q3 : -0.149849370122, Q4 : 0.291662544012}
2019-04-14 18:40:28.41: SIM {TimeUS : 66435082, Roll : 0.27, Pitch : -18.13, Yaw : 34.31, Alt : 49.3400001526, Lat : 49.2838925, Lng : -123.1146747, Q1 : 0.943447053432, Q2 : 0.0487942658365, Q3 : -0.149902820587, Q4 : 0.291643589735}
