2019-04-14 15:36:01.40: SIM {TimeUS : 40816167, Roll : 0.0, Pitch : 0.0, Yaw : 0.0, Alt : 30.1000003815, Lat : 49.28357, Lng : -123.11502, Q1 : 1.0, Q2 : 0.0, Q3 : 0.0, Q4 : 0.0}
2019-04-14 15:36:01.51: SIM {TimeUS : 40935286, Roll : 0.0, Pitch : 0.0, Yaw : 0.0, Alt : 30.1000003815, Lat : 49.28357, Lng : -123.11502, Q1 : 1.0, Q2 : 0.0, Q3 : 0.0, Q4 : 0.0}
2019-04-14 15:36:01.61: SIM {TimeUS : 41035246, Roll : 0.0, Pitch : 0.0, Yaw : 0.0, Alt : 30.1000003815, Lat : 49.28357, Lng : -123.11502, Q1 : 1.0, Q2 : 0.0, Q3 : 0.0, Q4 : 0.0}
2019-04-14 15:36:01.71: SIM {TimeUS : 41135206, Roll : 0.0, Pitch : 0.0, Yaw : 0.0, Alt : 30.1000003815, Lat : 49.28357, Lng : -123.11502, Q1 : 1.0, Q2 : 0.0, Q3 : 0.0, Q4 : 0.0}
2019-04-14 15:36:01.81: SIM {TimeUS : 41235166, Roll : 0.0, Pitch : 0.0, Yaw : 0.0, Alt : 30.1000003815, Lat : 49.28357, Lng : -123.11502, Q1 : 1.0, Q2 : 0.0, Q3 : 0.0, Q4 : 0.0}
2019-04-14 15:36:01.91: SIM {TimeUS : 41335126, Roll : 0.0, Pitch : 0.0, Yaw : 0.0, Alt : 30.1000003815, Lat : 49.28357, Lng : -123.11502, Q1 : 1.0, Q2 : 0.0, Q3 : 0.0, Q4 : 0.0}
2019-04-14 15:36:02.01: SIM {TimeUS : 41435086, Roll : 0.0, Pitch : 0.0, Yaw : 0.0, Alt : 30.1000003815, Lat : 49.28357, Lng : -123.11502, Q1 : 1.0, Q2 : 0.0, Q3 : 0.0, Q4 : 0.0}
2019-04-14 15:36:02.11: SIM {TimeUS : 41535046, Roll : 0.0, Pitch : 0.0, Yaw : 0.0, Alt : 30.1000003815, Lat : 49.28357, Lng : -123.11502, Q1 : 1.0, Q2 : 0.0, Q3 : 0.0, Q4 : 0.0}
2019-04-14 15:36:02.21: SIM {TimeUS : 41635006, Roll : 0.0, Pitch : 0.0, Yaw : 0.0, Alt : 30.1000003815, Lat : 49.28357, Lng : -123.11502, Q1 : 1.0, Q2 : 0.0, Q3 : 0.0, Q4 : 0.0}
2019-04-14 15:36:02.31: SIM {TimeUS : 41734966, Roll : 0.0, Pitch : 0.0, Yaw : 0.0, Alt : 30.1000003815, Lat : 49.28357, Lng : -123.11502, Q1 : 1.0, Q2 : 0.0, Q3 : 0.0, Q4 : 0.0}
2019-04-14 15:36:02.41: SIM {TimeUS : 41834926, Roll : 0.0, Pitch : 0.0, Yaw : 0.0, Alt : 30.1000003815, Lat : 49.28357, Lng : -123.11502, Q1 : 1.0, Q2 : 0.0, Q3 : 0.0, Q4 : 0.0}
2019-04-14 15:36:02.51: SIM {TimeUS : 41934886, Roll : 0.0, Pitch : 0.0, Yaw : 0.0, Alt : 30.1000003815, Lat : 49.28357, Lng : -123.11502, Q1 : 1.0, Q2 : 0.0, Q3 : 0.0, Q4 : 0.0}
2019-04-14 15:36:02.61: SIM {TimeUS : 42034846, Roll : 0.0, Pitch : 0.0, Yaw : 0.0, Alt : 30.1000003815, Lat : 49.28357, Lng : -123.11502, Q1 : 1.0, Q2 : 0.0, Q3 : 0.0, Q4 : 0.0}
2019-04-14 15:36:02.71: SIM {TimeUS : 42134806, Roll : 0.0, Pitch : 0.0, Yaw : 0.0, Alt : 30.1000003815, Lat : 49.28357, Lng : -123.11502, Q1 : 1.0, Q2 : 0.0, Q3 : 0.0, Q4 : 0.0}
2019-04-14 15:36:02.81: SIM {TimeUS : 42234766, Roll : 0.0, Pitch : 0.0, Yaw : 0.0, Alt : 30.1000003815, Lat : 49.28357, Lng : -123.11502, Q1 : 1.0, Q2 : 0.0, Q3 : 0.0, Q4 : 0.0}
2019-04-14 15:36:02.91: SIM {TimeUS : 42334726, Roll : 0.0, Pitch : 0.0, Yaw : 0.0, Alt : 30.1000003815, Lat : 49.28357, Lng : -123.11502, Q1 : 1.0, Q2 : 0.0, Q3 : 0.0, Q4 : 0.0}
2019-04-14 15:36:03.01: SIM {TimeUS : 42434686, Roll : 0.0, Pitch : 0.0, Yaw : 0.0, Alt : 30.1000003815, Lat : 49.28357, Lng : -123.11502, Q1 : 1.0, Q2 : 0.0, Q3 : 0.0, Q4 : 0.0}
2019-04-14 15:36:03.11: SIM {TimeUS : 42534646, Roll : 0.0, Pitch : 0.0, Yaw : 0.0, Alt : 30.1000003815, Lat : 49.28357, Lng : -123.11502, Q1 : 1.0, Q2 : 0.0, Q3 : 0.0, Q4 : 0.0}
2019-04-14 15:36:03.21: SIM {TimeUS : 42634606, Roll : 0.0, Pitch : 0.0, Yaw : 0.0, Alt : 30.1000003815, Lat : 49.28357, Lng : -123.11502, Q1 : 1.0, Q2 : 0.0, Q3 : 0.0, Q4 : 0.0}
2019-04-14 15:36:03.31: SIM {TimeUS : 42734566, Roll : 0.0, Pitch : 0.0, Yaw : 0.0, Alt : 30.1000003815, Lat : 49.28357, Lng : -123.11502, Q1 : 1.0, Q2 : 0.0, Q3 : 0.0, Q4 : 0.0}
2019-04-14 15:36:03.41: SIM {TimeUS : 42834526, Roll : 0.0, Pitch : 0.0, Yaw : 0.0, Alt : 30.1000003815, Lat : 49.28357, Lng : -123.11502, Q1 : 1.0, Q2 : 0.0, Q3 : 0.0, Q4 : 0.0}
2019-04-14 15:36:03.51: SIM {TimeUS : 42935319, Roll : 0.0, Pitch : 0.0, Yaw : 0.0, Alt : 30.1000003815, Lat : 49.28357, Lng : -123.11502, Q1 : 1.0, Q2 : 0.0, Q3 : 0.0, Q4 : 0.0}
2019-04-14 15:36:03.61: SIM {TimeUS : 43035279, Roll : 0.0, Pitch : 0.0, Yaw : 0.0, Alt : 30.1000003815, Lat : 49.28357, Lng : -123.11502, Q1 : 1.0, Q2 : 0.0, Q3 : 0.0, Q4 : 0.0}
2019-04-14 15:36:03.71: SIM {TimeUS : 43135239, Roll : 0.0, Pitch : 0.0, Yaw : 360.0, Alt : 30.1000003815, Lat : 49.28357, Lng : -123.11502, Q1 : 1.0, Q2 : 0.0, Q3 : 0.0, Q4 : -5.76911088346e-12}
2019-04-14 15:36:03.81: SIM {TimeUS : 43235199, Roll : 0.0, Pitch : 0.0, Yaw : 0.0, Alt : 30.1000003815, Lat : 49.28357, Lng : -123.11502, Q1 : 1.0, Q2 : 0.0, Q3 : 0.0, Q4 : 1.67138317075e-11}
2019-04-14 15:36:03.91: SIM {TimeUS : 43335159, Roll : 0.0, Pitch : 0.0, Yaw : 360.0, Alt : 30.1000003815, Lat : 49.28357, Lng : -123.11502, Q1 : 1.0, Q2 : 0.0, Q3 : 0.0, Q4 : -9.67275255448e-08}
2019-04-14 15:36:04.01: SIM {TimeUS : 43435119, Roll : 0.0, Pitch : 0.0, Yaw : 359.99, Alt : 30.1000003815, Lat : 49.28357, Lng : -123.11502, Q1 : 1.0, Q2 : 0.0, Q3 : 0.0, Q4 : -2.55648444636e-07}
2019-04-14 15:36:04.11: SIM {TimeUS : 43535079, Roll : 0.0, Pitch : 0.0, Yaw : 359.99, Alt : 30.1000003815, Lat : 49.28357, Lng : -123.11502, Q1 : 1.0, Q2 : 0.0, Q3 : 0.0, Q4 : -4.0333785023e-07}
2019-04-14 15:36:04.21: SIM {TimeUS : 43635039, Roll : 0.0, Pitch : 0.0, Yaw : 359.99, Alt : 30.1000003815, Lat : 49.28357, Lng : -123.11502, Q1 : 1.0, Q2 : 0.0, Q3 : 0.0, Q4 : -6.29609814951e-07}
2019-04-14 15:36:04.31: SIM {TimeUS : 43734999, Roll : 0.0, Pitch : 0.0, Yaw : 359.99, Alt : 30.1000003815, Lat : 49.28357, Lng : -123.11502, Q1 : 1.0, Q2 : 0.0, Q3 : 0.0, Q4 : -8.0263265545e-07}
2019-04-14 15:36:04.41: SIM {TimeUS : 43834959, Roll : 0.0, Pitch : 0.0, Yaw : 359.99, Alt : 30.1000003815, Lat : 49.28357, Lng : -123.11502, Q1 : 1.0, Q2 : 0.0, Q3 : 0.0, Q4 : -9.62719468589e-07}
2019-04-14 15:36:04.51: SIM {TimeUS : 43934919, Roll : 0.0, Pitch : 0.0, Yaw : 359.99, Alt : 30.1000003815, Lat : 49.28357, Lng : -123.11502, Q1 : 1.0, Q2 : 0.0, Q3 : 0.0, Q4 : -1.20428239825e-06}
2019-04-14 15:36:04.61: SIM {TimeUS : 44034879, Roll : 0.0, Pitch : 0.0, Yaw : 359.99, Alt : 30.1100006104, Lat : 49.28357, Lng : -123.11502, Q1 : 1.0, Q2 : 0.0, Q3 : 0.0, Q4 : -1.42805185988e-06}
2019-04-14 15:36:04.71: SIM {TimeUS : 44134839, Roll : 0.0, Pitch : 0.0, Yaw : 359.99, Alt : 30.1299991608, Lat : 49.28357, Lng : -123.11502, Q1 : 1.0, Q2 : 0.0, Q3 : 0.0, Q4 : -1.61016384936e-06}
2019-04-14 15:36:04.81: SIM {TimeUS : 44234799, Roll : 0.0, Pitch : 0.0, Yaw : 359.99, Alt : 30.1499996185, Lat : 49.28357, Lng : -123.11502, Q1 : 1.0, Q2 : 0.0, Q3 : 0.0, Q4 : -1.85316901025e-06}
2019-04-14 15:36:04.91: SIM {TimeUS : 44334759, Roll : 0.0, Pitch : 0.0, Yaw : 359.99, Alt : 30.1900005341, Lat : 49.28357, Lng : -123.11502, Q1 : 1.0, Q2 : 0.0, Q3 : 0.0, Q4 : -2.01687339541e-06}
2019-04-14 15:36:05.01: SIM {TimeUS : 44434719, Roll : -0.02, Pitch : -0.02, Yaw : 359.99, Alt : 30.2299995422, Lat : 49.28357, Lng : -123.11502, Q1 : 0.999999940395, Q2 : -0.000260012893705, Q3 : -0.000253097881796, Q4 : -3.2687410112e-06}
2019-04-14 15:36:05.11: SIM {TimeUS : 44534679, Roll : -0.27, Pitch : -0.23, Yaw : 359.99, Alt : 30.2999992371, Lat : 49.28357, Lng : -123.11502, Q1 : 0.99999499321, Q2 : -0.00243157497607, Q3 : -0.00202836096287, Q4 : -2.58296458924e-05}
2019-04-14 15:36:05.21: SIM {TimeUS : 44634639, Roll : -0.6, Pitch : -0.48, Yaw : 359.99, Alt : 30.4400005341, Lat : 49.28357, Lng : -123.11502, Q1 : 0.99997729063, Q2 : -0.00526109943166, Q3 : -0.00421070400625, Q4 : -7.302184531e-05}
2019-04-14 15:36:05.31: SIM {TimeUS : 44734599, Roll : -0.81, Pitch : -0.66, Yaw : 359.98, Alt : 30.5900001526, Lat : 49.28357, Lng : -123.11502, Q1 : 0.999958097935, Q2 : -0.00709364004433, Q3 : -0.0057843499817, Q4 : -0.000137309587444}
2019-04-14 15:36:05.41: SIM {TimeUS : 44834559, Roll : -0.84, Pitch : -0.71, Yaw : 359.98, Alt : 30.75, Lat : 49.28357, Lng : -123.11502, Q1 : 0.999953150749, Q2 : -0.0073714600876, Q3 : -0.00626815576106, Q4 : -0.000208825862501}
2019-04-14 15:36:05.51: SIM {TimeUS : 44934519, Roll : -0.72, Pitch : -0.64, Yaw : 359.97, Alt : 30.9099998474, Lat : 49.28357, Lng : -123.1150201, Q1 : 0.999963998795, Q2 : -0.00631999922916, Q3 : -0.00565671361983, Q4 : -0.00027901129215}
2019-04-14 15:36:05.61: SIM {TimeUS : 45035312, Roll : -0.5, Pitch : -0.49, Yaw : 359.96, Alt : 31.0599994659, Lat : 49.2835701, Lng : -123.1150201, Q1 : 0.999980807304, Q2 : -0.00444349693134, Q3 : -0.00430608121678, Q4 : -0.000343647407135}
2019-04-14 15:36:05.71: SIM {TimeUS : 45135272, Roll : -0.27, Pitch : -0.29, Yaw : 359.95, Alt : 31.2199993134, Lat : 49.2835701, Lng : -123.1150202, Q1 : 0.999993681908, Q2 : -0.00238521327265, Q3 : -0.00260064774193, Q4 : -0.000395026698243}
2019-04-14 15:36:05.81: SIM {TimeUS : 45235232, Roll : -0.08, Pitch : -0.11, Yaw : 359.95, Alt : 31.3899993896, Lat : 49.2835702, Lng : -123.1150203, Q1 : 0.999999165535, Q2 : -0.000723203993402, Q3 : -0.00095966126537, Q4 : -0.000435676134657}
2019-04-14 15:36:05.91: SIM {TimeUS : 45335192, Roll : 0.02, Pitch : 0.02, Yaw : 359.94, Alt : 31.5599994659, Lat : 49.2835702, Lng : -123.1150203, Q1 : 0.999999821186, Q2 : 0.00025672162883, Q3 : 0.000260104279732, Q4 : -0.000470012921141}
2019-04-14 15:36:06.01: SIM {TimeUS : 45435152, Roll : 0.06, Pitch : 0.1, Yaw : 359.94, Alt : 31.7299995422, Lat : 49.2835702, Lng : -123.1150204, Q1 : 0.999999284744, Q2 : 0.000564725545701, Q3 : 0.000933340459596, Q4 : -0.000495451968163}
2019-04-14 15:36:06.11: SIM {TimeUS : 45535112, Roll : 0.07, Pitch : 0.14, Yaw : 359.94, Alt : 31.9099998474, Lat : 49.2835703, Lng : -123.1150205, Q1 : 0.999998927116, Q2 : 0.000671095447615, Q3 : 0.00122791307513, Q4 : -0.000497831555549}
2019-04-14 15:36:06.21: SIM {TimeUS : 45635072, Roll : 0.07, Pitch : 0.12, Yaw : 359.94, Alt : 32.0999984741, Lat : 49.2835703, Lng : -123.1150205, Q1 : 0.999999046326, Q2 : 0.000697815266903, Q3 : 0.00112648040522, Q4 : -0.000476362358313}
2019-04-14 15:36:06.31: SIM {TimeUS : 45735032, Roll : 0.07, Pitch : 0.11, Yaw : 359.94, Alt : 32.2900009155, Lat : 49.2835703, Lng : -123.1150206, Q1 : 0.999999165535, Q2 : 0.000696011353284, Q3 : 0.00100174208637, Q4 : -0.000451883272035}
2019-04-14 15:36:06.41: SIM {TimeUS : 45834992, Roll : 0.07, Pitch : 0.1, Yaw : 359.95, Alt : 32.4799995422, Lat : 49.2835703, Lng : -123.1150206, Q1 : 0.99999922514, Q2 : 0.000648501911201, Q3 : 0.000942615850363, Q4 : -0.000428197206929}
2019-04-14 15:36:06.51: SIM {TimeUS : 45934952, Roll : 0.08, Pitch : 0.09, Yaw : 359.95, Alt : 32.6699981689, Lat : 49.2835703, Lng : -123.1150207, Q1 : 0.999999344349, Q2 : 0.000711853674147, Q3 : 0.000794464780483, Q4 : -0.000414973212173}
2019-04-14 15:36:06.61: SIM {TimeUS : 46034912, Roll : 0.09, Pitch : 0.07, Yaw : 359.95, Alt : 32.8699989319, Lat : 49.2835703, Lng : -123.1150207, Q1 : 0.999999344349, Q2 : 0.000859324354678, Q3 : 0.000641848833766, Q4 : -0.000403561920393}
2019-04-14 15:36:06.71: SIM {TimeUS : 46134872, Roll : 0.11, Pitch : 0.08, Yaw : 359.95, Alt : 33.0699996948, Lat : 49.2835704, Lng : -123.1150207, Q1 : 0.99999910593, Q2 : 0.00100981467403, Q3 : 0.000756015011575, Q4 : -0.000399936980102}
2019-04-14 15:36:06.81: SIM {TimeUS : 46234832, Roll : 0.13, Pitch : 0.1, Yaw : 359.95, Alt : 33.2700004578, Lat : 49.2835704, Lng : -123.1150207, Q1 : 0.999998867512, Q2 : 0.00116346112918, Q3 : 0.000898942293134, Q4 : -0.000398859381676}
2019-04-14 15:36:06.91: SIM {TimeUS : 46334792, Roll : 0.15, Pitch : 0.12, Yaw : 359.95, Alt : 33.4799995422, Lat : 49.2835704, Lng : -123.1150208, Q1 : 0.999998450279, Q2 : 0.0013222435955, Q3 : 0.00109816330951, Q4 : -0.000404363323469}
2019-04-14 15:36:07.01: SIM {TimeUS : 46434752, Roll : 0.15, Pitch : 0.14, Yaw : 359.95, Alt : 33.6899986267, Lat : 49.2835704, Lng : -123.1150208, Q1 : 0.999998211861, Q2 : 0.00139523332473, Q3 : 0.00122337788343, Q4 : -0.000413869769545}
2019-04-14 15:36:07.11: SIM {TimeUS : 46534712, Roll : 0.14, Pitch : 0.13, Yaw : 359.95, Alt : 33.8899993896, Lat : 49.2835704, Lng : -123.1150208, Q1 : 0.99999833107, Q2 : 0.0012964628404, Q3 : 0.00121442880481, Q4 : -0.000428329425631}
2019-04-14 15:36:07.21: SIM {TimeUS : 46634672, Roll : 0.13, Pitch : 0.13, Yaw : 359.94, Alt : 34.0999984741, Lat : 49.2835704, Lng : -123.1150208, Q1 : 0.999998509884, Q2 : 0.00115760194603, Q3 : 0.00118230760563, Q4 : -0.000449742539786}
2019-04-14 15:36:07.31: SIM {TimeUS : 46734632, Roll : 0.11, Pitch : 0.12, Yaw : 359.94, Alt : 34.3199996948, Lat : 49.2835704, Lng : -123.1150208, Q1 : 0.999998807907, Q2 : 0.000969222164713, Q3 : 0.00111058808398, Q4 : -0.000476674409583}
2019-04-14 15:36:07.41: SIM {TimeUS : 46834592, Roll : 0.09, Pitch : 0.09, Yaw : 359.94, Alt : 34.5299987793, Lat : 49.2835704, Lng : -123.1150208, Q1 : 0.99999922514, Q2 : 0.000856096623465, Q3 : 0.00079199008178, Q4 : -0.000511186430231}
2019-04-14 15:36:07.51: SIM {TimeUS : 46934552, Roll : 0.08, Pitch : 0.05, Yaw : 359.93, Alt : 34.7400016785, Lat : 49.2835704, Lng : -123.1150208, Q1 : 0.999999403954, Q2 : 0.000785567739513, Q3 : 0.000488171208417, Q4 : -0.000549835385755}
2019-04-14 15:36:07.61: SIM {TimeUS : 47034512, Roll : 0.07, Pitch : 0.03, Yaw : 359.93, Alt : 34.9599990845, Lat : 49.2835704, Lng : -123.1150207, Q1 : 0.999999582767, Q2 : 0.000621122890152, Q3 : 0.000301048537949, Q4 : -0.000587751623243}
2019-04-14 15:36:07.71: SIM {TimeUS : 47135305, Roll : 0.05, Pitch : 0.02, Yaw : 359.92, Alt : 35.1800003052, Lat : 49.2835704, Lng : -123.1150207, Q1 : 0.999999642372, Q2 : 0.000507391232532, Q3 : 0.000248138356255, Q4 : -0.000621020561084}
2019-04-14 15:36:07.81: SIM {TimeUS : 47235265, Roll : 0.05, Pitch : 0.02, Yaw : 359.92, Alt : 35.3899993896, Lat : 49.2835704, Lng : -123.1150207, Q1 : 0.999999642372, Q2 : 0.000488433113787, Q3 : 0.000235516708926, Q4 : -0.000650140224025}
2019-04-14 15:36:07.91: SIM {TimeUS : 47335225, Roll : 0.03, Pitch : 0.0, Yaw : 359.92, Alt : 35.6100006104, Lat : 49.2835704, Lng : -123.1150207, Q1 : 0.999999761581, Q2 : 0.000298577360809, Q3 : 6.66595733492e-05, Q4 : -0.000676883326378}
2019-04-14 15:36:08.01: SIM {TimeUS : 47435185, Roll : 0.0, Pitch : -0.02, Yaw : 359.91, Alt : 35.8300018311, Lat : 49.2835704, Lng : -123.1150207, Q1 : 0.999999761581, Q2 : -4.30638501712e-05, Q3 : -0.000211555568967, Q4 : -0.00070080725709}
2019-04-14 15:36:08.11: SIM {TimeUS : 47535145, Roll : -0.04, Pitch : -0.04, Yaw : 359.91, Alt : 36.0499992371, Lat : 49.2835704, Lng : -123.1150207, Q1 : 0.999999582767, Q2 : -0.000409764121287, Q3 : -0.000415552553022, Q4 : -0.000725921418052}
2019-04-14 15:36:08.21: SIM {TimeUS : 47635105, Roll : -0.08, Pitch : -0.06, Yaw : 359.91, Alt : 36.2700004578, Lat : 49.2835704, Lng : -123.1150207, Q1 : 0.999999344349, Q2 : -0.00071029656101, Q3 : -0.000523827329744, Q4 : -0.000748011399992}
2019-04-14 15:36:08.31: SIM {TimeUS : 47735065, Roll : -0.08, Pitch : -0.06, Yaw : 359.91, Alt : 36.4900016785, Lat : 49.2835704, Lng : -123.1150206, Q1 : 0.999999284744, Q2 : -0.000750576553401, Q3 : -0.000568776740693, Q4 : -0.000761719653383}
2019-04-14 15:36:08.41: SIM {TimeUS : 47835025, Roll : -0.07, Pitch : -0.06, Yaw : 359.91, Alt : 36.7200012207, Lat : 49.2835704, Lng : -123.1150206, Q1 : 0.999999284744, Q2 : -0.000693294743542, Q3 : -0.000576527498197, Q4 : -0.000773132720497}
2019-04-14 15:36:08.51: SIM {TimeUS : 47934985, Roll : -0.06, Pitch : -0.05, Yaw : 359.9, Alt : 36.9399986267, Lat : 49.2835704, Lng : -123.1150206, Q1 : 0.999999403954, Q2 : -0.000571680895519, Q3 : -0.000461166404421, Q4 : -0.000788381381426}
2019-04-14 15:36:08.61: SIM {TimeUS : 48034945, Roll : -0.04, Pitch : -0.04, Yaw : 359.9, Alt : 37.1599998474, Lat : 49.2835704, Lng : -123.1150206, Q1 : 0.999999523163, Q2 : -0.00040916641592, Q3 : -0.000393767666537, Q4 : -0.00080375361722}
2019-04-14 15:36:08.71: SIM {TimeUS : 48134905, Roll : -0.05, Pitch : -0.04, Yaw : 359.9, Alt : 37.3899993896, Lat : 49.2835704, Lng : -123.1150206, Q1 : 0.999999463558, Q2 : -0.000444879377028, Q3 : -0.00041652424261, Q4 : -0.000815655221231}
2019-04-14 15:36:08.81: SIM {TimeUS : 48234865, Roll : -0.06, Pitch : -0.03, Yaw : 359.9, Alt : 37.6100006104, Lat : 49.2835704, Lng : -123.1150206, Q1 : 0.999999463558, Q2 : -0.000583004963119, Q3 : -0.00026506971335, Q4 : -0.000830996781588}
2019-04-14 15:36:08.91: SIM {TimeUS : 48334825, Roll : -0.09, Pitch : 0.0, Yaw : 359.9, Alt : 37.8400001526, Lat : 49.2835704, Lng : -123.1150206, Q1 : 0.999999344349, Q2 : -0.000828595308121, Q3 : -7.11637840141e-05, Q4 : -0.00085067935288}
2019-04-14 15:36:09.01: SIM {TimeUS : 48434785, Roll : -0.1, Pitch : 0.0, Yaw : 359.9, Alt : 38.0699996948, Lat : 49.2835704, Lng : -123.1150206, Q1 : 0.99999922514, Q2 : -0.000892971467692, Q3 : 8.10199635453e-05, Q4 : -0.000864067405928}
2019-04-14 15:36:09.11: SIM {TimeUS : 48534745, Roll : -0.08, Pitch : 0.03, Yaw : 359.89, Alt : 38.2900009155, Lat : 49.2835704, Lng : -123.1150206, Q1 : 0.999999284744, Q2 : -0.000720856653061, Q3 : 0.000335413555149, Q4 : -0.000879735685885}
2019-04-14 15:36:09.21: SIM {TimeUS : 48634705, Roll : -0.05, Pitch : 0.03, Yaw : 359.89, Alt : 38.5200004578, Lat : 49.2835704, Lng : -123.1150206, Q1 : 0.999999403954, Q2 : -0.000513792911079, Q3 : 0.000285998015897, Q4 : -0.000898268830497}
2019-04-14 15:36:09.31: SIM {TimeUS : 48734665, Roll : -0.02, Pitch : 0.01, Yaw : 359.89, Alt : 38.75, Lat : 49.2835704, Lng : -123.1150206, Q1 : 0.999999523163, Q2 : -0.000260541477473, Q3 : 0.000157569724252, Q4 : -0.000915740267374}
2019-04-14 15:36:09.41: SIM {TimeUS : 48834625, Roll : 0.0, Pitch : 0.02, Yaw : 359.89, Alt : 38.9799995422, Lat : 49.2835706, Lng : -123.1150206, Q1 : 0.999999523163, Q2 : 5.57984349143e-05, Q3 : 0.000235368876019, Q4 : -0.000934446579777}
2019-04-14 15:36:09.51: SIM {TimeUS : 48934585, Roll : 0.04, Pitch : 0.05, Yaw : 359.88, Alt : 39.2099990845, Lat : 49.2835706, Lng : -123.1150206, Q1 : 0.999999344349, Q2 : 0.000380761688575, Q3 : 0.000465982127935, Q4 : -0.000960305391345}
2019-04-14 15:36:09.61: SIM {TimeUS : 49034545, Roll : 0.07, Pitch : 0.07, Yaw : 359.88, Alt : 39.4399986267, Lat : 49.2835706, Lng : -123.1150206, Q1 : 0.999999046326, Q2 : 0.000642675615381, Q3 : 0.000693930021953, Q4 : -0.000989893218502}
2019-04-14 15:36:09.71: SIM {TimeUS : 49134505, Roll : 0.06, Pitch : 0.1, Yaw : 359.88, Alt : 39.6699981689, Lat : 49.2835706, Lng : -123.1150206, Q1 : 0.999998927116, Q2 : 0.00058296212228, Q3 : 0.000895286735613, Q4 : -0.00101411447395}
2019-04-14 15:36:09.81: SIM {TimeUS : 49235298, Roll : 0.02, Pitch : 0.12, Yaw : 359.87, Alt : 39.9000015259, Lat : 49.2835706, Lng : -123.1150206, Q1 : 0.999998807907, Q2 : 0.000190411505173, Q3 : 0.00107859109994, Q4 : -0.00105690967757}
2019-04-14 15:36:09.91: SIM {TimeUS : 49335258, Roll : -0.01, Pitch : 0.12, Yaw : 359.87, Alt : 40.1300010681, Lat : 49.2835706, Lng : -123.1150206, Q1 : 0.999998748302, Q2 : -0.000120511940622, Q3 : 0.00113260722719, Q4 : -0.00109271216206}
2019-04-14 15:36:10.01: SIM {TimeUS : 49435218, Roll : -0.04, Pitch : 0.11, Yaw : 359.87, Alt : 40.3600006104, Lat : 49.2835706, Lng : -123.1150206, Q1 : 0.999998748302, Q2 : -0.000361367565347, Q3 : 0.00103126349859, Q4 : -0.00112089305185}
2019-04-14 15:36:10.11: SIM {TimeUS : 49535178, Roll : -0.05, Pitch : 0.11, Yaw : 359.86, Alt : 40.5999984741, Lat : 49.2835706, Lng : -123.1150206, Q1 : 0.999998748302, Q2 : -0.000473115243949, Q3 : 0.00099113676697, Q4 : -0.0011518598767}
2019-04-14 15:36:10.21: SIM {TimeUS : 49635138, Roll : -0.04, Pitch : 0.13, Yaw : 359.86, Alt : 40.8300018311, Lat : 49.2835706, Lng : -123.1150206, Q1 : 0.999998569489, Q2 : -0.00036808103323, Q3 : 0.00116479210556, Q4 : -0.00118745781947}
2019-04-14 15:36:10.31: SIM {TimeUS : 49735098, Roll : 0.0, Pitch : 0.16, Yaw : 359.85, Alt : 41.0600013733, Lat : 49.2835706, Lng : -123.1150207, Q1 : 0.999998271465, Q2 : 2.04022053367e-05, Q3 : 0.00139948178548, Q4 : -0.00122539722361}
2019-04-14 15:36:10.41: SIM {TimeUS : 49835058, Roll : 0.05, Pitch : 0.17, Yaw : 359.85, Alt : 41.2999992371, Lat : 49.2835706, Lng : -123.1150207, Q1 : 0.999997973442, Q2 : 0.000477919413242, Q3 : 0.00149334874004, Q4 : -0.0012607142562}
2019-04-14 15:36:10.51: SIM {TimeUS : 49935018, Roll : 0.09, Pitch : 0.13, Yaw : 359.85, Alt : 41.5299987793, Lat : 49.2835706, Lng : -123.1150207, Q1 : 0.999998152256, Q2 : 0.000789826561231, Q3 : 0.0011836955091, Q4 : -0.00128983869217}
2019-04-14 15:36:10.61: SIM {TimeUS : 50034978, Roll : 0.09, Pitch : 0.08, Yaw : 359.84, Alt : 41.7599983215, Lat : 49.2835706, Lng : -123.1150207, Q1 : 0.999998569489, Q2 : 0.00079509941861, Q3 : 0.000705360027496, Q4 : -0.00131187262014}
2019-04-14 15:36:10.71: SIM {TimeUS : 50134938, Roll : 0.05, Pitch : 0.04, Yaw : 359.84, Alt : 42.0, Lat : 49.2835706, Lng : -123.1150207, Q1 : 0.999998927116, Q2 : 0.000485523894895, Q3 : 0.000370925699826, Q4 : -0.00132589193527}
2019-04-14 15:36:10.81: SIM {TimeUS : 50234898, Roll : 0.0, Pitch : 0.03, Yaw : 359.84, Alt : 42.2299995422, Lat : 49.2835706, Lng : -123.1150207, Q1 : 0.99999910593, Q2 : 2.81749016722e-05, Q3 : 0.00027064664755, Q4 : -0.00133073166944}
2019-04-14 15:36:10.91: SIM {TimeUS : 50334858, Roll : -0.03, Pitch : 0.05, Yaw : 359.84, Alt : 42.4599990845, Lat : 49.2835706, Lng : -123.1150207, Q1 : 0.999998986721, Q2 : -0.000261649751337, Q3 : 0.000479874230223, Q4 : -0.0013265212765}
2019-04-14 15:36:11.01: SIM {TimeUS : 50434818, Roll : -0.04, Pitch : 0.07, Yaw : 359.84, Alt : 42.7000007629, Lat : 49.2835704, Lng : -123.1150207, Q1 : 0.999998867512, Q2 : -0.000402745208703, Q3 : 0.000651189649943, Q4 : -0.00131985871121}
2019-04-14 15:36:11.11: SIM {TimeUS : 50534778, Roll : -0.04, Pitch : 0.07, Yaw : 359.84, Alt : 42.9300003052, Lat : 49.2835704, Lng : -123.1150206, Q1 : 0.999998867512, Q2 : -0.000391212961404, Q3 : 0.000629598973319, Q4 : -0.00131939002313}
2019-04-14 15:36:11.21: SIM {TimeUS : 50634738, Roll : -0.04, Pitch : 0.05, Yaw : 359.84, Alt : 43.1699981689, Lat : 49.2835704, Lng : -123.1150206, Q1 : 0.999998927116, Q2 : -0.000399274023948, Q3 : 0.00050027918769, Q4 : -0.00132682989351}
2019-04-14 15:36:11.31: SIM {TimeUS : 50734698, Roll : -0.03, Pitch : 0.04, Yaw : 359.84, Alt : 43.4000015259, Lat : 49.2835704, Lng : -123.1150206, Q1 : 0.999998986721, Q2 : -0.000324735563481, Q3 : 0.000380604265956, Q4 : -0.00134359928779}
2019-04-14 15:36:11.41: SIM {TimeUS : 50834658, Roll : -0.01, Pitch : 0.03, Yaw : 359.84, Alt : 43.6399993896, Lat : 49.2835704, Lng : -123.1150206, Q1 : 0.999998986721, Q2 : -0.000156214446179, Q3 : 0.000331243616529, Q4 : -0.00137232139241}
2019-04-14 15:36:11.51: SIM {TimeUS : 50934618, Roll : 0.0, Pitch : 0.03, Yaw : 359.83, Alt : 43.8699989319, Lat : 49.2835704, Lng : -123.1150206, Q1 : 0.999998986721, Q2 : -4.41068586952e-05, Q3 : 0.000317285797792, Q4 : -0.0014067501761}
2019-04-14 15:36:11.61: SIM {TimeUS : 51034578, Roll : 0.0, Pitch : 0.01, Yaw : 359.83, Alt : 44.1100006104, Lat : 49.2835704, Lng : -123.1150206, Q1 : 0.999998986721, Q2 : -5.66424823774e-05, Q3 : 0.0001584772981, Q4 : -0.0014365183888}
2019-04-14 15:36:11.71: SIM {TimeUS : 51134538, Roll : -0.01, Pitch : -0.01, Yaw : 359.83, Alt : 44.3499984741, Lat : 49.2835704, Lng : -123.1150206, Q1 : 0.999998927116, Q2 : -0.000123881400214, Q3 : -0.000149334271555, Q4 : -0.0014630072983}
2019-04-14 15:36:11.81: SIM {TimeUS : 51234498, Roll : -0.01, Pitch : -0.03, Yaw : 359.82, Alt : 44.5800018311, Lat : 49.2835704, Lng : -123.1150206, Q1 : 0.999998807907, Q2 : -0.000161443182151, Q3 : -0.000342861982062, Q4 : -0.00149606901687}
2019-04-14 15:36:11.91: SIM {TimeUS : 51335291, Roll : -0.01, Pitch : -0.05, Yaw : 359.82, Alt : 44.8199996948, Lat : 49.2835704, Lng : -123.1150206, Q1 : 0.999998688698, Q2 : -0.000157012982527, Q3 : -0.000441868032794, Q4 : -0.00153294205666}
2019-04-14 15:36:12.01: SIM {TimeUS : 51435251, Roll : -0.02, Pitch : -0.05, Yaw : 359.82, Alt : 45.0600013733, Lat : 49.2835703, Lng : -123.1150206, Q1 : 0.999998629093, Q2 : -0.000239079658058, Q3 : -0.000479069363791, Q4 : -0.00156655698083}
2019-04-14 15:36:12.11: SIM {TimeUS : 51535211, Roll : -0.05, Pitch : -0.04, Yaw : 359.81, Alt : 45.2900009155, Lat : 49.2835703, Lng : -123.1150206, Q1 : 0.999998509884, Q2 : -0.000492374703754, Q3 : -0.000410440174164, Q4 : -0.00159923033789}
2019-04-14 15:36:12.21: SIM {TimeUS : 51635171, Roll : -0.09, Pitch : -0.03, Yaw : 359.81, Alt : 45.5299987793, Lat : 49.2835703, Lng : -123.1150206, Q1 : 0.999998271465, Q2 : -0.000822360510938, Q3 : -0.00034063111525, Q4 : -0.00163383968174}
2019-04-14 15:36:12.31: SIM {TimeUS : 51735131, Roll : -0.11, Pitch : -0.03, Yaw : 359.8, Alt : 45.7599983215, Lat : 49.2835703, Lng : -123.1150206, Q1 : 0.999998033047, Q2 : -0.00102215923835, Q3 : -0.000273081299383, Q4 : -0.00167035544291}
2019-04-14 15:36:12.41: SIM {TimeUS : 51835091, Roll : -0.11, Pitch : -0.01, Yaw : 359.8, Alt : 45.9900016785, Lat : 49.2835703, Lng : -123.1150206, Q1 : 0.999997973442, Q2 : -0.00103384524118, Q3 : -0.000131286564283, Q4 : -0.00170674396213}
2019-04-14 15:36:12.51: SIM {TimeUS : 51935051, Roll : -0.1, Pitch : 0.01, Yaw : 359.8, Alt : 46.2200012207, Lat : 49.2835703, Lng : -123.1150206, Q1 : 0.999998092651, Q2 : -0.000881388376001, Q3 : 9.99895637506e-05, Q4 : -0.00173894152977}
2019-04-14 15:36:12.61: SIM {TimeUS : 52035011, Roll : -0.07, Pitch : 0.02, Yaw : 359.79, Alt : 46.4500007629, Lat : 49.2835703, Lng : -123.1150206, Q1 : 0.999998211861, Q2 : -0.000623069470748, Q3 : 0.000224383664317, Q4 : -0.00176693010144}
2019-04-14 15:36:12.71: SIM {TimeUS : 52134971, Roll : -0.04, Pitch : 0.01, Yaw : 359.79, Alt : 46.6699981689, Lat : 49.2835703, Lng : -123.1150206, Q1 : 0.99999833107, Q2 : -0.000409466651035, Q3 : 0.000170312676346, Q4 : -0.0017899973318}
2019-04-14 15:36:12.81: SIM {TimeUS : 52234931, Roll : -0.03, Pitch : 0.0, Yaw : 359.79, Alt : 46.8800010681, Lat : 49.2835703, Lng : -123.1150206, Q1 : 0.99999833107, Q2 : -0.000308573653456, Q3 : -1.81413834071e-05, Q4 : -0.00181050505489}
2019-04-14 15:36:12.91: SIM {TimeUS : 52334891, Roll : -0.01, Pitch : -0.03, Yaw : 359.79, Alt : 47.0900001526, Lat : 49.2835703, Lng : -123.1150206, Q1 : 0.999998271465, Q2 : -0.000159105504281, Q3 : -0.000306468980853, Q4 : -0.00182736350689}
2019-04-14 15:36:13.01: SIM {TimeUS : 52434851, Roll : 0.0, Pitch : -0.06, Yaw : 359.78, Alt : 47.2900009155, Lat : 49.2835703, Lng : -123.1150206, Q1 : 0.999998152256, Q2 : 2.0144840164e-05, Q3 : -0.000539389147889, Q4 : -0.00184320728295}
2019-04-14 15:36:13.11: SIM {TimeUS : 52534811, Roll : 0.01, Pitch : -0.08, Yaw : 359.78, Alt : 47.4799995422, Lat : 49.2835703, Lng : -123.1150206, Q1 : 0.999998033047, Q2 : 9.89726613625e-05, Q3 : -0.000729172024876, Q4 : -0.00186073861551}
2019-04-14 15:36:13.21: SIM {TimeUS : 52634771, Roll : 0.0, Pitch : -0.11, Yaw : 359.78, Alt : 47.6599998474, Lat : 49.2835703, Lng : -123.1150206, Q1 : 0.999997735023, Q2 : 6.99860975146e-05, Q3 : -0.000986802508123, Q4 : -0.00188172387425}
2019-04-14 15:36:13.31: SIM {TimeUS : 52734731, Roll : 0.02, Pitch : -0.14, Yaw : 359.78, Alt : 47.8400001526, Lat : 49.2835703, Lng : -123.1150206, Q1 : 0.999997377396, Q2 : 0.000179419861524, Q3 : -0.00124895432964, Q4 : -0.00190505490173}
2019-04-14 15:36:13.41: SIM {TimeUS : 52834691, Roll : 0.04, Pitch : -0.15, Yaw : 359.77, Alt : 48.0, Lat : 49.2835703, Lng : -123.1150206, Q1 : 0.999997198582, Q2 : 0.00037899450399, Q3 : -0.00133225764148, Q4 : -0.00192593294196}
2019-04-14 15:36:13.51: SIM {TimeUS : 52934651, Roll : 0.06, Pitch : -0.13, Yaw : 359.77, Alt : 48.1399993896, Lat : 49.2835704, Lng : -123.1150206, Q1 : 0.999997258186, Q2 : 0.000583695538808, Q3 : -0.00119187438395, Q4 : -0.00195008155424}
2019-04-14 15:36:13.61: SIM {TimeUS : 53034611, Roll : 0.08, Pitch : -0.1, Yaw : 359.77, Alt : 48.2799987793, Lat : 49.2835704, Lng : -123.1150206, Q1 : 0.999997377396, Q2 : 0.000696311879437, Q3 : -0.000942498561926, Q4 : -0.00197499059141}
2019-04-14 15:36:13.71: SIM {TimeUS : 53134571, Roll : 0.08, Pitch : -0.08, Yaw : 359.77, Alt : 48.4099998474, Lat : 49.2835704, Lng : -123.1150206, Q1 : 0.999997437, Q2 : 0.000778549001552, Q3 : -0.000720417010598, Q4 : -0.00200122897513}
2019-04-14 15:36:13.81: SIM {TimeUS : 53234531, Roll : 0.08, Pitch : -0.07, Yaw : 359.76, Alt : 48.5200004578, Lat : 49.2835704, Lng : -123.1150206, Q1 : 0.999997496605, Q2 : 0.000710543303285, Q3 : -0.000646227970719, Q4 : -0.00203105853871}
2019-04-14 15:36:13.91: SIM {TimeUS : 53335324, Roll : 0.05, Pitch : -0.06, Yaw : 359.76, Alt : 48.6199989319, Lat : 49.2835704, Lng : -123.1150206, Q1 : 0.999997615814, Q2 : 0.000491370854434, Q3 : -0.000558034924325, Q4 : -0.00206021149643}
2019-04-14 15:36:14.01: SIM {TimeUS : 53435284, Roll : 0.03, Pitch : -0.04, Yaw : 359.76, Alt : 48.7099990845, Lat : 49.2835704, Lng : -123.1150206, Q1 : 0.999997675419, Q2 : 0.000295443314826, Q3 : -0.000392121000914, Q4 : -0.00208523240872}
2019-04-14 15:36:14.11: SIM {TimeUS : 53535244, Roll : 0.01, Pitch : -0.02, Yaw : 359.75, Alt : 48.7799987793, Lat : 49.2835704, Lng : -123.1150206, Q1 : 0.999997794628, Q2 : 0.000113844456791, Q3 : -0.000209325749893, Q4 : -0.00210717320442}
2019-04-14 15:36:14.21: SIM {TimeUS : 53635204, Roll : 0.0, Pitch : 0.0, Yaw : 359.75, Alt : 48.8499984741, Lat : 49.2835704, Lng : -123.1150206, Q1 : 0.999997735023, Q2 : -1.59576520673e-05, Q3 : 2.2694672225e-05, Q4 : -0.00213189446367}
2019-04-14 15:36:14.31: SIM {TimeUS : 53735164, Roll : 0.01, Pitch : 0.03, Yaw : 359.75, Alt : 48.9099998474, Lat : 49.2835704, Lng : -123.1150206, Q1 : 0.999997615814, Q2 : 0.000103081736597, Q3 : 0.000328256894136, Q4 : -0.00216051051393}
2019-04-14 15:36:14.41: SIM {TimeUS : 53835124, Roll : 0.03, Pitch : 0.06, Yaw : 359.74, Alt : 48.9500007629, Lat : 49.2835704, Lng : -123.1150206, Q1 : 0.999997437, Q2 : 0.00032937261858, Q3 : 0.000523730355781, Q4 : -0.00218721642159}
2019-04-14 15:36:14.51: SIM {TimeUS : 53935084, Roll : 0.07, Pitch : 0.01, Yaw : 359.74, Alt : 49.0, Lat : 49.2835704, Lng : -123.1150206, Q1 : 0.999997317791, Q2 : 0.000652531860396, Q3 : 0.000172833519173, Q4 : -0.00221843039617}
2019-04-14 15:36:14.61: SIM {TimeUS : 54035044, Roll : 0.17, Pitch : -0.15, Yaw : 359.74, Alt : 49.0299987793, Lat : 49.2835704, Lng : -123.1150206, Q1 : 0.999995410442, Q2 : 0.00150179839693, Q3 : -0.00135838473216, Q4 : -0.00224635889754}
2019-04-14 15:36:14.71: SIM {TimeUS : 54135004, Roll : 0.4, Pitch : -0.55, Yaw : 359.73, Alt : 49.0600013733, Lat : 49.2835706, Lng : -123.1150206, Q1 : 0.999979257584, Q2 : 0.00351262069307, Q3 : -0.00489397905767, Q4 : -0.00227441149764}
2019-04-14 15:36:14.81: SIM {TimeUS : 54234964, Roll : 0.79, Pitch : -1.17, Yaw : 359.72, Alt : 49.0900001526, Lat : 49.2835706, Lng : -123.1150206, Q1 : 0.999920725822, Q2 : 0.00688991649076, Q3 : -0.010292025283, Q4 : -0.00228695222177}
2019-04-14 15:36:14.91: SIM {TimeUS : 54334924, Roll : 1.31, Pitch : -1.94, Yaw : 359.71, Alt : 49.1100006104, Lat : 49.2835706, Lng : -123.1150206, Q1 : 0.999788343906, Q2 : 0.011392836459, Q3 : -0.0169823784381, Q4 : -0.00227677449584}
2019-04-14 15:36:15.01: SIM {TimeUS : 54434884, Roll : 1.89, Pitch : -2.8, Yaw : 359.69, Alt : 49.1300010681, Lat : 49.2835707, Lng : -123.1150205, Q1 : 0.999561548233, Q2 : 0.0164979975671, Q3 : -0.0244857762009, Q4 : -0.00222695735283}
2019-04-14 15:36:15.11: SIM {TimeUS : 54534844, Roll : 2.46, Pitch : -3.61, Yaw : 359.67, Alt : 49.1500015259, Lat : 49.2835708, Lng : -123.1150204, Q1 : 0.999270260334, Q2 : 0.0213845446706, Q3 : -0.0315795317292, Q4 : -0.00211515487172}
2019-04-14 15:36:15.21: SIM {TimeUS : 54634804, Roll : 2.91, Pitch : -4.26, Yaw : 359.66, Alt : 49.1599998474, Lat : 49.2835709, Lng : -123.1150203, Q1 : 0.998983323574, Q2 : 0.0252729915082, Q3 : -0.0372805595398, Q4 : -0.0019324705936}
2019-04-14 15:36:15.31: SIM {TimeUS : 54734764, Roll : 3.23, Pitch : -4.75, Yaw : 359.67, Alt : 49.1800003052, Lat : 49.283571, Lng : -123.1150201, Q1 : 0.998742640018, Q2 : 0.0280545260757, Q3 : -0.0415114797652, Q4 : -0.00170434091706}
2019-04-14 15:36:15.41: SIM {TimeUS : 54834724, Roll : 3.47, Pitch : -5.11, Yaw : 359.67, Alt : 49.1899986267, Lat : 49.2835714, Lng : -123.1150199, Q1 : 0.998546361923, Q2 : 0.0301524251699, Q3 : -0.0446530655026, Q4 : -0.00144516071305}
2019-04-14 15:36:15.51: SIM {TimeUS : 54934684, Roll : 3.68, Pitch : -5.4, Yaw : 359.69, Alt : 49.2000007629, Lat : 49.2835716, Lng : -123.1150196, Q1 : 0.998372852802, Q2 : 0.0319921299815, Q3 : -0.0471892543137, Q4 : -0.00116271409206}
2019-04-14 15:36:15.61: SIM {TimeUS : 55034644, Roll : 3.87, Pitch : -5.67, Yaw : 359.7, Alt : 49.2099990845, Lat : 49.283572, Lng : -123.1150192, Q1 : 0.998202800751, Q2 : 0.0336770489812, Q3 : -0.0495605990291, Q4 : -0.00088609784143}
2019-04-14 15:36:15.71: SIM {TimeUS : 55134604, Roll : 4.07, Pitch : -5.97, Yaw : 359.71, Alt : 49.2200012207, Lat : 49.2835725, Lng : -123.1150187, Q1 : 0.998008906841, Q2 : 0.0354108512402, Q3 : -0.0521913580596, Q4 : -0.000636603159364}
2019-04-14 15:36:15.81: SIM {TimeUS : 55234564, Roll : 4.28, Pitch : -6.29, Yaw : 359.71, Alt : 49.2200012207, Lat : 49.2835729, Lng : -123.1150182, Q1 : 0.997797369957, Q2 : 0.0371608510613, Q3 : -0.0549490191042, Q4 : -0.000413111556554}
2019-04-14 15:36:15.91: SIM {TimeUS : 55334524, Roll : 4.46, Pitch : -6.55, Yaw : 359.72, Alt : 49.2299995422, Lat : 49.2835734, Lng : -123.1150175, Q1 : 0.997606515884, Q2 : 0.0387842915952, Q3 : -0.0572447553277, Q4 : -0.000201301270863}
2019-04-14 15:36:16.01: SIM {TimeUS : 55435317, Roll : 4.61, Pitch : -6.74, Yaw : 359.72, Alt : 49.2400016785, Lat : 49.283574, Lng : -123.115017, Q1 : 0.997458934784, Q2 : 0.0400561131537, Q3 : -0.0589168816805, Q4 : -1.2592046005e-05}
2019-04-14 15:36:16.11: SIM {TimeUS : 55535277, Roll : 4.71, Pitch : -6.88, Yaw : 359.73, Alt : 49.2400016785, Lat : 49.2835747, Lng : -123.1150162, Q1 : 0.997355818748, Q2 : 0.0409013405442, Q3 : -0.0600694157183, Q4 : 0.000145925965626}
2019-04-14 15:36:16.21: SIM {TimeUS : 55635237, Roll : 4.78, Pitch : -6.98, Yaw : 359.73, Alt : 49.25, Lat : 49.2835756, Lng : -123.1150155, Q1 : 0.997274875641, Q2 : 0.0415653064847, Q3 : -0.0609516464174, Q4 : 0.000267856084974}
2019-04-14 15:36:16.31: SIM {TimeUS : 55735197, Roll : 4.87, Pitch : -7.08, Yaw : 359.73, Alt : 49.25, Lat : 49.2835764, Lng : -123.1150146, Q1 : 0.997190356255, Q2 : 0.0423035137355, Q3 : -0.0618197359145, Q4 : 0.000339230318787}
2019-04-14 15:36:16.41: SIM {TimeUS : 55835157, Roll : 5.03, Pitch : -7.19, Yaw : 359.74, Alt : 49.25, Lat : 49.2835771, Lng : -123.1150137, Q1 : 0.997069776058, Q2 : 0.04373126477, Q3 : -0.0627627968788, Q4 : 0.0005508067552}
2019-04-14 15:36:16.51: SIM {TimeUS : 55935117, Roll : 5.45, Pitch : -7.23, Yaw : 0.04, Alt : 49.2599983215, Lat : 49.2835782, Lng : -123.1150128, Q1 : 0.996877670288, Q2 : 0.0474751777947, Q3 : -0.0630049109459, Q4 : 0.00337454676628}
2019-04-14 15:36:16.61: SIM {TimeUS : 56035077, Roll : 6.08, Pitch : -7.26, Yaw : 1.26, Alt : 49.2599983215, Lat : 49.2835791, Lng : -123.1150118, Q1 : 0.996489524841, Q2 : 0.0536347404122, Q3 : -0.0626497194171, Q4 : 0.0143876578659}
2019-04-14 15:36:16.71: SIM {TimeUS : 56135037, Roll : 6.61, Pitch : -7.53, Yaw : 3.98, Alt : 49.2599983215, Lat : 49.28358, Lng : -123.1150107, Q1 : 0.995446383953, Q2 : 0.0597805269063, Q3 : -0.0635183230042, Q4 : 0.0384475328028}
2019-04-14 15:36:16.81: SIM {TimeUS : 56234997, Roll : 6.72, Pitch : -8.16, Yaw : 8.3, Alt : 49.2599983215, Lat : 49.2835812, Lng : -123.1150095, Q1 : 0.992830991745, Q2 : 0.0634579062462, Q3 : -0.0666189491749, Q4 : 0.0762993395329}
2019-04-14 15:36:16.91: SIM {TimeUS : 56334957, Roll : 6.18, Pitch : -9.1, Yaw : 14.06, Alt : 49.2599983215, Lat : 49.2835823, Lng : -123.1150081, Q1 : 0.987377166748, Q2 : 0.0631044879556, Q3 : -0.0720364227891, Q4 : 0.12615403533}
2019-04-14 15:36:17.01: SIM {TimeUS : 56434917, Roll : 4.73, Pitch : -10.2, Yaw : 20.9, Alt : 49.2700004578, Lat : 49.2835834, Lng : -123.1150067, Q1 : 0.978011071682, Q2 : 0.0565380044281, Q3 : -0.0799050480127, Q4 : 0.184154912829}
2019-04-14 15:36:17.11: SIM {TimeUS : 56534877, Roll : 2.32, Pitch : -11.22, Yaw : 28.1, Alt : 49.2700004578, Lat : 49.2835846, Lng : -123.1150052, Q1 : 0.964740455151, Q2 : 0.043319363147, Q3 : -0.08997400105, Q4 : 0.243524134159}
2019-04-14 15:36:17.21: SIM {TimeUS : 56634837, Roll : -0.58, Pitch : -11.95, Yaw : 34.87, Alt : 49.2700004578, Lat : 49.2835858, Lng : -123.1150037, Q1 : 0.949002027512, Q2 : 0.0263241250068, Q3 : -0.100876189768, Q4 : 0.29753357172}
2019-04-14 15:36:17.31: SIM {TimeUS : 56734797, Roll : -3.36, Pitch : -12.32, Yaw : 40.51, Alt : 49.2700004578, Lat : 49.2835871, Lng : -123.115002, Q1 : 0.933414459229, Q2 : 0.00979346036911, Q3 : -0.110781230032, Q4 : 0.341129094362}
2019-04-14 15:36:17.41: SIM {TimeUS : 56834757, Roll : -5.44, Pitch : -12.44, Yaw : 44.54, Alt : 49.2700004578, Lat : 49.2835885, Lng : -123.1150004, Q1 : 0.920857191086, Q2 : -0.00263967644423, Q3 : -0.118121363223, Q4 : 0.371567517519}
2019-04-14 15:36:17.51: SIM {TimeUS : 56934717, Roll : -6.56, Pitch : -12.48, Yaw : 46.81, Alt : 49.2700004578, Lat : 49.2835899, Lng : -123.1149987, Q1 : 0.913230657578, Q2 : -0.00911962613463, Q3 : -0.122223585844, Q4 : 0.388571739197}
2019-04-14 15:36:17.61: SIM {TimeUS : 57034677, Roll : -6.72, Pitch : -12.57, Yaw : 47.48, Alt : 49.2700004578, Lat : 49.2835916, Lng : -123.1149971, Q1 : 0.910868227482, Q2 : -0.00936177559197, Q3 : -0.123592689633, Q4 : 0.393644928932}
2019-04-14 15:36:17.71: SIM {TimeUS : 57134637, Roll : -6.11, Pitch : -12.84, Yaw : 46.84, Alt : 49.2700004578, Lat : 49.2835933, Lng : -123.1149954, Q1 : 0.91292911768, Q2 : -0.0042295018211, Q3 : -0.123568147421, Q4 : 0.388938933611}
2019-04-14 15:36:17.81: SIM {TimeUS : 57234597, Roll : -4.96, Pitch : -13.31, Yaw : 45.2, Alt : 49.2700004578, Lat : 49.2835951, Lng : -123.1149937, Q1 : 0.918053328991, Q2 : 0.0047712335363, Q3 : -0.123471826315, Q4 : 0.376709491014}
2019-04-14 15:36:17.91: SIM {TimeUS : 57334557, Roll : -3.5, Pitch : -13.92, Yaw : 42.87, Alt : 49.2700004578, Lat : 49.283597, Lng : -123.114992, Q1 : 0.924868702888, Q2 : 0.0159828998148, Q3 : -0.1238527596, Q4 : 0.359197676182}
2019-04-14 15:36:18.01: SIM {TimeUS : 57434517, Roll : -1.94, Pitch : -14.54, Yaw : 40.17, Alt : 49.2700004578, Lat : 49.2835989, Lng : -123.1149903, Q1 : 0.932210862637, Q2 : 0.0277086533606, Q3 : -0.124661549926, Q4 : 0.338636487722}
2019-04-14 15:36:18.11: SIM {TimeUS : 57535310, Roll : -0.39, Pitch : -15.07, Yaw : 37.37, Alt : 49.2799987793, Lat : 49.283601, Lng : -123.1149884, Q1 : 0.939232826233, Q2 : 0.0387580767274, Q3 : -0.12535379827, Q4 : 0.317215979099}
2019-04-14 15:36:18.21: SIM {TimeUS : 57635270, Roll : 0.94, Pitch : -15.41, Yaw : 34.83, Alt : 49.2799987793, Lat : 49.2836031, Lng : -123.1149865, Q1 : 0.945176184177, Q2 : 0.0479264929891, Q3 : -0.12547776103, Q4 : 0.29765817523}
2019-04-14 15:36:18.31: SIM {TimeUS : 57735230, Roll : 1.98, Pitch : -15.56, Yaw : 32.77, Alt : 49.2799987793, Lat : 49.2836051, Lng : -123.1149844, Q1 : 0.949745357037, Q2 : 0.0546857453883, Q3 : -0.125004976988, Q4 : 0.281721502542}
2019-04-14 15:36:18.41: SIM {TimeUS : 57835190, Roll : 2.67, Pitch : -15.58, Yaw : 31.34, Alt : 49.2799987793, Lat : 49.2836074, Lng : -123.1149823, Q1 : 0.952810585499, Q2 : 0.0589054897428, Q3 : -0.124289415777, Q4 : 0.270618259907}
2019-04-14 15:36:18.51: SIM {TimeUS : 57935150, Roll : 2.97, Pitch : -15.58, Yaw : 30.6, Alt : 49.2799987793, Lat : 49.2836097, Lng : -123.11498, Q1 : 0.954394936562, Q2 : 0.060575697571, Q3 : -0.123952247202, Q4 : 0.264757961035}
2019-04-14 15:36:18.61: SIM {TimeUS : 58035110, Roll : 2.9, Pitch : -15.6, Yaw : 30.5, Alt : 49.2799987793, Lat : 49.2836118, Lng : -123.1149777, Q1 : 0.954635441303, Q2 : 0.059913739562, Q3 : -0.124332979321, Q4 : 0.263861387968}
2019-04-14 15:36:18.71: SIM {TimeUS : 58135070, Roll : 2.5, Pitch : -15.67, Yaw : 30.94, Alt : 49.2799987793, Lat : 49.2836141, Lng : -123.1149752, Q1 : 0.953722119331, Q2 : 0.0572699122131, Q3 : -0.125601321459, Q4 : 0.267130315304}
2019-04-14 15:36:18.81: SIM {TimeUS : 58235030, Roll : 1.89, Pitch : -15.76, Yaw : 31.79, Alt : 49.2799987793, Lat : 49.2836165, Lng : -123.1149727, Q1 : 0.951910436153, Q2 : 0.0532853603363, Q3 : -0.127425551414, Q4 : 0.273477375507}
2019-04-14 15:36:18.91: SIM {TimeUS : 58334990, Roll : 1.17, Pitch : -15.87, Yaw : 32.88, Alt : 49.2799987793, Lat : 49.2836189, Lng : -123.1149701, Q1 : 0.94947040081, Q2 : 0.0488149933517, Q3 : -0.129538878798, Q4 : 0.281678497791}
2019-04-14 15:36:19.01: SIM {TimeUS : 58434950, Roll : 0.43, Pitch : -15.98, Yaw : 34.05, Alt : 49.2799987793, Lat : 49.2836214, Lng : -123.1149674, Q1 : 0.946727871895, Q2 : 0.0442671142519, Q3 : -0.13182207942, Q4 : 0.290464669466}
2019-04-14 15:36:19.11: SIM {TimeUS : 58534910, Roll : -0.22, Pitch : -16.08, Yaw : 35.15, Alt : 49.2799987793, Lat : 49.2836238, Lng : -123.1149646, Q1 : 0.944001317024, Q2 : 0.0403948612511, Q3 : -0.133978798985, Q4 : 0.298796772957}
2019-04-14 15:36:19.21: SIM {TimeUS : 58634870, Roll : -0.72, Pitch : -16.16, Yaw : 36.09, Alt : 49.2799987793, Lat : 49.2836263, Lng : -123.1149619, Q1 : 0.941619992256, Q2 : 0.0375673882663, Q3 : -0.13558781147, Q4 : 0.305869907141}
2019-04-14 15:36:19.31: SIM {TimeUS : 58734830, Roll : -1.06, Pitch : -16.2, Yaw : 36.78, Alt : 49.2799987793, Lat : 49.283629, Lng : -123.1149591, Q1 : 0.939821064472, Q2 : 0.0357327610254, Q3 : -0.136646404862, Q4 : 0.311106652021}
2019-04-14 15:36:19.41: SIM {TimeUS : 58834790, Roll : -1.24, Pitch : -16.24, Yaw : 37.19, Alt : 49.2799987793, Lat : 49.2836316, Lng : -123.1149563, Q1 : 0.938708007336, Q2 : 0.0348624773324, Q3 : -0.137365847826, Q4 : 0.314233183861}
2019-04-14 15:36:19.51: SIM {TimeUS : 58934750, Roll : -1.26, Pitch : -16.29, Yaw : 37.32, Alt : 49.2799987793, Lat : 49.2836341, Lng : -123.1149535, Q1 : 0.938285589218, Q2 : 0.0349996685982, Q3 : -0.137801170349, Q4 : 0.315287232399}
2019-04-14 15:36:19.61: SIM {TimeUS : 59034710, Roll : -1.14, Pitch : -16.36, Yaw : 37.22, Alt : 49.2799987793, Lat : 49.2836369, Lng : -123.1149506, Q1 : 0.93846309185, Q2 : 0.0360723435879, Q3 : -0.138050988317, Q4 : 0.314527839422}
2019-04-14 15:36:19.71: SIM {TimeUS : 59134670, Roll : -0.92, Pitch : -16.42, Yaw : 36.92, Alt : 49.2799987793, Lat : 49.2836396, Lng : -123.1149476, Q1 : 0.939135968685, Q2 : 0.0376736223698, Q3 : -0.138022571802, Q4 : 0.312336504459}
2019-04-14 15:36:19.81: SIM {TimeUS : 59234630, Roll : -0.63, Pitch : -16.48, Yaw : 36.5, Alt : 49.2799987793, Lat : 49.2836425, Lng : -123.1149447, Q1 : 0.940119445324, Q2 : 0.0396662093699, Q3 : -0.137829586864, Q4 : 0.309200584888}
2019-04-14 15:36:19.91: SIM {TimeUS : 59334590, Roll : -0.32, Pitch : -16.52, Yaw : 36.02, Alt : 49.2799987793, Lat : 49.2836452, Lng : -123.1149418, Q1 : 0.941236555576, Q2 : 0.041795745492, Q3 : -0.137567028403, Q4 : 0.305617779493}
2019-04-14 15:36:20.01: SIM {TimeUS : 59434550, Roll : -0.02, Pitch : -16.57, Yaw : 35.54, Alt : 49.2900009155, Lat : 49.2836481, Lng : -123.1149388, Q1 : 0.942338824272, Q2 : 0.0438063777983, Q3 : -0.137291610241, Q4 : 0.302042245865}
2019-04-14 15:36:20.11: SIM {TimeUS : 59534510, Roll : 0.24, Pitch : -16.6, Yaw : 35.12, Alt : 49.2900009155, Lat : 49.283651, Lng : -123.1149357, Q1 : 0.94330561161, Q2 : 0.0455518104136, Q3 : -0.137060806155, Q4 : 0.298854291439}
2019-04-14 15:36:20.21: SIM {TimeUS : 59635303, Roll : 0.44, Pitch : -16.64, Yaw : 34.78, Alt : 49.2900009155, Lat : 49.2836539, Lng : -123.1149326, Q1 : 0.944054663181, Q2 : 0.0469014383852, Q3 : -0.136994689703, Q4 : 0.296299695969}
2019-04-14 15:36:20.31: SIM {TimeUS : 59735263, Roll : 0.55, Pitch : -16.67, Yaw : 34.55, Alt : 49.2900009155, Lat : 49.2836567, Lng : -123.1149295, Q1 : 0.944552719593, Q2 : 0.0476318337023, Q3 : -0.137053415179, Q4 : 0.29456371069}
2019-04-14 15:36:20.41: SIM {TimeUS : 59835223, Roll : 0.58, Pitch : -16.7, Yaw : 34.44, Alt : 49.2900009155, Lat : 49.2836597, Lng : -123.1149263, Q1 : 0.944794237614, Q2 : 0.0478300377727, Q3 : -0.137280166149, Q4 : 0.293650001287}
2019-04-14 15:36:20.51: SIM {TimeUS : 59935183, Roll : 0.54, Pitch : -16.74, Yaw : 34.43, Alt : 49.2900009155, Lat : 49.2836627, Lng : -123.1149232, Q1 : 0.94478648901, Q2 : 0.0476408489048, Q3 : -0.137716636062, Q4 : 0.293501377106}
2019-04-14 15:36:20.61: SIM {TimeUS : 60035143, Roll : 0.46, Pitch : -16.8, Yaw : 34.5, Alt : 49.2900009155, Lat : 49.2836657, Lng : -123.1149199, Q1 : 0.944568753242, Q2 : 0.0471293888986, Q3 : -0.138334363699, Q4 : 0.293993771076}
2019-04-14 15:36:20.71: SIM {TimeUS : 60135103, Roll : 0.31, Pitch : -16.84, Yaw : 34.64, Alt : 49.2900009155, Lat : 49.2836687, Lng : -123.1149167, Q1 : 0.944226741791, Q2 : 0.0462394356728, Q3 : -0.138992518187, Q4 : 0.294921696186}
2019-04-14 15:36:20.81: SIM {TimeUS : 60235063, Roll : 0.16, Pitch : -16.87, Yaw : 34.81, Alt : 49.2900009155, Lat : 49.2836717, Lng : -123.1149134, Q1 : 0.943814814091, Q2 : 0.0452557206154, Q3 : -0.139581933618, Q4 : 0.296112328768}
2019-04-14 15:36:20.91: SIM {TimeUS : 60335023, Roll : 0.01, Pitch : -16.9, Yaw : 34.98, Alt : 49.2900009155, Lat : 49.2836747, Lng : -123.1149101, Q1 : 0.943384110928, Q2 : 0.0443027839065, Q3 : -0.140129595995, Q4 : 0.297367483377}
2019-04-14 15:36:21.01: SIM {TimeUS : 60434983, Roll : -0.1, Pitch : -16.93, Yaw : 35.14, Alt : 49.2900009155, Lat : 49.2836778, Lng : -123.1149068, Q1 : 0.942964673042, Q2 : 0.0436401776969, Q3 : -0.140675231814, Q4 : 0.298536002636}
2019-04-14 15:36:21.11: SIM {TimeUS : 60534943, Roll : -0.17, Pitch : -16.97, Yaw : 35.27, Alt : 49.2900009155, Lat : 49.2836808, Lng : -123.1149034, Q1 : 0.942609667778, Q2 : 0.0433236695826, Q3 : -0.141112416983, Q4 : 0.299495339394}
2019-04-14 15:36:21.21: SIM {TimeUS : 60634903, Roll : -0.19, Pitch : -17.02, Yaw : 35.36, Alt : 49.2999992371, Lat : 49.2836839, Lng : -123.1149001, Q1 : 0.942336142063, Q2 : 0.0433291271329, Q3 : -0.141533449292, Q4 : 0.30015578866}
2019-04-14 15:36:21.31: SIM {TimeUS : 60734863, Roll : -0.17, Pitch : -17.07, Yaw : 35.4, Alt : 49.2999992371, Lat : 49.283687, Lng : -123.1148967, Q1 : 0.942156434059, Q2 : 0.0436735600233, Q3 : -0.141907051206, Q4 : 0.300493448973}
2019-04-14 15:36:21.41: SIM {TimeUS : 60834823, Roll : -0.14, Pitch : -17.11, Yaw : 35.4, Alt : 49.2999992371, Lat : 49.2836901, Lng : -123.1148933, Q1 : 0.942105948925, Q2 : 0.0440319031477, Q3 : -0.142156586051, Q4 : 0.300481379032}
2019-04-14 15:36:21.51: SIM {TimeUS : 60934783, Roll : -0.11, Pitch : -17.13, Yaw : 35.35, Alt : 49.2999992371, Lat : 49.2836932, Lng : -123.1148899, Q1 : 0.94218236208, Q2 : 0.0442860424519, Q3 : -0.142247259617, Q4 : 0.300161361694}
2019-04-14 15:36:21.61: SIM {TimeUS : 61034743, Roll : -0.08, Pitch : -17.14, Yaw : 35.28, Alt : 49.2999992371, Lat : 49.2836965, Lng : -123.1148865, Q1 : 0.942340731621, Q2 : 0.0445217750967, Q3 : -0.14229118824, Q4 : 0.299608021975}
2019-04-14 15:36:21.71: SIM {TimeUS : 61134703, Roll : -0.03, Pitch : -17.15, Yaw : 35.19, Alt : 49.2999992371, Lat : 49.2836997, Lng : -123.1148831, Q1 : 0.942546188831, Q2 : 0.0448355749249, Q3 : -0.142257168889, Q4 : 0.298930376768}
2019-04-14 15:36:21.81: SIM {TimeUS : 61234663, Roll : 0.02, Pitch : -17.16, Yaw : 35.1, Alt : 49.2999992371, Lat : 49.2837028, Lng : -123.1148796, Q1 : 0.942765235901, Q2 : 0.0451747924089, Q3 : -0.142221093178, Q4 : 0.298204928637}
2019-04-14 15:36:21.91: SIM {TimeUS : 61334623, Roll : 0.08, Pitch : -17.19, Yaw : 35.0, Alt : 49.2999992371, Lat : 49.283706, Lng : -123.1148762, Q1 : 0.942941904068, Q2 : 0.0456895120442, Q3 : -0.142333462834, Q4 : 0.29751342535}
2019-04-14 15:36:22.01: SIM {TimeUS : 61434583, Roll : 0.15, Pitch : -17.25, Yaw : 34.92, Alt : 49.2999992371, Lat : 49.2837093, Lng : -123.1148727, Q1 : 0.943053245544, Q2 : 0.0462620519102, Q3 : -0.142680704594, Q4 : 0.296905070543}
2019-04-14 15:36:22.11: SIM {TimeUS : 61534543, Roll : 0.19, Pitch : -17.28, Yaw : 34.86, Alt : 49.3100013733, Lat : 49.2837125, Lng : -123.1148692, Q1 : 0.943160235882, Q2 : 0.0466016940773, Q3 : -0.142873331904, Q4 : 0.296419084072}
2019-04-14 15:36:22.21: SIM {TimeUS : 61634503, Roll : 0.21, Pitch : -17.28, Yaw : 34.82, Alt : 49.3100013733, Lat : 49.2837157, Lng : -123.1148657, Q1 : 0.943264186382, Q2 : 0.0467581301928, Q3 : -0.142834722996, Q4 : 0.296082049608}
2019-04-14 15:36:22.31: SIM {TimeUS : 61735296, Roll : 0.22, Pitch : -17.29, Yaw : 34.79, Alt : 49.3100013733, Lat : 49.283719, Lng : -123.1148622, Q1 : 0.943312227726, Q2 : 0.0468473695219, Q3 : -0.142922192812, Q4 : 0.295872658491}
2019-04-14 15:36:22.41: SIM {TimeUS : 61835256, Roll : 0.2, Pitch : -17.32, Yaw : 34.78, Alt : 49.3100013733, Lat : 49.2837223, Lng : -123.1148586, Q1 : 0.94331330061, Q2 : 0.0467425175011, Q3 : -0.143190324306, Q4 : 0.295756191015}
2019-04-14 15:36:22.51: SIM {TimeUS : 61935216, Roll : 0.18, Pitch : -17.34, Yaw : 34.78, Alt : 49.3100013733, Lat : 49.2837255, Lng : -123.1148551, Q1 : 0.943289160728, Q2 : 0.0466277301311, Q3 : -0.14343239367, Q4 : 0.295733988285}
2019-04-14 15:36:22.61: SIM {TimeUS : 62035176, Roll : 0.16, Pitch : -17.38, Yaw : 34.79, Alt : 49.3100013733, Lat : 49.2837289, Lng : -123.1148515, Q1 : 0.943231701851, Q2 : 0.0465264208615, Q3 : -0.143754333258, Q4 : 0.295776873827}
2019-04-14 15:36:22.71: SIM {TimeUS : 62135136, Roll : 0.14, Pitch : -17.4, Yaw : 34.81, Alt : 49.3100013733, Lat : 49.2837321, Lng : -123.114848, Q1 : 0.943165779114, Q2 : 0.046457901597, Q3 : -0.144007310271, Q4 : 0.295874744654}
2019-04-14 15:36:22.81: SIM {TimeUS : 62235096, Roll : 0.13, Pitch : -17.43, Yaw : 34.82, Alt : 49.3100013733, Lat : 49.2837355, Lng : -123.1148444, Q1 : 0.94309180975, Q2 : 0.0464423783123, Q3 : -0.144270852208, Q4 : 0.295984566212}
2019-04-14 15:36:22.91: SIM {TimeUS : 62335056, Roll : 0.12, Pitch : -17.45, Yaw : 34.84, Alt : 49.3100013733, Lat : 49.2837387, Lng : -123.1148408, Q1 : 0.943032741547, Q2 : 0.0464864894748, Q3 : -0.14442153275, Q4 : 0.296092420816}
2019-04-14 15:36:23.01: SIM {TimeUS : 62435016, Roll : 0.13, Pitch : -17.46, Yaw : 34.84, Alt : 49.3100013733, Lat : 49.2837421, Lng : -123.1148372, Q1 : 0.94299352169, Q2 : 0.0466028489172, Q3 : -0.144532069564, Q4 : 0.296144992113}
2019-04-14 15:36:23.11: SIM {TimeUS : 62534976, Roll : 0.14, Pitch : -17.48, Yaw : 34.84, Alt : 49.3100013733, Lat : 49.2837454, Lng : -123.1148336, Q1 : 0.942967236042, Q2 : 0.0467467866838, Q3 : -0.14465919137, Q4 : 0.29614391923}
2019-04-14 15:36:23.21: SIM {TimeUS : 62634936, Roll : 0.14, Pitch : -17.52, Yaw : 34.84, Alt : 49.3100013733, Lat : 49.2837488, Lng : -123.11483, Q1 : 0.942941248417, Q2 : 0.0467835329473, Q3 : -0.144982039928, Q4 : 0.296063095331}
2019-04-14 15:36:23.31: SIM {TimeUS : 62734896, Roll : 0.11, Pitch : -17.56, Yaw : 34.82, Alt : 49.3199996948, Lat : 49.2837521, Lng : -123.1148263, Q1 : 0.942934036255, Q2 : 0.0466574430466, Q3 : -0.145388945937, Q4 : 0.295906364918}
2019-04-14 15:36:23.41: SIM {TimeUS : 62834856, Roll : 0.1, Pitch : -17.6, Yaw : 34.8, Alt : 49.3199996948, Lat : 49.2837555, Lng : -123.1148227, Q1 : 0.942934036255, Q2 : 0.0466186664999, Q3 : -0.145794481039, Q4 : 0.295712769032}
2019-04-14 15:36:23.51: SIM {TimeUS : 62934816, Roll : 0.11, Pitch : -17.64, Yaw : 34.78, Alt : 49.3199996948, Lat : 49.2837588, Lng : -123.114819, Q1 : 0.942946970463, Q2 : 0.0467923469841, Q3 : -0.146023914218, Q4 : 0.295530885458}
2019-04-14 15:36:23.61: SIM {TimeUS : 63034776, Roll : 0.14, Pitch : -17.64, Yaw : 34.76, Alt : 49.3199996948, Lat : 49.2837622, Lng : -123.1148154, Q1 : 0.942985415459, Q2 : 0.0470444485545, Q3 : -0.146022260189, Q4 : 0.29536896944}
2019-04-14 15:36:23.71: SIM {TimeUS : 63134736, Roll : 0.17, Pitch : -17.63, Yaw : 34.73, Alt : 49.3199996948, Lat : 49.2837655, Lng : -123.1148117, Q1 : 0.943048894405, Q2 : 0.0472428388894, Q3 : -0.14584441483, Q4 : 0.295222550631}
2019-04-14 15:36:23.81: SIM {TimeUS : 63234696, Roll : 0.19, Pitch : -17.62, Yaw : 34.71, Alt : 49.3199996948, Lat : 49.283769, Lng : -123.1148081, Q1 : 0.943115890026, Q2 : 0.0472790673375, Q3 : -0.145730867982, Q4 : 0.295058697462}
2019-04-14 15:36:23.91: SIM {TimeUS : 63334656, Roll : 0.18, Pitch : -17.61, Yaw : 34.69, Alt : 49.3199996948, Lat : 49.2837723, Lng : -123.1148044, Q1 : 0.943188548088, Q2 : 0.0471985042095, Q3 : -0.145650312304, Q4 : 0.294878989458}
2019-04-14 15:36:24.01: SIM {TimeUS : 63434616, Roll : 0.18, Pitch : -17.59, Yaw : 34.67, Alt : 49.3199996948, Lat : 49.2837758, Lng : -123.1148007, Q1 : 0.943264484406, Q2 : 0.0470742024481, Q3 : -0.145561814308, Q4 : 0.294699817896}
2019-04-14 15:36:24.11: SIM {TimeUS : 63534576, Roll : 0.16, Pitch : -17.61, Yaw : 34.65, Alt : 49.3199996948, Lat : 49.2837792, Lng : -123.114797, Q1 : 0.943304419518, Q2 : 0.0469560027122, Q3 : -0.1457131356, Q4 : 0.294515937567}
2019-04-14 15:36:24.21: SIM {TimeUS : 63634536, Roll : 0.15, Pitch : -17.63, Yaw : 34.63, Alt : 49.3199996948, Lat : 49.2837826, Lng : -123.1147933, Q1 : 0.943319857121, Q2 : 0.0469362288713, Q3 : -0.145940169692, Q4 : 0.294357091188}
2019-04-14 15:36:24.31: SIM {TimeUS : 63734496, Roll : 0.14, Pitch : -17.68, Yaw : 34.62, Alt : 49.3199996948, Lat : 49.2837861, Lng : -123.1147896, Q1 : 0.943301975727, Q2 : 0.0469402000308, Q3 : -0.14636105299, Q4 : 0.294204860926}
2019-04-14 15:36:24.41: SIM {TimeUS : 63835289, Roll : 0.14, Pitch : -17.74, Yaw : 34.6, Alt : 49.3199996948, Lat : 49.2837895, Lng : -123.1147858, Q1 : 0.943255186081, Q2 : 0.0470854155719, Q3 : -0.146858796477, Q4 : 0.294083505869}
2019-04-14 15:36:24.51: SIM {TimeUS : 63935249, Roll : 0.15, Pitch : -17.77, Yaw : 34.59, Alt : 49.3199996948, Lat : 49.2837929, Lng : -123.1147821, Q1 : 0.943244338036, Q2 : 0.0472063682973, Q3 : -0.147077724338, Q4 : 0.293989598751}
2019-04-14 15:36:24.61: SIM {TimeUS : 64035209, Roll : 0.15, Pitch : -17.79, Yaw : 34.58, Alt : 49.3199996948, Lat : 49.2837964, Lng : -123.1147784, Q1 : 0.943241596222, Q2 : 0.047281011939, Q3 : -0.147258713841, Q4 : 0.293895751238}
2019-04-14 15:36:24.71: SIM {TimeUS : 64135169, Roll : 0.15, Pitch : -17.8, Yaw : 34.57, Alt : 49.3199996948, Lat : 49.2837999, Lng : -123.1147746, Q1 : 0.943258166313, Q2 : 0.0472334958613, Q3 : -0.147385388613, Q4 : 0.293786674738}
2019-04-14 15:36:24.81: SIM {TimeUS : 64235129, Roll : 0.15, Pitch : -17.79, Yaw : 34.56, Alt : 49.3300018311, Lat : 49.2838032, Lng : -123.1147709, Q1 : 0.943295478821, Q2 : 0.0472216941416, Q3 : -0.14732812345, Q4 : 0.293697327375}
2019-04-14 15:36:24.91: SIM {TimeUS : 64335089, Roll : 0.16, Pitch : -17.8, Yaw : 34.55, Alt : 49.3300018311, Lat : 49.2838068, Lng : -123.1147672, Q1 : 0.943314433098, Q2 : 0.0473208911717, Q3 : -0.14733761549, Q4 : 0.293615907431}
2019-04-14 15:36:25.01: SIM {TimeUS : 64435049, Roll : 0.17, Pitch : -17.82, Yaw : 34.53, Alt : 49.3300018311, Lat : 49.2838102, Lng : -123.1147634, Q1 : 0.943311870098, Q2 : 0.0474665425718, Q3 : -0.147507101297, Q4 : 0.293515533209}
2019-04-14 15:36:25.11: SIM {TimeUS : 64535009, Roll : 0.18, Pitch : -17.84, Yaw : 34.52, Alt : 49.3300018311, Lat : 49.2838136, Lng : -123.1147597, Q1 : 0.943313062191, Q2 : 0.0475996136665, Q3 : -0.147660300136, Q4 : 0.293413043022}
2019-04-14 15:36:25.21: SIM {TimeUS : 64634969, Roll : 0.2, Pitch : -17.85, Yaw : 34.51, Alt : 49.3300018311, Lat : 49.2838171, Lng : -123.1147559, Q1 : 0.94333678484, Q2 : 0.0477102138102, Q3 : -0.147670462728, Q4 : 0.293313682079}
2019-04-14 15:36:25.31: SIM {TimeUS : 64734929, Roll : 0.2, Pitch : -17.86, Yaw : 34.49, Alt : 49.3300018311, Lat : 49.2838207, Lng : -123.1147522, Q1 : 0.943356096745, Q2 : 0.0477338694036, Q3 : -0.147773340344, Q4 : 0.293195843697}
2019-04-14 15:36:25.41: SIM {TimeUS : 64834889, Roll : 0.19, Pitch : -17.89, Yaw : 34.48, Alt : 49.3300018311, Lat : 49.2838242, Lng : -123.1147484, Q1 : 0.943366110325, Q2 : 0.0476552844048, Q3 : -0.148019209504, Q4 : 0.293052345514}
2019-04-14 15:36:25.51: SIM {TimeUS : 64934849, Roll : 0.15, Pitch : -17.93, Yaw : 34.47, Alt : 49.3300018311, Lat : 49.2838276, Lng : -123.1147446, Q1 : 0.943360388279, Q2 : 0.0474929474294, Q3 : -0.148436978459, Q4 : 0.292885780334}
2019-04-14 15:36:25.61: SIM {TimeUS : 65034809, Roll : 0.14, Pitch : -17.94, Yaw : 34.45, Alt : 49.3300018311, Lat : 49.2838311, Lng : -123.1147408, Q1 : 0.943387508392, Q2 : 0.0473944693804, Q3 : -0.148552894592, Q4 : 0.292755633593}
2019-04-14 15:36:25.71: SIM {TimeUS : 65134769, Roll : 0.15, Pitch : -17.93, Yaw : 34.44, Alt : 49.3300018311, Lat : 49.2838347, Lng : -123.1147371, Q1 : 0.94343072176, Q2 : 0.0474023893476, Q3 : -0.148459896445, Q4 : 0.292662233114}
2019-04-14 15:36:25.81: SIM {TimeUS : 65234729, Roll : 0.17, Pitch : -17.91, Yaw : 34.43, Alt : 49.3300018311, Lat : 49.2838382, Lng : -123.1147333, Q1 : 0.943470180035, Q2 : 0.0475183837116, Q3 : -0.148311257362, Q4 : 0.292591542006}
2019-04-14 15:36:25.91: SIM {TimeUS : 65334689, Roll : 0.18, Pitch : -17.92, Yaw : 34.41, Alt : 49.3300018311, Lat : 49.2838416, Lng : -123.1147295, Q1 : 0.943488359451, Q2 : 0.0476207733154, Q3 : -0.148340478539, Q4 : 0.292501449585}
2019-04-14 15:36:26.01: SIM {TimeUS : 65434649, Roll : 0.17, Pitch : -17.94, Yaw : 34.4, Alt : 49.3300018311, Lat : 49.2838451, Lng : -123.1147257, Q1 : 0.94349527359, Q2 : 0.0475866906345, Q3 : -0.148525446653, Q4 : 0.29239076376}
2019-04-14 15:36:26.11: SIM {TimeUS : 65534609, Roll : 0.15, Pitch : -17.96, Yaw : 34.39, Alt : 49.3300018311, Lat : 49.2838487, Lng : -123.1147219, Q1 : 0.943502664566, Q2 : 0.0474577993155, Q3 : -0.148759037256, Q4 : 0.292269080877}
2019-04-14 15:36:26.21: SIM {TimeUS : 65634569, Roll : 0.14, Pitch : -17.98, Yaw : 34.38, Alt : 49.3400001526, Lat : 49.2838522, Lng : -123.1147181, Q1 : 0.943504631519, Q2 : 0.0473979599774, Q3 : -0.148969560862, Q4 : 0.292165189981}
2019-04-14 15:36:26.31: SIM {TimeUS : 65734529, Roll : 0.15, Pitch : -18.0, Yaw : 34.37, Alt : 49.3400001526, Lat : 49.2838558, Lng : -123.1147143, Q1 : 0.943500757217, Q2 : 0.0475204922259, Q3 : -0.149113237858, Q4 : 0.292084693909}
2019-04-14 15:36:26.41: SIM {TimeUS : 65835322, Roll : 0.16, Pitch : -18.02, Yaw : 34.36, Alt : 49.3400001526, Lat : 49.2838592, Lng : -123.1147105, Q1 : 0.943499028683, Q2 : 0.0476581864059, Q3 : -0.149218156934, Q4 : 0.292014241219}
2019-04-14 15:36:26.51: SIM {TimeUS : 65935282, Roll : 0.18, Pitch : -18.03, Yaw : 34.36, Alt : 49.3400001526, Lat : 49.2838628, Lng : -123.1147067, Q1 : 0.943499624729, Q2 : 0.0478446371853, Q3 : -0.149224922061, Q4 : 0.291978299618}
2019-04-14 15:36:26.61: SIM {TimeUS : 66035242, Roll : 0.19, Pitch : -18.04, Yaw : 34.35, Alt : 49.3400001526, Lat : 49.2838664, Lng : -123.1147028, Q1 : 0.943499624729, Q2 : 0.047913916409, Q3 : -0.14930151403, Q4 : 0.291927665472}
2019-04-14 15:36:26.71: SIM {TimeUS : 66135202, Roll : 0.2, Pitch : -18.05, Yaw : 34.34, Alt : 49.3400001526, Lat : 49.2838699, Lng : -123.1146989, Q1 : 0.9434928298, Q2 : 0.0479985885322, Q3 : -0.149416103959, Q4 : 0.291877299547}
2019-04-14 15:36:26.81: SIM {TimeUS : 66235162, Roll : 0.21, Pitch : -18.07, Yaw : 34.34, Alt : 49.3400001526, Lat : 49.2838735, Lng : -123.1146952, Q1 : 0.943484842777, Q2 : 0.0481047295034, Q3 : -0.149516746402, Q4 : 0.291834115982}
2019-04-14 15:36:26.91: SIM {TimeUS : 66335122, Roll : 0.23, Pitch : -18.08, Yaw : 34.33, Alt : 49.3400001526, Lat : 49.2838769, Lng : -123.1146914, Q1 : 0.943476200104, Q2 : 0.0482919476926, Q3 : -0.149550393224, Q4 : 0.291813760996}
2019-04-14 15:36:27.01: SIM {TimeUS : 66435082, Roll : 0.26, Pitch : -18.09, Yaw : 34.33, Alt : 49.3400001526, Lat : 49.2838805, Lng : -123.1146876, Q1 : 0.943455576897, Q2 : 0.048591889441, Q3 : -0.149588122964, Q4 : 0.291811287403}
2019-04-14 15:36:27.11: SIM {TimeUS : 66535042, Roll : 0.26, Pitch : -18.09, Yaw : 34.32, Alt : 49.3400001526, Lat : 49.2838841, Lng : -123.1146838, Q1 : 0.9434633255, Q2 : 0.0486343279481, Q3 : -0.149586811662, Q4 : 0.291779845953}
2019-04-14 15:36:27.21: SIM {TimeUS : 66635002, Roll : 0.24, Pitch : -18.1, Yaw : 34.32, Alt : 49.3400001526, Lat : 49.2838877, Lng : -123.1146799, Q1 : 0.94347268343, Q2 : 0.0484784916043, Q3 : -0.149736732244, Q4 : 0.291698604822}
2019-04-14 15:36:27.31: SIM {TimeUS : 66734962, Roll : 0.22, Pitch : -18.13, Yaw : 34.31, Alt : 49.3400001526, Lat : 49.2838913, Lng : -123.1146761, Q1 : 0.943465769291, Q2 : 0.0483462065458, Q3 : -0.150005847216, Q4 : 0.2916046381}
