2019-04-14 15:48:05.50: SIM {TimeUS : 40516287, Roll : 0.0, Pitch : 0.0, Yaw : 0.0, Alt : 30.1000003815, Lat : 49.28357, Lng : -123.11502, Q1 : 1.0, Q2 : 0.0, Q3 : 0.0, Q4 : 0.0}
2019-04-14 15:48:05.61: SIM {TimeUS : 40635406, Roll : 0.0, Pitch : 0.0, Yaw : 0.0, Alt : 30.1000003815, Lat : 49.28357, Lng : -123.11502, Q1 : 1.0, Q2 : 0.0, Q3 : 0.0, Q4 : 0.0}
2019-04-14 15:48:05.71: SIM {TimeUS : 40735366, Roll : 0.0, Pitch : 0.0, Yaw : 0.0, Alt : 30.1000003815, Lat : 49.28357, Lng : -123.11502, Q1 : 1.0, Q2 : 0.0, Q3 : 0.0, Q4 : 0.0}
2019-04-14 15:48:05.81: SIM {TimeUS : 40835326, Roll : 0.0, Pitch : 0.0, Yaw : 0.0, Alt : 30.1000003815, Lat : 49.28357, Lng : -123.11502, Q1 : 1.0, Q2 : 0.0, Q3 : 0.0, Q4 : 0.0}
2019-04-14 15:48:05.91: SIM {TimeUS : 40935286, Roll : 0.0, Pitch : 0.0, Yaw : 0.0, Alt : 30.1000003815, Lat : 49.28357, Lng : -123.11502, Q1 : 1.0, Q2 : 0.0, Q3 : 0.0, Q4 : 0.0}
2019-04-14 15:48:06.01: SIM {TimeUS : 41035246, Roll : 0.0, Pitch : 0.0, Yaw : 0.0, Alt : 30.1000003815, Lat : 49.28357, Lng : -123.11502, Q1 : 1.0, Q2 : 0.0, Q3 : 0.0, Q4 : 0.0}
2019-04-14 15:48:06.11: SIM {TimeUS : 41135206, Roll : 0.0, Pitch : 0.0, Yaw : 0.0, Alt : 30.1000003815, Lat : 49.28357, Lng : -123.11502, Q1 : 1.0, Q2 : 0.0, Q3 : 0.0, Q4 : 0.0}
2019-04-14 15:48:06.21: SIM {TimeUS : 41235166, Roll : 0.0, Pitch : 0.0, Yaw : 0.0, Alt : 30.1000003815, Lat : 49.28357, Lng : -123.11502, Q1 : 1.0, Q2 : 0.0, Q3 : 0.0, Q4 : 0.0}
2019-04-14 15:48:06.31: SIM {TimeUS : 41335126, Roll : 0.0, Pitch : 0.0, Yaw : 0.0, Alt : 30.1000003815, Lat : 49.28357, Lng : -123.11502, Q1 : 1.0, Q2 : 0.0, Q3 : 0.0, Q4 : 0.0}
2019-04-14 15:48:06.41: SIM {TimeUS : 41435086, Roll : 0.0, Pitch : 0.0, Yaw : 0.0, Alt : 30.1000003815, Lat : 49.28357, Lng : -123.11502, Q1 : 1.0, Q2 : 0.0, Q3 : 0.0, Q4 : 0.0}
2019-04-14 15:48:06.51: SIM {TimeUS : 41535046, Roll : 0.0, Pitch : 0.0, Yaw : 0.0, Alt : 30.1000003815, Lat : 49.28357, Lng : -123.11502, Q1 : 1.0, Q2 : 0.0, Q3 : 0.0, Q4 : 0.0}
2019-04-14 15:48:06.61: SIM {TimeUS : 41635006, Roll : 0.0, Pitch : 0.0, Yaw : 0.0, Alt : 30.1000003815, Lat : 49.28357, Lng : -123.11502, Q1 : 1.0, Q2 : 0.0, Q3 : 0.0, Q4 : 0.0}
2019-04-14 15:48:06.71: SIM {TimeUS : 41734966, Roll : 0.0, Pitch : 0.0, Yaw : 0.0, Alt : 30.1000003815, Lat : 49.28357, Lng : -123.11502, Q1 : 1.0, Q2 : 0.0, Q3 : 0.0, Q4 : 0.0}
2019-04-14 15:48:06.81: SIM {TimeUS : 41834926, Roll : 0.0, Pitch : 0.0, Yaw : 0.0, Alt : 30.1000003815, Lat : 49.28357, Lng : -123.11502, Q1 : 1.0, Q2 : 0.0, Q3 : 0.0, Q4 : 0.0}
2019-04-14 15:48:06.91: SIM {TimeUS : 41934886, Roll : 0.0, Pitch : 0.0, Yaw : 0.0, Alt : 30.1000003815, Lat : 49.28357, Lng : -123.11502, Q1 : 1.0, Q2 : 0.0, Q3 : 0.0, Q4 : 0.0}
2019-04-14 15:48:07.01: SIM {TimeUS : 42034846, Roll : 0.0, Pitch : 0.0, Yaw : 0.0, Alt : 30.1000003815, Lat : 49.28357, Lng : -123.11502, Q1 : 1.0, Q2 : 0.0, Q3 : 0.0, Q4 : 0.0}
2019-04-14 15:48:07.11: SIM {TimeUS : 42134806, Roll : 0.0, Pitch : 0.0, Yaw : 0.0, Alt : 30.1000003815, Lat : 49.28357, Lng : -123.11502, Q1 : 1.0, Q2 : 0.0, Q3 : 0.0, Q4 : 0.0}
2019-04-14 15:48:07.21: SIM {TimeUS : 42234766, Roll : 0.0, Pitch : 0.0, Yaw : 0.0, Alt : 30.1000003815, Lat : 49.28357, Lng : -123.11502, Q1 : 1.0, Q2 : 0.0, Q3 : 0.0, Q4 : 0.0}
2019-04-14 15:48:07.31: SIM {TimeUS : 42334726, Roll : 0.0, Pitch : 0.0, Yaw : 0.0, Alt : 30.1000003815, Lat : 49.28357, Lng : -123.11502, Q1 : 1.0, Q2 : 0.0, Q3 : 0.0, Q4 : 0.0}
2019-04-14 15:48:07.41: SIM {TimeUS : 42434686, Roll : 0.0, Pitch : 0.0, Yaw : 0.0, Alt : 30.1000003815, Lat : 49.28357, Lng : -123.11502, Q1 : 1.0, Q2 : 0.0, Q3 : 0.0, Q4 : 0.0}
2019-04-14 15:48:07.51: SIM {TimeUS : 42534646, Roll : 0.0, Pitch : 0.0, Yaw : 0.0, Alt : 30.1000003815, Lat : 49.28357, Lng : -123.11502, Q1 : 1.0, Q2 : 0.0, Q3 : 0.0, Q4 : 0.0}
2019-04-14 15:48:07.62: SIM {TimeUS : 42635439, Roll : 0.0, Pitch : 0.0, Yaw : 0.0, Alt : 30.1000003815, Lat : 49.28357, Lng : -123.11502, Q1 : 1.0, Q2 : 0.0, Q3 : 0.0, Q4 : 0.0}
2019-04-14 15:48:07.71: SIM {TimeUS : 42735399, Roll : 0.0, Pitch : 0.0, Yaw : 0.0, Alt : 30.1000003815, Lat : 49.28357, Lng : -123.11502, Q1 : 1.0, Q2 : 0.0, Q3 : 0.0, Q4 : 0.0}
2019-04-14 15:48:07.81: SIM {TimeUS : 42835359, Roll : 0.0, Pitch : 0.0, Yaw : 0.0, Alt : 30.1000003815, Lat : 49.28357, Lng : -123.11502, Q1 : 1.0, Q2 : 0.0, Q3 : 0.0, Q4 : 3.50114867653e-11}
2019-04-14 15:48:07.91: SIM {TimeUS : 42935319, Roll : 0.0, Pitch : 0.0, Yaw : 360.0, Alt : 30.1000003815, Lat : 49.28357, Lng : -123.11502, Q1 : 1.0, Q2 : 0.0, Q3 : 0.0, Q4 : -1.62090429967e-08}
2019-04-14 15:48:08.01: SIM {TimeUS : 43035279, Roll : 0.0, Pitch : 0.0, Yaw : 359.99, Alt : 30.1000003815, Lat : 49.28357, Lng : -123.11502, Q1 : 1.0, Q2 : 0.0, Q3 : 0.0, Q4 : -2.03575766022e-07}
2019-04-14 15:48:08.11: SIM {TimeUS : 43135239, Roll : 0.0, Pitch : 0.0, Yaw : 359.99, Alt : 30.1000003815, Lat : 49.28357, Lng : -123.11502, Q1 : 1.0, Q2 : 0.0, Q3 : 0.0, Q4 : -3.96903146793e-07}
2019-04-14 15:48:08.21: SIM {TimeUS : 43235199, Roll : 0.0, Pitch : 0.0, Yaw : 359.99, Alt : 30.1000003815, Lat : 49.28357, Lng : -123.11502, Q1 : 1.0, Q2 : 0.0, Q3 : 0.0, Q4 : -5.82007544381e-07}
2019-04-14 15:48:08.31: SIM {TimeUS : 43335159, Roll : 0.0, Pitch : 0.0, Yaw : 359.99, Alt : 30.1000003815, Lat : 49.28357, Lng : -123.11502, Q1 : 1.0, Q2 : 0.0, Q3 : 0.0, Q4 : -7.58412738833e-07}
2019-04-14 15:48:08.41: SIM {TimeUS : 43435119, Roll : 0.0, Pitch : 0.0, Yaw : 359.99, Alt : 30.1000003815, Lat : 49.28357, Lng : -123.11502, Q1 : 1.0, Q2 : 0.0, Q3 : 0.0, Q4 : -9.47400678797e-07}
2019-04-14 15:48:08.51: SIM {TimeUS : 43535079, Roll : 0.0, Pitch : 0.0, Yaw : 359.99, Alt : 30.1000003815, Lat : 49.28357, Lng : -123.11502, Q1 : 1.0, Q2 : 0.0, Q3 : 0.0, Q4 : -1.17745162242e-06}
2019-04-14 15:48:08.61: SIM {TimeUS : 43635039, Roll : 0.0, Pitch : 0.0, Yaw : 359.99, Alt : 30.1000003815, Lat : 49.28357, Lng : -123.11502, Q1 : 1.0, Q2 : 0.0, Q3 : 0.0, Q4 : -1.37155859647e-06}
2019-04-14 15:48:08.71: SIM {TimeUS : 43734999, Roll : 0.0, Pitch : 0.0, Yaw : 359.99, Alt : 30.1200008392, Lat : 49.28357, Lng : -123.11502, Q1 : 1.0, Q2 : 0.0, Q3 : 0.0, Q4 : -1.56710098054e-06}
2019-04-14 15:48:08.81: SIM {TimeUS : 43834959, Roll : 0.0, Pitch : 0.0, Yaw : 359.99, Alt : 30.1399993896, Lat : 49.28357, Lng : -123.11502, Q1 : 1.0, Q2 : 0.0, Q3 : 0.0, Q4 : -1.80756455848e-06}
2019-04-14 15:48:08.91: SIM {TimeUS : 43934919, Roll : 0.0, Pitch : 0.0, Yaw : 359.99, Alt : 30.1800003052, Lat : 49.28357, Lng : -123.11502, Q1 : 1.0, Q2 : 0.0, Q3 : 0.0, Q4 : -2.03074614546e-06}
2019-04-14 15:48:09.01: SIM {TimeUS : 44034879, Roll : 0.0, Pitch : 0.0, Yaw : 359.99, Alt : 30.2099990845, Lat : 49.28357, Lng : -123.11502, Q1 : 1.0, Q2 : -8.27413714433e-06, Q3 : -7.33499473426e-06, Q4 : -2.29431725529e-06}
2019-04-14 15:48:09.11: SIM {TimeUS : 44134839, Roll : -0.19, Pitch : -0.17, Yaw : 359.99, Alt : 30.2700004578, Lat : 49.28357, Lng : -123.11502, Q1 : 0.999997437, Q2 : -0.00169127096888, Q3 : -0.0015088923974, Q4 : -1.5286346752e-05}
2019-04-14 15:48:09.21: SIM {TimeUS : 44234799, Roll : -0.53, Pitch : -0.45, Yaw : 359.99, Alt : 30.3899993896, Lat : 49.28357, Lng : -123.11502, Q1 : 0.999981343746, Q2 : -0.00463476078585, Q3 : -0.00397511105984, Q4 : -5.67430070078e-05}
2019-04-14 15:48:09.31: SIM {TimeUS : 44334759, Roll : -0.8, Pitch : -0.67, Yaw : 359.99, Alt : 30.5400009155, Lat : 49.28357, Lng : -123.11502, Q1 : 0.99995803833, Q2 : -0.0069896900095, Q3 : -0.00591884413734, Q4 : -0.00012773819617}
2019-04-14 15:48:09.41: SIM {TimeUS : 44434719, Roll : -0.88, Pitch : -0.77, Yaw : 359.98, Alt : 30.7000007629, Lat : 49.28357, Lng : -123.11502, Q1 : 0.999947190285, Q2 : -0.00772608723491, Q3 : -0.00677114585415, Q4 : -0.000214407744352}
2019-04-14 15:48:09.51: SIM {TimeUS : 44534679, Roll : -0.8, Pitch : -0.72, Yaw : 359.96, Alt : 30.8500003815, Lat : 49.28357, Lng : -123.1150201, Q1 : 0.999955415726, Q2 : -0.0069986237213, Q3 : -0.00633108522743, Q4 : -0.000309982249746}
2019-04-14 15:48:09.61: SIM {TimeUS : 44634639, Roll : -0.62, Pitch : -0.56, Yaw : 359.95, Alt : 31.0100002289, Lat : 49.28357, Lng : -123.1150201, Q1 : 0.999972760677, Q2 : -0.00547514716163, Q3 : -0.0049336948432, Q4 : -0.000397547613829}
2019-04-14 15:48:09.72: SIM {TimeUS : 44735432, Roll : -0.4, Pitch : -0.35, Yaw : 359.94, Alt : 31.1599998474, Lat : 49.2835701, Lng : -123.1150202, Q1 : 0.999988853931, Q2 : -0.00351885519922, Q3 : -0.00312043330632, Q4 : -0.000465847027954}
2019-04-14 15:48:09.81: SIM {TimeUS : 44835392, Roll : -0.19, Pitch : -0.16, Yaw : 359.94, Alt : 31.3199996948, Lat : 49.2835701, Lng : -123.1150203, Q1 : 0.999997437, Q2 : -0.00166490871925, Q3 : -0.00146434642375, Q4 : -0.000512139580678}
2019-04-14 15:48:09.91: SIM {TimeUS : 44935352, Roll : -0.03, Pitch : -0.03, Yaw : 359.93, Alt : 31.4899997711, Lat : 49.2835702, Lng : -123.1150204, Q1 : 0.999999821186, Q2 : -0.00026620546123, Q3 : -0.000263184221694, Q4 : -0.000540001085028}
2019-04-14 15:48:10.01: SIM {TimeUS : 45035312, Roll : 0.06, Pitch : 0.03, Yaw : 359.93, Alt : 31.6700000763, Lat : 49.2835702, Lng : -123.1150204, Q1 : 0.999999642372, Q2 : 0.000554342695978, Q3 : 0.00031372520607, Q4 : -0.000546680588741}
2019-04-14 15:48:10.11: SIM {TimeUS : 45135272, Roll : 0.1, Pitch : 0.05, Yaw : 359.93, Alt : 31.8500003815, Lat : 49.2835703, Lng : -123.1150205, Q1 : 0.999999344349, Q2 : 0.000886154943146, Q3 : 0.000453258922789, Q4 : -0.000532571459189}
2019-04-14 15:48:10.21: SIM {TimeUS : 45235232, Roll : 0.09, Pitch : 0.05, Yaw : 359.94, Alt : 32.0299987793, Lat : 49.2835703, Lng : -123.1150206, Q1 : 0.999999463558, Q2 : 0.000821937108412, Q3 : 0.000445415906142, Q4 : -0.000517087231856}
2019-04-14 15:48:10.31: SIM {TimeUS : 45335192, Roll : 0.07, Pitch : 0.05, Yaw : 359.94, Alt : 32.2200012207, Lat : 49.2835703, Lng : -123.1150206, Q1 : 0.999999523163, Q2 : 0.000684651196934, Q3 : 0.000483032636112, Q4 : -0.00050069950521}
2019-04-14 15:48:10.41: SIM {TimeUS : 45435152, Roll : 0.05, Pitch : 0.07, Yaw : 359.94, Alt : 32.4099998474, Lat : 49.2835703, Lng : -123.1150207, Q1 : 0.999999582767, Q2 : 0.00050442077918, Q3 : 0.000634904310573, Q4 : -0.000482729898067}
2019-04-14 15:48:10.51: SIM {TimeUS : 45535112, Roll : 0.06, Pitch : 0.1, Yaw : 359.94, Alt : 32.5999984741, Lat : 49.2835703, Lng : -123.1150207, Q1 : 0.999999284744, Q2 : 0.000605168694165, Q3 : 0.000937938515563, Q4 : -0.000466377969133}
2019-04-14 15:48:10.61: SIM {TimeUS : 45635072, Roll : 0.1, Pitch : 0.13, Yaw : 359.94, Alt : 32.7999992371, Lat : 49.2835703, Lng : -123.1150208, Q1 : 0.999998748302, Q2 : 0.000919685757253, Q3 : 0.00120005989447, Q4 : -0.000456527835922}
2019-04-14 15:48:10.71: SIM {TimeUS : 45735032, Roll : 0.13, Pitch : 0.16, Yaw : 359.94, Alt : 33.0, Lat : 49.2835704, Lng : -123.1150208, Q1 : 0.999998211861, Q2 : 0.00118999008555, Q3 : 0.00140262721106, Q4 : -0.000451159634395}
2019-04-14 15:48:10.81: SIM {TimeUS : 45834992, Roll : 0.15, Pitch : 0.17, Yaw : 359.94, Alt : 33.2000007629, Lat : 49.2835704, Lng : -123.1150208, Q1 : 0.999997735023, Q2 : 0.00134294503368, Q3 : 0.00156353437342, Q4 : -0.000448244129075}
2019-04-14 15:48:10.91: SIM {TimeUS : 45934952, Roll : 0.16, Pitch : 0.16, Yaw : 359.94, Alt : 33.4000015259, Lat : 49.2835704, Lng : -123.1150208, Q1 : 0.999997794628, Q2 : 0.00143756030593, Q3 : 0.00147069711238, Q4 : -0.00044413752039}
2019-04-14 15:48:11.01: SIM {TimeUS : 46034912, Roll : 0.16, Pitch : 0.13, Yaw : 359.94, Alt : 33.6100006104, Lat : 49.2835704, Lng : -123.1150209, Q1 : 0.999998152256, Q2 : 0.00145970738959, Q3 : 0.00115082028788, Q4 : -0.000458554306533}
2019-04-14 15:48:11.11: SIM {TimeUS : 46134872, Roll : 0.16, Pitch : 0.11, Yaw : 359.94, Alt : 33.8199996948, Lat : 49.2835704, Lng : -123.1150209, Q1 : 0.999998390675, Q2 : 0.001440858352, Q3 : 0.000965312123299, Q4 : -0.000468811602332}
2019-04-14 15:48:11.21: SIM {TimeUS : 46234832, Roll : 0.15, Pitch : 0.1, Yaw : 359.94, Alt : 34.0200004578, Lat : 49.2835704, Lng : -123.1150209, Q1 : 0.999998509884, Q2 : 0.00138275837526, Q3 : 0.00093513703905, Q4 : -0.000485471013235}
2019-04-14 15:48:11.31: SIM {TimeUS : 46334792, Roll : 0.15, Pitch : 0.11, Yaw : 359.94, Alt : 34.2299995422, Lat : 49.2835704, Lng : -123.1150209, Q1 : 0.999998450279, Q2 : 0.00136299547739, Q3 : 0.000989625114016, Q4 : -0.000508576515131}
2019-04-14 15:48:11.41: SIM {TimeUS : 46434752, Roll : 0.14, Pitch : 0.1, Yaw : 359.93, Alt : 34.4500007629, Lat : 49.2835704, Lng : -123.1150209, Q1 : 0.999998688698, Q2 : 0.00126150867436, Q3 : 0.000891050323844, Q4 : -0.000531865516677}
2019-04-14 15:48:11.51: SIM {TimeUS : 46534712, Roll : 0.12, Pitch : 0.08, Yaw : 359.93, Alt : 34.6599998474, Lat : 49.2835704, Lng : -123.1150208, Q1 : 0.999998986721, Q2 : 0.00108432827983, Q3 : 0.000761712144595, Q4 : -0.000556064827833}
2019-04-14 15:48:11.61: SIM {TimeUS : 46634672, Roll : 0.1, Pitch : 0.07, Yaw : 359.93, Alt : 34.8800010681, Lat : 49.2835704, Lng : -123.1150208, Q1 : 0.99999922514, Q2 : 0.000885391607881, Q3 : 0.000669362314511, Q4 : -0.000582264561672}
2019-04-14 15:48:11.71: SIM {TimeUS : 46734632, Roll : 0.07, Pitch : 0.06, Yaw : 359.93, Alt : 35.0900001526, Lat : 49.2835704, Lng : -123.1150208, Q1 : 0.999999403954, Q2 : 0.000666243955493, Q3 : 0.000580610998441, Q4 : -0.000610574963503}
2019-04-14 15:48:11.82: SIM {TimeUS : 46835425, Roll : 0.06, Pitch : 0.03, Yaw : 359.92, Alt : 35.3100013733, Lat : 49.2835704, Lng : -123.1150208, Q1 : 0.999999582767, Q2 : 0.000545974762645, Q3 : 0.000280946842395, Q4 : -0.000635845295619}
2019-04-14 15:48:11.91: SIM {TimeUS : 46935385, Roll : 0.05, Pitch : 0.0, Yaw : 359.92, Alt : 35.5299987793, Lat : 49.2835704, Lng : -123.1150208, Q1 : 0.999999701977, Q2 : 0.000447377300588, Q3 : 3.92370457121e-05, Q4 : -0.000662607897539}
2019-04-14 15:48:12.01: SIM {TimeUS : 47035345, Roll : 0.02, Pitch : 0.0, Yaw : 359.92, Alt : 35.75, Lat : 49.2835704, Lng : -123.1150208, Q1 : 0.999999761581, Q2 : 0.000211207399843, Q3 : -3.82019861718e-05, Q4 : -0.000693858310115}
2019-04-14 15:48:12.11: SIM {TimeUS : 47135305, Roll : 0.01, Pitch : 0.0, Yaw : 359.91, Alt : 35.9700012207, Lat : 49.2835704, Lng : -123.1150207, Q1 : 0.999999761581, Q2 : 0.000112501395051, Q3 : -1.74592278199e-05, Q4 : -0.000719495816156}
2019-04-14 15:48:12.21: SIM {TimeUS : 47235265, Roll : 0.01, Pitch : 0.0, Yaw : 359.91, Alt : 36.1899986267, Lat : 49.2835704, Lng : -123.1150207, Q1 : 0.999999701977, Q2 : 0.000151573723997, Q3 : -6.05782233265e-08, Q4 : -0.000741625670344}
2019-04-14 15:48:12.31: SIM {TimeUS : 47335225, Roll : 0.0, Pitch : -0.01, Yaw : 359.91, Alt : 36.4099998474, Lat : 49.2835704, Lng : -123.1150207, Q1 : 0.999999701977, Q2 : 3.98349766328e-05, Q3 : -0.000155823116074, Q4 : -0.000761870876886}
2019-04-14 15:48:12.41: SIM {TimeUS : 47435185, Roll : -0.03, Pitch : -0.05, Yaw : 359.91, Alt : 36.6300010681, Lat : 49.2835704, Lng : -123.1150207, Q1 : 0.999999523163, Q2 : -0.000268360425252, Q3 : -0.000487914367113, Q4 : -0.00078361807391}
2019-04-14 15:48:12.51: SIM {TimeUS : 47535145, Roll : -0.07, Pitch : -0.08, Yaw : 359.9, Alt : 36.8499984741, Lat : 49.2835704, Lng : -123.1150207, Q1 : 0.99999922514, Q2 : -0.000643823994324, Q3 : -0.000736823305488, Q4 : -0.000804542331025}
2019-04-14 15:48:12.61: SIM {TimeUS : 47635105, Roll : -0.11, Pitch : -0.1, Yaw : 359.9, Alt : 37.0800018311, Lat : 49.2835704, Lng : -123.1150207, Q1 : 0.999998748302, Q2 : -0.00100949266925, Q3 : -0.000923128565773, Q4 : -0.000829820288345}
2019-04-14 15:48:12.71: SIM {TimeUS : 47735065, Roll : -0.13, Pitch : -0.11, Yaw : 359.9, Alt : 37.2999992371, Lat : 49.2835704, Lng : -123.1150207, Q1 : 0.999998509884, Q2 : -0.00113780819811, Q3 : -0.000967822677922, Q4 : -0.000864428002387}
2019-04-14 15:48:12.81: SIM {TimeUS : 47835025, Roll : -0.12, Pitch : -0.09, Yaw : 359.89, Alt : 37.5299987793, Lat : 49.2835704, Lng : -123.1150206, Q1 : 0.999998688698, Q2 : -0.00107442564331, Q3 : -0.000838239036966, Q4 : -0.000899190024938}
2019-04-14 15:48:12.91: SIM {TimeUS : 47934985, Roll : -0.1, Pitch : -0.06, Yaw : 359.89, Alt : 37.75, Lat : 49.2835704, Lng : -123.1150206, Q1 : 0.999999046326, Q2 : -0.000896203098819, Q3 : -0.000534151040483, Q4 : -0.000926965149119}
2019-04-14 15:48:13.01: SIM {TimeUS : 48034945, Roll : -0.07, Pitch : -0.03, Yaw : 359.89, Alt : 37.9799995422, Lat : 49.2835704, Lng : -123.1150206, Q1 : 0.99999922514, Q2 : -0.000688107276801, Q3 : -0.000306503963657, Q4 : -0.000955946685281}
2019-04-14 15:48:13.11: SIM {TimeUS : 48134905, Roll : -0.07, Pitch : -0.03, Yaw : 359.88, Alt : 38.2099990845, Lat : 49.2835704, Lng : -123.1150206, Q1 : 0.999999284744, Q2 : -0.000627387606073, Q3 : -0.000277059763903, Q4 : -0.000987069215626}
2019-04-14 15:48:13.21: SIM {TimeUS : 48234865, Roll : -0.07, Pitch : -0.01, Yaw : 359.88, Alt : 38.4399986267, Lat : 49.2835706, Lng : -123.1150206, Q1 : 0.999999284744, Q2 : -0.000650223926641, Q3 : -0.00016142099048, Q4 : -0.00100277585443}
2019-04-14 15:48:13.31: SIM {TimeUS : 48334825, Roll : -0.09, Pitch : 0.0, Yaw : 359.88, Alt : 38.6699981689, Lat : 49.2835706, Lng : -123.1150206, Q1 : 0.999999165535, Q2 : -0.000801694812253, Q3 : -2.39819983108e-05, Q4 : -0.00100910128094}
2019-04-14 15:48:13.41: SIM {TimeUS : 48434785, Roll : -0.09, Pitch : 0.01, Yaw : 359.88, Alt : 38.8899993896, Lat : 49.2835706, Lng : -123.1150206, Q1 : 0.999999165535, Q2 : -0.00082071707584, Q3 : 8.98752114153e-05, Q4 : -0.00101211352739}
2019-04-14 15:48:13.51: SIM {TimeUS : 48534745, Roll : -0.07, Pitch : 0.03, Yaw : 359.88, Alt : 39.1199989319, Lat : 49.2835706, Lng : -123.1150206, Q1 : 0.999999165535, Q2 : -0.000697567826137, Q3 : 0.000302362372167, Q4 : -0.00101320038084}
2019-04-14 15:48:13.61: SIM {TimeUS : 48634705, Roll : -0.06, Pitch : 0.03, Yaw : 359.88, Alt : 39.3499984741, Lat : 49.2835706, Lng : -123.1150206, Q1 : 0.999999284744, Q2 : -0.000526479503606, Q3 : 0.000338281242875, Q4 : -0.00100642733742}
2019-04-14 15:48:13.71: SIM {TimeUS : 48734665, Roll : -0.03, Pitch : 0.03, Yaw : 359.88, Alt : 39.5800018311, Lat : 49.2835706, Lng : -123.1150207, Q1 : 0.999999403954, Q2 : -0.000296753656585, Q3 : 0.000347658147803, Q4 : -0.000999820185825}
2019-04-14 15:48:13.81: SIM {TimeUS : 48834625, Roll : 0.0, Pitch : 0.06, Yaw : 359.88, Alt : 39.8100013733, Lat : 49.2835706, Lng : -123.1150207, Q1 : 0.999999344349, Q2 : 4.61568051833e-05, Q3 : 0.000610480608884, Q4 : -0.000995182199404}
2019-04-14 15:48:13.92: SIM {TimeUS : 48935418, Roll : 0.05, Pitch : 0.11, Yaw : 359.88, Alt : 40.0499992371, Lat : 49.2835706, Lng : -123.1150207, Q1 : 0.999998867512, Q2 : 0.00047447392717, Q3 : 0.00103192345705, Q4 : -0.00100226060022}
2019-04-14 15:48:14.01: SIM {TimeUS : 49035378, Roll : 0.08, Pitch : 0.15, Yaw : 359.88, Alt : 40.2799987793, Lat : 49.2835706, Lng : -123.1150207, Q1 : 0.999998211861, Q2 : 0.000774449319579, Q3 : 0.0013909136178, Q4 : -0.00102035747841}
2019-04-14 15:48:14.11: SIM {TimeUS : 49135338, Roll : 0.08, Pitch : 0.19, Yaw : 359.88, Alt : 40.5099983215, Lat : 49.2835706, Lng : -123.1150207, Q1 : 0.999997794628, Q2 : 0.00070764683187, Q3 : 0.00167438131757, Q4 : -0.00102933880407}
2019-04-14 15:48:14.21: SIM {TimeUS : 49235298, Roll : 0.03, Pitch : 0.2, Yaw : 359.87, Alt : 40.7400016785, Lat : 49.2835706, Lng : -123.1150207, Q1 : 0.999997735023, Q2 : 0.000294332246995, Q3 : 0.00182391901035, Q4 : -0.00105216354132}
2019-04-14 15:48:14.31: SIM {TimeUS : 49335258, Roll : -0.01, Pitch : 0.2, Yaw : 359.87, Alt : 40.9799995422, Lat : 49.2835706, Lng : -123.1150207, Q1 : 0.999997794628, Q2 : -0.000114489426778, Q3 : 0.00180647044908, Q4 : -0.00107696757186}
2019-04-14 15:48:14.41: SIM {TimeUS : 49435218, Roll : -0.03, Pitch : 0.17, Yaw : 359.87, Alt : 41.2099990845, Lat : 49.2835706, Lng : -123.1150207, Q1 : 0.999998211861, Q2 : -0.000314988807077, Q3 : 0.00150084251072, Q4 : -0.00110150442924}
2019-04-14 15:48:14.51: SIM {TimeUS : 49535178, Roll : -0.03, Pitch : 0.12, Yaw : 359.87, Alt : 41.4399986267, Lat : 49.2835706, Lng : -123.1150207, Q1 : 0.999998688698, Q2 : -0.00034475204302, Q3 : 0.00111904775258, Q4 : -0.00113356544171}
2019-04-14 15:48:14.61: SIM {TimeUS : 49635138, Roll : -0.02, Pitch : 0.11, Yaw : 359.86, Alt : 41.6800003052, Lat : 49.2835706, Lng : -123.1150207, Q1 : 0.999998807907, Q2 : -0.000210300029721, Q3 : 0.0010058603948, Q4 : -0.00117466424126}
2019-04-14 15:48:14.71: SIM {TimeUS : 49735098, Roll : 0.01, Pitch : 0.12, Yaw : 359.86, Alt : 41.9099998474, Lat : 49.2835706, Lng : -123.1150207, Q1 : 0.999998688698, Q2 : 0.000123143967357, Q3 : 0.00107546546496, Q4 : -0.00122036645189}
2019-04-14 15:48:14.81: SIM {TimeUS : 49835058, Roll : 0.06, Pitch : 0.12, Yaw : 359.85, Alt : 42.1399993896, Lat : 49.2835706, Lng : -123.1150207, Q1 : 0.999998390675, Q2 : 0.000588535913266, Q3 : 0.00113299093209, Q4 : -0.00126425467897}
2019-04-14 15:48:14.91: SIM {TimeUS : 49935018, Roll : 0.11, Pitch : 0.11, Yaw : 359.85, Alt : 42.3800010681, Lat : 49.2835706, Lng : -123.1150207, Q1 : 0.999998152256, Q2 : 0.000964215199929, Q3 : 0.00101551227272, Q4 : -0.0013095337199}
2019-04-14 15:48:15.01: SIM {TimeUS : 50034978, Roll : 0.11, Pitch : 0.09, Yaw : 359.84, Alt : 42.6100006104, Lat : 49.2835706, Lng : -123.1150207, Q1 : 0.999998271465, Q2 : 0.00099820503965, Q3 : 0.000823120702989, Q4 : -0.00135241611861}
2019-04-14 15:48:15.11: SIM {TimeUS : 50134938, Roll : 0.07, Pitch : 0.07, Yaw : 359.84, Alt : 42.8499984741, Lat : 49.2835706, Lng : -123.1150207, Q1 : 0.999998629093, Q2 : 0.000630870403256, Q3 : 0.000648066925351, Q4 : -0.00136986630969}
2019-04-14 15:48:15.21: SIM {TimeUS : 50234898, Roll : 0.01, Pitch : 0.06, Yaw : 359.84, Alt : 43.0800018311, Lat : 49.2835706, Lng : -123.1150207, Q1 : 0.999998867512, Q2 : 0.000114586844575, Q3 : 0.000586192007177, Q4 : -0.00137930735946}
2019-04-14 15:48:15.31: SIM {TimeUS : 50334858, Roll : -0.03, Pitch : 0.07, Yaw : 359.84, Alt : 43.3199996948, Lat : 49.2835704, Lng : -123.1150207, Q1 : 0.999998807907, Q2 : -0.000261125474935, Q3 : 0.00065385637572, Q4 : -0.00139015889727}
2019-04-14 15:48:15.41: SIM {TimeUS : 50434818, Roll : -0.05, Pitch : 0.07, Yaw : 359.83, Alt : 43.5499992371, Lat : 49.2835704, Lng : -123.1150207, Q1 : 0.999998748302, Q2 : -0.000439490017015, Q3 : 0.000654146890156, Q4 : -0.00140203034971}
2019-04-14 15:48:15.51: SIM {TimeUS : 50534778, Roll : -0.04, Pitch : 0.06, Yaw : 359.83, Alt : 43.7900009155, Lat : 49.2835704, Lng : -123.1150207, Q1 : 0.999998807907, Q2 : -0.000393778434955, Q3 : 0.000544136506505, Q4 : -0.00141537643503}
2019-04-14 15:48:15.61: SIM {TimeUS : 50634738, Roll : -0.04, Pitch : 0.04, Yaw : 359.83, Alt : 44.0200004578, Lat : 49.2835704, Lng : -123.1150207, Q1 : 0.999998807907, Q2 : -0.000385971099604, Q3 : 0.000381420191843, Q4 : -0.00143688486423}
2019-04-14 15:48:15.71: SIM {TimeUS : 50734698, Roll : -0.03, Pitch : 0.02, Yaw : 359.83, Alt : 44.2599983215, Lat : 49.2835704, Lng : -123.1150207, Q1 : 0.999998867512, Q2 : -0.00032890154398, Q3 : 0.00023936846992, Q4 : -0.00146076641977}
2019-04-14 15:48:15.81: SIM {TimeUS : 50834658, Roll : -0.02, Pitch : 0.02, Yaw : 359.82, Alt : 44.5, Lat : 49.2835704, Lng : -123.1150207, Q1 : 0.999998867512, Q2 : -0.000206763084861, Q3 : 0.000205057061976, Q4 : -0.00148781575263}
2019-04-14 15:48:15.91: SIM {TimeUS : 50934618, Roll : -0.01, Pitch : 0.02, Yaw : 359.82, Alt : 44.7299995422, Lat : 49.2835704, Lng : -123.1150206, Q1 : 0.999998807907, Q2 : -0.000152004766278, Q3 : 0.000228265314945, Q4 : -0.00151351315435}
2019-04-14 15:48:16.01: SIM {TimeUS : 51035411, Roll : -0.02, Pitch : 0.01, Yaw : 359.82, Alt : 44.9700012207, Lat : 49.2835704, Lng : -123.1150206, Q1 : 0.999998807907, Q2 : -0.000196172768483, Q3 : 0.000142227087053, Q4 : -0.00154372630641}
2019-04-14 15:48:16.11: SIM {TimeUS : 51135371, Roll : -0.02, Pitch : -0.01, Yaw : 359.81, Alt : 45.2099990845, Lat : 49.2835703, Lng : -123.1150206, Q1 : 0.999998748302, Q2 : -0.000244686816586, Q3 : -0.00011431533494, Q4 : -0.00157356180716}
2019-04-14 15:48:16.21: SIM {TimeUS : 51235331, Roll : -0.03, Pitch : -0.03, Yaw : 359.81, Alt : 45.4399986267, Lat : 49.2835703, Lng : -123.1150206, Q1 : 0.999998629093, Q2 : -0.000270430347882, Q3 : -0.000303444103338, Q4 : -0.00160608789884}
2019-04-14 15:48:16.31: SIM {TimeUS : 51335291, Roll : -0.02, Pitch : -0.04, Yaw : 359.81, Alt : 45.6800003052, Lat : 49.2835703, Lng : -123.1150206, Q1 : 0.999998569489, Q2 : -0.000216398228076, Q3 : -0.000416237453464, Q4 : -0.00164257409051}
2019-04-14 15:48:16.41: SIM {TimeUS : 51435251, Roll : -0.02, Pitch : -0.05, Yaw : 359.8, Alt : 45.9099998474, Lat : 49.2835703, Lng : -123.1150206, Q1 : 0.999998450279, Q2 : -0.000215436128201, Q3 : -0.000458602677099, Q4 : -0.00168106076308}
2019-04-14 15:48:16.51: SIM {TimeUS : 51535211, Roll : -0.04, Pitch : -0.04, Yaw : 359.8, Alt : 46.1399993896, Lat : 49.2835703, Lng : -123.1150206, Q1 : 0.99999833107, Q2 : -0.000397035939386, Q3 : -0.00040807298501, Q4 : -0.00172417343128}
2019-04-14 15:48:16.61: SIM {TimeUS : 51635171, Roll : -0.08, Pitch : -0.04, Yaw : 359.79, Alt : 46.3699989319, Lat : 49.2835703, Lng : -123.1150206, Q1 : 0.999998152256, Q2 : -0.00071001163451, Q3 : -0.000360988575267, Q4 : -0.00176931568421}
2019-04-14 15:48:16.71: SIM {TimeUS : 51735131, Roll : -0.1, Pitch : -0.03, Yaw : 359.79, Alt : 46.5900001526, Lat : 49.2835703, Lng : -123.1150206, Q1 : 0.999997854233, Q2 : -0.000938904529903, Q3 : -0.000337230652804, Q4 : -0.00181040598545}
2019-04-14 15:48:16.81: SIM {TimeUS : 51835091, Roll : -0.11, Pitch : -0.02, Yaw : 359.78, Alt : 46.8100013733, Lat : 49.2835703, Lng : -123.1150206, Q1 : 0.999997794628, Q2 : -0.00101025251206, Q3 : -0.00023627790506, Q4 : -0.00184043229092}
2019-04-14 15:48:16.91: SIM {TimeUS : 51935051, Roll : -0.1, Pitch : 0.0, Yaw : 359.78, Alt : 47.0200004578, Lat : 49.2835703, Lng : -123.1150206, Q1 : 0.999997854233, Q2 : -0.000906775647309, Q3 : -4.09525309806e-05, Q4 : -0.0018605850637}
2019-04-14 15:48:17.01: SIM {TimeUS : 52035011, Roll : -0.07, Pitch : 0.0, Yaw : 359.78, Alt : 47.2200012207, Lat : 49.2835703, Lng : -123.1150206, Q1 : 0.999998033047, Q2 : -0.000684374885168, Q3 : 8.06763127912e-05, Q4 : -0.00187216000631}
2019-04-14 15:48:17.11: SIM {TimeUS : 52134971, Roll : -0.05, Pitch : 0.0, Yaw : 359.78, Alt : 47.4099998474, Lat : 49.2835703, Lng : -123.1150206, Q1 : 0.999998092651, Q2 : -0.000511524674948, Q3 : 6.44771716907e-05, Q4 : -0.00188540341333}
2019-04-14 15:48:17.21: SIM {TimeUS : 52234931, Roll : -0.05, Pitch : 0.0, Yaw : 359.78, Alt : 47.5999984741, Lat : 49.2835703, Lng : -123.1150206, Q1 : 0.999998092651, Q2 : -0.00043729817844, Q3 : -6.91962923156e-05, Q4 : -0.001898676157}
2019-04-14 15:48:17.31: SIM {TimeUS : 52334891, Roll : -0.05, Pitch : -0.04, Yaw : 359.78, Alt : 47.7700004578, Lat : 49.2835703, Lng : -123.1150206, Q1 : 0.999997973442, Q2 : -0.00048682524357, Q3 : -0.000387172651244, Q4 : -0.00191721750889}
2019-04-14 15:48:17.41: SIM {TimeUS : 52434851, Roll : -0.04, Pitch : -0.07, Yaw : 359.77, Alt : 47.9399986267, Lat : 49.2835703, Lng : -123.1150206, Q1 : 0.999997854233, Q2 : -0.000435782334534, Q3 : -0.000661991187371, Q4 : -0.00193739752285}
2019-04-14 15:48:17.51: SIM {TimeUS : 52534811, Roll : -0.04, Pitch : -0.1, Yaw : 359.77, Alt : 48.0900001526, Lat : 49.2835703, Lng : -123.1150206, Q1 : 0.999997615814, Q2 : -0.00039557000855, Q3 : -0.000882689841092, Q4 : -0.0019544812385}
2019-04-14 15:48:17.61: SIM {TimeUS : 52634771, Roll : -0.04, Pitch : -0.11, Yaw : 359.77, Alt : 48.2299995422, Lat : 49.2835703, Lng : -123.1150206, Q1 : 0.999997437, Q2 : -0.0003610617714, Q3 : -0.00103716331068, Q4 : -0.00197034841403}
2019-04-14 15:48:17.71: SIM {TimeUS : 52734731, Roll : 0.0, Pitch : -0.11, Yaw : 359.77, Alt : 48.3600006104, Lat : 49.2835703, Lng : -123.1150206, Q1 : 0.99999755621, Q2 : -5.99103877903e-05, Q3 : -0.000983256730251, Q4 : -0.00198986637406}
2019-04-14 15:48:17.81: SIM {TimeUS : 52834691, Roll : 0.03, Pitch : -0.09, Yaw : 359.76, Alt : 48.4799995422, Lat : 49.2835703, Lng : -123.1150206, Q1 : 0.999997615814, Q2 : 0.000314735050779, Q3 : -0.00079546746565, Q4 : -0.00201852805912}
2019-04-14 15:48:17.91: SIM {TimeUS : 52934651, Roll : 0.06, Pitch : -0.06, Yaw : 359.76, Alt : 48.5800018311, Lat : 49.2835703, Lng : -123.1150207, Q1 : 0.999997615814, Q2 : 0.000574709614739, Q3 : -0.000537423416972, Q4 : -0.00205132574774}
2019-04-14 15:48:18.02: SIM {TimeUS : 53035444, Roll : 0.07, Pitch : -0.03, Yaw : 359.76, Alt : 48.6699981689, Lat : 49.2835703, Lng : -123.1150207, Q1 : 0.999997615814, Q2 : 0.000613628595602, Q3 : -0.0002906928421, Q4 : -0.0020847490523}
2019-04-14 15:48:18.11: SIM {TimeUS : 53135404, Roll : 0.07, Pitch : -0.02, Yaw : 359.75, Alt : 48.75, Lat : 49.2835703, Lng : -123.1150207, Q1 : 0.99999755621, Q2 : 0.000625569722615, Q3 : -0.000197729634237, Q4 : -0.00211460306309}
2019-04-14 15:48:18.21: SIM {TimeUS : 53235364, Roll : 0.06, Pitch : -0.03, Yaw : 359.75, Alt : 48.8199996948, Lat : 49.2835703, Lng : -123.1150207, Q1 : 0.999997496605, Q2 : 0.000526256568264, Q3 : -0.000276038772427, Q4 : -0.0021448044572}
2019-04-14 15:48:18.31: SIM {TimeUS : 53335324, Roll : 0.03, Pitch : -0.03, Yaw : 359.75, Alt : 48.8800010681, Lat : 49.2835703, Lng : -123.1150207, Q1 : 0.99999755621, Q2 : 0.000317206286127, Q3 : -0.000320591934724, Q4 : -0.00217450177297}
2019-04-14 15:48:18.41: SIM {TimeUS : 53435284, Roll : 0.01, Pitch : -0.03, Yaw : 359.74, Alt : 48.9399986267, Lat : 49.2835703, Lng : -123.1150207, Q1 : 0.999997496605, Q2 : 0.000161814328749, Q3 : -0.000275643251371, Q4 : -0.00220344122499}
2019-04-14 15:48:18.51: SIM {TimeUS : 53535244, Roll : 0.01, Pitch : -0.03, Yaw : 359.74, Alt : 48.9799995422, Lat : 49.2835703, Lng : -123.1150207, Q1 : 0.999997496605, Q2 : 0.00010704795568, Q3 : -0.000263822439592, Q4 : -0.00223051430658}
2019-04-14 15:48:18.61: SIM {TimeUS : 53635204, Roll : 0.07, Pitch : -0.1, Yaw : 359.74, Alt : 49.0200004578, Lat : 49.2835704, Lng : -123.1150207, Q1 : 0.999996781349, Q2 : 0.000638789322693, Q3 : -0.000954283517785, Q4 : -0.00225443509407}
2019-04-14 15:48:18.71: SIM {TimeUS : 53735164, Roll : 0.29, Pitch : -0.37, Yaw : 359.73, Alt : 49.0499992371, Lat : 49.2835704, Lng : -123.1150207, Q1 : 0.999988794327, Q2 : 0.00256566726603, Q3 : -0.00325932004489, Q4 : -0.00227339402772}
2019-04-14 15:48:18.81: SIM {TimeUS : 53835124, Roll : 0.68, Pitch : -0.87, Yaw : 359.73, Alt : 49.0800018311, Lat : 49.2835704, Lng : -123.1150207, Q1 : 0.999950408936, Q2 : 0.00595868891105, Q3 : -0.00764465937391, Q4 : -0.00229380442761}
2019-04-14 15:48:18.91: SIM {TimeUS : 53935084, Roll : 1.19, Pitch : -1.6, Yaw : 359.71, Alt : 49.0999984741, Lat : 49.2835704, Lng : -123.1150207, Q1 : 0.999844789505, Q2 : 0.0104202507064, Q3 : -0.0140187479556, Q4 : -0.00230057979934}
2019-04-14 15:48:19.01: SIM {TimeUS : 54035044, Roll : 1.76, Pitch : -2.46, Yaw : 359.7, Alt : 49.1300010681, Lat : 49.2835704, Lng : -123.1150206, Q1 : 0.999646663666, Q2 : 0.0153848519549, Q3 : -0.0215566400439, Q4 : -0.00227488647215}
2019-04-14 15:48:19.11: SIM {TimeUS : 54135004, Roll : 2.32, Pitch : -3.34, Yaw : 359.67, Alt : 49.1399993896, Lat : 49.2835706, Lng : -123.1150206, Q1 : 0.999365150928, Q2 : 0.0202238280326, Q3 : -0.0292483624071, Q4 : -0.00219835853204}
2019-04-14 15:48:19.21: SIM {TimeUS : 54234964, Roll : 2.8, Pitch : -4.09, Yaw : 359.66, Alt : 49.1599998474, Lat : 49.2835708, Lng : -123.1150204, Q1 : 0.999060451984, Q2 : 0.0243665073067, Q3 : -0.0357816033065, Q4 : -0.00204899464734}
2019-04-14 15:48:19.31: SIM {TimeUS : 54334924, Roll : 3.17, Pitch : -4.63, Yaw : 359.66, Alt : 49.1699981689, Lat : 49.2835709, Lng : -123.1150202, Q1 : 0.998798191547, Q2 : 0.0275731887668, Q3 : -0.040479477495, Q4 : -0.00182557990775}
2019-04-14 15:48:19.41: SIM {TimeUS : 54434884, Roll : 3.44, Pitch : -5.02, Yaw : 359.66, Alt : 49.1800003052, Lat : 49.2835712, Lng : -123.11502, Q1 : 0.998588442802, Q2 : 0.0298918951303, Q3 : -0.0438761599362, Q4 : -0.00157639419194}
2019-04-14 15:48:19.51: SIM {TimeUS : 54534844, Roll : 3.65, Pitch : -5.32, Yaw : 359.68, Alt : 49.1899986267, Lat : 49.2835715, Lng : -123.1150198, Q1 : 0.998411595821, Q2 : 0.0317368172109, Q3 : -0.0465347990394, Q4 : -0.00129857007414}
2019-04-14 15:48:19.61: SIM {TimeUS : 54634804, Roll : 3.84, Pitch : -5.6, Yaw : 359.69, Alt : 49.2000007629, Lat : 49.2835718, Lng : -123.1150194, Q1 : 0.998244643211, Q2 : 0.0333464406431, Q3 : -0.0489350445569, Q4 : -0.00101585569791}
2019-04-14 15:48:19.71: SIM {TimeUS : 54734764, Roll : 4.04, Pitch : -5.91, Yaw : 359.7, Alt : 49.2099990845, Lat : 49.2835721, Lng : -123.115019, Q1 : 0.998050391674, Q2 : 0.0350719131529, Q3 : -0.0516219846904, Q4 : -0.000744127028156}
2019-04-14 15:48:19.81: SIM {TimeUS : 54834724, Roll : 4.25, Pitch : -6.24, Yaw : 359.71, Alt : 49.2200012207, Lat : 49.2835727, Lng : -123.1150185, Q1 : 0.997830629349, Q2 : 0.0369382053614, Q3 : -0.0544931180775, Q4 : -0.000475834764075}
2019-04-14 15:48:19.91: SIM {TimeUS : 54934684, Roll : 4.46, Pitch : -6.54, Yaw : 359.71, Alt : 49.2299995422, Lat : 49.2835732, Lng : -123.1150179, Q1 : 0.997614264488, Q2 : 0.0387872681022, Q3 : -0.0571072734892, Q4 : -0.00022390538652}
2019-04-14 15:48:20.01: SIM {TimeUS : 55034644, Roll : 4.62, Pitch : -6.75, Yaw : 359.72, Alt : 49.2299995422, Lat : 49.2835738, Lng : -123.1150173, Q1 : 0.997452437878, Q2 : 0.0401230230927, Q3 : -0.0589818246663, Q4 : 3.0987209243e-07}
2019-04-14 15:48:20.12: SIM {TimeUS : 55135437, Roll : 4.72, Pitch : -6.9, Yaw : 359.73, Alt : 49.2400016785, Lat : 49.2835745, Lng : -123.1150166, Q1 : 0.997339606285, Q2 : 0.0409807190299, Q3 : -0.0602856613696, Q4 : 0.00017429656873}
2019-04-14 15:48:20.21: SIM {TimeUS : 55235397, Roll : 4.77, Pitch : -7.02, Yaw : 359.73, Alt : 49.2400016785, Lat : 49.2835751, Lng : -123.1150158, Q1 : 0.997261583805, Q2 : 0.0414224229753, Q3 : -0.0612655952573, Q4 : 0.000280007778201}
2019-04-14 15:48:20.31: SIM {TimeUS : 55335357, Roll : 4.82, Pitch : -7.1, Yaw : 359.73, Alt : 49.25, Lat : 49.2835759, Lng : -123.115015, Q1 : 0.997194051743, Q2 : 0.0419072210789, Q3 : -0.0620301365852, Q4 : 0.000347482069628}
2019-04-14 15:48:20.41: SIM {TimeUS : 55435317, Roll : 4.93, Pitch : -7.19, Yaw : 359.74, Alt : 49.25, Lat : 49.2835769, Lng : -123.1150141, Q1 : 0.997105896473, Q2 : 0.0428314097226, Q3 : -0.0628108680248, Q4 : 0.000448609294835}
2019-04-14 15:48:20.51: SIM {TimeUS : 55535277, Roll : 5.27, Pitch : -7.24, Yaw : 359.92, Alt : 49.25, Lat : 49.2835777, Lng : -123.1150132, Q1 : 0.99694532156, Q2 : 0.0458547100425, Q3 : -0.0631842911243, Q4 : 0.00226637814194}
2019-04-14 15:48:20.61: SIM {TimeUS : 55635237, Roll : 5.88, Pitch : -7.26, Yaw : 0.87, Alt : 49.2599983215, Lat : 49.2835787, Lng : -123.1150122, Q1 : 0.996620357037, Q2 : 0.0516736842692, Q3 : -0.062920384109, Q4 : 0.0108946571127}
2019-04-14 15:48:20.71: SIM {TimeUS : 55735197, Roll : 6.49, Pitch : -7.45, Yaw : 3.23, Alt : 49.2599983215, Lat : 49.2835797, Lng : -123.1150111, Q1 : 0.995776772499, Q2 : 0.0583623237908, Q3 : -0.0633173435926, Q4 : 0.0318334251642}
2019-04-14 15:48:20.81: SIM {TimeUS : 55835157, Roll : 6.75, Pitch : -7.97, Yaw : 7.2, Alt : 49.2599983215, Lat : 49.2835806, Lng : -123.1150099, Q1 : 0.993616521358, Q2 : 0.0630375817418, Q3 : -0.0656027123332, Q4 : 0.0666993111372}
2019-04-14 15:48:20.91: SIM {TimeUS : 55935117, Roll : 6.4, Pitch : -8.81, Yaw : 12.66, Alt : 49.2599983215, Lat : 49.2835818, Lng : -123.1150087, Q1 : 0.98893982172, Q2 : 0.0637878701091, Q3 : -0.0700997710228, Q4 : 0.114084027708}
2019-04-14 15:48:21.01: SIM {TimeUS : 56035077, Roll : 5.16, Pitch : -9.85, Yaw : 19.3, Alt : 49.2599983215, Lat : 49.2835829, Lng : -123.1150072, Q1 : 0.980543076992, Q2 : 0.0586732551455, Q3 : -0.0770845040679, Q4 : 0.170735761523}
2019-04-14 15:48:21.11: SIM {TimeUS : 56135037, Roll : 2.93, Pitch : -10.9, Yaw : 26.48, Alt : 49.2599983215, Lat : 49.2835841, Lng : -123.1150058, Q1 : 0.968122124672, Q2 : 0.0465540066361, Q3 : -0.0866559892893, Q4 : 0.230354115367}
2019-04-14 15:48:21.21: SIM {TimeUS : 56234997, Roll : 0.06, Pitch : -11.73, Yaw : 33.4, Alt : 49.2700004578, Lat : 49.2835853, Lng : -123.1150042, Q1 : 0.952769458294, Q2 : 0.0299334470183, Q3 : -0.0977101549506, Q4 : 0.285984396935}
2019-04-14 15:48:21.31: SIM {TimeUS : 56334957, Roll : -2.81, Pitch : -12.2, Yaw : 39.34, Alt : 49.2700004578, Lat : 49.2835866, Lng : -123.1150026, Q1 : 0.936900913715, Q2 : 0.0127925388515, Q3 : -0.108316928148, Q4 : 0.332145273685}
2019-04-14 15:48:21.41: SIM {TimeUS : 56434917, Roll : -5.09, Pitch : -12.38, Yaw : 43.74, Alt : 49.2700004578, Lat : 49.2835879, Lng : -123.115001, Q1 : 0.923460900784, Q2 : -0.00088551902445, Q3 : -0.116507694125, Q4 : 0.365575164557}
2019-04-14 15:48:21.51: SIM {TimeUS : 56534877, Roll : -6.42, Pitch : -12.45, Yaw : 46.4, Alt : 49.2700004578, Lat : 49.2835895, Lng : -123.1149993, Q1 : 0.914642453194, Q2 : -0.00854266621172, Q3 : -0.121476836503, Q4 : 0.385486125946}
2019-04-14 15:48:21.61: SIM {TimeUS : 56634837, Roll : -6.76, Pitch : -12.55, Yaw : 47.41, Alt : 49.2700004578, Lat : 49.283591, Lng : -123.1149977, Q1 : 0.911126971245, Q2 : -0.00979115348309, Q3 : -0.123522244394, Q4 : 0.393057286739}
2019-04-14 15:48:21.71: SIM {TimeUS : 56734797, Roll : -6.26, Pitch : -12.81, Yaw : 47.03, Alt : 49.2700004578, Lat : 49.2835927, Lng : -123.114996, Q1 : 0.912284374237, Q2 : -0.005353549961, Q3 : -0.123814724386, Q4 : 0.390356868505}
2019-04-14 15:48:21.81: SIM {TimeUS : 56834757, Roll : -5.18, Pitch : -13.26, Yaw : 45.59, Alt : 49.2700004578, Lat : 49.2835945, Lng : -123.1149944, Q1 : 0.916810750961, Q2 : 0.00325963133946, Q3 : -0.123801000416, Q4 : 0.379632413387}
2019-04-14 15:48:21.91: SIM {TimeUS : 56934717, Roll : -3.77, Pitch : -13.86, Yaw : 43.39, Alt : 49.2700004578, Lat : 49.2835964, Lng : -123.1149926, Q1 : 0.923323392868, Q2 : 0.0141974911094, Q3 : -0.124139234424, Q4 : 0.363127827644}
2019-04-14 15:48:22.01: SIM {TimeUS : 57034677, Roll : -2.21, Pitch : -14.47, Yaw : 40.75, Alt : 49.2700004578, Lat : 49.2835983, Lng : -123.1149909, Q1 : 0.930619478226, Q2 : 0.0258846096694, Q3 : -0.124747239053, Q4 : 0.343096971512}
2019-04-14 15:48:22.11: SIM {TimeUS : 57134637, Roll : -0.66, Pitch : -14.99, Yaw : 37.97, Alt : 49.2799987793, Lat : 49.2836002, Lng : -123.1149891, Q1 : 0.937736451626, Q2 : 0.0369761884212, Q3 : -0.125253617764, Q4 : 0.321861147881}
2019-04-14 15:48:22.22: SIM {TimeUS : 57235430, Roll : 0.72, Pitch : -15.34, Yaw : 35.34, Alt : 49.2799987793, Lat : 49.2836024, Lng : -123.1149871, Q1 : 0.944000899792, Q2 : 0.0464981421828, Q3 : -0.125316783786, Q4 : 0.301655352116}
2019-04-14 15:48:22.31: SIM {TimeUS : 57335390, Roll : 1.82, Pitch : -15.51, Yaw : 33.17, Alt : 49.2799987793, Lat : 49.2836044, Lng : -123.1149852, Q1 : 0.94888740778, Q2 : 0.0536568723619, Q3 : -0.12481764704, Q4 : 0.284875690937}
2019-04-14 15:48:22.41: SIM {TimeUS : 57435350, Roll : 2.56, Pitch : -15.56, Yaw : 31.6, Alt : 49.2799987793, Lat : 49.2836067, Lng : -123.114983, Q1 : 0.952278137207, Q2 : 0.0581634193659, Q3 : -0.124203503132, Q4 : 0.272684574127}
2019-04-14 15:48:22.51: SIM {TimeUS : 57535310, Roll : 2.9, Pitch : -15.56, Yaw : 30.72, Alt : 49.2799987793, Lat : 49.2836089, Lng : -123.1149808, Q1 : 0.954183101654, Q2 : 0.0600607320666, Q3 : -0.123856425285, Q4 : 0.265682041645}
2019-04-14 15:48:22.61: SIM {TimeUS : 57635270, Roll : 2.87, Pitch : -15.56, Yaw : 30.49, Alt : 49.2799987793, Lat : 49.2836111, Lng : -123.1149785, Q1 : 0.95472073555, Q2 : 0.0595547482371, Q3 : -0.124104335904, Q4 : 0.263741880655}
2019-04-14 15:48:22.71: SIM {TimeUS : 57735230, Roll : 2.52, Pitch : -15.6, Yaw : 30.83, Alt : 49.2799987793, Lat : 49.2836135, Lng : -123.114976, Q1 : 0.954064846039, Q2 : 0.0571359656751, Q3 : -0.125050485134, Q4 : 0.266192108393}
2019-04-14 15:48:22.81: SIM {TimeUS : 57835190, Roll : 1.96, Pitch : -15.69, Yaw : 31.6, Alt : 49.2799987793, Lat : 49.2836158, Lng : -123.1149735, Q1 : 0.952420890331, Q2 : 0.0535473786294, Q3 : -0.126680910587, Q4 : 0.271991044283}
2019-04-14 15:48:22.91: SIM {TimeUS : 57935150, Roll : 1.28, Pitch : -15.82, Yaw : 32.65, Alt : 49.2799987793, Lat : 49.2836182, Lng : -123.1149709, Q1 : 0.95005095005, Q2 : 0.0493846796453, Q3 : -0.12894590199, Q4 : 0.279888093472}
2019-04-14 15:48:23.01: SIM {TimeUS : 58035110, Roll : 0.57, Pitch : -15.97, Yaw : 33.81, Alt : 49.2799987793, Lat : 49.2836206, Lng : -123.1149683, Q1 : 0.94729244709, Q2 : 0.0451729334891, Q3 : -0.131476774812, Q4 : 0.288635283709}
2019-04-14 15:48:23.11: SIM {TimeUS : 58135070, Roll : -0.09, Pitch : -16.11, Yaw : 34.93, Alt : 49.2799987793, Lat : 49.2836231, Lng : -123.1149656, Q1 : 0.944500029087, Q2 : 0.0412544161081, Q3 : -0.133965581656, Q4 : 0.297104418278}
2019-04-14 15:48:23.21: SIM {TimeUS : 58235030, Roll : -0.66, Pitch : -16.2, Yaw : 35.91, Alt : 49.2799987793, Lat : 49.2836256, Lng : -123.1149628, Q1 : 0.942025542259, Q2 : 0.0380138233304, Q3 : -0.135873168707, Q4 : 0.304436117411}
2019-04-14 15:48:23.31: SIM {TimeUS : 58334990, Roll : -1.04, Pitch : -16.25, Yaw : 36.65, Alt : 49.2799987793, Lat : 49.283628, Lng : -123.1149601, Q1 : 0.940103530884, Q2 : 0.0358615964651, Q3 : -0.137056186795, Q4 : 0.310056298971}
2019-04-14 15:48:23.41: SIM {TimeUS : 58434950, Roll : -1.26, Pitch : -16.28, Yaw : 37.12, Alt : 49.2799987793, Lat : 49.2836306, Lng : -123.1149573, Q1 : 0.938870787621, Q2 : 0.0347188338637, Q3 : -0.137698844075, Q4 : 0.313616514206}
2019-04-14 15:48:23.51: SIM {TimeUS : 58534910, Roll : -1.29, Pitch : -16.31, Yaw : 37.31, Alt : 49.2799987793, Lat : 49.2836334, Lng : -123.1149543, Q1 : 0.938326776028, Q2 : 0.0347738191485, Q3 : -0.137976661325, Q4 : 0.315112888813}
2019-04-14 15:48:23.61: SIM {TimeUS : 58634870, Roll : -1.15, Pitch : -16.32, Yaw : 37.25, Alt : 49.2799987793, Lat : 49.283636, Lng : -123.1149515, Q1 : 0.93843215704, Q2 : 0.0358912833035, Q3 : -0.137767881155, Q4 : 0.314764797688}
2019-04-14 15:48:23.71: SIM {TimeUS : 58734830, Roll : -0.91, Pitch : -16.34, Yaw : 36.98, Alt : 49.2799987793, Lat : 49.2836388, Lng : -123.1149486, Q1 : 0.939056515694, Q2 : 0.0376321822405, Q3 : -0.137302011251, Q4 : 0.312897533178}
2019-04-14 15:48:23.81: SIM {TimeUS : 58834790, Roll : -0.62, Pitch : -16.38, Yaw : 36.58, Alt : 49.2799987793, Lat : 49.2836415, Lng : -123.1149457, Q1 : 0.940002202988, Q2 : 0.0396028868854, Q3 : -0.137006759644, Q4 : 0.309929996729}
2019-04-14 15:48:23.91: SIM {TimeUS : 58934750, Roll : -0.33, Pitch : -16.45, Yaw : 36.11, Alt : 49.2799987793, Lat : 49.2836444, Lng : -123.1149427, Q1 : 0.941089689732, Q2 : 0.0416395403445, Q3 : -0.136932611465, Q4 : 0.306375145912}
2019-04-14 15:48:24.01: SIM {TimeUS : 59034710, Roll : -0.05, Pitch : -16.53, Yaw : 35.63, Alt : 49.2799987793, Lat : 49.2836472, Lng : -123.1149397, Q1 : 0.942167103291, Q2 : 0.0435543693602, Q3 : -0.137056559324, Q4 : 0.302720427513}
2019-04-14 15:48:24.11: SIM {TimeUS : 59134670, Roll : 0.17, Pitch : -16.6, Yaw : 35.19, Alt : 49.2900009155, Lat : 49.28365, Lng : -123.1149367, Q1 : 0.943146049976, Q2 : 0.0451235063374, Q3 : -0.137132018805, Q4 : 0.299389719963}
2019-04-14 15:48:24.21: SIM {TimeUS : 59234630, Roll : 0.36, Pitch : -16.64, Yaw : 34.84, Alt : 49.2900009155, Lat : 49.283653, Lng : -123.1149336, Q1 : 0.94392991066, Q2 : 0.0463438630104, Q3 : -0.137179523706, Q4 : 0.296699106693}
2019-04-14 15:48:24.32: SIM {TimeUS : 59335423, Roll : 0.48, Pitch : -16.68, Yaw : 34.59, Alt : 49.2900009155, Lat : 49.2836559, Lng : -123.1149305, Q1 : 0.944472312927, Q2 : 0.0471397377551, Q3 : -0.137273788452, Q4 : 0.294797748327}
2019-04-14 15:48:24.41: SIM {TimeUS : 59435383, Roll : 0.53, Pitch : -16.71, Yaw : 34.46, Alt : 49.2900009155, Lat : 49.2836588, Lng : -123.1149273, Q1 : 0.94475209713, Q2 : 0.0475002229214, Q3 : -0.137422174215, Q4 : 0.293772608042}
2019-04-14 15:48:24.51: SIM {TimeUS : 59535343, Roll : 0.54, Pitch : -16.74, Yaw : 34.44, Alt : 49.2900009155, Lat : 49.2836618, Lng : -123.1149242, Q1 : 0.944779157639, Q2 : 0.0476023517549, Q3 : -0.137645170093, Q4 : 0.293564558029}
2019-04-14 15:48:24.61: SIM {TimeUS : 59635303, Roll : 0.49, Pitch : -16.77, Yaw : 34.5, Alt : 49.2900009155, Lat : 49.2836647, Lng : -123.114921, Q1 : 0.944597244263, Q2 : 0.047342274338, Q3 : -0.138004809618, Q4 : 0.29402294755}
2019-04-14 15:48:24.71: SIM {TimeUS : 59735263, Roll : 0.39, Pitch : -16.79, Yaw : 34.63, Alt : 49.2900009155, Lat : 49.2836676, Lng : -123.1149177, Q1 : 0.944274365902, Q2 : 0.0467320643365, Q3 : -0.13841791451, Q4 : 0.294961750507}
2019-04-14 15:48:24.81: SIM {TimeUS : 59835223, Roll : 0.26, Pitch : -16.82, Yaw : 34.8, Alt : 49.2900009155, Lat : 49.2836707, Lng : -123.1149145, Q1 : 0.943858504295, Q2 : 0.0459558479488, Q3 : -0.138909950852, Q4 : 0.296181112528}
2019-04-14 15:48:24.91: SIM {TimeUS : 59935183, Roll : 0.14, Pitch : -16.86, Yaw : 34.98, Alt : 49.2900009155, Lat : 49.2836737, Lng : -123.1149112, Q1 : 0.943391442299, Q2 : 0.0452510304749, Q3 : -0.139522507787, Q4 : 0.297486782074}
2019-04-14 15:48:25.01: SIM {TimeUS : 60035143, Roll : 0.02, Pitch : -16.92, Yaw : 35.15, Alt : 49.2900009155, Lat : 49.2836767, Lng : -123.1149079, Q1 : 0.942939639091, Q2 : 0.0445967055857, Q3 : -0.140204668045, Q4 : 0.298694908619}
2019-04-14 15:48:25.11: SIM {TimeUS : 60135103, Roll : -0.09, Pitch : -16.96, Yaw : 35.28, Alt : 49.2900009155, Lat : 49.2836798, Lng : -123.1149045, Q1 : 0.942563414574, Q2 : 0.0439640842378, Q3 : -0.140829309821, Q4 : 0.299680769444}
2019-04-14 15:48:25.21: SIM {TimeUS : 60235063, Roll : -0.17, Pitch : -17.0, Yaw : 35.38, Alt : 49.2900009155, Lat : 49.2836829, Lng : -123.1149012, Q1 : 0.94229054451, Q2 : 0.0434688143432, Q3 : -0.141338571906, Q4 : 0.300370514393}
2019-04-14 15:48:25.31: SIM {TimeUS : 60335023, Roll : -0.23, Pitch : -17.04, Yaw : 35.43, Alt : 49.2999992371, Lat : 49.2836861, Lng : -123.1148978, Q1 : 0.942133545876, Q2 : 0.0431404523551, Q3 : -0.141763582826, Q4 : 0.300709813833}
2019-04-14 15:48:25.41: SIM {TimeUS : 60434983, Roll : -0.24, Pitch : -17.07, Yaw : 35.44, Alt : 49.2999992371, Lat : 49.2836892, Lng : -123.1148944, Q1 : 0.942077279091, Q2 : 0.0431859195232, Q3 : -0.142061501741, Q4 : 0.300738960505}
2019-04-14 15:48:25.51: SIM {TimeUS : 60534943, Roll : -0.2, Pitch : -17.1, Yaw : 35.41, Alt : 49.2999992371, Lat : 49.2836923, Lng : -123.114891, Q1 : 0.942117393017, Q2 : 0.043562207371, Q3 : -0.142216518521, Q4 : 0.300485700369}
2019-04-14 15:48:25.61: SIM {TimeUS : 60634903, Roll : -0.13, Pitch : -17.13, Yaw : 35.34, Alt : 49.2999992371, Lat : 49.2836955, Lng : -123.1148876, Q1 : 0.942232847214, Q2 : 0.0441261120141, Q3 : -0.142289012671, Q4 : 0.300006687641}
2019-04-14 15:48:25.71: SIM {TimeUS : 60734863, Roll : -0.04, Pitch : -17.16, Yaw : 35.25, Alt : 49.2999992371, Lat : 49.2836986, Lng : -123.1148842, Q1 : 0.942386806011, Q2 : 0.0447912327945, Q3 : -0.142386808991, Q4 : 0.299377560616}
2019-04-14 15:48:25.81: SIM {TimeUS : 60834823, Roll : 0.02, Pitch : -17.19, Yaw : 35.15, Alt : 49.2999992371, Lat : 49.2837018, Lng : -123.1148807, Q1 : 0.942569792271, Q2 : 0.0454004965723, Q3 : -0.142469778657, Q4 : 0.298669308424}
2019-04-14 15:48:25.91: SIM {TimeUS : 60934783, Roll : 0.08, Pitch : -17.22, Yaw : 35.06, Alt : 49.2999992371, Lat : 49.2837051, Lng : -123.1148773, Q1 : 0.94276958704, Q2 : 0.0457874499261, Q3 : -0.142565086484, Q4 : 0.297933250666}
2019-04-14 15:48:26.01: SIM {TimeUS : 61034743, Roll : 0.11, Pitch : -17.23, Yaw : 34.97, Alt : 49.2999992371, Lat : 49.2837083, Lng : -123.1148738, Q1 : 0.942973256111, Q2 : 0.0459346882999, Q3 : -0.142614811659, Q4 : 0.297241568565}
2019-04-14 15:48:26.11: SIM {TimeUS : 61134703, Roll : 0.14, Pitch : -17.24, Yaw : 34.9, Alt : 49.3100013733, Lat : 49.2837114, Lng : -123.1148703, Q1 : 0.943139612675, Q2 : 0.0461087189615, Q3 : -0.142634212971, Q4 : 0.296676844358}
2019-04-14 15:48:26.21: SIM {TimeUS : 61234663, Roll : 0.16, Pitch : -17.26, Yaw : 34.84, Alt : 49.3100013733, Lat : 49.2837147, Lng : -123.1148668, Q1 : 0.943251848221, Q2 : 0.0462726093829, Q3 : -0.142758414149, Q4 : 0.296234339476}
2019-04-14 15:48:26.31: SIM {TimeUS : 61334623, Roll : 0.19, Pitch : -17.3, Yaw : 34.8, Alt : 49.3100013733, Lat : 49.283718, Lng : -123.1148633, Q1 : 0.943285346031, Q2 : 0.0465721189976, Q3 : -0.143024578691, Q4 : 0.295952379704}
2019-04-14 15:48:26.42: SIM {TimeUS : 61435416, Roll : 0.21, Pitch : -17.36, Yaw : 34.79, Alt : 49.3100013733, Lat : 49.2837212, Lng : -123.1148597, Q1 : 0.943250596523, Q2 : 0.0468604080379, Q3 : -0.143474653363, Q4 : 0.295799612999}
2019-04-14 15:48:26.51: SIM {TimeUS : 61535376, Roll : 0.2, Pitch : -17.38, Yaw : 34.78, Alt : 49.3100013733, Lat : 49.2837245, Lng : -123.1148562, Q1 : 0.943223595619, Q2 : 0.0469065643847, Q3 : -0.143709659576, Q4 : 0.295764297247}
2019-04-14 15:48:26.61: SIM {TimeUS : 61635336, Roll : 0.19, Pitch : -17.38, Yaw : 34.79, Alt : 49.3100013733, Lat : 49.2837278, Lng : -123.1148526, Q1 : 0.943218052387, Q2 : 0.0467663109303, Q3 : -0.143683925271, Q4 : 0.295816838741}
2019-04-14 15:48:26.71: SIM {TimeUS : 61735296, Roll : 0.16, Pitch : -17.38, Yaw : 34.81, Alt : 49.3100013733, Lat : 49.2837311, Lng : -123.114849, Q1 : 0.943188428879, Q2 : 0.0465597473085, Q3 : -0.143743693829, Q4 : 0.295914679766}
2019-04-14 15:48:26.81: SIM {TimeUS : 61835256, Roll : 0.13, Pitch : -17.4, Yaw : 34.83, Alt : 49.3100013733, Lat : 49.2837344, Lng : -123.1148455, Q1 : 0.943128049374, Q2 : 0.0463514104486, Q3 : -0.144010037184, Q4 : 0.29601046443}
2019-04-14 15:48:26.91: SIM {TimeUS : 61935216, Roll : 0.11, Pitch : -17.42, Yaw : 34.84, Alt : 49.3100013733, Lat : 49.2837376, Lng : -123.1148418, Q1 : 0.943065822124, Q2 : 0.0462767146528, Q3 : -0.144278049469, Q4 : 0.296089738607}
2019-04-14 15:48:27.01: SIM {TimeUS : 62035176, Roll : 0.09, Pitch : -17.46, Yaw : 34.85, Alt : 49.3100013733, Lat : 49.2837411, Lng : -123.1148383, Q1 : 0.94300609827, Q2 : 0.0462647005916, Q3 : -0.14461864531, Q4 : 0.296115815639}
2019-04-14 15:48:27.11: SIM {TimeUS : 62135136, Roll : 0.08, Pitch : -17.49, Yaw : 34.85, Alt : 49.3100013733, Lat : 49.2837443, Lng : -123.1148347, Q1 : 0.942973554134, Q2 : 0.0462714731693, Q3 : -0.144887596369, Q4 : 0.296086937189}
2019-04-14 15:48:27.21: SIM {TimeUS : 62235096, Roll : 0.08, Pitch : -17.52, Yaw : 34.84, Alt : 49.3100013733, Lat : 49.2837477, Lng : -123.1148311, Q1 : 0.94295591116, Q2 : 0.0463309139013, Q3 : -0.145096033812, Q4 : 0.296031624079}
2019-04-14 15:48:27.31: SIM {TimeUS : 62335056, Roll : 0.09, Pitch : -17.53, Yaw : 34.83, Alt : 49.3199996948, Lat : 49.283751, Lng : -123.1148274, Q1 : 0.942966163158, Q2 : 0.0464227832854, Q3 : -0.14516402781, Q4 : 0.295951396227}
2019-04-14 15:48:27.41: SIM {TimeUS : 62435016, Roll : 0.11, Pitch : -17.54, Yaw : 34.81, Alt : 49.3199996948, Lat : 49.2837544, Lng : -123.1148238, Q1 : 0.942985117435, Q2 : 0.0465665794909, Q3 : -0.145229801536, Q4 : 0.295836091042}
2019-04-14 15:48:27.51: SIM {TimeUS : 62534976, Roll : 0.13, Pitch : -17.56, Yaw : 34.79, Alt : 49.3199996948, Lat : 49.2837577, Lng : -123.1148202, Q1 : 0.943005561829, Q2 : 0.046789009124, Q3 : -0.145346313715, Q4 : 0.295678526163}
2019-04-14 15:48:27.61: SIM {TimeUS : 62634936, Roll : 0.14, Pitch : -17.6, Yaw : 34.76, Alt : 49.3199996948, Lat : 49.2837612, Lng : -123.1148165, Q1 : 0.943022429943, Q2 : 0.0469261072576, Q3 : -0.145652085543, Q4 : 0.295452386141}
2019-04-14 15:48:27.71: SIM {TimeUS : 62734896, Roll : 0.14, Pitch : -17.64, Yaw : 34.74, Alt : 49.3199996948, Lat : 49.2837644, Lng : -123.1148129, Q1 : 0.943043172359, Q2 : 0.0469623021781, Q3 : -0.146026685834, Q4 : 0.29519546032}
2019-04-14 15:48:27.81: SIM {TimeUS : 62834856, Roll : 0.13, Pitch : -17.68, Yaw : 34.71, Alt : 49.3199996948, Lat : 49.2837679, Lng : -123.1148092, Q1 : 0.943066358566, Q2 : 0.0470112003386, Q3 : -0.146386161447, Q4 : 0.294935524464}
2019-04-14 15:48:27.91: SIM {TimeUS : 62934816, Roll : 0.15, Pitch : -17.71, Yaw : 34.68, Alt : 49.3199996948, Lat : 49.2837713, Lng : -123.1148055, Q1 : 0.943101942539, Q2 : 0.0471853651106, Q3 : -0.146532297134, Q4 : 0.29472130537}
2019-04-14 15:48:28.01: SIM {TimeUS : 63034776, Roll : 0.17, Pitch : -17.7, Yaw : 34.65, Alt : 49.3199996948, Lat : 49.2837746, Lng : -123.1148018, Q1 : 0.943159162998, Q2 : 0.0473110154271, Q3 : -0.146485954523, Q4 : 0.294540762901}
2019-04-14 15:48:28.11: SIM {TimeUS : 63134736, Roll : 0.19, Pitch : -17.68, Yaw : 34.63, Alt : 49.3199996948, Lat : 49.2837781, Lng : -123.1147982, Q1 : 0.943234741688, Q2 : 0.0473668314517, Q3 : -0.146291851997, Q4 : 0.294386297464}
2019-04-14 15:48:28.21: SIM {TimeUS : 63234696, Roll : 0.19, Pitch : -17.67, Yaw : 34.61, Alt : 49.3199996948, Lat : 49.2837816, Lng : -123.1147944, Q1 : 0.943301379681, Q2 : 0.0472841560841, Q3 : -0.146181300282, Q4 : 0.294240921736}
2019-04-14 15:48:28.31: SIM {TimeUS : 63334656, Roll : 0.18, Pitch : -17.66, Yaw : 34.6, Alt : 49.3199996948, Lat : 49.2837849, Lng : -123.1147907, Q1 : 0.94335860014, Q2 : 0.0471837371588, Q3 : -0.146103620529, Q4 : 0.294112205505}
2019-04-14 15:48:28.41: SIM {TimeUS : 63434616, Roll : 0.18, Pitch : -17.65, Yaw : 34.59, Alt : 49.3199996948, Lat : 49.2837884, Lng : -123.114787, Q1 : 0.943402469158, Q2 : 0.0471159182489, Q3 : -0.146031945944, Q4 : 0.29401794076}
2019-04-14 15:48:28.51: SIM {TimeUS : 63535409, Roll : 0.17, Pitch : -17.67, Yaw : 34.58, Alt : 49.3199996948, Lat : 49.2837919, Lng : -123.1147833, Q1 : 0.943400859833, Q2 : 0.0470970124006, Q3 : -0.146215796471, Q4 : 0.293934822083}
2019-04-14 15:48:28.61: SIM {TimeUS : 63635369, Roll : 0.16, Pitch : -17.7, Yaw : 34.57, Alt : 49.3199996948, Lat : 49.2837953, Lng : -123.1147796, Q1 : 0.943376004696, Q2 : 0.0471248291433, Q3 : -0.146516099572, Q4 : 0.293860554695}
2019-04-14 15:48:28.71: SIM {TimeUS : 63735329, Roll : 0.15, Pitch : -17.76, Yaw : 34.57, Alt : 49.3199996948, Lat : 49.2837988, Lng : -123.1147758, Q1 : 0.943324565887, Q2 : 0.0471087396145, Q3 : -0.147019416094, Q4 : 0.293776810169}
2019-04-14 15:48:28.81: SIM {TimeUS : 63835289, Roll : 0.14, Pitch : -17.81, Yaw : 34.56, Alt : 49.3300018311, Lat : 49.2838021, Lng : -123.1147721, Q1 : 0.943273067474, Q2 : 0.0471640564501, Q3 : -0.147479891777, Q4 : 0.293702542782}
2019-04-14 15:48:28.91: SIM {TimeUS : 63935249, Roll : 0.14, Pitch : -17.84, Yaw : 34.56, Alt : 49.3300018311, Lat : 49.2838056, Lng : -123.1147684, Q1 : 0.943241119385, Q2 : 0.0473109968007, Q3 : -0.147738978267, Q4 : 0.293651252985}
2019-04-14 15:48:29.01: SIM {TimeUS : 64035209, Roll : 0.15, Pitch : -17.87, Yaw : 34.55, Alt : 49.3300018311, Lat : 49.2838092, Lng : -123.1147646, Q1 : 0.943220376968, Q2 : 0.0473996400833, Q3 : -0.147969290614, Q4 : 0.293587684631}
2019-04-14 15:48:29.11: SIM {TimeUS : 64135169, Roll : 0.15, Pitch : -17.89, Yaw : 34.54, Alt : 49.3300018311, Lat : 49.2838126, Lng : -123.1147609, Q1 : 0.943219304085, Q2 : 0.047435477376, Q3 : -0.14809884131, Q4 : 0.293519884348}
2019-04-14 15:48:29.21: SIM {TimeUS : 64235129, Roll : 0.16, Pitch : -17.88, Yaw : 34.53, Alt : 49.3300018311, Lat : 49.283816, Lng : -123.1147571, Q1 : 0.943249106407, Q2 : 0.04752163589, Q3 : -0.147982627153, Q4 : 0.293469011784}
2019-04-14 15:48:29.31: SIM {TimeUS : 64335089, Roll : 0.19, Pitch : -17.88, Yaw : 34.52, Alt : 49.3300018311, Lat : 49.2838196, Lng : -123.1147533, Q1 : 0.943262934685, Q2 : 0.0477062091231, Q3 : -0.147984728217, Q4 : 0.293393462896}
2019-04-14 15:48:29.41: SIM {TimeUS : 64435049, Roll : 0.2, Pitch : -17.9, Yaw : 34.51, Alt : 49.3300018311, Lat : 49.2838231, Lng : -123.1147496, Q1 : 0.94326788187, Q2 : 0.0478197857738, Q3 : -0.148122698069, Q4 : 0.293289393187}
2019-04-14 15:48:29.51: SIM {TimeUS : 64535009, Roll : 0.2, Pitch : -17.91, Yaw : 34.49, Alt : 49.3300018311, Lat : 49.2838266, Lng : -123.1147458, Q1 : 0.943285346031, Q2 : 0.0478702113032, Q3 : -0.148215293884, Q4 : 0.293178319931}
2019-04-14 15:48:29.61: SIM {TimeUS : 64634969, Roll : 0.2, Pitch : -17.91, Yaw : 34.48, Alt : 49.3300018311, Lat : 49.28383, Lng : -123.114742, Q1 : 0.943327605724, Q2 : 0.0478716157377, Q3 : -0.148169353604, Q4 : 0.293065130711}
2019-04-14 15:48:29.71: SIM {TimeUS : 64734929, Roll : 0.2, Pitch : -17.91, Yaw : 34.46, Alt : 49.3300018311, Lat : 49.2838336, Lng : -123.1147383, Q1 : 0.943368792534, Q2 : 0.0478135757148, Q3 : -0.148169845343, Q4 : 0.292941808701}
2019-04-14 15:48:29.81: SIM {TimeUS : 64834889, Roll : 0.18, Pitch : -17.92, Yaw : 34.45, Alt : 49.3300018311, Lat : 49.2838371, Lng : -123.1147345, Q1 : 0.943392753601, Q2 : 0.0476636476815, Q3 : -0.148358166218, Q4 : 0.292793720961}
2019-04-14 15:48:29.91: SIM {TimeUS : 64934849, Roll : 0.15, Pitch : -17.96, Yaw : 34.44, Alt : 49.3300018311, Lat : 49.2838406, Lng : -123.1147307, Q1 : 0.943393528461, Q2 : 0.0474798865616, Q3 : -0.14874380827, Q4 : 0.292625278234}
2019-04-14 15:48:30.01: SIM {TimeUS : 65034809, Roll : 0.14, Pitch : -17.97, Yaw : 34.42, Alt : 49.3300018311, Lat : 49.283844, Lng : -123.1147269, Q1 : 0.943424761295, Q2 : 0.0473898425698, Q3 : -0.148821160197, Q4 : 0.292499989271}
2019-04-14 15:48:30.11: SIM {TimeUS : 65134769, Roll : 0.15, Pitch : -17.95, Yaw : 34.41, Alt : 49.3300018311, Lat : 49.2838475, Lng : -123.1147231, Q1 : 0.943468570709, Q2 : 0.0474423393607, Q3 : -0.148689582944, Q4 : 0.292416989803}
2019-04-14 15:48:30.21: SIM {TimeUS : 65234729, Roll : 0.17, Pitch : -17.94, Yaw : 34.4, Alt : 49.3300018311, Lat : 49.2838511, Lng : -123.1147193, Q1 : 0.943505585194, Q2 : 0.0475915148854, Q3 : -0.148534417152, Q4 : 0.29235213995}
2019-04-14 15:48:30.31: SIM {TimeUS : 65334689, Roll : 0.19, Pitch : -17.95, Yaw : 34.39, Alt : 49.3400001526, Lat : 49.2838547, Lng : -123.1147155, Q1 : 0.943519890308, Q2 : 0.0477239117026, Q3 : -0.148557960987, Q4 : 0.292272418737}
2019-04-14 15:48:30.41: SIM {TimeUS : 65434649, Roll : 0.18, Pitch : -17.97, Yaw : 34.38, Alt : 49.3400001526, Lat : 49.2838582, Lng : -123.1147117, Q1 : 0.943515479565, Q2 : 0.0477329976857, Q3 : -0.148774296045, Q4 : 0.292175203562}
2019-04-14 15:48:30.52: SIM {TimeUS : 65535442, Roll : 0.16, Pitch : -18.0, Yaw : 34.37, Alt : 49.3400001526, Lat : 49.2838617, Lng : -123.1147079, Q1 : 0.943516135216, Q2 : 0.0475733950734, Q3 : -0.149055078626, Q4 : 0.292055994272}
2019-04-14 15:48:30.61: SIM {TimeUS : 65635402, Roll : 0.14, Pitch : -18.02, Yaw : 34.36, Alt : 49.3400001526, Lat : 49.2838652, Lng : -123.114704, Q1 : 0.943520903587, Q2 : 0.0474686697125, Q3 : -0.149266928434, Q4 : 0.291949361563}
2019-04-14 15:48:30.71: SIM {TimeUS : 65735362, Roll : 0.14, Pitch : -18.04, Yaw : 34.35, Alt : 49.3400001526, Lat : 49.2838688, Lng : -123.1147002, Q1 : 0.943520843983, Q2 : 0.0475297346711, Q3 : -0.149427205324, Q4 : 0.29185757041}
2019-04-14 15:48:30.81: SIM {TimeUS : 65835322, Roll : 0.15, Pitch : -18.05, Yaw : 34.34, Alt : 49.3400001526, Lat : 49.2838724, Lng : -123.1146964, Q1 : 0.943521618843, Q2 : 0.0476461797953, Q3 : -0.149534076452, Q4 : 0.291781336069}
2019-04-14 15:48:30.91: SIM {TimeUS : 65935282, Roll : 0.18, Pitch : -18.06, Yaw : 34.33, Alt : 49.3400001526, Lat : 49.2838759, Lng : -123.1146926, Q1 : 0.943523049355, Q2 : 0.0478576049209, Q3 : -0.149539574981, Q4 : 0.291739374399}
2019-04-14 15:48:31.01: SIM {TimeUS : 66035242, Roll : 0.19, Pitch : -18.07, Yaw : 34.32, Alt : 49.3400001526, Lat : 49.2838795, Lng : -123.1146888, Q1 : 0.94351786375, Q2 : 0.0479878336191, Q3 : -0.149620994925, Q4 : 0.291692942381}
2019-04-14 15:48:31.11: SIM {TimeUS : 66135202, Roll : 0.2, Pitch : -18.09, Yaw : 34.32, Alt : 49.3400001526, Lat : 49.2838831, Lng : -123.114685, Q1 : 0.943505167961, Q2 : 0.048129953444, Q3 : -0.149740025401, Q4 : 0.291649520397}
2019-04-14 15:48:31.21: SIM {TimeUS : 66235162, Roll : 0.22, Pitch : -18.11, Yaw : 34.31, Alt : 49.3400001526, Lat : 49.2838865, Lng : -123.1146811, Q1 : 0.943492352962, Q2 : 0.0483056232333, Q3 : -0.149828866124, Q4 : 0.291616290808}
2019-04-14 15:48:31.31: SIM {TimeUS : 66335122, Roll : 0.25, Pitch : -18.12, Yaw : 34.3, Alt : 49.3400001526, Lat : 49.2838901, Lng : -123.1146773, Q1 : 0.943481147289, Q2 : 0.0485676079988, Q3 : -0.149829342961, Q4 : 0.291608899832}
2019-04-14 15:48:31.41: SIM {TimeUS : 66435082, Roll : 0.28, Pitch : -18.13, Yaw : 34.3, Alt : 49.3400001526, Lat : 49.2838937, Lng : -123.1146735, Q1 : 0.943466544151, Q2 : 0.0488494373858, Q3 : -0.149826481938, Q4 : 0.291610479355}
