2019-04-14 15:38:16.00: SIM {TimeUS : 40816167, Roll : 0.0, Pitch : 0.0, Yaw : 0.0, Alt : 30.1000003815, Lat : 49.28357, Lng : -123.11502, Q1 : 1.0, Q2 : 0.0, Q3 : 0.0, Q4 : 0.0}
2019-04-14 15:38:16.11: SIM {TimeUS : 40935286, Roll : 0.0, Pitch : 0.0, Yaw : 0.0, Alt : 30.1000003815, Lat : 49.28357, Lng : -123.11502, Q1 : 1.0, Q2 : 0.0, Q3 : 0.0, Q4 : 0.0}
2019-04-14 15:38:16.21: SIM {TimeUS : 41035246, Roll : 0.0, Pitch : 0.0, Yaw : 0.0, Alt : 30.1000003815, Lat : 49.28357, Lng : -123.11502, Q1 : 1.0, Q2 : 0.0, Q3 : 0.0, Q4 : 0.0}
2019-04-14 15:38:16.31: SIM {TimeUS : 41135206, Roll : 0.0, Pitch : 0.0, Yaw : 0.0, Alt : 30.1000003815, Lat : 49.28357, Lng : -123.11502, Q1 : 1.0, Q2 : 0.0, Q3 : 0.0, Q4 : 0.0}
2019-04-14 15:38:16.41: SIM {TimeUS : 41235166, Roll : 0.0, Pitch : 0.0, Yaw : 0.0, Alt : 30.1000003815, Lat : 49.28357, Lng : -123.11502, Q1 : 1.0, Q2 : 0.0, Q3 : 0.0, Q4 : 0.0}
2019-04-14 15:38:16.51: SIM {TimeUS : 41335126, Roll : 0.0, Pitch : 0.0, Yaw : 0.0, Alt : 30.1000003815, Lat : 49.28357, Lng : -123.11502, Q1 : 1.0, Q2 : 0.0, Q3 : 0.0, Q4 : 0.0}
2019-04-14 15:38:16.61: SIM {TimeUS : 41435086, Roll : 0.0, Pitch : 0.0, Yaw : 0.0, Alt : 30.1000003815, Lat : 49.28357, Lng : -123.11502, Q1 : 1.0, Q2 : 0.0, Q3 : 0.0, Q4 : 0.0}
2019-04-14 15:38:16.71: SIM {TimeUS : 41535046, Roll : 0.0, Pitch : 0.0, Yaw : 0.0, Alt : 30.1000003815, Lat : 49.28357, Lng : -123.11502, Q1 : 1.0, Q2 : 0.0, Q3 : 0.0, Q4 : 0.0}
2019-04-14 15:38:16.81: SIM {TimeUS : 41635006, Roll : 0.0, Pitch : 0.0, Yaw : 0.0, Alt : 30.1000003815, Lat : 49.28357, Lng : -123.11502, Q1 : 1.0, Q2 : 0.0, Q3 : 0.0, Q4 : 0.0}
2019-04-14 15:38:16.91: SIM {TimeUS : 41734966, Roll : 0.0, Pitch : 0.0, Yaw : 0.0, Alt : 30.1000003815, Lat : 49.28357, Lng : -123.11502, Q1 : 1.0, Q2 : 0.0, Q3 : 0.0, Q4 : 0.0}
2019-04-14 15:38:17.01: SIM {TimeUS : 41834926, Roll : 0.0, Pitch : 0.0, Yaw : 0.0, Alt : 30.1000003815, Lat : 49.28357, Lng : -123.11502, Q1 : 1.0, Q2 : 0.0, Q3 : 0.0, Q4 : 0.0}
2019-04-14 15:38:17.11: SIM {TimeUS : 41934886, Roll : 0.0, Pitch : 0.0, Yaw : 0.0, Alt : 30.1000003815, Lat : 49.28357, Lng : -123.11502, Q1 : 1.0, Q2 : 0.0, Q3 : 0.0, Q4 : 0.0}
2019-04-14 15:38:17.21: SIM {TimeUS : 42034846, Roll : 0.0, Pitch : 0.0, Yaw : 0.0, Alt : 30.1000003815, Lat : 49.28357, Lng : -123.11502, Q1 : 1.0, Q2 : 0.0, Q3 : 0.0, Q4 : 0.0}
2019-04-14 15:38:17.31: SIM {TimeUS : 42134806, Roll : 0.0, Pitch : 0.0, Yaw : 0.0, Alt : 30.1000003815, Lat : 49.28357, Lng : -123.11502, Q1 : 1.0, Q2 : 0.0, Q3 : 0.0, Q4 : 0.0}
2019-04-14 15:38:17.41: SIM {TimeUS : 42234766, Roll : 0.0, Pitch : 0.0, Yaw : 0.0, Alt : 30.1000003815, Lat : 49.28357, Lng : -123.11502, Q1 : 1.0, Q2 : 0.0, Q3 : 0.0, Q4 : 0.0}
2019-04-14 15:38:17.51: SIM {TimeUS : 42334726, Roll : 0.0, Pitch : 0.0, Yaw : 0.0, Alt : 30.1000003815, Lat : 49.28357, Lng : -123.11502, Q1 : 1.0, Q2 : 0.0, Q3 : 0.0, Q4 : 0.0}
2019-04-14 15:38:17.61: SIM {TimeUS : 42434686, Roll : 0.0, Pitch : 0.0, Yaw : 0.0, Alt : 30.1000003815, Lat : 49.28357, Lng : -123.11502, Q1 : 1.0, Q2 : 0.0, Q3 : 0.0, Q4 : 0.0}
2019-04-14 15:38:17.71: SIM {TimeUS : 42534646, Roll : 0.0, Pitch : 0.0, Yaw : 0.0, Alt : 30.1000003815, Lat : 49.28357, Lng : -123.11502, Q1 : 1.0, Q2 : 0.0, Q3 : 0.0, Q4 : 0.0}
2019-04-14 15:38:17.81: SIM {TimeUS : 42634606, Roll : 0.0, Pitch : 0.0, Yaw : 0.0, Alt : 30.1000003815, Lat : 49.28357, Lng : -123.11502, Q1 : 1.0, Q2 : 0.0, Q3 : 0.0, Q4 : 0.0}
2019-04-14 15:38:17.91: SIM {TimeUS : 42734566, Roll : 0.0, Pitch : 0.0, Yaw : 0.0, Alt : 30.1000003815, Lat : 49.28357, Lng : -123.11502, Q1 : 1.0, Q2 : 0.0, Q3 : 0.0, Q4 : 0.0}
2019-04-14 15:38:18.01: SIM {TimeUS : 42834526, Roll : 0.0, Pitch : 0.0, Yaw : 0.0, Alt : 30.1000003815, Lat : 49.28357, Lng : -123.11502, Q1 : 1.0, Q2 : 0.0, Q3 : 0.0, Q4 : 0.0}
2019-04-14 15:38:18.11: SIM {TimeUS : 42935319, Roll : 0.0, Pitch : 0.0, Yaw : 0.0, Alt : 30.1000003815, Lat : 49.28357, Lng : -123.11502, Q1 : 1.0, Q2 : 0.0, Q3 : 0.0, Q4 : 0.0}
2019-04-14 15:38:18.21: SIM {TimeUS : 43035279, Roll : 0.0, Pitch : 0.0, Yaw : 0.0, Alt : 30.1000003815, Lat : 49.28357, Lng : -123.11502, Q1 : 1.0, Q2 : 0.0, Q3 : 0.0, Q4 : 0.0}
2019-04-14 15:38:18.31: SIM {TimeUS : 43135239, Roll : 0.0, Pitch : 0.0, Yaw : 360.0, Alt : 30.1000003815, Lat : 49.28357, Lng : -123.11502, Q1 : 1.0, Q2 : 0.0, Q3 : 0.0, Q4 : -7.72072423355e-12}
2019-04-14 15:38:18.41: SIM {TimeUS : 43235199, Roll : 0.0, Pitch : 0.0, Yaw : 0.0, Alt : 30.1000003815, Lat : 49.28357, Lng : -123.11502, Q1 : 1.0, Q2 : 0.0, Q3 : 0.0, Q4 : 1.57185098271e-11}
2019-04-14 15:38:18.51: SIM {TimeUS : 43335159, Roll : 0.0, Pitch : 0.0, Yaw : 360.0, Alt : 30.1000003815, Lat : 49.28357, Lng : -123.11502, Q1 : 1.0, Q2 : 0.0, Q3 : 0.0, Q4 : -1.209450744e-07}
2019-04-14 15:38:18.61: SIM {TimeUS : 43435119, Roll : 0.0, Pitch : 0.0, Yaw : 359.99, Alt : 30.1000003815, Lat : 49.28357, Lng : -123.11502, Q1 : 1.0, Q2 : 0.0, Q3 : 0.0, Q4 : -2.95967709008e-07}
2019-04-14 15:38:18.71: SIM {TimeUS : 43535079, Roll : 0.0, Pitch : 0.0, Yaw : 359.99, Alt : 30.1000003815, Lat : 49.28357, Lng : -123.11502, Q1 : 1.0, Q2 : 0.0, Q3 : 0.0, Q4 : -4.75959325286e-07}
2019-04-14 15:38:18.81: SIM {TimeUS : 43635039, Roll : 0.0, Pitch : 0.0, Yaw : 359.99, Alt : 30.1000003815, Lat : 49.28357, Lng : -123.11502, Q1 : 1.0, Q2 : 0.0, Q3 : 0.0, Q4 : -6.53791516925e-07}
2019-04-14 15:38:18.91: SIM {TimeUS : 43734999, Roll : 0.0, Pitch : 0.0, Yaw : 359.99, Alt : 30.1000003815, Lat : 49.28357, Lng : -123.11502, Q1 : 1.0, Q2 : 0.0, Q3 : 0.0, Q4 : -8.26799976039e-07}
2019-04-14 15:38:19.01: SIM {TimeUS : 43834959, Roll : 0.0, Pitch : 0.0, Yaw : 359.99, Alt : 30.1000003815, Lat : 49.28357, Lng : -123.11502, Q1 : 1.0, Q2 : 0.0, Q3 : 0.0, Q4 : -1.03532647699e-06}
2019-04-14 15:38:19.11: SIM {TimeUS : 43934919, Roll : 0.0, Pitch : 0.0, Yaw : 359.99, Alt : 30.1000003815, Lat : 49.28357, Lng : -123.11502, Q1 : 1.0, Q2 : 0.0, Q3 : 0.0, Q4 : -1.24457619677e-06}
2019-04-14 15:38:19.21: SIM {TimeUS : 44034879, Roll : 0.0, Pitch : 0.0, Yaw : 359.99, Alt : 30.1100006104, Lat : 49.28357, Lng : -123.11502, Q1 : 1.0, Q2 : 0.0, Q3 : 0.0, Q4 : -1.46835543546e-06}
2019-04-14 15:38:19.31: SIM {TimeUS : 44134839, Roll : 0.0, Pitch : 0.0, Yaw : 359.99, Alt : 30.1299991608, Lat : 49.28357, Lng : -123.11502, Q1 : 1.0, Q2 : 0.0, Q3 : 0.0, Q4 : -1.64238485922e-06}
2019-04-14 15:38:19.41: SIM {TimeUS : 44234799, Roll : 0.0, Pitch : 0.0, Yaw : 359.99, Alt : 30.1599998474, Lat : 49.28357, Lng : -123.11502, Q1 : 1.0, Q2 : 0.0, Q3 : 0.0, Q4 : -1.86116869827e-06}
2019-04-14 15:38:19.51: SIM {TimeUS : 44334759, Roll : 0.0, Pitch : 0.0, Yaw : 359.99, Alt : 30.1900005341, Lat : 49.28357, Lng : -123.11502, Q1 : 1.0, Q2 : 0.0, Q3 : 0.0, Q4 : -1.99257829081e-06}
2019-04-14 15:38:19.61: SIM {TimeUS : 44434719, Roll : -0.03, Pitch : -0.03, Yaw : 359.99, Alt : 30.2299995422, Lat : 49.28357, Lng : -123.11502, Q1 : 0.999999940395, Q2 : -0.000305454916088, Q3 : -0.000291094562272, Q4 : -3.28012379214e-06}
2019-04-14 15:38:19.71: SIM {TimeUS : 44534679, Roll : -0.29, Pitch : -0.23, Yaw : 359.99, Alt : 30.3099994659, Lat : 49.28357, Lng : -123.11502, Q1 : 0.999994516373, Q2 : -0.00255654985085, Q3 : -0.00209379312582, Q4 : -2.18311834033e-05}
2019-04-14 15:38:19.81: SIM {TimeUS : 44634639, Roll : -0.61, Pitch : -0.48, Yaw : 359.99, Alt : 30.4400005341, Lat : 49.28357, Lng : -123.11502, Q1 : 0.999976396561, Q2 : -0.00538750225678, Q3 : -0.00426846370101, Q4 : -6.88417057972e-05}
2019-04-14 15:38:19.91: SIM {TimeUS : 44734599, Roll : -0.82, Pitch : -0.66, Yaw : 359.98, Alt : 30.6000003815, Lat : 49.28357, Lng : -123.11502, Q1 : 0.999957382679, Q2 : -0.00717776408419, Q3 : -0.00580573501065, Q4 : -0.000139886746183}
2019-04-14 15:38:20.01: SIM {TimeUS : 44834559, Roll : -0.85, Pitch : -0.71, Yaw : 359.98, Alt : 30.7600002289, Lat : 49.28357, Lng : -123.11502, Q1 : 0.999952673912, Q2 : -0.00744512258098, Q3 : -0.0062568904832, Q4 : -0.000221176058403}
2019-04-14 15:38:20.11: SIM {TimeUS : 44934519, Roll : -0.73, Pitch : -0.64, Yaw : 359.96, Alt : 30.9099998474, Lat : 49.28357, Lng : -123.1150201, Q1 : 0.999963641167, Q2 : -0.00638605607674, Q3 : -0.00564218545333, Q4 : -0.000307289854391}
2019-04-14 15:38:20.21: SIM {TimeUS : 45035312, Roll : -0.5, Pitch : -0.49, Yaw : 359.95, Alt : 31.0699996948, Lat : 49.2835701, Lng : -123.1150201, Q1 : 0.999980866909, Q2 : -0.00445171119645, Q3 : -0.00427784025669, Q4 : -0.000382766680559}
2019-04-14 15:38:20.31: SIM {TimeUS : 45135272, Roll : -0.26, Pitch : -0.3, Yaw : 359.95, Alt : 31.2199993134, Lat : 49.2835701, Lng : -123.1150202, Q1 : 0.999993681908, Q2 : -0.00234741601162, Q3 : -0.00262341159396, Q4 : -0.000439647439634}
2019-04-14 15:38:20.41: SIM {TimeUS : 45235232, Roll : -0.07, Pitch : -0.11, Yaw : 359.94, Alt : 31.3899993896, Lat : 49.2835702, Lng : -123.1150203, Q1 : 0.999999165535, Q2 : -0.000634063791949, Q3 : -0.000998461153358, Q4 : -0.000480136397528}
2019-04-14 15:38:20.51: SIM {TimeUS : 45335192, Roll : 0.04, Pitch : 0.02, Yaw : 359.94, Alt : 31.5599994659, Lat : 49.2835702, Lng : -123.1150204, Q1 : 0.999999761581, Q2 : 0.000372630485799, Q3 : 0.000223500159336, Q4 : -0.000508081051521}
2019-04-14 15:38:20.61: SIM {TimeUS : 45435152, Roll : 0.07, Pitch : 0.1, Yaw : 359.94, Alt : 31.7399997711, Lat : 49.2835702, Lng : -123.1150204, Q1 : 0.99999922514, Q2 : 0.000670167908538, Q3 : 0.000930100679398, Q4 : -0.000524040136952}
2019-04-14 15:38:20.71: SIM {TimeUS : 45535112, Roll : 0.08, Pitch : 0.14, Yaw : 359.94, Alt : 31.9200000763, Lat : 49.2835703, Lng : -123.1150205, Q1 : 0.999998748302, Q2 : 0.000771933002397, Q3 : 0.00125415262301, Q4 : -0.000520267232787}
2019-04-14 15:38:20.81: SIM {TimeUS : 45635072, Roll : 0.09, Pitch : 0.13, Yaw : 359.94, Alt : 32.0999984741, Lat : 49.2835703, Lng : -123.1150205, Q1 : 0.999998867512, Q2 : 0.000817022344563, Q3 : 0.00119716871995, Q4 : -0.000493806786835}
2019-04-14 15:38:20.91: SIM {TimeUS : 45735032, Roll : 0.09, Pitch : 0.12, Yaw : 359.94, Alt : 32.2900009155, Lat : 49.2835703, Lng : -123.1150206, Q1 : 0.999998986721, Q2 : 0.000793323968537, Q3 : 0.0010840119794, Q4 : -0.000463500386104}
2019-04-14 15:38:21.01: SIM {TimeUS : 45834992, Roll : 0.07, Pitch : 0.11, Yaw : 359.95, Alt : 32.4900016785, Lat : 49.2835703, Lng : -123.1150206, Q1 : 0.999999165535, Q2 : 0.000697574345395, Q3 : 0.000993567868136, Q4 : -0.000432182452641}
2019-04-14 15:38:21.11: SIM {TimeUS : 45934952, Roll : 0.08, Pitch : 0.09, Yaw : 359.95, Alt : 32.6800003052, Lat : 49.2835703, Lng : -123.1150207, Q1 : 0.999999344349, Q2 : 0.000719940522686, Q3 : 0.000794670893811, Q4 : -0.000409506872529}
2019-04-14 15:38:21.21: SIM {TimeUS : 46034912, Roll : 0.09, Pitch : 0.07, Yaw : 359.95, Alt : 32.8800010681, Lat : 49.2835703, Lng : -123.1150207, Q1 : 0.999999403954, Q2 : 0.000830354925711, Q3 : 0.000620602164418, Q4 : -0.000391931767808}
2019-04-14 15:38:21.31: SIM {TimeUS : 46134872, Roll : 0.1, Pitch : 0.08, Yaw : 359.95, Alt : 33.0800018311, Lat : 49.2835704, Lng : -123.1150207, Q1 : 0.99999922514, Q2 : 0.00093830039259, Q3 : 0.000743866432458, Q4 : -0.000379636418074}
2019-04-14 15:38:21.41: SIM {TimeUS : 46234832, Roll : 0.12, Pitch : 0.1, Yaw : 359.95, Alt : 33.2799987793, Lat : 49.2835704, Lng : -123.1150207, Q1 : 0.999998986721, Q2 : 0.00105421815533, Q3 : 0.000917334691621, Q4 : -0.000369980552932}
2019-04-14 15:38:21.51: SIM {TimeUS : 46334792, Roll : 0.13, Pitch : 0.12, Yaw : 359.95, Alt : 33.4900016785, Lat : 49.2835704, Lng : -123.1150208, Q1 : 0.999998569489, Q2 : 0.00121124100406, Q3 : 0.00113046984188, Q4 : -0.000370249676052}
2019-04-14 15:38:21.61: SIM {TimeUS : 46434752, Roll : 0.15, Pitch : 0.14, Yaw : 359.95, Alt : 33.6899986267, Lat : 49.2835704, Lng : -123.1150208, Q1 : 0.999998271465, Q2 : 0.00131355924532, Q3 : 0.00125489407219, Q4 : -0.000375410250854}
2019-04-14 15:38:21.71: SIM {TimeUS : 46534712, Roll : 0.14, Pitch : 0.13, Yaw : 359.95, Alt : 33.9000015259, Lat : 49.2835704, Lng : -123.1150208, Q1 : 0.99999833107, Q2 : 0.00129784236196, Q3 : 0.0012168578105, Q4 : -0.000391910027247}
2019-04-14 15:38:21.81: SIM {TimeUS : 46634672, Roll : 0.14, Pitch : 0.13, Yaw : 359.95, Alt : 34.1100006104, Lat : 49.2835704, Lng : -123.1150208, Q1 : 0.999998509884, Q2 : 0.00122800318059, Q3 : 0.00114875112195, Q4 : -0.000418089999584}
2019-04-14 15:38:21.91: SIM {TimeUS : 46734632, Roll : 0.12, Pitch : 0.12, Yaw : 359.94, Alt : 34.3199996948, Lat : 49.2835704, Lng : -123.1150208, Q1 : 0.999998688698, Q2 : 0.00108389288653, Q3 : 0.0010848211823, Q4 : -0.000454532651929}
2019-04-14 15:38:22.01: SIM {TimeUS : 46834592, Roll : 0.1, Pitch : 0.08, Yaw : 359.94, Alt : 34.5400009155, Lat : 49.2835704, Lng : -123.1150208, Q1 : 0.999999165535, Q2 : 0.000948625383899, Q3 : 0.000780877948273, Q4 : -0.00050797133008}
2019-04-14 15:38:22.11: SIM {TimeUS : 46934552, Roll : 0.09, Pitch : 0.05, Yaw : 359.93, Alt : 34.75, Lat : 49.2835704, Lng : -123.1150208, Q1 : 0.999999403954, Q2 : 0.00078817771282, Q3 : 0.000504987954628, Q4 : -0.000571687356569}
2019-04-14 15:38:22.21: SIM {TimeUS : 47034512, Roll : 0.06, Pitch : 0.04, Yaw : 359.92, Alt : 34.9599990845, Lat : 49.2835704, Lng : -123.1150207, Q1 : 0.999999582767, Q2 : 0.000556342420168, Q3 : 0.000370689609554, Q4 : -0.000633746152744}
2019-04-14 15:38:22.31: SIM {TimeUS : 47135305, Roll : 0.05, Pitch : 0.03, Yaw : 359.92, Alt : 35.1800003052, Lat : 49.2835704, Lng : -123.1150207, Q1 : 0.999999642372, Q2 : 0.000478054949781, Q3 : 0.000343176739989, Q4 : -0.000680634169839}
2019-04-14 15:38:22.41: SIM {TimeUS : 47235265, Roll : 0.05, Pitch : 0.03, Yaw : 359.91, Alt : 35.4000015259, Lat : 49.2835704, Lng : -123.1150207, Q1 : 0.999999582767, Q2 : 0.000509057252202, Q3 : 0.000313479162287, Q4 : -0.00070448423503}
2019-04-14 15:38:22.51: SIM {TimeUS : 47335225, Roll : 0.03, Pitch : 0.0, Yaw : 359.91, Alt : 35.6199989319, Lat : 49.2835704, Lng : -123.1150207, Q1 : 0.999999701977, Q2 : 0.000329786475049, Q3 : 8.39833519422e-05, Q4 : -0.000718088762369}
2019-04-14 15:38:22.61: SIM {TimeUS : 47435185, Roll : 0.0, Pitch : -0.02, Yaw : 359.91, Alt : 35.8400001526, Lat : 49.2835704, Lng : -123.1150207, Q1 : 0.999999701977, Q2 : -1.21002158266e-05, Q3 : -0.000259423541138, Q4 : -0.000727370090317}
2019-04-14 15:38:22.71: SIM {TimeUS : 47535145, Roll : -0.04, Pitch : -0.05, Yaw : 359.91, Alt : 36.0600013733, Lat : 49.2835704, Lng : -123.1150207, Q1 : 0.999999523163, Q2 : -0.000366380845662, Q3 : -0.00052077556029, Q4 : -0.000738371978514}
2019-04-14 15:38:22.81: SIM {TimeUS : 47635105, Roll : -0.07, Pitch : -0.07, Yaw : 359.91, Alt : 36.2799987793, Lat : 49.2835704, Lng : -123.1150207, Q1 : 0.999999284744, Q2 : -0.000637914054096, Q3 : -0.000658338482026, Q4 : -0.000747680955101}
2019-04-14 15:38:22.91: SIM {TimeUS : 47735065, Roll : -0.08, Pitch : -0.07, Yaw : 359.91, Alt : 36.5, Lat : 49.2835704, Lng : -123.1150206, Q1 : 0.99999922514, Q2 : -0.000730467610992, Q3 : -0.000659832789097, Q4 : -0.000754695851356}
2019-04-14 15:38:23.01: SIM {TimeUS : 47835025, Roll : -0.08, Pitch : -0.07, Yaw : 359.91, Alt : 36.7200012207, Lat : 49.2835704, Lng : -123.1150206, Q1 : 0.999999284744, Q2 : -0.000746478268411, Q3 : -0.000620186154265, Q4 : -0.000763663789257}
2019-04-14 15:38:23.11: SIM {TimeUS : 47934985, Roll : -0.07, Pitch : -0.05, Yaw : 359.91, Alt : 36.9500007629, Lat : 49.2835704, Lng : -123.1150206, Q1 : 0.999999344349, Q2 : -0.000663122453261, Q3 : -0.000477878755191, Q4 : -0.000774347863626}
2019-04-14 15:38:23.21: SIM {TimeUS : 48034945, Roll : -0.05, Pitch : -0.04, Yaw : 359.91, Alt : 37.1699981689, Lat : 49.2835704, Lng : -123.1150206, Q1 : 0.999999463558, Q2 : -0.000512813392561, Q3 : -0.000402552541345, Q4 : -0.000782961200457}
2019-04-14 15:38:23.31: SIM {TimeUS : 48134905, Roll : -0.05, Pitch : -0.04, Yaw : 359.9, Alt : 37.4000015259, Lat : 49.2835704, Lng : -123.1150206, Q1 : 0.999999463558, Q2 : -0.000514248968102, Q3 : -0.000434720132034, Q4 : -0.000789293262642}
2019-04-14 15:38:23.41: SIM {TimeUS : 48234865, Roll : -0.06, Pitch : -0.03, Yaw : 359.9, Alt : 37.6199989319, Lat : 49.2835704, Lng : -123.1150206, Q1 : 0.999999463558, Q2 : -0.000605118810199, Q3 : -0.000284958077827, Q4 : -0.000809579796623}
2019-04-14 15:38:23.51: SIM {TimeUS : 48334825, Roll : -0.09, Pitch : 0.0, Yaw : 359.9, Alt : 37.8499984741, Lat : 49.2835704, Lng : -123.1150206, Q1 : 0.999999344349, Q2 : -0.000829889380839, Q3 : -7.89267287473e-05, Q4 : -0.000836158927996}
2019-04-14 15:38:23.61: SIM {TimeUS : 48434785, Roll : -0.09, Pitch : 0.01, Yaw : 359.9, Alt : 38.0699996948, Lat : 49.2835704, Lng : -123.1150206, Q1 : 0.999999284744, Q2 : -0.000864307628945, Q3 : 9.15886703297e-05, Q4 : -0.00085767818382}
2019-04-14 15:38:23.71: SIM {TimeUS : 48534745, Roll : -0.07, Pitch : 0.04, Yaw : 359.89, Alt : 38.2999992371, Lat : 49.2835704, Lng : -123.1150206, Q1 : 0.999999284744, Q2 : -0.00066543801222, Q3 : 0.000373192597181, Q4 : -0.000882865802851}
2019-04-14 15:38:23.81: SIM {TimeUS : 48634705, Roll : -0.05, Pitch : 0.03, Yaw : 359.89, Alt : 38.5299987793, Lat : 49.2835704, Lng : -123.1150206, Q1 : 0.999999403954, Q2 : -0.000465458782855, Q3 : 0.000321846193401, Q4 : -0.000912966381293}
2019-04-14 15:38:23.91: SIM {TimeUS : 48734665, Roll : -0.02, Pitch : 0.01, Yaw : 359.89, Alt : 38.7599983215, Lat : 49.2835704, Lng : -123.1150206, Q1 : 0.999999523163, Q2 : -0.000227221622481, Q3 : 0.000161294956342, Q4 : -0.000939079327509}
2019-04-14 15:38:24.01: SIM {TimeUS : 48834625, Roll : 0.0, Pitch : 0.02, Yaw : 359.88, Alt : 38.9900016785, Lat : 49.2835706, Lng : -123.1150206, Q1 : 0.999999523163, Q2 : 5.57703169761e-05, Q3 : 0.000227232332691, Q4 : -0.000961372512393}
2019-04-14 15:38:24.11: SIM {TimeUS : 48934585, Roll : 0.03, Pitch : 0.04, Yaw : 359.88, Alt : 39.2200012207, Lat : 49.2835706, Lng : -123.1150206, Q1 : 0.999999344349, Q2 : 0.000348222150933, Q3 : 0.000420111609856, Q4 : -0.000987634761259}
2019-04-14 15:38:24.21: SIM {TimeUS : 49034545, Roll : 0.06, Pitch : 0.07, Yaw : 359.88, Alt : 39.4500007629, Lat : 49.2835706, Lng : -123.1150206, Q1 : 0.99999910593, Q2 : 0.000588473223615, Q3 : 0.000647554348689, Q4 : -0.00101774767973}
2019-04-14 15:38:24.31: SIM {TimeUS : 49134505, Roll : 0.06, Pitch : 0.1, Yaw : 359.88, Alt : 39.6800003052, Lat : 49.2835706, Lng : -123.1150206, Q1 : 0.999998927116, Q2 : 0.000547062489204, Q3 : 0.000876678037457, Q4 : -0.00104129570536}
2019-04-14 15:38:24.41: SIM {TimeUS : 49235298, Roll : 0.01, Pitch : 0.12, Yaw : 359.87, Alt : 39.9099998474, Lat : 49.2835706, Lng : -123.1150206, Q1 : 0.999998807907, Q2 : 0.000159253235324, Q3 : 0.00110274425242, Q4 : -0.0010786439525}
2019-04-14 15:38:24.51: SIM {TimeUS : 49335258, Roll : -0.01, Pitch : 0.13, Yaw : 359.87, Alt : 40.1399993896, Lat : 49.2835706, Lng : -123.1150206, Q1 : 0.999998688698, Q2 : -0.000147689439473, Q3 : 0.00115241121966, Q4 : -0.00110551365651}
2019-04-14 15:38:24.61: SIM {TimeUS : 49435218, Roll : -0.04, Pitch : 0.11, Yaw : 359.87, Alt : 40.3699989319, Lat : 49.2835706, Lng : -123.1150206, Q1 : 0.999998748302, Q2 : -0.000398659409257, Q3 : 0.00103735888842, Q4 : -0.00112232472748}
2019-04-14 15:38:24.71: SIM {TimeUS : 49535178, Roll : -0.05, Pitch : 0.11, Yaw : 359.86, Alt : 40.5999984741, Lat : 49.2835706, Lng : -123.1150206, Q1 : 0.999998748302, Q2 : -0.000495987362228, Q3 : 0.000996701070108, Q4 : -0.00114093953744}
2019-04-14 15:38:24.81: SIM {TimeUS : 49635138, Roll : -0.04, Pitch : 0.13, Yaw : 359.86, Alt : 40.8400001526, Lat : 49.2835706, Lng : -123.1150206, Q1 : 0.999998569489, Q2 : -0.00036530327634, Q3 : 0.00116105284542, Q4 : -0.0011626612395}
2019-04-14 15:38:24.91: SIM {TimeUS : 49735098, Roll : 0.0, Pitch : 0.15, Yaw : 359.86, Alt : 41.0699996948, Lat : 49.2835706, Lng : -123.1150207, Q1 : 0.99999833107, Q2 : 5.50739532628e-05, Q3 : 0.00139035005122, Q4 : -0.00118581636343}
2019-04-14 15:38:25.01: SIM {TimeUS : 49835058, Roll : 0.06, Pitch : 0.17, Yaw : 359.86, Alt : 41.2999992371, Lat : 49.2835706, Lng : -123.1150207, Q1 : 0.999997973442, Q2 : 0.000543196278159, Q3 : 0.00149371963926, Q4 : -0.00121054390911}
2019-04-14 15:38:25.11: SIM {TimeUS : 49935018, Roll : 0.09, Pitch : 0.13, Yaw : 359.85, Alt : 41.5299987793, Lat : 49.2835706, Lng : -123.1150207, Q1 : 0.999998211861, Q2 : 0.000825851690024, Q3 : 0.00119096622802, Q4 : -0.00123879418243}
2019-04-14 15:38:25.21: SIM {TimeUS : 50034978, Roll : 0.09, Pitch : 0.08, Yaw : 359.85, Alt : 41.7700004578, Lat : 49.2835706, Lng : -123.1150207, Q1 : 0.999998629093, Q2 : 0.000802823808044, Q3 : 0.000726083817426, Q4 : -0.00126559997443}
2019-04-14 15:38:25.31: SIM {TimeUS : 50134938, Roll : 0.05, Pitch : 0.04, Yaw : 359.85, Alt : 42.0, Lat : 49.2835706, Lng : -123.1150207, Q1 : 0.999998986721, Q2 : 0.000457430549432, Q3 : 0.000413353089243, Q4 : -0.00128554611001}
2019-04-14 15:38:25.41: SIM {TimeUS : 50234898, Roll : 0.0, Pitch : 0.03, Yaw : 359.85, Alt : 42.2400016785, Lat : 49.2835706, Lng : -123.1150207, Q1 : 0.99999910593, Q2 : -1.05205672298e-05, Q3 : 0.000316217541695, Q4 : -0.00130162783898}
2019-04-14 15:38:25.51: SIM {TimeUS : 50334858, Roll : -0.03, Pitch : 0.05, Yaw : 359.84, Alt : 42.4700012207, Lat : 49.2835706, Lng : -123.1150207, Q1 : 0.999998986721, Q2 : -0.00030062920996, Q3 : 0.000502810638864, Q4 : -0.00131123524625}
2019-04-14 15:38:25.61: SIM {TimeUS : 50434818, Roll : -0.04, Pitch : 0.07, Yaw : 359.84, Alt : 42.7000007629, Lat : 49.2835704, Lng : -123.1150207, Q1 : 0.999998867512, Q2 : -0.000423612073064, Q3 : 0.000626467226539, Q4 : -0.00131691503339}
2019-04-14 15:38:25.71: SIM {TimeUS : 50534778, Roll : -0.04, Pitch : 0.06, Yaw : 359.84, Alt : 42.9399986267, Lat : 49.2835704, Lng : -123.1150206, Q1 : 0.999998867512, Q2 : -0.000376295938622, Q3 : 0.000570097414311, Q4 : -0.00132639892399}
2019-04-14 15:38:25.81: SIM {TimeUS : 50634738, Roll : -0.04, Pitch : 0.05, Yaw : 359.84, Alt : 43.1699981689, Lat : 49.2835704, Lng : -123.1150206, Q1 : 0.999998927116, Q2 : -0.000383589358535, Q3 : 0.000470172963105, Q4 : -0.00134788244031}
2019-04-14 15:38:25.91: SIM {TimeUS : 50734698, Roll : -0.03, Pitch : 0.03, Yaw : 359.84, Alt : 43.4099998474, Lat : 49.2835704, Lng : -123.1150206, Q1 : 0.999998927116, Q2 : -0.000318310078001, Q3 : 0.000345705426298, Q4 : -0.00137437530793}
2019-04-14 15:38:26.01: SIM {TimeUS : 50834658, Roll : -0.01, Pitch : 0.03, Yaw : 359.83, Alt : 43.6399993896, Lat : 49.2835704, Lng : -123.1150206, Q1 : 0.999998927116, Q2 : -0.000161371572176, Q3 : 0.000297866092296, Q4 : -0.00140765623655}
2019-04-14 15:38:26.11: SIM {TimeUS : 50934618, Roll : 0.0, Pitch : 0.03, Yaw : 359.83, Alt : 43.8800010681, Lat : 49.2835704, Lng : -123.1150206, Q1 : 0.999998927116, Q2 : -4.09826279792e-05, Q3 : 0.000294116238365, Q4 : -0.00144184555393}
2019-04-14 15:38:26.21: SIM {TimeUS : 51034578, Roll : 0.0, Pitch : 0.01, Yaw : 359.83, Alt : 44.1199989319, Lat : 49.2835704, Lng : -123.1150206, Q1 : 0.999998927116, Q2 : -5.74931655137e-05, Q3 : 0.000117837866128, Q4 : -0.00147122039925}
2019-04-14 15:38:26.31: SIM {TimeUS : 51134538, Roll : -0.01, Pitch : -0.02, Yaw : 359.82, Alt : 44.3499984741, Lat : 49.2835704, Lng : -123.1150206, Q1 : 0.999998867512, Q2 : -0.000137258248287, Q3 : -0.000191742627067, Q4 : -0.00149456702638}
2019-04-14 15:38:26.41: SIM {TimeUS : 51234498, Roll : -0.02, Pitch : -0.04, Yaw : 359.82, Alt : 44.5900001526, Lat : 49.2835704, Lng : -123.1150206, Q1 : 0.999998807907, Q2 : -0.000192194711417, Q3 : -0.000353666488081, Q4 : -0.00151454855222}
2019-04-14 15:38:26.51: SIM {TimeUS : 51335291, Roll : -0.01, Pitch : -0.05, Yaw : 359.82, Alt : 44.8300018311, Lat : 49.2835704, Lng : -123.1150206, Q1 : 0.999998688698, Q2 : -0.000168936720002, Q3 : -0.000455620553112, Q4 : -0.00153492751997}
2019-04-14 15:38:26.61: SIM {TimeUS : 51435251, Roll : -0.02, Pitch : -0.05, Yaw : 359.82, Alt : 45.0600013733, Lat : 49.2835704, Lng : -123.1150206, Q1 : 0.999998629093, Q2 : -0.000221724374569, Q3 : -0.000475485139759, Q4 : -0.00155453954358}
2019-04-14 15:38:26.71: SIM {TimeUS : 51535211, Roll : -0.05, Pitch : -0.04, Yaw : 359.81, Alt : 45.2999992371, Lat : 49.2835703, Lng : -123.1150206, Q1 : 0.999998569489, Q2 : -0.000465977558633, Q3 : -0.000401704746764, Q4 : -0.00157958280761}
2019-04-14 15:38:26.81: SIM {TimeUS : 51635171, Roll : -0.09, Pitch : -0.04, Yaw : 359.81, Alt : 45.5299987793, Lat : 49.2835703, Lng : -123.1150206, Q1 : 0.99999833107, Q2 : -0.000800175999757, Q3 : -0.000357217446435, Q4 : -0.00160416809376}
2019-04-14 15:38:26.91: SIM {TimeUS : 51735131, Roll : -0.11, Pitch : -0.03, Yaw : 359.81, Alt : 45.7700004578, Lat : 49.2835703, Lng : -123.1150206, Q1 : 0.999998092651, Q2 : -0.00102129310835, Q3 : -0.000307347392663, Q4 : -0.0016314383829}
2019-04-14 15:38:27.01: SIM {TimeUS : 51835091, Roll : -0.12, Pitch : -0.01, Yaw : 359.8, Alt : 46.0, Lat : 49.2835703, Lng : -123.1150206, Q1 : 0.999998092651, Q2 : -0.00105068401899, Q3 : -0.000135352020152, Q4 : -0.00165906909388}
2019-04-14 15:38:27.11: SIM {TimeUS : 51935051, Roll : -0.1, Pitch : 0.01, Yaw : 359.8, Alt : 46.2299995422, Lat : 49.2835703, Lng : -123.1150206, Q1 : 0.999998152256, Q2 : -0.000894145108759, Q3 : 0.000140238858876, Q4 : -0.00169113790616}
2019-04-14 15:38:27.21: SIM {TimeUS : 52035011, Roll : -0.07, Pitch : 0.03, Yaw : 359.8, Alt : 46.4500007629, Lat : 49.2835703, Lng : -123.1150206, Q1 : 0.999998271465, Q2 : -0.000632778625004, Q3 : 0.000290346884867, Q4 : -0.00172128807753}
2019-04-14 15:38:27.31: SIM {TimeUS : 52134971, Roll : -0.04, Pitch : 0.03, Yaw : 359.79, Alt : 46.6699981689, Lat : 49.2835703, Lng : -123.1150206, Q1 : 0.99999833107, Q2 : -0.000393056106986, Q3 : 0.000274154765066, Q4 : -0.00175158900674}
2019-04-14 15:38:27.41: SIM {TimeUS : 52234931, Roll : -0.03, Pitch : 0.01, Yaw : 359.79, Alt : 46.8899993896, Lat : 49.2835703, Lng : -123.1150206, Q1 : 0.99999833107, Q2 : -0.00027352158213, Q3 : 0.000111423927592, Q4 : -0.00178406294435}
2019-04-14 15:38:27.51: SIM {TimeUS : 52334891, Roll : -0.01, Pitch : -0.02, Yaw : 359.79, Alt : 47.0999984741, Lat : 49.2835703, Lng : -123.1150206, Q1 : 0.99999833107, Q2 : -0.000149749423144, Q3 : -0.000192977735423, Q4 : -0.00181466073263}
2019-04-14 15:38:27.61: SIM {TimeUS : 52434851, Roll : 0.0, Pitch : -0.05, Yaw : 359.78, Alt : 47.2999992371, Lat : 49.2835703, Lng : -123.1150206, Q1 : 0.999998152256, Q2 : 2.9447794077e-05, Q3 : -0.000501739152241, Q4 : -0.00184280157555}
2019-04-14 15:38:27.71: SIM {TimeUS : 52534811, Roll : 0.0, Pitch : -0.08, Yaw : 359.78, Alt : 47.4900016785, Lat : 49.2835703, Lng : -123.1150206, Q1 : 0.999997973442, Q2 : 8.39789645397e-05, Q3 : -0.000748695689254, Q4 : -0.00186823902186}
2019-04-14 15:38:27.81: SIM {TimeUS : 52634771, Roll : 0.0, Pitch : -0.12, Yaw : 359.78, Alt : 47.6699981689, Lat : 49.2835703, Lng : -123.1150206, Q1 : 0.999997675419, Q2 : 2.81545817415e-05, Q3 : -0.00105215061922, Q4 : -0.00188763113692}
2019-04-14 15:38:27.91: SIM {TimeUS : 52734731, Roll : 0.01, Pitch : -0.15, Yaw : 359.78, Alt : 47.8400001526, Lat : 49.2835703, Lng : -123.1150206, Q1 : 0.999997317791, Q2 : 0.000118906391435, Q3 : -0.00133873242885, Q4 : -0.00190115068108}
2019-04-14 15:38:28.01: SIM {TimeUS : 52834691, Roll : 0.03, Pitch : -0.16, Yaw : 359.78, Alt : 48.0, Lat : 49.2835703, Lng : -123.1150206, Q1 : 0.999997138977, Q2 : 0.000330999144353, Q3 : -0.00141970079858, Q4 : -0.00191739911679}
2019-04-14 15:38:28.11: SIM {TimeUS : 52934651, Roll : 0.06, Pitch : -0.14, Yaw : 359.77, Alt : 48.1500015259, Lat : 49.2835704, Lng : -123.1150206, Q1 : 0.999997198582, Q2 : 0.000573627825361, Q3 : -0.00125541305169, Q4 : -0.00193443382159}
2019-04-14 15:38:28.21: SIM {TimeUS : 53034611, Roll : 0.08, Pitch : -0.1, Yaw : 359.77, Alt : 48.2799987793, Lat : 49.2835704, Lng : -123.1150206, Q1 : 0.999997437, Q2 : 0.000696290924679, Q3 : -0.000943953869864, Q4 : -0.00195176980924}
2019-04-14 15:38:28.31: SIM {TimeUS : 53134571, Roll : 0.08, Pitch : -0.07, Yaw : 359.77, Alt : 48.4099998474, Lat : 49.2835704, Lng : -123.1150206, Q1 : 0.999997496605, Q2 : 0.000766295008361, Q3 : -0.00069611921208, Q4 : -0.00197124970146}
2019-04-14 15:38:28.41: SIM {TimeUS : 53234531, Roll : 0.08, Pitch : -0.06, Yaw : 359.77, Alt : 48.5200004578, Lat : 49.2835704, Lng : -123.1150206, Q1 : 0.99999755621, Q2 : 0.000723530072719, Q3 : -0.000601575535256, Q4 : -0.00199967552908}
2019-04-14 15:38:28.51: SIM {TimeUS : 53335324, Roll : 0.05, Pitch : -0.05, Yaw : 359.76, Alt : 48.6199989319, Lat : 49.2835704, Lng : -123.1150206, Q1 : 0.999997675419, Q2 : 0.000513182894792, Q3 : -0.00051933148643, Q4 : -0.00203542318195}
2019-04-14 15:38:28.61: SIM {TimeUS : 53435284, Roll : 0.03, Pitch : -0.04, Yaw : 359.76, Alt : 48.7099990845, Lat : 49.2835704, Lng : -123.1150206, Q1 : 0.999997735023, Q2 : 0.000320700521115, Q3 : -0.000384870741982, Q4 : -0.00207431940362}
2019-04-14 15:38:28.71: SIM {TimeUS : 53535244, Roll : 0.01, Pitch : -0.02, Yaw : 359.75, Alt : 48.7799987793, Lat : 49.2835704, Lng : -123.1150206, Q1 : 0.999997735023, Q2 : 0.000139020659844, Q3 : -0.000241881629336, Q4 : -0.00211070780642}
2019-04-14 15:38:28.81: SIM {TimeUS : 53635204, Roll : 0.0, Pitch : 0.0, Yaw : 359.75, Alt : 48.8499984741, Lat : 49.2835704, Lng : -123.1150206, Q1 : 0.999997675419, Q2 : 2.37725726038e-05, Q3 : -1.94188778551e-05, Q4 : -0.00214412854984}
2019-04-14 15:38:28.91: SIM {TimeUS : 53735164, Roll : 0.01, Pitch : 0.03, Yaw : 359.75, Alt : 48.9099998474, Lat : 49.2835704, Lng : -123.1150206, Q1 : 0.99999755621, Q2 : 0.000141037642607, Q3 : 0.000299156905385, Q4 : -0.00217454484664}
2019-04-14 15:38:29.01: SIM {TimeUS : 53835124, Roll : 0.03, Pitch : 0.05, Yaw : 359.74, Alt : 48.9599990845, Lat : 49.2835704, Lng : -123.1150206, Q1 : 0.999997377396, Q2 : 0.000350075395545, Q3 : 0.000481185765238, Q4 : -0.0022029557731}
2019-04-14 15:38:29.11: SIM {TimeUS : 53935084, Roll : 0.07, Pitch : 0.02, Yaw : 359.74, Alt : 49.0, Lat : 49.2835704, Lng : -123.1150206, Q1 : 0.999997258186, Q2 : 0.000698356132489, Q3 : 0.000189611833775, Q4 : -0.0022355238907}
2019-04-14 15:38:29.21: SIM {TimeUS : 54035044, Roll : 0.2, Pitch : -0.12, Yaw : 359.73, Alt : 49.0299987793, Lat : 49.2835706, Lng : -123.1150206, Q1 : 0.999995172024, Q2 : 0.00182167324238, Q3 : -0.00108360976446, Q4 : -0.00226827873848}
2019-04-14 15:38:29.31: SIM {TimeUS : 54135004, Roll : 0.51, Pitch : -0.46, Yaw : 359.73, Alt : 49.0600013733, Lat : 49.2835706, Lng : -123.1150206, Q1 : 0.999979197979, Q2 : 0.00447542313486, Q3 : -0.00404535187408, Q4 : -0.00229741726071}
2019-04-14 15:38:29.41: SIM {TimeUS : 54234964, Roll : 1.02, Pitch : -0.98, Yaw : 359.72, Alt : 49.0900001526, Lat : 49.2835706, Lng : -123.1150206, Q1 : 0.999920189381, Q2 : 0.008938559331, Q3 : -0.00862468313426, Q4 : -0.00231305416673}
2019-04-14 15:38:29.51: SIM {TimeUS : 54334924, Roll : 1.7, Pitch : -1.62, Yaw : 359.71, Alt : 49.1100006104, Lat : 49.2835706, Lng : -123.1150206, Q1 : 0.999785602093, Q2 : 0.0148394685239, Q3 : -0.0142568936571, Q4 : -0.00229578558356}
2019-04-14 15:38:29.61: SIM {TimeUS : 54434884, Roll : 2.46, Pitch : -2.33, Yaw : 359.69, Alt : 49.1300010681, Lat : 49.2835707, Lng : -123.1150205, Q1 : 0.999557852745, Q2 : 0.0214491970837, Q3 : -0.0204702112824, Q4 : -0.00223423098214}
2019-04-14 15:38:29.71: SIM {TimeUS : 54534844, Roll : 3.19, Pitch : -3.0, Yaw : 359.67, Alt : 49.1500015259, Lat : 49.2835707, Lng : -123.1150204, Q1 : 0.999266505241, Q2 : 0.0277701839805, Q3 : -0.0262840948999, Q4 : -0.00210721231997}
2019-04-14 15:38:29.81: SIM {TimeUS : 54634804, Roll : 3.77, Pitch : -3.53, Yaw : 359.66, Alt : 49.1599998474, Lat : 49.2835709, Lng : -123.1150202, Q1 : 0.998980402946, Q2 : 0.0328201651573, Q3 : -0.0309406314045, Q4 : -0.00191900832579}
2019-04-14 15:38:29.91: SIM {TimeUS : 54734764, Roll : 4.19, Pitch : -3.93, Yaw : 359.66, Alt : 49.1800003052, Lat : 49.2835709, Lng : -123.11502, Q1 : 0.998740613461, Q2 : 0.0364354550838, Q3 : -0.0344514250755, Q4 : -0.00168997223955}
2019-04-14 15:38:30.01: SIM {TimeUS : 54834724, Roll : 4.5, Pitch : -4.24, Yaw : 359.66, Alt : 49.1899986267, Lat : 49.2835712, Lng : -123.1150197, Q1 : 0.998541176319, Q2 : 0.039180483669, Q3 : -0.0371268615127, Q4 : -0.00143043335993}
2019-04-14 15:38:30.11: SIM {TimeUS : 54934684, Roll : 4.78, Pitch : -4.49, Yaw : 359.68, Alt : 49.2000007629, Lat : 49.2835715, Lng : -123.1150192, Q1 : 0.998362839222, Q2 : 0.0415674224496, Q3 : -0.0392752736807, Q4 : -0.00113799271639}
2019-04-14 15:38:30.21: SIM {TimeUS : 55034644, Roll : 5.03, Pitch : -4.71, Yaw : 359.69, Alt : 49.2099990845, Lat : 49.2835718, Lng : -123.1150187, Q1 : 0.99818789959, Q2 : 0.0437974967062, Q3 : -0.0412547551095, Q4 : -0.000840404129121}
2019-04-14 15:38:30.31: SIM {TimeUS : 55134604, Roll : 5.3, Pitch : -4.98, Yaw : 359.7, Alt : 49.2200012207, Lat : 49.2835721, Lng : -123.1150181, Q1 : 0.997985541821, Q2 : 0.0461513884366, Q3 : -0.0435267053545, Q4 : -0.000572003133129}
2019-04-14 15:38:30.41: SIM {TimeUS : 55234564, Roll : 5.56, Pitch : -5.24, Yaw : 359.7, Alt : 49.2200012207, Lat : 49.2835726, Lng : -123.1150175, Q1 : 0.997778177261, Q2 : 0.0483635105193, Q3 : -0.0458215214312, Q4 : -0.000328043737682}
2019-04-14 15:38:30.51: SIM {TimeUS : 55334524, Roll : 5.78, Pitch : -5.45, Yaw : 359.71, Alt : 49.2299995422, Lat : 49.2835729, Lng : -123.1150167, Q1 : 0.997597873211, Q2 : 0.0503038130701, Q3 : -0.0476240925491, Q4 : -9.47174194152e-05}
2019-04-14 15:38:30.61: SIM {TimeUS : 55435317, Roll : 5.95, Pitch : -5.59, Yaw : 359.72, Alt : 49.2400016785, Lat : 49.2835735, Lng : -123.1150159, Q1 : 0.997462809086, Q2 : 0.0517860651016, Q3 : -0.0488482378423, Q4 : 0.000123563804664}
2019-04-14 15:38:30.71: SIM {TimeUS : 55535277, Roll : 6.07, Pitch : -5.69, Yaw : 359.73, Alt : 49.2400016785, Lat : 49.283574, Lng : -123.1150149, Q1 : 0.997364580631, Q2 : 0.0527863092721, Q3 : -0.049773581326, Q4 : 0.00029704865301}
2019-04-14 15:38:30.81: SIM {TimeUS : 55635237, Roll : 6.17, Pitch : -5.79, Yaw : 359.73, Alt : 49.25, Lat : 49.2835746, Lng : -123.1150139, Q1 : 0.997278928757, Q2 : 0.0536342673004, Q3 : -0.0505756735802, Q4 : 0.000426994462032}
2019-04-14 15:38:30.91: SIM {TimeUS : 55735197, Roll : 6.28, Pitch : -5.88, Yaw : 359.73, Alt : 49.25, Lat : 49.2835753, Lng : -123.1150128, Q1 : 0.997184932232, Q2 : 0.0545962825418, Q3 : -0.0513934679329, Q4 : 0.000505054485984}
2019-04-14 15:38:31.01: SIM {TimeUS : 55835157, Roll : 6.51, Pitch : -5.94, Yaw : 359.76, Alt : 49.25, Lat : 49.2835761, Lng : -123.1150117, Q1 : 0.997047901154, Q2 : 0.0566058605909, Q3 : -0.0518686659634, Q4 : 0.000930173846427}
2019-04-14 15:38:31.11: SIM {TimeUS : 55935117, Roll : 6.98, Pitch : -5.86, Yaw : 0.2, Alt : 49.2599983215, Lat : 49.2835769, Lng : -123.1150104, Q1 : 0.996829748154, Q2 : 0.060897115618, Q3 : -0.0509675778449, Q4 : 0.00493071554229}
2019-04-14 15:38:31.21: SIM {TimeUS : 56035077, Roll : 7.62, Pitch : -5.76, Yaw : 1.72, Alt : 49.2599983215, Lat : 49.2835776, Lng : -123.1150091, Q1 : 0.996360421181, Q2 : 0.0671353414655, Q3 : -0.0492108277977, Q4 : 0.0183605849743}
2019-04-14 15:38:31.31: SIM {TimeUS : 56135037, Roll : 8.14, Pitch : -5.99, Yaw : 4.78, Alt : 49.2599983215, Lat : 49.2835785, Lng : -123.1150077, Q1 : 0.995089590549, Q2 : 0.0730104669929, Q3 : -0.0491195693612, Q4 : 0.0453149192035}
2019-04-14 15:38:31.41: SIM {TimeUS : 56234997, Roll : 8.27, Pitch : -6.68, Yaw : 9.4, Alt : 49.2599983215, Lat : 49.2835794, Lng : -123.1150062, Q1 : 0.991997003555, Q2 : 0.0765704140067, Q3 : -0.0520353019238, Q4 : 0.0858562141657}
2019-04-14 15:38:31.51: SIM {TimeUS : 56334957, Roll : 7.82, Pitch : -7.79, Yaw : 15.4, Alt : 49.2700004578, Lat : 49.2835801, Lng : -123.1150045, Q1 : 0.985765278339, Q2 : 0.0765570551157, Q3 : -0.058058604598, Q4 : 0.137967422605}
2019-04-14 15:38:31.61: SIM {TimeUS : 56434917, Roll : 6.71, Pitch : -9.14, Yaw : 22.51, Alt : 49.2700004578, Lat : 49.2835811, Lng : -123.1150027, Q1 : 0.975043654442, Q2 : 0.0728359296918, Q3 : -0.0666837468743, Q4 : 0.198841765523}
2019-04-14 15:38:31.71: SIM {TimeUS : 56534877, Roll : 4.95, Pitch : -10.55, Yaw : 30.47, Alt : 49.2700004578, Lat : 49.283582, Lng : -123.1150009, Q1 : 0.958800911903, Q2 : 0.0657124593854, Q3 : -0.0773381963372, Q4 : 0.26533266902}
2019-04-14 15:38:31.81: SIM {TimeUS : 56634837, Roll : 2.39, Pitch : -11.76, Yaw : 38.84, Alt : 49.2700004578, Lat : 49.2835831, Lng : -123.1149989, Q1 : 0.937205612659, Q2 : 0.0536792054772, Q3 : -0.0897433459759, Q4 : 0.332731664181}
2019-04-14 15:38:31.91: SIM {TimeUS : 56734797, Roll : -0.75, Pitch : -12.54, Yaw : 46.8, Alt : 49.2700004578, Lat : 49.2835841, Lng : -123.1149968, Q1 : 0.912510335445, Q2 : 0.037400919944, Q3 : -0.102858029306, Q4 : 0.394139945507}
2019-04-14 15:38:32.01: SIM {TimeUS : 56834757, Roll : -3.85, Pitch : -12.81, Yaw : 53.49, Alt : 49.2700004578, Lat : 49.2835852, Lng : -123.1149947, Q1 : 0.888592898846, Q2 : 0.0203895699233, Q3 : -0.114666931331, Q4 : 0.443664729595}
2019-04-14 15:38:32.11: SIM {TimeUS : 56934717, Roll : -6.27, Pitch : -12.73, Yaw : 58.33, Alt : 49.2700004578, Lat : 49.2835864, Lng : -123.1149925, Q1 : 0.869472444057, Q2 : 0.00645221024752, Q3 : -0.123215459287, Q4 : 0.478324234486}
2019-04-14 15:38:32.21: SIM {TimeUS : 57034677, Roll : -7.66, Pitch : -12.54, Yaw : 61.15, Alt : 49.2700004578, Lat : 49.2835877, Lng : -123.1149903, Q1 : 0.857607364655, Q2 : -0.00171839050017, Q3 : -0.127634376287, Q4 : 0.498212903738}
2019-04-14 15:38:32.31: SIM {TimeUS : 57134637, Roll : -7.97, Pitch : -12.47, Yaw : 62.13, Alt : 49.2700004578, Lat : 49.2835891, Lng : -123.1149881, Q1 : 0.853344857693, Q2 : -0.00328234164044, Q3 : -0.1285417974, Q4 : 0.505241394043}
2019-04-14 15:38:32.41: SIM {TimeUS : 57234597, Roll : -7.41, Pitch : -12.66, Yaw : 61.6, Alt : 49.2700004578, Lat : 49.2835905, Lng : -123.1149858, Q1 : 0.855561614037, Q2 : 0.00117374118418, Q3 : -0.127397507429, Q4 : 0.501779675484}
2019-04-14 15:38:32.51: SIM {TimeUS : 57334557, Roll : -6.19, Pitch : -13.1, Yaw : 59.93, Alt : 49.2700004578, Lat : 49.2835922, Lng : -123.1149835, Q1 : 0.862477302551, Q2 : 0.0103811584413, Q3 : -0.125556319952, Q4 : 0.490164041519}
2019-04-14 15:38:32.61: SIM {TimeUS : 57434517, Roll : -4.59, Pitch : -13.75, Yaw : 57.45, Alt : 49.2700004578, Lat : 49.2835939, Lng : -123.1149811, Q1 : 0.872222602367, Q2 : 0.0225899461657, Q3 : -0.12404204905, Q4 : 0.47257912159}
2019-04-14 15:38:32.71: SIM {TimeUS : 57535310, Roll : -2.78, Pitch : -14.47, Yaw : 54.45, Alt : 49.2799987793, Lat : 49.2835957, Lng : -123.1149787, Q1 : 0.88326638937, Q2 : 0.0361561775208, Q3 : -0.123001933098, Q4 : 0.451003044844}
2019-04-14 15:38:32.81: SIM {TimeUS : 57635270, Roll : -0.98, Pitch : -15.09, Yaw : 51.29, Alt : 49.2799987793, Lat : 49.2835975, Lng : -123.1149761, Q1 : 0.894130051136, Q2 : 0.0491750985384, Q3 : -0.122093267739, Q4 : 0.428026288748}
2019-04-14 15:38:32.91: SIM {TimeUS : 57735230, Roll : 0.66, Pitch : -15.52, Yaw : 48.27, Alt : 49.2799987793, Lat : 49.2835993, Lng : -123.1149735, Q1 : 0.903856992722, Q2 : 0.0604688897729, Q3 : -0.120920985937, Q4 : 0.405911564827}
2019-04-14 15:38:33.01: SIM {TimeUS : 57835190, Roll : 2.01, Pitch : -15.73, Yaw : 45.71, Alt : 49.2799987793, Lat : 49.2836012, Lng : -123.1149708, Q1 : 0.911706209183, Q2 : 0.0692642107606, Q3 : -0.119360730052, Q4 : 0.386971950531}
2019-04-14 15:38:33.11: SIM {TimeUS : 57935150, Roll : 2.97, Pitch : -15.79, Yaw : 43.82, Alt : 49.2799987793, Lat : 49.2836031, Lng : -123.114968, Q1 : 0.917311608791, Q2 : 0.0751234292984, Q3 : -0.11784555763, Q4 : 0.372838228941}
2019-04-14 15:38:33.21: SIM {TimeUS : 58035110, Roll : 3.46, Pitch : -15.76, Yaw : 42.69, Alt : 49.2799987793, Lat : 49.283605, Lng : -123.114965, Q1 : 0.920639514923, Q2 : 0.0778279975057, Q3 : -0.116774879396, Q4 : 0.364320397377}
2019-04-14 15:38:33.31: SIM {TimeUS : 58135070, Roll : 3.49, Pitch : -15.73, Yaw : 42.33, Alt : 49.2799987793, Lat : 49.2836069, Lng : -123.1149619, Q1 : 0.921820759773, Q2 : 0.0775966122746, Q3 : -0.116709984839, Q4 : 0.361391872168}
2019-04-14 15:38:33.41: SIM {TimeUS : 58235030, Roll : 3.13, Pitch : -15.74, Yaw : 42.62, Alt : 49.2799987793, Lat : 49.283609, Lng : -123.1149587, Q1 : 0.921115994453, Q2 : 0.0750181153417, Q3 : -0.117669023573, Q4 : 0.363416582346}
2019-04-14 15:38:33.51: SIM {TimeUS : 58334990, Roll : 2.51, Pitch : -15.79, Yaw : 43.44, Alt : 49.2799987793, Lat : 49.283611, Lng : -123.1149554, Q1 : 0.91884547472, Q2 : 0.0710060149431, Q3 : -0.119581378996, Q4 : 0.369298636913}
2019-04-14 15:38:33.61: SIM {TimeUS : 58434950, Roll : 1.7, Pitch : -15.9, Yaw : 44.59, Alt : 49.2799987793, Lat : 49.2836129, Lng : -123.1149519, Q1 : 0.915441095829, Q2 : 0.0660857409239, Q3 : -0.122381694615, Q4 : 0.377654641867}
2019-04-14 15:38:33.71: SIM {TimeUS : 58534910, Roll : 0.84, Pitch : -16.04, Yaw : 45.91, Alt : 49.2799987793, Lat : 49.283615, Lng : -123.1149485, Q1 : 0.911372840405, Q2 : 0.0611696951091, Q3 : -0.125612840056, Q4 : 0.38714236021}
2019-04-14 15:38:33.81: SIM {TimeUS : 58634870, Roll : 0.07, Pitch : -16.15, Yaw : 47.21, Alt : 49.2799987793, Lat : 49.2836171, Lng : -123.1149449, Q1 : 0.907189846039, Q2 : 0.0568453632295, Q3 : -0.128540843725, Q4 : 0.396550744772}
2019-04-14 15:38:33.91: SIM {TimeUS : 58734830, Roll : -0.58, Pitch : -16.24, Yaw : 48.36, Alt : 49.2799987793, Lat : 49.2836191, Lng : -123.1149413, Q1 : 0.903392255306, Q2 : 0.0532845817506, Q3 : -0.130936741829, Q4 : 0.404844135046}
2019-04-14 15:38:34.01: SIM {TimeUS : 58834790, Roll : -1.07, Pitch : -16.3, Yaw : 49.25, Alt : 49.2799987793, Lat : 49.2836213, Lng : -123.1149377, Q1 : 0.90035289526, Q2 : 0.050664961338, Q3 : -0.13281288743, Q4 : 0.411288797855}
2019-04-14 15:38:34.11: SIM {TimeUS : 58934750, Roll : -1.38, Pitch : -16.36, Yaw : 49.84, Alt : 49.2799987793, Lat : 49.2836235, Lng : -123.114934, Q1 : 0.898307561874, Q2 : 0.0491423532367, Q3 : -0.134067893028, Q4 : 0.415516972542}
2019-04-14 15:38:34.21: SIM {TimeUS : 59034710, Roll : -1.48, Pitch : -16.41, Yaw : 50.11, Alt : 49.2900009155, Lat : 49.2836257, Lng : -123.1149303, Q1 : 0.897317230701, Q2 : 0.0488550364971, Q3 : -0.134729266167, Q4 : 0.4174721241}
2019-04-14 15:38:34.31: SIM {TimeUS : 59134670, Roll : -1.4, Pitch : -16.45, Yaw : 50.08, Alt : 49.2900009155, Lat : 49.283628, Lng : -123.1149265, Q1 : 0.89732915163, Q2 : 0.0495850965381, Q3 : -0.134816393256, Q4 : 0.417332351208}
2019-04-14 15:38:34.41: SIM {TimeUS : 59234630, Roll : -1.18, Pitch : -16.49, Yaw : 49.82, Alt : 49.2900009155, Lat : 49.2836303, Lng : -123.1149227, Q1 : 0.898163557053, Q2 : 0.0511363111436, Q3 : -0.134433016181, Q4 : 0.415469735861}
2019-04-14 15:38:34.51: SIM {TimeUS : 59334590, Roll : -0.86, Pitch : -16.53, Yaw : 49.38, Alt : 49.2900009155, Lat : 49.2836326, Lng : -123.1149188, Q1 : 0.899563372135, Q2 : 0.0532633960247, Q3 : -0.133782118559, Q4 : 0.412372559309}
2019-04-14 15:38:34.61: SIM {TimeUS : 59434550, Roll : -0.5, Pitch : -16.57, Yaw : 48.84, Alt : 49.2900009155, Lat : 49.2836349, Lng : -123.114915, Q1 : 0.901263356209, Q2 : 0.055650100112, Q3 : -0.13302116096, Q4 : 0.408574104309}
2019-04-14 15:38:34.71: SIM {TimeUS : 59534510, Roll : -0.13, Pitch : -16.61, Yaw : 48.28, Alt : 49.2900009155, Lat : 49.2836373, Lng : -123.1149111, Q1 : 0.903013765812, Q2 : 0.0580482892692, Q3 : -0.132276684046, Q4 : 0.404597878456}
2019-04-14 15:38:34.81: SIM {TimeUS : 59635303, Roll : 0.19, Pitch : -16.65, Yaw : 47.76, Alt : 49.2900009155, Lat : 49.2836397, Lng : -123.1149071, Q1 : 0.904622793198, Q2 : 0.0601969659328, Q3 : -0.131719112396, Q4 : 0.400854051113}
2019-04-14 15:38:34.91: SIM {TimeUS : 59735263, Roll : 0.44, Pitch : -16.68, Yaw : 47.34, Alt : 49.2900009155, Lat : 49.2836421, Lng : -123.1149031, Q1 : 0.905941426754, Q2 : 0.0617794021964, Q3 : -0.131359502673, Q4 : 0.397741317749}
2019-04-14 15:38:35.01: SIM {TimeUS : 59835223, Roll : 0.59, Pitch : -16.72, Yaw : 47.02, Alt : 49.2900009155, Lat : 49.2836446, Lng : -123.114899, Q1 : 0.906894922256, Q2 : 0.062754444778, Q3 : -0.1312725842, Q4 : 0.395437777042}
2019-04-14 15:38:35.11: SIM {TimeUS : 59935183, Roll : 0.66, Pitch : -16.76, Yaw : 46.84, Alt : 49.2900009155, Lat : 49.283647, Lng : -123.1148949, Q1 : 0.907443463802, Q2 : 0.0631765127182, Q3 : -0.131482169032, Q4 : 0.39404001832}
2019-04-14 15:38:35.21: SIM {TimeUS : 60035143, Roll : 0.63, Pitch : -16.81, Yaw : 46.78, Alt : 49.2900009155, Lat : 49.2836495, Lng : -123.1148908, Q1 : 0.907595932484, Q2 : 0.0631110817194, Q3 : -0.131990969181, Q4 : 0.393528997898}
2019-04-14 15:38:35.31: SIM {TimeUS : 60135103, Roll : 0.53, Pitch : -16.85, Yaw : 46.83, Alt : 49.2900009155, Lat : 49.2836519, Lng : -123.1148866, Q1 : 0.907426893711, Q2 : 0.0625119805336, Q3 : -0.132631793618, Q4 : 0.39379888773}
2019-04-14 15:38:35.41: SIM {TimeUS : 60235063, Roll : 0.38, Pitch : -16.87, Yaw : 46.97, Alt : 49.2900009155, Lat : 49.2836545, Lng : -123.1148824, Q1 : 0.90702098608, Q2 : 0.06150393188, Q3 : -0.13330245018, Q4 : 0.394665360451}
2019-04-14 15:38:35.51: SIM {TimeUS : 60335023, Roll : 0.2, Pitch : -16.9, Yaw : 47.15, Alt : 49.2900009155, Lat : 49.283657, Lng : -123.1148782, Q1 : 0.906440734863, Q2 : 0.0604202784598, Q3 : -0.134039625525, Q4 : 0.395914077759}
2019-04-14 15:38:35.61: SIM {TimeUS : 60434983, Roll : 0.05, Pitch : -16.94, Yaw : 47.36, Alt : 49.2999992371, Lat : 49.2836595, Lng : -123.1148739, Q1 : 0.905761420727, Q2 : 0.0595885403454, Q3 : -0.134772121906, Q4 : 0.397343605757}
2019-04-14 15:38:35.71: SIM {TimeUS : 60534943, Roll : -0.06, Pitch : -16.99, Yaw : 47.56, Alt : 49.2999992371, Lat : 49.2836621, Lng : -123.1148697, Q1 : 0.905077695847, Q2 : 0.0591051019728, Q3 : -0.135434836149, Q4 : 0.398746013641}
2019-04-14 15:38:35.81: SIM {TimeUS : 60634903, Roll : -0.13, Pitch : -17.04, Yaw : 47.72, Alt : 49.2999992371, Lat : 49.2836645, Lng : -123.1148653, Q1 : 0.90447562933, Q2 : 0.0588827095926, Q3 : -0.135992661119, Q4 : 0.399953305721}
2019-04-14 15:38:35.91: SIM {TimeUS : 60734863, Roll : -0.16, Pitch : -17.09, Yaw : 47.85, Alt : 49.2999992371, Lat : 49.2836671, Lng : -123.114861, Q1 : 0.904007136822, Q2 : 0.0589387528598, Q3 : -0.136405572295, Q4 : 0.400862634182}
2019-04-14 15:38:36.01: SIM {TimeUS : 60834823, Roll : -0.18, Pitch : -17.12, Yaw : 47.92, Alt : 49.2999992371, Lat : 49.2836698, Lng : -123.1148567, Q1 : 0.903724193573, Q2 : 0.0589920468628, Q3 : -0.136717751622, Q4 : 0.401386141777}
2019-04-14 15:38:36.11: SIM {TimeUS : 60934783, Roll : -0.19, Pitch : -17.14, Yaw : 47.94, Alt : 49.2999992371, Lat : 49.2836724, Lng : -123.1148523, Q1 : 0.903646409512, Q2 : 0.0590188205242, Q3 : -0.136852711439, Q4 : 0.401511311531}
2019-04-14 15:38:36.21: SIM {TimeUS : 61034743, Roll : -0.18, Pitch : -17.15, Yaw : 47.91, Alt : 49.2999992371, Lat : 49.2836749, Lng : -123.1148479, Q1 : 0.9037322402, Q2 : 0.0591078661382, Q3 : -0.136975124478, Q4 : 0.401263177395}
2019-04-14 15:38:36.31: SIM {TimeUS : 61134703, Roll : -0.14, Pitch : -17.16, Yaw : 47.84, Alt : 49.2999992371, Lat : 49.2836776, Lng : -123.1148435, Q1 : 0.903942584991, Q2 : 0.0593833401799, Q3 : -0.136959046125, Q4 : 0.400753885508}
2019-04-14 15:38:36.41: SIM {TimeUS : 61234663, Roll : -0.09, Pitch : -17.18, Yaw : 47.74, Alt : 49.2999992371, Lat : 49.2836802, Lng : -123.1148391, Q1 : 0.904235363007, Q2 : 0.0597256869078, Q3 : -0.136907398701, Q4 : 0.400059551001}
2019-04-14 15:38:36.51: SIM {TimeUS : 61334623, Roll : -0.01, Pitch : -17.21, Yaw : 47.63, Alt : 49.2999992371, Lat : 49.2836828, Lng : -123.1148346, Q1 : 0.904534697533, Q2 : 0.0602993071079, Q3 : -0.136951833963, Q4 : 0.399280846119}
2019-04-14 15:38:36.61: SIM {TimeUS : 61434583, Roll : 0.06, Pitch : -17.26, Yaw : 47.52, Alt : 49.3100013733, Lat : 49.2836855, Lng : -123.1148302, Q1 : 0.904802083969, Q2 : 0.0610111542046, Q3 : -0.137179195881, Q4 : 0.398488044739}
2019-04-14 15:38:36.71: SIM {TimeUS : 61534543, Roll : 0.13, Pitch : -17.3, Yaw : 47.42, Alt : 49.3100013733, Lat : 49.2836882, Lng : -123.1148257, Q1 : 0.90506964922, Q2 : 0.0615708492696, Q3 : -0.137276634574, Q4 : 0.397760152817}
2019-04-14 15:38:36.81: SIM {TimeUS : 61634503, Roll : 0.18, Pitch : -17.31, Yaw : 47.34, Alt : 49.3100013733, Lat : 49.2836908, Lng : -123.1148212, Q1 : 0.905316770077, Q2 : 0.0619341395795, Q3 : -0.137233689427, Q4 : 0.397155702114}
2019-04-14 15:38:36.91: SIM {TimeUS : 61735296, Roll : 0.21, Pitch : -17.33, Yaw : 47.28, Alt : 49.3100013733, Lat : 49.2836936, Lng : -123.1148166, Q1 : 0.905508160591, Q2 : 0.0620871298015, Q3 : -0.13728068769, Q4 : 0.396679013968}
2019-04-14 15:38:37.01: SIM {TimeUS : 61835256, Roll : 0.2, Pitch : -17.35, Yaw : 47.24, Alt : 49.3100013733, Lat : 49.2836962, Lng : -123.1148121, Q1 : 0.9056250453, Q2 : 0.0620880685747, Q3 : -0.137507751584, Q4 : 0.396333158016}
2019-04-14 15:38:37.11: SIM {TimeUS : 61935216, Roll : 0.19, Pitch : -17.37, Yaw : 47.22, Alt : 49.3100013733, Lat : 49.283699, Lng : -123.1148076, Q1 : 0.905674517155, Q2 : 0.0620445013046, Q3 : -0.137721300125, Q4 : 0.396152824163}
2019-04-14 15:38:37.21: SIM {TimeUS : 62035176, Roll : 0.17, Pitch : -17.4, Yaw : 47.21, Alt : 49.3100013733, Lat : 49.2837016, Lng : -123.114803, Q1 : 0.905666470528, Q2 : 0.0619596540928, Q3 : -0.138010650873, Q4 : 0.39608374238}
2019-04-14 15:38:37.31: SIM {TimeUS : 62135136, Roll : 0.14, Pitch : -17.42, Yaw : 47.22, Alt : 49.3100013733, Lat : 49.2837044, Lng : -123.1147984, Q1 : 0.905629813671, Q2 : 0.0618431270123, Q3 : -0.138243630528, Q4 : 0.396104514599}
2019-04-14 15:38:37.41: SIM {TimeUS : 62235096, Roll : 0.14, Pitch : -17.44, Yaw : 47.23, Alt : 49.3100013733, Lat : 49.2837071, Lng : -123.1147938, Q1 : 0.905554413795, Q2 : 0.0618735998869, Q3 : -0.138468116522, Q4 : 0.39619371295}
2019-04-14 15:38:37.51: SIM {TimeUS : 62335056, Roll : 0.13, Pitch : -17.46, Yaw : 47.25, Alt : 49.3100013733, Lat : 49.2837099, Lng : -123.1147892, Q1 : 0.905481815338, Q2 : 0.0618829205632, Q3 : -0.138616427779, Q4 : 0.396306335926}
2019-04-14 15:38:37.61: SIM {TimeUS : 62435016, Roll : 0.13, Pitch : -17.48, Yaw : 47.27, Alt : 49.3100013733, Lat : 49.2837126, Lng : -123.1147846, Q1 : 0.905400574207, Q2 : 0.0619976557791, Q3 : -0.138777554035, Q4 : 0.396417528391}
2019-04-14 15:38:37.71: SIM {TimeUS : 62534976, Roll : 0.14, Pitch : -17.5, Yaw : 47.28, Alt : 49.3100013733, Lat : 49.2837154, Lng : -123.11478, Q1 : 0.905326247215, Q2 : 0.0621483288705, Q3 : -0.138927057385, Q4 : 0.396511316299}
2019-04-14 15:38:37.81: SIM {TimeUS : 62634936, Roll : 0.13, Pitch : -17.54, Yaw : 47.28, Alt : 49.3199996948, Lat : 49.283718, Lng : -123.1147753, Q1 : 0.905262351036, Q2 : 0.0622280426323, Q3 : -0.139256432652, Q4 : 0.396529138088}
2019-04-14 15:38:37.91: SIM {TimeUS : 62734896, Roll : 0.09, Pitch : -17.59, Yaw : 47.28, Alt : 49.3199996948, Lat : 49.2837209, Lng : -123.1147707, Q1 : 0.905228972435, Q2 : 0.0621112324297, Q3 : -0.139731064439, Q4 : 0.396456718445}
2019-04-14 15:38:38.01: SIM {TimeUS : 62834856, Roll : 0.07, Pitch : -17.63, Yaw : 47.28, Alt : 49.3199996948, Lat : 49.2837236, Lng : -123.114766, Q1 : 0.905211091042, Q2 : 0.0620732046664, Q3 : -0.140186965466, Q4 : 0.39634257555}
2019-04-14 15:38:38.11: SIM {TimeUS : 62934816, Roll : 0.08, Pitch : -17.67, Yaw : 47.26, Alt : 49.3199996948, Lat : 49.2837264, Lng : -123.1147613, Q1 : 0.905214250088, Q2 : 0.0622541718185, Q3 : -0.14041864872, Q4 : 0.396224975586}
2019-04-14 15:38:38.21: SIM {TimeUS : 63034776, Roll : 0.11, Pitch : -17.67, Yaw : 47.24, Alt : 49.3199996948, Lat : 49.2837291, Lng : -123.1147566, Q1 : 0.905264854431, Q2 : 0.0624892711639, Q3 : -0.140328288078, Q4 : 0.39610427618}
2019-04-14 15:38:38.31: SIM {TimeUS : 63134736, Roll : 0.14, Pitch : -17.64, Yaw : 47.22, Alt : 49.3199996948, Lat : 49.283732, Lng : -123.1147518, Q1 : 0.905357301235, Q2 : 0.062629006803, Q3 : -0.140055209398, Q4 : 0.395967572927}
2019-04-14 15:38:38.41: SIM {TimeUS : 63234696, Roll : 0.16, Pitch : -17.63, Yaw : 47.19, Alt : 49.3199996948, Lat : 49.2837348, Lng : -123.1147472, Q1 : 0.905456006527, Q2 : 0.0626288875937, Q3 : -0.139901921153, Q4 : 0.395796090364}
2019-04-14 15:38:38.51: SIM {TimeUS : 63334656, Roll : 0.15, Pitch : -17.61, Yaw : 47.17, Alt : 49.3199996948, Lat : 49.2837375, Lng : -123.1147425, Q1 : 0.905560851097, Q2 : 0.0625396892428, Q3 : -0.139811128378, Q4 : 0.395602375269}
2019-04-14 15:38:38.61: SIM {TimeUS : 63434616, Roll : 0.15, Pitch : -17.6, Yaw : 47.14, Alt : 49.3199996948, Lat : 49.2837405, Lng : -123.1147378, Q1 : 0.905664741993, Q2 : 0.0624531209469, Q3 : -0.139719799161, Q4 : 0.39541041851}
2019-04-14 15:38:38.71: SIM {TimeUS : 63534576, Roll : 0.14, Pitch : -17.62, Yaw : 47.12, Alt : 49.3199996948, Lat : 49.2837433, Lng : -123.114733, Q1 : 0.905735075474, Q2 : 0.0624065026641, Q3 : -0.139874383807, Q4 : 0.395201921463}
2019-04-14 15:38:38.81: SIM {TimeUS : 63634536, Roll : 0.14, Pitch : -17.65, Yaw : 47.1, Alt : 49.3199996948, Lat : 49.283746, Lng : -123.1147283, Q1 : 0.905774116516, Q2 : 0.0624451413751, Q3 : -0.140161588788, Q4 : 0.39500451088}
2019-04-14 15:38:38.91: SIM {TimeUS : 63734496, Roll : 0.13, Pitch : -17.7, Yaw : 47.08, Alt : 49.3199996948, Lat : 49.2837489, Lng : -123.1147235, Q1 : 0.905784666538, Q2 : 0.0624937899411, Q3 : -0.14060357213, Q4 : 0.394815504551}
2019-04-14 15:38:39.01: SIM {TimeUS : 63835289, Roll : 0.13, Pitch : -17.76, Yaw : 47.06, Alt : 49.3199996948, Lat : 49.2837518, Lng : -123.1147187, Q1 : 0.905761420727, Q2 : 0.0626918300986, Q3 : -0.141116976738, Q4 : 0.394654303789}
2019-04-14 15:38:39.11: SIM {TimeUS : 63935249, Roll : 0.13, Pitch : -17.79, Yaw : 47.05, Alt : 49.3199996948, Lat : 49.2837545, Lng : -123.1147139, Q1 : 0.905768454075, Q2 : 0.0628384798765, Q3 : -0.141327172518, Q4 : 0.39453959465}
2019-04-14 15:38:39.21: SIM {TimeUS : 64035209, Roll : 0.14, Pitch : -17.81, Yaw : 47.03, Alt : 49.3300018311, Lat : 49.2837575, Lng : -123.1147092, Q1 : 0.905782818794, Q2 : 0.0629235208035, Q3 : -0.14149902761, Q4 : 0.394431352615}
2019-04-14 15:38:39.31: SIM {TimeUS : 64135169, Roll : 0.13, Pitch : -17.83, Yaw : 47.02, Alt : 49.3300018311, Lat : 49.2837603, Lng : -123.1147044, Q1 : 0.905807554722, Q2 : 0.0629319399595, Q3 : -0.141625657678, Q4 : 0.394327819347}
2019-04-14 15:38:39.41: SIM {TimeUS : 64235129, Roll : 0.14, Pitch : -17.82, Yaw : 47.01, Alt : 49.3300018311, Lat : 49.2837631, Lng : -123.1146996, Q1 : 0.905849635601, Q2 : 0.0629639774561, Q3 : -0.141537815332, Q4 : 0.394257605076}
2019-04-14 15:38:39.51: SIM {TimeUS : 64335089, Roll : 0.17, Pitch : -17.82, Yaw : 47.0, Alt : 49.3300018311, Lat : 49.283766, Lng : -123.1146948, Q1 : 0.905867516994, Q2 : 0.0631396695971, Q3 : -0.141496688128, Q4 : 0.394203096628}
2019-04-14 15:38:39.61: SIM {TimeUS : 64435049, Roll : 0.17, Pitch : -17.84, Yaw : 46.99, Alt : 49.3300018311, Lat : 49.2837689, Lng : -123.11469, Q1 : 0.905873000622, Q2 : 0.0632703602314, Q3 : -0.141633093357, Q4 : 0.394120633602}
2019-04-14 15:38:39.71: SIM {TimeUS : 64535009, Roll : 0.18, Pitch : -17.86, Yaw : 46.98, Alt : 49.3300018311, Lat : 49.2837717, Lng : -123.1146852, Q1 : 0.905887722969, Q2 : 0.0633316934109, Q3 : -0.141762822866, Q4 : 0.394030332565}
2019-04-14 15:38:39.81: SIM {TimeUS : 64634969, Roll : 0.18, Pitch : -17.86, Yaw : 46.97, Alt : 49.3300018311, Lat : 49.2837746, Lng : -123.1146804, Q1 : 0.905921280384, Q2 : 0.0633578151464, Q3 : -0.141794145107, Q4 : 0.393937647343}
2019-04-14 15:38:39.91: SIM {TimeUS : 64734929, Roll : 0.18, Pitch : -17.87, Yaw : 46.96, Alt : 49.3300018311, Lat : 49.2837775, Lng : -123.1146755, Q1 : 0.905953288078, Q2 : 0.0633744224906, Q3 : -0.141875550151, Q4 : 0.393832087517}
2019-04-14 15:38:40.01: SIM {TimeUS : 64834889, Roll : 0.17, Pitch : -17.89, Yaw : 46.94, Alt : 49.3300018311, Lat : 49.2837804, Lng : -123.1146707, Q1 : 0.905977725983, Q2 : 0.0633314624429, Q3 : -0.14209535718, Q4 : 0.393703460693}
2019-04-14 15:38:40.11: SIM {TimeUS : 64934849, Roll : 0.14, Pitch : -17.93, Yaw : 46.93, Alt : 49.3300018311, Lat : 49.2837832, Lng : -123.1146659, Q1 : 0.905987918377, Q2 : 0.0632410347462, Q3 : -0.142510354519, Q4 : 0.393544524908}
2019-04-14 15:38:40.21: SIM {TimeUS : 65034809, Roll : 0.13, Pitch : -17.94, Yaw : 46.92, Alt : 49.3300018311, Lat : 49.2837861, Lng : -123.114661, Q1 : 0.906027078629, Q2 : 0.06316152215, Q3 : -0.142645731568, Q4 : 0.393418043852}
2019-04-14 15:38:40.31: SIM {TimeUS : 65134769, Roll : 0.13, Pitch : -17.94, Yaw : 46.9, Alt : 49.3300018311, Lat : 49.2837891, Lng : -123.1146562, Q1 : 0.906079947948, Q2 : 0.0631541237235, Q3 : -0.142562627792, Q4 : 0.393327623606}
2019-04-14 15:38:40.41: SIM {TimeUS : 65234729, Roll : 0.15, Pitch : -17.92, Yaw : 46.89, Alt : 49.3300018311, Lat : 49.283792, Lng : -123.1146513, Q1 : 0.906128048897, Q2 : 0.063249334693, Q3 : -0.142408877611, Q4 : 0.393257170916}
2019-04-14 15:38:40.51: SIM {TimeUS : 65334689, Roll : 0.16, Pitch : -17.93, Yaw : 46.88, Alt : 49.3300018311, Lat : 49.2837948, Lng : -123.1146464, Q1 : 0.906160235405, Q2 : 0.0633449479938, Q3 : -0.142435237765, Q4 : 0.393158018589}
2019-04-14 15:38:40.61: SIM {TimeUS : 65434649, Roll : 0.15, Pitch : -17.95, Yaw : 46.86, Alt : 49.3300018311, Lat : 49.2837977, Lng : -123.1146416, Q1 : 0.906188666821, Q2 : 0.0633124113083, Q3 : -0.142640799284, Q4 : 0.39302328229}
2019-04-14 15:38:40.71: SIM {TimeUS : 65534609, Roll : 0.13, Pitch : -17.97, Yaw : 46.85, Alt : 49.3400001526, Lat : 49.2838007, Lng : -123.1146367, Q1 : 0.906220853329, Q2 : 0.0631911456585, Q3 : -0.142889142036, Q4 : 0.392878353596}
2019-04-14 15:38:40.81: SIM {TimeUS : 65634569, Roll : 0.12, Pitch : -17.99, Yaw : 46.84, Alt : 49.3400001526, Lat : 49.2838036, Lng : -123.1146318, Q1 : 0.906247675419, Q2 : 0.0631509870291, Q3 : -0.143095105886, Q4 : 0.392747908831}
2019-04-14 15:38:40.91: SIM {TimeUS : 65734529, Roll : 0.13, Pitch : -18.01, Yaw : 46.82, Alt : 49.3400001526, Lat : 49.2838065, Lng : -123.1146269, Q1 : 0.906267464161, Q2 : 0.0632692500949, Q3 : -0.143211334944, Q4 : 0.392640829086}
2019-04-14 15:38:41.01: SIM {TimeUS : 65835322, Roll : 0.14, Pitch : -18.02, Yaw : 46.81, Alt : 49.3400001526, Lat : 49.2838093, Lng : -123.114622, Q1 : 0.906286716461, Q2 : 0.0634236633778, Q3 : -0.143277212977, Q4 : 0.392547428608}
2019-04-14 15:38:41.11: SIM {TimeUS : 65935282, Roll : 0.17, Pitch : -18.03, Yaw : 46.8, Alt : 49.3400001526, Lat : 49.2838123, Lng : -123.1146171, Q1 : 0.906289339066, Q2 : 0.0636688694358, Q3 : -0.143259719014, Q4 : 0.392508119345}
2019-04-14 15:38:41.21: SIM {TimeUS : 66035242, Roll : 0.19, Pitch : -18.05, Yaw : 46.8, Alt : 49.3400001526, Lat : 49.2838153, Lng : -123.1146123, Q1 : 0.906281530857, Q2 : 0.0638338401914, Q3 : -0.143309354782, Q4 : 0.392481178045}
2019-04-14 15:38:41.31: SIM {TimeUS : 66135202, Roll : 0.2, Pitch : -18.06, Yaw : 46.79, Alt : 49.3400001526, Lat : 49.2838182, Lng : -123.1146074, Q1 : 0.906265676022, Q2 : 0.0639986470342, Q3 : -0.143408954144, Q4 : 0.392454534769}
2019-04-14 15:38:41.41: SIM {TimeUS : 66235162, Roll : 0.22, Pitch : -18.08, Yaw : 46.79, Alt : 49.3400001526, Lat : 49.2838211, Lng : -123.1146025, Q1 : 0.906248509884, Q2 : 0.0641663148999, Q3 : -0.143511936069, Q4 : 0.392429202795}
2019-04-14 15:38:41.51: SIM {TimeUS : 66335122, Roll : 0.23, Pitch : -18.1, Yaw : 46.78, Alt : 49.3400001526, Lat : 49.283824, Lng : -123.1145976, Q1 : 0.906235218048, Q2 : 0.0643420144916, Q3 : -0.143570497632, Q4 : 0.392409712076}
2019-04-14 15:38:41.61: SIM {TimeUS : 66435082, Roll : 0.25, Pitch : -18.11, Yaw : 46.78, Alt : 49.3400001526, Lat : 49.2838269, Lng : -123.1145927, Q1 : 0.906219005585, Q2 : 0.0645622387528, Q3 : -0.143620207906, Q4 : 0.392392843962}
2019-04-14 15:38:41.71: SIM {TimeUS : 66535042, Roll : 0.25, Pitch : -18.11, Yaw : 46.77, Alt : 49.3400001526, Lat : 49.2838299, Lng : -123.1145877, Q1 : 0.906238436699, Q2 : 0.0645117014647, Q3 : -0.143630087376, Q4 : 0.392352610826}
2019-04-14 15:38:41.81: SIM {TimeUS : 66635002, Roll : 0.22, Pitch : -18.12, Yaw : 46.77, Alt : 49.3400001526, Lat : 49.2838329, Lng : -123.1145828, Q1 : 0.90626502037, Q2 : 0.0642990171909, Q3 : -0.14378477633, Q4 : 0.392269402742}
2019-04-14 15:38:41.91: SIM {TimeUS : 66734962, Roll : 0.19, Pitch : -18.14, Yaw : 46.76, Alt : 49.3400001526, Lat : 49.2838358, Lng : -123.1145779, Q1 : 0.906277596951, Q2 : 0.0641137287021, Q3 : -0.144049301744, Q4 : 0.392173677683}
