2019-04-14 18:11:07.00: SIM {TimeUS : 40016487, Roll : 0.0, Pitch : 0.0, Yaw : 0.0, Alt : 30.1000003815, Lat : 49.28357, Lng : -123.11502, Q1 : 1.0, Q2 : 0.0, Q3 : 0.0, Q4 : 0.0}
2019-04-14 18:11:07.11: SIM {TimeUS : 40135606, Roll : 0.0, Pitch : 0.0, Yaw : 0.0, Alt : 30.1000003815, Lat : 49.28357, Lng : -123.11502, Q1 : 1.0, Q2 : 0.0, Q3 : 0.0, Q4 : 0.0}
2019-04-14 18:11:07.21: SIM {TimeUS : 40235566, Roll : 0.0, Pitch : 0.0, Yaw : 0.0, Alt : 30.1000003815, Lat : 49.28357, Lng : -123.11502, Q1 : 1.0, Q2 : 0.0, Q3 : 0.0, Q4 : 0.0}
2019-04-14 18:11:07.31: SIM {TimeUS : 40335526, Roll : 0.0, Pitch : 0.0, Yaw : 0.0, Alt : 30.1000003815, Lat : 49.28357, Lng : -123.11502, Q1 : 1.0, Q2 : 0.0, Q3 : 0.0, Q4 : 0.0}
2019-04-14 18:11:07.41: SIM {TimeUS : 40435486, Roll : 0.0, Pitch : 0.0, Yaw : 0.0, Alt : 30.1000003815, Lat : 49.28357, Lng : -123.11502, Q1 : 1.0, Q2 : 0.0, Q3 : 0.0, Q4 : 0.0}
2019-04-14 18:11:07.51: SIM {TimeUS : 40535446, Roll : 0.0, Pitch : 0.0, Yaw : 0.0, Alt : 30.1000003815, Lat : 49.28357, Lng : -123.11502, Q1 : 1.0, Q2 : 0.0, Q3 : 0.0, Q4 : 0.0}
2019-04-14 18:11:07.61: SIM {TimeUS : 40635406, Roll : 0.0, Pitch : 0.0, Yaw : 0.0, Alt : 30.1000003815, Lat : 49.28357, Lng : -123.11502, Q1 : 1.0, Q2 : 0.0, Q3 : 0.0, Q4 : 0.0}
2019-04-14 18:11:07.71: SIM {TimeUS : 40735366, Roll : 0.0, Pitch : 0.0, Yaw : 0.0, Alt : 30.1000003815, Lat : 49.28357, Lng : -123.11502, Q1 : 1.0, Q2 : 0.0, Q3 : 0.0, Q4 : 0.0}
2019-04-14 18:11:07.81: SIM {TimeUS : 40835326, Roll : 0.0, Pitch : 0.0, Yaw : 0.0, Alt : 30.1000003815, Lat : 49.28357, Lng : -123.11502, Q1 : 1.0, Q2 : 0.0, Q3 : 0.0, Q4 : 0.0}
2019-04-14 18:11:07.91: SIM {TimeUS : 40935286, Roll : 0.0, Pitch : 0.0, Yaw : 0.0, Alt : 30.1000003815, Lat : 49.28357, Lng : -123.11502, Q1 : 1.0, Q2 : 0.0, Q3 : 0.0, Q4 : 0.0}
2019-04-14 18:11:08.01: SIM {TimeUS : 41035246, Roll : 0.0, Pitch : 0.0, Yaw : 0.0, Alt : 30.1000003815, Lat : 49.28357, Lng : -123.11502, Q1 : 1.0, Q2 : 0.0, Q3 : 0.0, Q4 : 0.0}
2019-04-14 18:11:08.11: SIM {TimeUS : 41135206, Roll : 0.0, Pitch : 0.0, Yaw : 0.0, Alt : 30.1000003815, Lat : 49.28357, Lng : -123.11502, Q1 : 1.0, Q2 : 0.0, Q3 : 0.0, Q4 : 0.0}
2019-04-14 18:11:08.21: SIM {TimeUS : 41235166, Roll : 0.0, Pitch : 0.0, Yaw : 0.0, Alt : 30.1000003815, Lat : 49.28357, Lng : -123.11502, Q1 : 1.0, Q2 : 0.0, Q3 : 0.0, Q4 : 0.0}
2019-04-14 18:11:08.31: SIM {TimeUS : 41335126, Roll : 0.0, Pitch : 0.0, Yaw : 0.0, Alt : 30.1000003815, Lat : 49.28357, Lng : -123.11502, Q1 : 1.0, Q2 : 0.0, Q3 : 0.0, Q4 : 0.0}
2019-04-14 18:11:08.41: SIM {TimeUS : 41435086, Roll : 0.0, Pitch : 0.0, Yaw : 0.0, Alt : 30.1000003815, Lat : 49.28357, Lng : -123.11502, Q1 : 1.0, Q2 : 0.0, Q3 : 0.0, Q4 : 0.0}
2019-04-14 18:11:08.51: SIM {TimeUS : 41535046, Roll : 0.0, Pitch : 0.0, Yaw : 0.0, Alt : 30.1000003815, Lat : 49.28357, Lng : -123.11502, Q1 : 1.0, Q2 : 0.0, Q3 : 0.0, Q4 : 0.0}
2019-04-14 18:11:08.61: SIM {TimeUS : 41635006, Roll : 0.0, Pitch : 0.0, Yaw : 0.0, Alt : 30.1000003815, Lat : 49.28357, Lng : -123.11502, Q1 : 1.0, Q2 : 0.0, Q3 : 0.0, Q4 : 0.0}
2019-04-14 18:11:08.71: SIM {TimeUS : 41734966, Roll : 0.0, Pitch : 0.0, Yaw : 0.0, Alt : 30.1000003815, Lat : 49.28357, Lng : -123.11502, Q1 : 1.0, Q2 : 0.0, Q3 : 0.0, Q4 : 0.0}
2019-04-14 18:11:08.81: SIM {TimeUS : 41834926, Roll : 0.0, Pitch : 0.0, Yaw : 0.0, Alt : 30.1000003815, Lat : 49.28357, Lng : -123.11502, Q1 : 1.0, Q2 : 0.0, Q3 : 0.0, Q4 : 0.0}
2019-04-14 18:11:08.91: SIM {TimeUS : 41934886, Roll : 0.0, Pitch : 0.0, Yaw : 0.0, Alt : 30.1000003815, Lat : 49.28357, Lng : -123.11502, Q1 : 1.0, Q2 : 0.0, Q3 : 0.0, Q4 : 0.0}
2019-04-14 18:11:09.01: SIM {TimeUS : 42034846, Roll : 0.0, Pitch : 0.0, Yaw : 0.0, Alt : 30.1000003815, Lat : 49.28357, Lng : -123.11502, Q1 : 1.0, Q2 : 0.0, Q3 : 0.0, Q4 : 0.0}
2019-04-14 18:11:09.11: SIM {TimeUS : 42135639, Roll : 0.0, Pitch : 0.0, Yaw : 0.0, Alt : 30.1000003815, Lat : 49.28357, Lng : -123.11502, Q1 : 1.0, Q2 : 0.0, Q3 : 0.0, Q4 : 0.0}
2019-04-14 18:11:09.21: SIM {TimeUS : 42235599, Roll : 0.0, Pitch : 0.0, Yaw : 0.0, Alt : 30.1000003815, Lat : 49.28357, Lng : -123.11502, Q1 : 1.0, Q2 : 0.0, Q3 : 0.0, Q4 : 0.0}
2019-04-14 18:11:09.31: SIM {TimeUS : 42335559, Roll : 0.0, Pitch : 0.0, Yaw : 360.0, Alt : 30.1000003815, Lat : 49.28357, Lng : -123.11502, Q1 : 1.0, Q2 : 0.0, Q3 : 0.0, Q4 : -7.07429687746e-12}
2019-04-14 18:11:09.41: SIM {TimeUS : 42435519, Roll : 0.0, Pitch : 0.0, Yaw : 0.0, Alt : 30.1000003815, Lat : 49.28357, Lng : -123.11502, Q1 : 1.0, Q2 : 0.0, Q3 : 0.0, Q4 : 1.12069374614e-10}
2019-04-14 18:11:09.51: SIM {TimeUS : 42535479, Roll : 0.0, Pitch : 0.0, Yaw : 360.0, Alt : 30.1000003815, Lat : 49.28357, Lng : -123.11502, Q1 : 1.0, Q2 : 0.0, Q3 : 0.0, Q4 : -1.04528304234e-07}
2019-04-14 18:11:09.61: SIM {TimeUS : 42635439, Roll : 0.0, Pitch : 0.0, Yaw : 359.99, Alt : 30.1000003815, Lat : 49.28357, Lng : -123.11502, Q1 : 1.0, Q2 : 0.0, Q3 : 0.0, Q4 : -2.74021118685e-07}
2019-04-14 18:11:09.71: SIM {TimeUS : 42735399, Roll : 0.0, Pitch : 0.0, Yaw : 359.99, Alt : 30.1000003815, Lat : 49.28357, Lng : -123.11502, Q1 : 1.0, Q2 : 0.0, Q3 : 0.0, Q4 : -4.5793669301e-07}
2019-04-14 18:11:09.81: SIM {TimeUS : 42835359, Roll : 0.0, Pitch : 0.0, Yaw : 359.99, Alt : 30.1000003815, Lat : 49.28357, Lng : -123.11502, Q1 : 1.0, Q2 : 0.0, Q3 : 0.0, Q4 : -6.41150165848e-07}
2019-04-14 18:11:09.91: SIM {TimeUS : 42935319, Roll : 0.0, Pitch : 0.0, Yaw : 359.99, Alt : 30.1000003815, Lat : 49.28357, Lng : -123.11502, Q1 : 1.0, Q2 : 0.0, Q3 : 0.0, Q4 : -8.36135200188e-07}
2019-04-14 18:11:10.01: SIM {TimeUS : 43035279, Roll : 0.0, Pitch : 0.0, Yaw : 359.99, Alt : 30.1000003815, Lat : 49.28357, Lng : -123.11502, Q1 : 1.0, Q2 : 0.0, Q3 : 0.0, Q4 : -1.03357081116e-06}
2019-04-14 18:11:10.11: SIM {TimeUS : 43135239, Roll : 0.0, Pitch : 0.0, Yaw : 359.99, Alt : 30.1000003815, Lat : 49.28357, Lng : -123.11502, Q1 : 1.0, Q2 : 0.0, Q3 : 0.0, Q4 : -1.2264548559e-06}
2019-04-14 18:11:10.21: SIM {TimeUS : 43235199, Roll : 0.0, Pitch : 0.0, Yaw : 359.99, Alt : 30.1100006104, Lat : 49.28357, Lng : -123.11502, Q1 : 1.0, Q2 : 0.0, Q3 : 0.0, Q4 : -1.48382480347e-06}
2019-04-14 18:11:10.31: SIM {TimeUS : 43335159, Roll : 0.0, Pitch : 0.0, Yaw : 359.99, Alt : 30.1299991608, Lat : 49.28357, Lng : -123.11502, Q1 : 1.0, Q2 : 0.0, Q3 : 0.0, Q4 : -1.70802513821e-06}
2019-04-14 18:11:10.41: SIM {TimeUS : 43435119, Roll : 0.0, Pitch : 0.0, Yaw : 359.99, Alt : 30.1499996185, Lat : 49.28357, Lng : -123.11502, Q1 : 1.0, Q2 : 0.0, Q3 : 0.0, Q4 : -1.95164193428e-06}
2019-04-14 18:11:10.51: SIM {TimeUS : 43535079, Roll : 0.0, Pitch : 0.0, Yaw : 359.99, Alt : 30.1900005341, Lat : 49.28357, Lng : -123.11502, Q1 : 1.0, Q2 : 0.0, Q3 : 0.0, Q4 : -2.19103094423e-06}
2019-04-14 18:11:10.61: SIM {TimeUS : 43635039, Roll : -0.02, Pitch : -0.02, Yaw : 359.99, Alt : 30.2299995422, Lat : 49.28357, Lng : -123.11502, Q1 : 0.999999940395, Q2 : -0.000244466820732, Q3 : -0.000250868994044, Q4 : -3.50019377038e-06}
2019-04-14 18:11:10.71: SIM {TimeUS : 43734999, Roll : -0.27, Pitch : -0.27, Yaw : 359.99, Alt : 30.2999992371, Lat : 49.28357, Lng : -123.11502, Q1 : 0.999994397163, Q2 : -0.002358001424, Q3 : -0.0023679214064, Q4 : -3.23075764754e-05}
2019-04-14 18:11:10.81: SIM {TimeUS : 43834959, Roll : -0.59, Pitch : -0.54, Yaw : 359.99, Alt : 30.4300003052, Lat : 49.28357, Lng : -123.11502, Q1 : 0.999975204468, Q2 : -0.00520046195015, Q3 : -0.00475108157843, Q4 : -9.16928911465e-05}
2019-04-14 18:11:10.91: SIM {TimeUS : 43934919, Roll : -0.82, Pitch : -0.68, Yaw : 359.98, Alt : 30.5900001526, Lat : 49.28357, Lng : -123.11502, Q1 : 0.999956071377, Q2 : -0.00720974383876, Q3 : -0.00598368607461, Q4 : -0.000169469625689}
2019-04-14 18:11:11.01: SIM {TimeUS : 44034879, Roll : -0.87, Pitch : -0.68, Yaw : 359.97, Alt : 30.75, Lat : 49.28357, Lng : -123.11502, Q1 : 0.999952554703, Q2 : -0.00766844814643, Q3 : -0.00600160611793, Q4 : -0.000250301789492}
2019-04-14 18:11:11.11: SIM {TimeUS : 44134839, Roll : -0.77, Pitch : -0.59, Yaw : 359.96, Alt : 30.8999996185, Lat : 49.28357, Lng : -123.1150201, Q1 : 0.999963760376, Q2 : -0.00675824005157, Q3 : -0.00516335107386, Q4 : -0.000321193656418}
2019-04-14 18:11:11.21: SIM {TimeUS : 44235632, Roll : -0.58, Pitch : -0.44, Yaw : 359.95, Alt : 31.0599994659, Lat : 49.2835701, Lng : -123.1150202, Q1 : 0.999979734421, Q2 : -0.00507021835074, Q3 : -0.00384067557752, Q4 : -0.000385619903682}
2019-04-14 18:11:11.31: SIM {TimeUS : 44335592, Roll : -0.35, Pitch : -0.27, Yaw : 359.95, Alt : 31.2099990845, Lat : 49.2835701, Lng : -123.1150202, Q1 : 0.999992311001, Q2 : -0.00308820139617, Q3 : -0.00238504470326, Q4 : -0.000443439552328}
2019-04-14 18:11:11.41: SIM {TimeUS : 44435552, Roll : -0.13, Pitch : -0.14, Yaw : 359.94, Alt : 31.3799991608, Lat : 49.2835702, Lng : -123.1150203, Q1 : 0.999998450279, Q2 : -0.00114694668446, Q3 : -0.00127101771068, Q4 : -0.000487758923555}
2019-04-14 18:11:11.51: SIM {TimeUS : 44535512, Roll : 0.02, Pitch : -0.04, Yaw : 359.94, Alt : 31.5499992371, Lat : 49.2835702, Lng : -123.1150204, Q1 : 0.999999761581, Q2 : 0.000195594926481, Q3 : -0.000414206559071, Q4 : -0.000520268455148}
2019-04-14 18:11:11.61: SIM {TimeUS : 44635472, Roll : 0.08, Pitch : 0.01, Yaw : 359.93, Alt : 31.7299995422, Lat : 49.2835703, Lng : -123.1150205, Q1 : 0.999999582767, Q2 : 0.000714803056326, Q3 : 0.000131201988552, Q4 : -0.000541207380593}
2019-04-14 18:11:11.71: SIM {TimeUS : 44735432, Roll : 0.08, Pitch : 0.03, Yaw : 359.93, Alt : 31.9099998474, Lat : 49.2835703, Lng : -123.1150206, Q1 : 0.999999523163, Q2 : 0.000716890615877, Q3 : 0.000342843413819, Q4 : -0.000547587522306}
2019-04-14 18:11:11.81: SIM {TimeUS : 44835392, Roll : 0.05, Pitch : 0.04, Yaw : 359.93, Alt : 32.0900001526, Lat : 49.2835703, Lng : -123.1150206, Q1 : 0.999999642372, Q2 : 0.000513417588081, Q3 : 0.000389612017898, Q4 : -0.000545747752767}
2019-04-14 18:11:11.91: SIM {TimeUS : 44935352, Roll : 0.04, Pitch : 0.04, Yaw : 359.93, Alt : 32.2799987793, Lat : 49.2835703, Lng : -123.1150207, Q1 : 0.999999701977, Q2 : 0.000402308942284, Q3 : 0.000400200893637, Q4 : -0.000543446629308}
2019-04-14 18:11:12.01: SIM {TimeUS : 45035312, Roll : 0.05, Pitch : 0.04, Yaw : 359.93, Alt : 32.4700012207, Lat : 49.2835703, Lng : -123.1150207, Q1 : 0.999999642372, Q2 : 0.000510947487783, Q3 : 0.000417431845563, Q4 : -0.000528138829395}
2019-04-14 18:11:12.11: SIM {TimeUS : 45135272, Roll : 0.09, Pitch : 0.05, Yaw : 359.94, Alt : 32.6699981689, Lat : 49.2835703, Lng : -123.1150208, Q1 : 0.999999403954, Q2 : 0.000846768496558, Q3 : 0.000494952662848, Q4 : -0.000501955626532}
2019-04-14 18:11:12.21: SIM {TimeUS : 45235232, Roll : 0.13, Pitch : 0.08, Yaw : 359.94, Alt : 32.8699989319, Lat : 49.2835704, Lng : -123.1150208, Q1 : 0.999998986721, Q2 : 0.00117204594426, Q3 : 0.000702546560206, Q4 : -0.000479464273667}
2019-04-14 18:11:12.31: SIM {TimeUS : 45335192, Roll : 0.15, Pitch : 0.1, Yaw : 359.94, Alt : 33.0699996948, Lat : 49.2835704, Lng : -123.1150208, Q1 : 0.999998509884, Q2 : 0.00137438531965, Q3 : 0.000945822277572, Q4 : -0.000461654824903}
2019-04-14 18:11:12.41: SIM {TimeUS : 45435152, Roll : 0.15, Pitch : 0.14, Yaw : 359.94, Alt : 33.2700004578, Lat : 49.2835704, Lng : -123.1150209, Q1 : 0.999998211861, Q2 : 0.00133464403916, Q3 : 0.0012398007093, Q4 : -0.000461259100121}
2019-04-14 18:11:12.51: SIM {TimeUS : 45535112, Roll : 0.15, Pitch : 0.17, Yaw : 359.94, Alt : 33.4700012207, Lat : 49.2835704, Lng : -123.1150209, Q1 : 0.999997735023, Q2 : 0.0013961775694, Q3 : 0.0015366502339, Q4 : -0.000475406443002}
2019-04-14 18:11:12.61: SIM {TimeUS : 45635072, Roll : 0.17, Pitch : 0.19, Yaw : 359.94, Alt : 33.6800003052, Lat : 49.2835704, Lng : -123.1150209, Q1 : 0.999997317791, Q2 : 0.00151658558752, Q3 : 0.00168116402347, Q4 : -0.000487865734613}
2019-04-14 18:11:12.71: SIM {TimeUS : 45735032, Roll : 0.18, Pitch : 0.19, Yaw : 359.94, Alt : 33.8899993896, Lat : 49.2835704, Lng : -123.1150209, Q1 : 0.999997138977, Q2 : 0.0015934095718, Q3 : 0.00170736550353, Q4 : -0.000500184076373}
2019-04-14 18:11:12.81: SIM {TimeUS : 45834992, Roll : 0.16, Pitch : 0.18, Yaw : 359.94, Alt : 34.0999984741, Lat : 49.2835706, Lng : -123.1150209, Q1 : 0.999997496605, Q2 : 0.00143233092967, Q3 : 0.00163739407435, Q4 : -0.000523905211594}
2019-04-14 18:11:12.91: SIM {TimeUS : 45934952, Roll : 0.13, Pitch : 0.14, Yaw : 359.93, Alt : 34.3100013733, Lat : 49.2835706, Lng : -123.1150209, Q1 : 0.999998271465, Q2 : 0.00121131760534, Q3 : 0.00127593323123, Q4 : -0.000548516516574}
2019-04-14 18:11:13.01: SIM {TimeUS : 46034912, Roll : 0.11, Pitch : 0.08, Yaw : 359.93, Alt : 34.5200004578, Lat : 49.2835706, Lng : -123.1150209, Q1 : 0.99999910593, Q2 : 0.000973877904471, Q3 : 0.000741200346965, Q4 : -0.00056173565099}
2019-04-14 18:11:13.11: SIM {TimeUS : 46134872, Roll : 0.08, Pitch : 0.04, Yaw : 359.93, Alt : 34.7299995422, Lat : 49.2835706, Lng : -123.1150209, Q1 : 0.999999463558, Q2 : 0.000767664168961, Q3 : 0.000393159891246, Q4 : -0.00058629718842}
2019-04-14 18:11:13.21: SIM {TimeUS : 46234832, Roll : 0.07, Pitch : 0.02, Yaw : 359.92, Alt : 34.9500007629, Lat : 49.2835706, Lng : -123.1150209, Q1 : 0.999999582767, Q2 : 0.000657043536194, Q3 : 0.000259851163719, Q4 : -0.000620105187409}
2019-04-14 18:11:13.31: SIM {TimeUS : 46335625, Roll : 0.08, Pitch : 0.04, Yaw : 359.92, Alt : 35.1699981689, Lat : 49.2835706, Lng : -123.1150209, Q1 : 0.999999463558, Q2 : 0.000716252019629, Q3 : 0.000356701319106, Q4 : -0.000661144265905}
2019-04-14 18:11:13.41: SIM {TimeUS : 46435585, Roll : 0.07, Pitch : 0.04, Yaw : 359.91, Alt : 35.3800010681, Lat : 49.2835706, Lng : -123.1150208, Q1 : 0.999999463558, Q2 : 0.00068877171725, Q3 : 0.000389668421121, Q4 : -0.000702735036612}
2019-04-14 18:11:13.51: SIM {TimeUS : 46535545, Roll : 0.05, Pitch : 0.04, Yaw : 359.91, Alt : 35.5999984741, Lat : 49.2835706, Lng : -123.1150208, Q1 : 0.999999523163, Q2 : 0.000521044188645, Q3 : 0.000407994259149, Q4 : -0.00073646788951}
2019-04-14 18:11:13.61: SIM {TimeUS : 46635505, Roll : 0.03, Pitch : 0.05, Yaw : 359.91, Alt : 35.8199996948, Lat : 49.2835704, Lng : -123.1150208, Q1 : 0.999999523163, Q2 : 0.000333385163685, Q3 : 0.000472001149319, Q4 : -0.000767274585087}
2019-04-14 18:11:13.71: SIM {TimeUS : 46735465, Roll : 0.02, Pitch : 0.07, Yaw : 359.9, Alt : 36.0400009155, Lat : 49.2835704, Lng : -123.1150208, Q1 : 0.999999463558, Q2 : 0.000191223240108, Q3 : 0.000631004106253, Q4 : -0.000796582025941}
2019-04-14 18:11:13.81: SIM {TimeUS : 46835425, Roll : 0.0, Pitch : 0.06, Yaw : 359.9, Alt : 36.2599983215, Lat : 49.2835704, Lng : -123.1150208, Q1 : 0.999999463558, Q2 : 5.34100690857e-05, Q3 : 0.000606935238466, Q4 : -0.00082089251373}
2019-04-14 18:11:13.91: SIM {TimeUS : 46935385, Roll : 0.0, Pitch : 0.05, Yaw : 359.9, Alt : 36.4799995422, Lat : 49.2835704, Lng : -123.1150207, Q1 : 0.999999523163, Q2 : -3.88591324736e-05, Q3 : 0.000471753126476, Q4 : -0.000850140640978}
2019-04-14 18:11:14.01: SIM {TimeUS : 47035345, Roll : -0.01, Pitch : 0.03, Yaw : 359.89, Alt : 36.7099990845, Lat : 49.2835704, Lng : -123.1150207, Q1 : 0.999999523163, Q2 : -0.000117149225844, Q3 : 0.000347119872458, Q4 : -0.000878333579749}
2019-04-14 18:11:14.11: SIM {TimeUS : 47135305, Roll : -0.01, Pitch : 0.02, Yaw : 359.89, Alt : 36.9300003052, Lat : 49.2835704, Lng : -123.1150207, Q1 : 0.999999523163, Q2 : -0.000162873548106, Q3 : 0.00022753450321, Q4 : -0.000900935439859}
2019-04-14 18:11:14.21: SIM {TimeUS : 47235265, Roll : 0.0, Pitch : 0.0, Yaw : 359.89, Alt : 37.1500015259, Lat : 49.2835704, Lng : -123.1150207, Q1 : 0.999999582767, Q2 : -7.76895540184e-05, Q3 : 8.2591723185e-05, Q4 : -0.000919122423511}
2019-04-14 18:11:14.31: SIM {TimeUS : 47335225, Roll : -0.01, Pitch : -0.01, Yaw : 359.89, Alt : 37.3800010681, Lat : 49.2835704, Lng : -123.1150207, Q1 : 0.999999582767, Q2 : -8.9389817731e-05, Q3 : -0.000118327508972, Q4 : -0.000933675270062}
2019-04-14 18:11:14.41: SIM {TimeUS : 47435185, Roll : -0.03, Pitch : -0.04, Yaw : 359.89, Alt : 37.5999984741, Lat : 49.2835704, Lng : -123.1150207, Q1 : 0.999999403954, Q2 : -0.00026656218688, Q3 : -0.000407027662732, Q4 : -0.000945742009208}
2019-04-14 18:11:14.51: SIM {TimeUS : 47535145, Roll : -0.06, Pitch : -0.07, Yaw : 359.89, Alt : 37.8300018311, Lat : 49.2835704, Lng : -123.1150207, Q1 : 0.999999165535, Q2 : -0.000550584925804, Q3 : -0.000638400844764, Q4 : -0.000959825934842}
2019-04-14 18:11:14.61: SIM {TimeUS : 47635105, Roll : -0.09, Pitch : -0.08, Yaw : 359.88, Alt : 38.0600013733, Lat : 49.2835704, Lng : -123.1150207, Q1 : 0.999998867512, Q2 : -0.000852817844134, Q3 : -0.000751829880755, Q4 : -0.000972527253907}
2019-04-14 18:11:14.71: SIM {TimeUS : 47735065, Roll : -0.11, Pitch : -0.09, Yaw : 359.88, Alt : 38.2799987793, Lat : 49.2835704, Lng : -123.1150206, Q1 : 0.999998629093, Q2 : -0.00104591716081, Q3 : -0.000801197544206, Q4 : -0.000982132973149}
2019-04-14 18:11:14.81: SIM {TimeUS : 47835025, Roll : -0.12, Pitch : -0.08, Yaw : 359.88, Alt : 38.5099983215, Lat : 49.2835704, Lng : -123.1150206, Q1 : 0.999998569489, Q2 : -0.00111706322059, Q3 : -0.000759411195759, Q4 : -0.000993514549918}
2019-04-14 18:11:14.91: SIM {TimeUS : 47934985, Roll : -0.11, Pitch : -0.06, Yaw : 359.88, Alt : 38.7400016785, Lat : 49.2835704, Lng : -123.1150206, Q1 : 0.999998867512, Q2 : -0.000987537088804, Q3 : -0.000565011578146, Q4 : -0.00101066450588}
2019-04-14 18:11:15.01: SIM {TimeUS : 48034945, Roll : -0.08, Pitch : -0.05, Yaw : 359.88, Alt : 38.9700012207, Lat : 49.2835704, Lng : -123.1150206, Q1 : 0.99999910593, Q2 : -0.000744201417547, Q3 : -0.000516578264069, Q4 : -0.00103045860305}
2019-04-14 18:11:15.11: SIM {TimeUS : 48134905, Roll : -0.06, Pitch : -0.05, Yaw : 359.87, Alt : 39.2000007629, Lat : 49.2835704, Lng : -123.1150206, Q1 : 0.99999910593, Q2 : -0.000601952546276, Q3 : -0.000513861887157, Q4 : -0.00106102589052}
2019-04-14 18:11:15.21: SIM {TimeUS : 48234865, Roll : -0.05, Pitch : -0.04, Yaw : 359.87, Alt : 39.4300003052, Lat : 49.2835704, Lng : -123.1150206, Q1 : 0.99999922514, Q2 : -0.000511942605954, Q3 : -0.000354579155101, Q4 : -0.00108555913903}
2019-04-14 18:11:15.31: SIM {TimeUS : 48334825, Roll : -0.07, Pitch : 0.0, Yaw : 359.87, Alt : 39.6599998474, Lat : 49.2835704, Lng : -123.1150206, Q1 : 0.99999922514, Q2 : -0.000618184101768, Q3 : -8.48107520142e-05, Q4 : -0.00111037015449}
2019-04-14 18:11:15.41: SIM {TimeUS : 48435618, Roll : -0.06, Pitch : 0.02, Yaw : 359.86, Alt : 39.8899993896, Lat : 49.2835704, Lng : -123.1150206, Q1 : 0.999999165535, Q2 : -0.000586956273764, Q3 : 0.000202767085284, Q4 : -0.00114076561294}
2019-04-14 18:11:15.51: SIM {TimeUS : 48535578, Roll : -0.04, Pitch : 0.06, Yaw : 359.86, Alt : 40.1199989319, Lat : 49.2835704, Lng : -123.1150206, Q1 : 0.999999046326, Q2 : -0.000422725192038, Q3 : 0.000528977543581, Q4 : -0.0011724755168}
2019-04-14 18:11:15.61: SIM {TimeUS : 48635538, Roll : -0.03, Pitch : 0.06, Yaw : 359.86, Alt : 40.3600006104, Lat : 49.2835704, Lng : -123.1150206, Q1 : 0.99999910593, Q2 : -0.000277533690678, Q3 : 0.000549737480469, Q4 : -0.00119052722584}
2019-04-14 18:11:15.71: SIM {TimeUS : 48735498, Roll : 0.0, Pitch : 0.05, Yaw : 359.86, Alt : 40.5900001526, Lat : 49.2835704, Lng : -123.1150207, Q1 : 0.999999165535, Q2 : -6.94377085892e-05, Q3 : 0.000511603779159, Q4 : -0.00120349123608}
2019-04-14 18:11:15.81: SIM {TimeUS : 48835458, Roll : 0.02, Pitch : 0.06, Yaw : 359.86, Alt : 40.8199996948, Lat : 49.2835704, Lng : -123.1150207, Q1 : 0.999999046326, Q2 : 0.0002432535548, Q3 : 0.000598087033723, Q4 : -0.00121419574134}
2019-04-14 18:11:15.91: SIM {TimeUS : 48935418, Roll : 0.07, Pitch : 0.09, Yaw : 359.85, Alt : 41.0499992371, Lat : 49.2835704, Lng : -123.1150207, Q1 : 0.999998688698, Q2 : 0.000659031618852, Q3 : 0.000836395018268, Q4 : -0.0012300509261}
2019-04-14 18:11:16.01: SIM {TimeUS : 49035378, Roll : 0.1, Pitch : 0.12, Yaw : 359.85, Alt : 41.2900009155, Lat : 49.2835706, Lng : -123.1150207, Q1 : 0.999998271465, Q2 : 0.000880105071701, Q3 : 0.00108433293644, Q4 : -0.00125327135902}
2019-04-14 18:11:16.11: SIM {TimeUS : 49135338, Roll : 0.08, Pitch : 0.14, Yaw : 359.85, Alt : 41.5200004578, Lat : 49.2835706, Lng : -123.1150207, Q1 : 0.999998152256, Q2 : 0.000745359517168, Q3 : 0.00124311633408, Q4 : -0.00127020687796}
2019-04-14 18:11:16.21: SIM {TimeUS : 49235298, Roll : 0.03, Pitch : 0.15, Yaw : 359.85, Alt : 41.75, Lat : 49.2835706, Lng : -123.1150207, Q1 : 0.999998271465, Q2 : 0.000333232339472, Q3 : 0.00133204436861, Q4 : -0.00128355342895}
2019-04-14 18:11:16.31: SIM {TimeUS : 49335258, Roll : -0.01, Pitch : 0.15, Yaw : 359.85, Alt : 41.9900016785, Lat : 49.2835706, Lng : -123.1150207, Q1 : 0.999998211861, Q2 : -8.64057728904e-05, Q3 : 0.00135370425414, Q4 : -0.0013033032883}
2019-04-14 18:11:16.41: SIM {TimeUS : 49435218, Roll : -0.02, Pitch : 0.12, Yaw : 359.84, Alt : 42.2200012207, Lat : 49.2835706, Lng : -123.1150207, Q1 : 0.999998450279, Q2 : -0.000232847349253, Q3 : 0.00112415419426, Q4 : -0.0013221190311}
2019-04-14 18:11:16.51: SIM {TimeUS : 49535178, Roll : -0.02, Pitch : 0.09, Yaw : 359.84, Alt : 42.4500007629, Lat : 49.2835706, Lng : -123.1150207, Q1 : 0.999998748302, Q2 : -0.000224385250476, Q3 : 0.000804336450528, Q4 : -0.00134024955332}
2019-04-14 18:11:16.61: SIM {TimeUS : 49635138, Roll : -0.01, Pitch : 0.09, Yaw : 359.84, Alt : 42.6899986267, Lat : 49.2835706, Lng : -123.1150207, Q1 : 0.999998748302, Q2 : -0.000102999139926, Q3 : 0.00080803578021, Q4 : -0.00136163714342}
2019-04-14 18:11:16.71: SIM {TimeUS : 49735098, Roll : 0.02, Pitch : 0.11, Yaw : 359.83, Alt : 42.9199981689, Lat : 49.2835706, Lng : -123.1150207, Q1 : 0.999998509884, Q2 : 0.000213720428292, Q3 : 0.00100012857001, Q4 : -0.00139728630893}
2019-04-14 18:11:16.81: SIM {TimeUS : 49835058, Roll : 0.07, Pitch : 0.13, Yaw : 359.83, Alt : 43.1599998474, Lat : 49.2835704, Lng : -123.1150207, Q1 : 0.999997973442, Q2 : 0.000696274451911, Q3 : 0.00121036532801, Q4 : -0.00142831553239}
2019-04-14 18:11:16.91: SIM {TimeUS : 49935018, Roll : 0.12, Pitch : 0.13, Yaw : 359.83, Alt : 43.3899993896, Lat : 49.2835704, Lng : -123.1150207, Q1 : 0.999997675419, Q2 : 0.00106043252163, Q3 : 0.00118426885456, Q4 : -0.00146128365304}
2019-04-14 18:11:17.01: SIM {TimeUS : 50034978, Roll : 0.12, Pitch : 0.12, Yaw : 359.82, Alt : 43.6300010681, Lat : 49.2835704, Lng : -123.1150207, Q1 : 0.999997735023, Q2 : 0.00107874476817, Q3 : 0.00104688084684, Q4 : -0.00148855906446}
2019-04-14 18:11:17.11: SIM {TimeUS : 50134938, Roll : 0.07, Pitch : 0.1, Yaw : 359.82, Alt : 43.8600006104, Lat : 49.2835704, Lng : -123.1150207, Q1 : 0.999998271465, Q2 : 0.000695825263392, Q3 : 0.000883661909029, Q4 : -0.00149653013796}
2019-04-14 18:11:17.21: SIM {TimeUS : 50234898, Roll : 0.01, Pitch : 0.08, Yaw : 359.82, Alt : 44.0999984741, Lat : 49.2835704, Lng : -123.1150207, Q1 : 0.999998569489, Q2 : 0.000156604743097, Q3 : 0.000759459740948, Q4 : -0.00150390411727}
2019-04-14 18:11:17.31: SIM {TimeUS : 50334858, Roll : -0.02, Pitch : 0.08, Yaw : 359.82, Alt : 44.3400001526, Lat : 49.2835704, Lng : -123.1150207, Q1 : 0.999998509884, Q2 : -0.000249410659308, Q3 : 0.000776533852331, Q4 : -0.00151923450176}
2019-04-14 18:11:17.41: SIM {TimeUS : 50434818, Roll : -0.05, Pitch : 0.08, Yaw : 359.82, Alt : 44.5699996948, Lat : 49.2835704, Lng : -123.1150206, Q1 : 0.999998450279, Q2 : -0.000446580408607, Q3 : 0.000716758484486, Q4 : -0.001539664343}
2019-04-14 18:11:17.51: SIM {TimeUS : 50535611, Roll : -0.04, Pitch : 0.05, Yaw : 359.82, Alt : 44.8100013733, Lat : 49.2835704, Lng : -123.1150206, Q1 : 0.999998569489, Q2 : -0.000398511852836, Q3 : 0.000516611209605, Q4 : -0.00156622310169}
2019-04-14 18:11:17.61: SIM {TimeUS : 50635571, Roll : -0.04, Pitch : 0.03, Yaw : 359.81, Alt : 45.0499992371, Lat : 49.2835704, Lng : -123.1150206, Q1 : 0.999998569489, Q2 : -0.000393055554014, Q3 : 0.000273614743492, Q4 : -0.00159794837236}
2019-04-14 18:11:17.71: SIM {TimeUS : 50735531, Roll : -0.03, Pitch : 0.01, Yaw : 359.81, Alt : 45.2799987793, Lat : 49.2835703, Lng : -123.1150206, Q1 : 0.999998629093, Q2 : -0.000304517976474, Q3 : 9.63841739576e-05, Q4 : -0.00163389684167}
2019-04-14 18:11:17.81: SIM {TimeUS : 50835491, Roll : -0.01, Pitch : 0.0, Yaw : 359.8, Alt : 45.5200004578, Lat : 49.2835703, Lng : -123.1150206, Q1 : 0.999998629093, Q2 : -0.000165546385688, Q3 : -5.80005576012e-07, Q4 : -0.00166963681113}
2019-04-14 18:11:17.91: SIM {TimeUS : 50935451, Roll : -0.01, Pitch : 0.0, Yaw : 359.8, Alt : 45.75, Lat : 49.2835703, Lng : -123.1150206, Q1 : 0.999998509884, Q2 : -0.000149540530401, Q3 : 9.93116191239e-06, Q4 : -0.00170720741153}
2019-04-14 18:11:18.01: SIM {TimeUS : 51035411, Roll : -0.02, Pitch : 0.0, Yaw : 359.79, Alt : 45.9799995422, Lat : 49.2835703, Lng : -123.1150206, Q1 : 0.999998450279, Q2 : -0.000229118100833, Q3 : -1.75373661477e-05, Q4 : -0.00174807303119}
2019-04-14 18:11:18.11: SIM {TimeUS : 51135371, Roll : -0.03, Pitch : -0.01, Yaw : 359.79, Alt : 46.2099990845, Lat : 49.2835703, Lng : -123.1150206, Q1 : 0.99999833107, Q2 : -0.000287259812467, Q3 : -0.000161711810506, Q4 : -0.00179225916509}
2019-04-14 18:11:18.21: SIM {TimeUS : 51235331, Roll : -0.03, Pitch : -0.03, Yaw : 359.78, Alt : 46.4399986267, Lat : 49.2835703, Lng : -123.1150206, Q1 : 0.999998211861, Q2 : -0.00029657932464, Q3 : -0.000293591001537, Q4 : -0.00183494621888}
2019-04-14 18:11:18.31: SIM {TimeUS : 51335291, Roll : -0.02, Pitch : -0.04, Yaw : 359.78, Alt : 46.6599998474, Lat : 49.2835703, Lng : -123.1150205, Q1 : 0.999998152256, Q2 : -0.000235235696891, Q3 : -0.000387892941944, Q4 : -0.0018735777121}
2019-04-14 18:11:18.41: SIM {TimeUS : 51435251, Roll : -0.03, Pitch : -0.05, Yaw : 359.78, Alt : 46.8699989319, Lat : 49.2835703, Lng : -123.1150205, Q1 : 0.999998033047, Q2 : -0.000275734142633, Q3 : -0.000453742453828, Q4 : -0.00190781918354}
2019-04-14 18:11:18.51: SIM {TimeUS : 51535211, Roll : -0.05, Pitch : -0.05, Yaw : 359.77, Alt : 47.0800018311, Lat : 49.2835703, Lng : -123.1150205, Q1 : 0.999997913837, Q2 : -0.000449287646916, Q3 : -0.00043552936404, Q4 : -0.00193331763148}
2019-04-14 18:11:18.61: SIM {TimeUS : 51635171, Roll : -0.08, Pitch : -0.04, Yaw : 359.77, Alt : 47.2799987793, Lat : 49.2835703, Lng : -123.1150205, Q1 : 0.999997794628, Q2 : -0.000714835652616, Q3 : -0.000399938377086, Q4 : -0.00195219111629}
2019-04-14 18:11:18.71: SIM {TimeUS : 51735131, Roll : -0.1, Pitch : -0.04, Yaw : 359.77, Alt : 47.4700012207, Lat : 49.2835703, Lng : -123.1150205, Q1 : 0.99999755621, Q2 : -0.000899740261957, Q3 : -0.000347459572367, Q4 : -0.00196811300702}
2019-04-14 18:11:18.81: SIM {TimeUS : 51835091, Roll : -0.12, Pitch : -0.03, Yaw : 359.77, Alt : 47.6599998474, Lat : 49.2835703, Lng : -123.1150205, Q1 : 0.999997437, Q2 : -0.00107349874452, Q3 : -0.000318510603392, Q4 : -0.00198348797858}
2019-04-14 18:11:18.91: SIM {TimeUS : 51935051, Roll : -0.14, Pitch : -0.04, Yaw : 359.77, Alt : 47.8300018311, Lat : 49.2835703, Lng : -123.1150205, Q1 : 0.999997079372, Q2 : -0.00129571917932, Q3 : -0.000394574599341, Q4 : -0.00200219615363}
2019-04-14 18:11:19.01: SIM {TimeUS : 52035011, Roll : -0.15, Pitch : -0.05, Yaw : 359.76, Alt : 47.9900016785, Lat : 49.2835703, Lng : -123.1150205, Q1 : 0.999996900558, Q2 : -0.00135946180671, Q3 : -0.000458760478068, Q4 : -0.00202308851294}
2019-04-14 18:11:19.11: SIM {TimeUS : 52134971, Roll : -0.14, Pitch : -0.05, Yaw : 359.76, Alt : 48.1399993896, Lat : 49.2835703, Lng : -123.1150205, Q1 : 0.999997019768, Q2 : -0.00126227992587, Q3 : -0.000445171550382, Q4 : -0.00204518483952}
2019-04-14 18:11:19.21: SIM {TimeUS : 52234931, Roll : -0.12, Pitch : -0.04, Yaw : 359.76, Alt : 48.2700004578, Lat : 49.2835703, Lng : -123.1150205, Q1 : 0.999997138977, Q2 : -0.00111091381405, Q3 : -0.000431243068306, Q4 : -0.00207111868076}
2019-04-14 18:11:19.31: SIM {TimeUS : 52334891, Roll : -0.09, Pitch : -0.05, Yaw : 359.75, Alt : 48.4000015259, Lat : 49.2835703, Lng : -123.1150205, Q1 : 0.999997317791, Q2 : -0.000860209402163, Q3 : -0.000482264556922, Q4 : -0.00210083788261}
2019-04-14 18:11:19.41: SIM {TimeUS : 52434851, Roll : -0.06, Pitch : -0.06, Yaw : 359.75, Alt : 48.5099983215, Lat : 49.2835703, Lng : -123.1150206, Q1 : 0.999997437, Q2 : -0.000536383944564, Q3 : -0.000541230663657, Q4 : -0.00213264254853}
2019-04-14 18:11:19.51: SIM {TimeUS : 52535644, Roll : -0.04, Pitch : -0.07, Yaw : 359.75, Alt : 48.6100006104, Lat : 49.2835703, Lng : -123.1150206, Q1 : 0.999997437, Q2 : -0.000358243647497, Q3 : -0.000612064322922, Q4 : -0.00215803226456}
2019-04-14 18:11:19.61: SIM {TimeUS : 52635604, Roll : -0.03, Pitch : -0.07, Yaw : 359.75, Alt : 48.7000007629, Lat : 49.2835703, Lng : -123.1150206, Q1 : 0.999997377396, Q2 : -0.000341729813954, Q3 : -0.000680617929902, Q4 : -0.00216857064515}
2019-04-14 18:11:19.71: SIM {TimeUS : 52735564, Roll : -0.01, Pitch : -0.07, Yaw : 359.75, Alt : 48.7799987793, Lat : 49.2835703, Lng : -123.1150206, Q1 : 0.999997377396, Q2 : -0.000158442984684, Q3 : -0.000653332390357, Q4 : -0.00217667291872}
2019-04-14 18:11:19.81: SIM {TimeUS : 52835524, Roll : 0.01, Pitch : -0.05, Yaw : 359.74, Alt : 48.8400001526, Lat : 49.2835703, Lng : -123.1150206, Q1 : 0.999997496605, Q2 : 0.000111170418677, Q3 : -0.000499034766108, Q4 : -0.00218598404899}
2019-04-14 18:11:19.91: SIM {TimeUS : 52935484, Roll : 0.05, Pitch : -0.05, Yaw : 359.74, Alt : 48.9000015259, Lat : 49.2835703, Lng : -123.1150206, Q1 : 0.999997317791, Q2 : 0.000515184365213, Q3 : -0.000483077077661, Q4 : -0.00220133294351}
2019-04-14 18:11:20.01: SIM {TimeUS : 53035444, Roll : 0.2, Pitch : -0.15, Yaw : 359.74, Alt : 48.9500007629, Lat : 49.2835703, Lng : -123.1150206, Q1 : 0.99999499321, Q2 : 0.00178699102253, Q3 : -0.00135354395024, Q4 : -0.00222557131201}
2019-04-14 18:11:20.11: SIM {TimeUS : 53135404, Roll : 0.54, Pitch : -0.44, Yaw : 359.73, Alt : 49.0, Lat : 49.2835703, Lng : -123.1150206, Q1 : 0.999978840351, Q2 : 0.00471613090485, Q3 : -0.00387095473707, Q4 : -0.00225291843526}
2019-04-14 18:11:20.21: SIM {TimeUS : 53235364, Roll : 1.06, Pitch : -0.94, Yaw : 359.72, Alt : 49.0299987793, Lat : 49.2835703, Lng : -123.1150206, Q1 : 0.999920129776, Q2 : 0.00931352097541, Q3 : -0.0082355234772, Q4 : -0.00228109373711}
2019-04-14 18:11:20.31: SIM {TimeUS : 53335324, Roll : 1.73, Pitch : -1.58, Yaw : 359.71, Alt : 49.0600013733, Lat : 49.2835704, Lng : -123.1150206, Q1 : 0.999786734581, Q2 : 0.0151417851448, Q3 : -0.0138564826921, Q4 : -0.0022934791632}
2019-04-14 18:11:20.41: SIM {TimeUS : 53435284, Roll : 2.49, Pitch : -2.29, Yaw : 359.69, Alt : 49.0900001526, Lat : 49.2835704, Lng : -123.1150205, Q1 : 0.999561488628, Q2 : 0.0216847341508, Q3 : -0.0200382117182, Q4 : -0.00226371875033}
2019-04-14 18:11:20.51: SIM {TimeUS : 53535244, Roll : 3.2, Pitch : -2.96, Yaw : 359.66, Alt : 49.1100006104, Lat : 49.2835706, Lng : -123.1150204, Q1 : 0.999272882938, Q2 : 0.027879672125, Q3 : -0.0259177740663, Q4 : -0.00216949847527}
2019-04-14 18:11:20.61: SIM {TimeUS : 53635204, Roll : 3.79, Pitch : -3.5, Yaw : 359.65, Alt : 49.1300010681, Lat : 49.2835707, Lng : -123.1150202, Q1 : 0.998983502388, Q2 : 0.0329890027642, Q3 : -0.0306543856859, Q4 : -0.00200072186999}
2019-04-14 18:11:20.71: SIM {TimeUS : 53735164, Roll : 4.24, Pitch : -3.88, Yaw : 359.65, Alt : 49.1500015259, Lat : 49.2835709, Lng : -123.11502, Q1 : 0.998738229275, Q2 : 0.0369007512927, Q3 : -0.0340174660087, Q4 : -0.001762647531}
2019-04-14 18:11:20.81: SIM {TimeUS : 53835124, Roll : 4.58, Pitch : -4.17, Yaw : 359.66, Alt : 49.1699981689, Lat : 49.283571, Lng : -123.1150198, Q1 : 0.998536348343, Q2 : 0.0399085879326, Q3 : -0.0364731773734, Q4 : -0.00148963031825}
2019-04-14 18:11:20.91: SIM {TimeUS : 53935084, Roll : 4.86, Pitch : -4.42, Yaw : 359.67, Alt : 49.1800003052, Lat : 49.2835713, Lng : -123.1150193, Q1 : 0.998352527618, Q2 : 0.0423191301525, Q3 : -0.0387283302844, Q4 : -0.00120396923739}
2019-04-14 18:11:21.01: SIM {TimeUS : 54035044, Roll : 5.11, Pitch : -4.69, Yaw : 359.68, Alt : 49.1899986267, Lat : 49.2835715, Lng : -123.1150189, Q1 : 0.998168766499, Q2 : 0.0444633774459, Q3 : -0.0410042926669, Q4 : -0.000905065156985}
2019-04-14 18:11:21.11: SIM {TimeUS : 54135004, Roll : 5.36, Pitch : -4.97, Yaw : 359.69, Alt : 49.2000007629, Lat : 49.283572, Lng : -123.1150183, Q1 : 0.997964680195, Q2 : 0.0466220602393, Q3 : -0.0435039177537, Q4 : -0.000607285473961}
2019-04-14 18:11:21.21: SIM {TimeUS : 54234964, Roll : 5.61, Pitch : -5.26, Yaw : 359.7, Alt : 49.2099990845, Lat : 49.2835724, Lng : -123.1150175, Q1 : 0.997746169567, Q2 : 0.0488436967134, Q3 : -0.046008579433, Q4 : -0.000320391292917}
2019-04-14 18:11:21.31: SIM {TimeUS : 54334924, Roll : 5.84, Pitch : -5.49, Yaw : 359.71, Alt : 49.2200012207, Lat : 49.2835728, Lng : -123.1150169, Q1 : 0.997552990913, Q2 : 0.0508077219129, Q3 : -0.0480272211134, Q4 : -4.44719080406e-05}
2019-04-14 18:11:21.41: SIM {TimeUS : 54434884, Roll : 6.02, Pitch : -5.66, Yaw : 359.72, Alt : 49.2200012207, Lat : 49.2835733, Lng : -123.115016, Q1 : 0.997403502464, Q2 : 0.0523335337639, Q3 : -0.0494713969529, Q4 : 0.000216483880649}
2019-04-14 18:11:21.51: SIM {TimeUS : 54534844, Roll : 6.15, Pitch : -5.77, Yaw : 359.73, Alt : 49.2299995422, Lat : 49.2835739, Lng : -123.1150151, Q1 : 0.997291266918, Q2 : 0.0535237044096, Q3 : -0.0504495203495, Q4 : 0.000439678697148}
2019-04-14 18:11:21.61: SIM {TimeUS : 54635637, Roll : 6.24, Pitch : -5.85, Yaw : 359.74, Alt : 49.2400016785, Lat : 49.2835745, Lng : -123.1150141, Q1 : 0.997213423252, Q2 : 0.0543268434703, Q3 : -0.0511236600578, Q4 : 0.000595637538936}
2019-04-14 18:11:21.71: SIM {TimeUS : 54735597, Roll : 6.33, Pitch : -5.94, Yaw : 359.74, Alt : 49.2400016785, Lat : 49.2835751, Lng : -123.115013, Q1 : 0.997134447098, Q2 : 0.0550586171448, Q3 : -0.0518746189773, Q4 : 0.000670891720802}
2019-04-14 18:11:21.81: SIM {TimeUS : 54835557, Roll : 6.53, Pitch : -5.99, Yaw : 359.78, Alt : 49.2400016785, Lat : 49.2835759, Lng : -123.1150118, Q1 : 0.997009158134, Q2 : 0.0568480491638, Q3 : -0.0523426048458, Q4 : 0.00114277226385}
2019-04-14 18:11:21.91: SIM {TimeUS : 54935517, Roll : 7.01, Pitch : -5.92, Yaw : 0.26, Alt : 49.25, Lat : 49.2835767, Lng : -123.1150106, Q1 : 0.996782004833, Q2 : 0.0612116381526, Q3 : -0.0514715313911, Q4 : 0.00542957568541}
2019-04-14 18:11:22.01: SIM {TimeUS : 55035477, Roll : 7.66, Pitch : -5.83, Yaw : 1.84, Alt : 49.25, Lat : 49.2835775, Lng : -123.1150093, Q1 : 0.996288001537, Q2 : 0.0675429552794, Q3 : -0.0497037023306, Q4 : 0.0194342136383}
2019-04-14 18:11:22.11: SIM {TimeUS : 55135437, Roll : 8.17, Pitch : -6.06, Yaw : 4.98, Alt : 49.25, Lat : 49.2835782, Lng : -123.1150078, Q1 : 0.994956970215, Q2 : 0.073401004076, Q3 : -0.0495905391872, Q4 : 0.0470499955118}
2019-04-14 18:11:22.21: SIM {TimeUS : 55235397, Roll : 8.27, Pitch : -6.74, Yaw : 9.67, Alt : 49.2599983215, Lat : 49.2835792, Lng : -123.1150063, Q1 : 0.991765201092, Q2 : 0.0766757503152, Q3 : -0.0524006709456, Q4 : 0.0881860628724}
2019-04-14 18:11:22.31: SIM {TimeUS : 55335357, Roll : 7.78, Pitch : -7.83, Yaw : 15.72, Alt : 49.2599983215, Lat : 49.28358, Lng : -123.1150047, Q1 : 0.985373735428, Q2 : 0.0763779580593, Q3 : -0.0582405328751, Q4 : 0.140758737922}
2019-04-14 18:11:22.41: SIM {TimeUS : 55435317, Roll : 6.63, Pitch : -9.16, Yaw : 22.88, Alt : 49.2599983215, Lat : 49.283581, Lng : -123.1150029, Q1 : 0.974444925785, Q2 : 0.0723324194551, Q3 : -0.0667147636414, Q4 : 0.201926484704}
2019-04-14 18:11:22.51: SIM {TimeUS : 55535277, Roll : 4.81, Pitch : -10.53, Yaw : 30.87, Alt : 49.2599983215, Lat : 49.2835818, Lng : -123.115001, Q1 : 0.957987129688, Q2 : 0.0646871477365, Q3 : -0.0772714540362, Q4 : 0.26852452755}
2019-04-14 18:11:22.61: SIM {TimeUS : 55635237, Roll : 2.18, Pitch : -11.7, Yaw : 39.23, Alt : 49.2599983215, Lat : 49.2835829, Lng : -123.114999, Q1 : 0.936237573624, Q2 : 0.0521029420197, Q3 : -0.0896412432194, Q4 : 0.335721552372}
2019-04-14 18:11:22.71: SIM {TimeUS : 55735197, Roll : -0.96, Pitch : -12.44, Yaw : 47.13, Alt : 49.2700004578, Lat : 49.2835838, Lng : -123.1149969, Q1 : 0.911536037922, Q2 : 0.0356245711446, Q3 : -0.102717116475, Q4 : 0.396588206291}
2019-04-14 18:11:22.81: SIM {TimeUS : 55835157, Roll : -4.03, Pitch : -12.69, Yaw : 53.72, Alt : 49.2700004578, Lat : 49.2835849, Lng : -123.1149948, Q1 : 0.887815237045, Q2 : 0.0187411475927, Q3 : -0.114373758435, Q4 : 0.445366710424}
2019-04-14 18:11:22.91: SIM {TimeUS : 55935117, Roll : -6.38, Pitch : -12.61, Yaw : 58.45, Alt : 49.2700004578, Lat : 49.2835861, Lng : -123.1149926, Q1 : 0.869044542313, Q2 : 0.00525970105082, Q3 : -0.12274158746, Q4 : 0.479237318039}
2019-04-14 18:11:23.01: SIM {TimeUS : 56035077, Roll : -7.69, Pitch : -12.44, Yaw : 61.16, Alt : 49.2700004578, Lat : 49.2835874, Lng : -123.1149904, Q1 : 0.857585191727, Q2 : -0.00234879995696, Q3 : -0.127049297094, Q4 : 0.498398035765}
2019-04-14 18:11:23.11: SIM {TimeUS : 56135037, Roll : -7.93, Pitch : -12.42, Yaw : 62.06, Alt : 49.2700004578, Lat : 49.2835889, Lng : -123.1149882, Q1 : 0.85367244482, Q2 : -0.00328969629481, Q3 : -0.127990245819, Q4 : 0.504827737808}
2019-04-14 18:11:23.21: SIM {TimeUS : 56234997, Roll : -7.3, Pitch : -12.67, Yaw : 61.47, Alt : 49.2700004578, Lat : 49.2835903, Lng : -123.1149859, Q1 : 0.856123507023, Q2 : 0.00184387015179, Q3 : -0.127038046718, Q4 : 0.500909686089}
2019-04-14 18:11:23.31: SIM {TimeUS : 56334957, Roll : -6.07, Pitch : -13.18, Yaw : 59.76, Alt : 49.2700004578, Lat : 49.2835921, Lng : -123.1149835, Q1 : 0.863147974014, Q2 : 0.0115028079599, Q3 : -0.125646799803, Q4 : 0.488933652639}
2019-04-14 18:11:23.41: SIM {TimeUS : 56434917, Roll : -4.46, Pitch : -13.87, Yaw : 57.25, Alt : 49.2700004578, Lat : 49.2835937, Lng : -123.1149813, Q1 : 0.872933626175, Q2 : 0.0238977894187, Q3 : -0.124417707324, Q4 : 0.471100896597}
2019-04-14 18:11:23.51: SIM {TimeUS : 56534877, Roll : -2.65, Pitch : -14.59, Yaw : 54.26, Alt : 49.2700004578, Lat : 49.2835954, Lng : -123.1149789, Q1 : 0.883860230446, Q2 : 0.0374501273036, Q3 : -0.12349973619, Q4 : 0.44959589839}
2019-04-14 18:11:23.61: SIM {TimeUS : 56634837, Roll : -0.83, Pitch : -15.21, Yaw : 51.1, Alt : 49.2799987793, Lat : 49.2835972, Lng : -123.1149764, Q1 : 0.894642472267, Q2 : 0.0505589880049, Q3 : -0.122523397207, Q4 : 0.426669359207}
2019-04-14 18:11:23.71: SIM {TimeUS : 56735630, Roll : 0.83, Pitch : -15.63, Yaw : 48.09, Alt : 49.2799987793, Lat : 49.2835992, Lng : -123.1149737, Q1 : 0.904311776161, Q2 : 0.0620118044317, Q3 : -0.121250607073, Q4 : 0.404565274715}
2019-04-14 18:11:23.81: SIM {TimeUS : 56835590, Roll : 2.17, Pitch : -15.82, Yaw : 45.56, Alt : 49.2799987793, Lat : 49.2836011, Lng : -123.114971, Q1 : 0.912011265755, Q2 : 0.0706519037485, Q3 : -0.119618408382, Q4 : 0.385921269655}
2019-04-14 18:11:23.91: SIM {TimeUS : 56935550, Roll : 3.08, Pitch : -15.83, Yaw : 43.72, Alt : 49.2799987793, Lat : 49.283603, Lng : -123.1149681, Q1 : 0.917515516281, Q2 : 0.0760144069791, Q3 : -0.117846444249, Q4 : 0.372154980898}
2019-04-14 18:11:24.01: SIM {TimeUS : 57035510, Roll : 3.52, Pitch : -15.75, Yaw : 42.65, Alt : 49.2799987793, Lat : 49.2836049, Lng : -123.1149652, Q1 : 0.920756340027, Q2 : 0.0782343074679, Q3 : -0.116521343589, Q4 : 0.364019095898}
2019-04-14 18:11:24.11: SIM {TimeUS : 57135470, Roll : 3.51, Pitch : -15.68, Yaw : 42.33, Alt : 49.2799987793, Lat : 49.2836068, Lng : -123.1149621, Q1 : 0.921857953072, Q2 : 0.0776017680764, Q3 : -0.116244241595, Q4 : 0.361446022987}
2019-04-14 18:11:24.21: SIM {TimeUS : 57235430, Roll : 3.11, Pitch : -15.68, Yaw : 42.67, Alt : 49.2799987793, Lat : 49.2836087, Lng : -123.1149588, Q1 : 0.921068012714, Q2 : 0.0746638700366, Q3 : -0.117256179452, Q4 : 0.363744497299}
2019-04-14 18:11:24.31: SIM {TimeUS : 57335390, Roll : 2.42, Pitch : -15.74, Yaw : 43.51, Alt : 49.2799987793, Lat : 49.2836108, Lng : -123.1149555, Q1 : 0.918719410896, Q2 : 0.0702577158809, Q3 : -0.119443155825, Q4 : 0.369799733162}
2019-04-14 18:11:24.41: SIM {TimeUS : 57435350, Roll : 1.57, Pitch : -15.88, Yaw : 44.68, Alt : 49.2799987793, Lat : 49.2836128, Lng : -123.1149521, Q1 : 0.915236890316, Q2 : 0.0651392564178, Q3 : -0.122590176761, Q4 : 0.378246039152}
2019-04-14 18:11:24.51: SIM {TimeUS : 57535310, Roll : 0.69, Pitch : -16.04, Yaw : 46.0, Alt : 49.2799987793, Lat : 49.2836147, Lng : -123.1149486, Q1 : 0.91112869978, Q2 : 0.0600908622146, Q3 : -0.126070275903, Q4 : 0.387736976147}
2019-04-14 18:11:24.61: SIM {TimeUS : 57635270, Roll : -0.11, Pitch : -16.18, Yaw : 47.3, Alt : 49.2799987793, Lat : 49.2836169, Lng : -123.1149451, Q1 : 0.906940817833, Q2 : 0.0555888153613, Q3 : -0.12933985889, Q4 : 0.397038370371}
2019-04-14 18:11:24.71: SIM {TimeUS : 57735230, Roll : -0.77, Pitch : -16.28, Yaw : 48.43, Alt : 49.2900009155, Lat : 49.2836189, Lng : -123.1149415, Q1 : 0.903171479702, Q2 : 0.0520123615861, Q3 : -0.131936639547, Q4 : 0.405177354813}
2019-04-14 18:11:24.81: SIM {TimeUS : 57835190, Roll : -1.22, Pitch : -16.35, Yaw : 49.3, Alt : 49.2900009155, Lat : 49.2836212, Lng : -123.1149378, Q1 : 0.900191366673, Q2 : 0.0496820993721, Q3 : -0.133669212461, Q4 : 0.411484926939}
2019-04-14 18:11:24.91: SIM {TimeUS : 57935150, Roll : -1.46, Pitch : -16.4, Yaw : 49.86, Alt : 49.2900009155, Lat : 49.2836232, Lng : -123.1149342, Q1 : 0.898207366467, Q2 : 0.0486801527441, Q3 : -0.134698063135, Q4 : 0.415584176779}
2019-04-14 18:11:25.01: SIM {TimeUS : 58035110, Roll : -1.49, Pitch : -16.45, Yaw : 50.11, Alt : 49.2900009155, Lat : 49.2836256, Lng : -123.1149304, Q1 : 0.897289276123, Q2 : 0.0488713830709, Q3 : -0.135078459978, Q4 : 0.417417377234}
2019-04-14 18:11:25.11: SIM {TimeUS : 58135070, Roll : -1.37, Pitch : -16.5, Yaw : 50.06, Alt : 49.2900009155, Lat : 49.2836278, Lng : -123.1149267, Q1 : 0.897365152836, Q2 : 0.0499129295349, Q3 : -0.135049536824, Q4 : 0.417140454054}
2019-04-14 18:11:25.21: SIM {TimeUS : 58235030, Roll : -1.13, Pitch : -16.52, Yaw : 49.77, Alt : 49.2900009155, Lat : 49.28363, Lng : -123.1149229, Q1 : 0.8982629776, Q2 : 0.0515730939806, Q3 : -0.134515523911, Q4 : 0.415173918009}
2019-04-14 18:11:25.31: SIM {TimeUS : 58334990, Roll : -0.8, Pitch : -16.54, Yaw : 49.32, Alt : 49.2900009155, Lat : 49.2836324, Lng : -123.114919, Q1 : 0.899710953236, Q2 : 0.0537539795041, Q3 : -0.133647605777, Q4 : 0.41203045845}
2019-04-14 18:11:25.41: SIM {TimeUS : 58434950, Roll : -0.44, Pitch : -16.57, Yaw : 48.78, Alt : 49.2900009155, Lat : 49.2836347, Lng : -123.1149152, Q1 : 0.901437699795, Q2 : 0.0559999644756, Q3 : -0.132852986455, Q4 : 0.408196240664}
2019-04-14 18:11:25.51: SIM {TimeUS : 58534910, Roll : -0.09, Pitch : -16.6, Yaw : 48.23, Alt : 49.2900009155, Lat : 49.2836372, Lng : -123.1149112, Q1 : 0.903183162212, Q2 : 0.0582649931312, Q3 : -0.132158249617, Q4 : 0.404227077961}
2019-04-14 18:11:25.61: SIM {TimeUS : 58634870, Roll : 0.23, Pitch : -16.63, Yaw : 47.72, Alt : 49.2900009155, Lat : 49.2836396, Lng : -123.1149073, Q1 : 0.904767632484, Q2 : 0.0603589266539, Q3 : -0.13144159317, Q4 : 0.400593847036}
2019-04-14 18:11:25.71: SIM {TimeUS : 58734830, Roll : 0.48, Pitch : -16.64, Yaw : 47.31, Alt : 49.2900009155, Lat : 49.283642, Lng : -123.1149033, Q1 : 0.906059324741, Q2 : 0.0619096197188, Q3 : -0.130908295512, Q4 : 0.397601217031}
2019-04-14 18:11:25.81: SIM {TimeUS : 58835623, Roll : 0.62, Pitch : -16.67, Yaw : 47.01, Alt : 49.2900009155, Lat : 49.2836445, Lng : -123.1148992, Q1 : 0.906966865063, Q2 : 0.0628071352839, Q3 : -0.130849704146, Q4 : 0.395404547453}
2019-04-14 18:11:25.91: SIM {TimeUS : 58935583, Roll : 0.66, Pitch : -16.73, Yaw : 46.85, Alt : 49.2900009155, Lat : 49.2836469, Lng : -123.1148951, Q1 : 0.907448589802, Q2 : 0.0630937889218, Q3 : -0.131213992834, Q4 : 0.394130945206}
2019-04-14 18:11:26.01: SIM {TimeUS : 59035543, Roll : 0.61, Pitch : -16.79, Yaw : 46.81, Alt : 49.2900009155, Lat : 49.2836493, Lng : -123.114891, Q1 : 0.907531678677, Q2 : 0.0629136636853, Q3 : -0.131927356124, Q4 : 0.393730014563}
2019-04-14 18:11:26.11: SIM {TimeUS : 59135503, Roll : 0.52, Pitch : -16.85, Yaw : 46.88, Alt : 49.2900009155, Lat : 49.2836518, Lng : -123.1148868, Q1 : 0.907295703888, Q2 : 0.0624161660671, Q3 : -0.132646650076, Q4 : 0.394111216068}
2019-04-14 18:11:26.21: SIM {TimeUS : 59235463, Roll : 0.39, Pitch : -16.89, Yaw : 47.02, Alt : 49.2900009155, Lat : 49.2836543, Lng : -123.1148826, Q1 : 0.906821429729, Q2 : 0.0617036521435, Q3 : -0.133360996842, Q4 : 0.395072668791}
2019-04-14 18:11:26.31: SIM {TimeUS : 59335423, Roll : 0.24, Pitch : -16.93, Yaw : 47.21, Alt : 49.2900009155, Lat : 49.2836568, Lng : -123.1148784, Q1 : 0.906194150448, Q2 : 0.0609370917082, Q3 : -0.13406509161, Q4 : 0.396390467882}
2019-04-14 18:11:26.41: SIM {TimeUS : 59435383, Roll : 0.11, Pitch : -16.96, Yaw : 47.42, Alt : 49.2900009155, Lat : 49.2836594, Lng : -123.1148741, Q1 : 0.905513703823, Q2 : 0.0602020509541, Q3 : -0.134707018733, Q4 : 0.397837430239}
2019-04-14 18:11:26.51: SIM {TimeUS : 59535343, Roll : 0.0, Pitch : -16.98, Yaw : 47.61, Alt : 49.2900009155, Lat : 49.2836619, Lng : -123.1148698, Q1 : 0.904870986938, Q2 : 0.0595947168767, Q3 : -0.135159194469, Q4 : 0.399235457182}
2019-04-14 18:11:26.61: SIM {TimeUS : 59635303, Roll : -0.09, Pitch : -17.01, Yaw : 47.77, Alt : 49.2900009155, Lat : 49.2836645, Lng : -123.1148655, Q1 : 0.904318392277, Q2 : 0.0591563954949, Q3 : -0.135567396879, Q4 : 0.400412589312}
2019-04-14 18:11:26.71: SIM {TimeUS : 59735263, Roll : -0.15, Pitch : -17.03, Yaw : 47.89, Alt : 49.2900009155, Lat : 49.283667, Lng : -123.1148612, Q1 : 0.903905272484, Q2 : 0.0589182898402, Q3 : -0.135899707675, Q4 : 0.40126696229}
2019-04-14 18:11:26.81: SIM {TimeUS : 59835223, Roll : -0.18, Pitch : -17.06, Yaw : 47.96, Alt : 49.2999992371, Lat : 49.2836695, Lng : -123.1148568, Q1 : 0.903663754463, Q2 : 0.0588549897075, Q3 : -0.136164501309, Q4 : 0.401730209589}
2019-04-14 18:11:26.91: SIM {TimeUS : 59935183, Roll : -0.17, Pitch : -17.09, Yaw : 47.97, Alt : 49.2999992371, Lat : 49.2836722, Lng : -123.1148524, Q1 : 0.903583645821, Q2 : 0.0590011887252, Q3 : -0.136409446597, Q4 : 0.401805877686}
2019-04-14 18:11:27.01: SIM {TimeUS : 60035143, Roll : -0.16, Pitch : -17.14, Yaw : 47.93, Alt : 49.2999992371, Lat : 49.2836748, Lng : -123.1148481, Q1 : 0.903646469116, Q2 : 0.0592706277966, Q3 : -0.136737331748, Q4 : 0.401513308287}
2019-04-14 18:11:27.11: SIM {TimeUS : 60135103, Roll : -0.14, Pitch : -17.18, Yaw : 47.86, Alt : 49.2999992371, Lat : 49.2836774, Lng : -123.1148436, Q1 : 0.903853714466, Q2 : 0.059419028461, Q3 : -0.137042135, Q4 : 0.400920599699}
2019-04-14 18:11:27.21: SIM {TimeUS : 60235063, Roll : -0.13, Pitch : -17.19, Yaw : 47.76, Alt : 49.2999992371, Lat : 49.2836801, Lng : -123.1148392, Q1 : 0.90417355299, Q2 : 0.059474285692, Q3 : -0.137187704444, Q4 : 0.400140672922}
2019-04-14 18:11:27.31: SIM {TimeUS : 60335023, Roll : -0.1, Pitch : -17.21, Yaw : 47.65, Alt : 49.2999992371, Lat : 49.2836827, Lng : -123.1148347, Q1 : 0.904529392719, Q2 : 0.059637028724, Q3 : -0.137296006083, Q4 : 0.399274200201}
2019-04-14 18:11:27.41: SIM {TimeUS : 60434983, Roll : -0.04, Pitch : -17.24, Yaw : 47.53, Alt : 49.2999992371, Lat : 49.2836853, Lng : -123.1148303, Q1 : 0.904860436916, Q2 : 0.0600453987718, Q3 : -0.137412399054, Q4 : 0.398421794176}
2019-04-14 18:11:27.51: SIM {TimeUS : 60534943, Roll : 0.02, Pitch : -17.28, Yaw : 47.43, Alt : 49.2999992371, Lat : 49.2836881, Lng : -123.1148258, Q1 : 0.905141294003, Q2 : 0.0606106631458, Q3 : -0.137500882149, Q4 : 0.397667050362}
2019-04-14 18:11:27.61: SIM {TimeUS : 60634903, Roll : 0.09, Pitch : -17.32, Yaw : 47.34, Alt : 49.2999992371, Lat : 49.2836907, Lng : -123.1148213, Q1 : 0.905350446701, Q2 : 0.0612427219748, Q3 : -0.137610718608, Q4 : 0.397055625916}
2019-04-14 18:11:27.71: SIM {TimeUS : 60734863, Roll : 0.16, Pitch : -17.37, Yaw : 47.28, Alt : 49.3100013733, Lat : 49.2836934, Lng : -123.1148168, Q1 : 0.90547811985, Q2 : 0.0618528798223, Q3 : -0.137786775827, Q4 : 0.396608650684}
2019-04-14 18:11:27.81: SIM {TimeUS : 60834823, Roll : 0.19, Pitch : -17.4, Yaw : 47.24, Alt : 49.3100013733, Lat : 49.2836961, Lng : -123.1148122, Q1 : 0.905558943748, Q2 : 0.0621981061995, Q3 : -0.137964054942, Q4 : 0.396308422089}
2019-04-14 18:11:27.91: SIM {TimeUS : 60935616, Roll : 0.18, Pitch : -17.4, Yaw : 47.22, Alt : 49.3100013733, Lat : 49.2836987, Lng : -123.1148077, Q1 : 0.905634760857, Q2 : 0.062085211277, Q3 : -0.138024821877, Q4 : 0.396131724119}
2019-04-14 18:11:28.01: SIM {TimeUS : 61035576, Roll : 0.15, Pitch : -17.39, Yaw : 47.21, Alt : 49.3100013733, Lat : 49.2837015, Lng : -123.1148031, Q1 : 0.905682206154, Q2 : 0.0617491640151, Q3 : -0.138034358621, Q4 : 0.396072298288}
2019-04-14 18:11:28.11: SIM {TimeUS : 61135536, Roll : 0.13, Pitch : -17.38, Yaw : 47.22, Alt : 49.3100013733, Lat : 49.2837042, Lng : -123.1147985, Q1 : 0.905672311783, Q2 : 0.0615773946047, Q3 : -0.138013064861, Q4 : 0.396129220724}
2019-04-14 18:11:28.21: SIM {TimeUS : 61235496, Roll : 0.11, Pitch : -17.39, Yaw : 47.24, Alt : 49.3100013733, Lat : 49.283707, Lng : -123.1147939, Q1 : 0.905606508255, Q2 : 0.0615151673555, Q3 : -0.13815960288, Q4 : 0.396238178015}
2019-04-14 18:11:28.31: SIM {TimeUS : 61335456, Roll : 0.11, Pitch : -17.44, Yaw : 47.26, Alt : 49.3100013733, Lat : 49.2837096, Lng : -123.1147893, Q1 : 0.905483603477, Q2 : 0.0616571754217, Q3 : -0.138517871499, Q4 : 0.396371871233}
2019-04-14 18:11:28.41: SIM {TimeUS : 61435416, Roll : 0.11, Pitch : -17.5, Yaw : 47.28, Alt : 49.3100013733, Lat : 49.2837125, Lng : -123.1147847, Q1 : 0.905333995819, Q2 : 0.0619452893734, Q3 : -0.139019235969, Q4 : 0.396493077278}
2019-04-14 18:11:28.51: SIM {TimeUS : 61535376, Roll : 0.11, Pitch : -17.54, Yaw : 47.29, Alt : 49.3100013733, Lat : 49.2837151, Lng : -123.1147801, Q1 : 0.905244112015, Q2 : 0.0620592795312, Q3 : -0.139332726598, Q4 : 0.396570444107}
2019-04-14 18:11:28.61: SIM {TimeUS : 61635336, Roll : 0.1, Pitch : -17.54, Yaw : 47.3, Alt : 49.3100013733, Lat : 49.283718, Lng : -123.1147754, Q1 : 0.905226767063, Q2 : 0.0620291270316, Q3 : -0.139325201511, Q4 : 0.396617472172}
2019-04-14 18:11:28.71: SIM {TimeUS : 61735296, Roll : 0.09, Pitch : -17.54, Yaw : 47.3, Alt : 49.3100013733, Lat : 49.2837208, Lng : -123.1147707, Q1 : 0.905233263969, Q2 : 0.0619643852115, Q3 : -0.139404684305, Q4 : 0.396584779024}
2019-04-14 18:11:28.81: SIM {TimeUS : 61835256, Roll : 0.07, Pitch : -17.57, Yaw : 47.29, Alt : 49.3199996948, Lat : 49.2837235, Lng : -123.1147661, Q1 : 0.905249893665, Q2 : 0.0618931725621, Q3 : -0.139662504196, Q4 : 0.396467298269}
2019-04-14 18:11:28.91: SIM {TimeUS : 61935216, Roll : 0.07, Pitch : -17.59, Yaw : 47.27, Alt : 49.3199996948, Lat : 49.2837263, Lng : -123.1147614, Q1 : 0.905283927917, Q2 : 0.0619223117828, Q3 : -0.139857769012, Q4 : 0.396316081285}
2019-04-14 18:11:29.01: SIM {TimeUS : 62035176, Roll : 0.07, Pitch : -17.62, Yaw : 47.25, Alt : 49.3199996948, Lat : 49.283729, Lng : -123.1147568, Q1 : 0.905330479145, Q2 : 0.0620027296245, Q3 : -0.140061050653, Q4 : 0.396125406027}
2019-04-14 18:11:29.11: SIM {TimeUS : 62135136, Roll : 0.08, Pitch : -17.64, Yaw : 47.22, Alt : 49.3199996948, Lat : 49.2837319, Lng : -123.1147521, Q1 : 0.905394852161, Q2 : 0.0620906054974, Q3 : -0.140207529068, Q4 : 0.395912647247}
2019-04-14 18:11:29.21: SIM {TimeUS : 62235096, Roll : 0.1, Pitch : -17.66, Yaw : 47.19, Alt : 49.3199996948, Lat : 49.2837346, Lng : -123.1147474, Q1 : 0.905468285084, Q2 : 0.0622719526291, Q3 : -0.140321552753, Q4 : 0.395675748587}
2019-04-14 18:11:29.31: SIM {TimeUS : 62335056, Roll : 0.12, Pitch : -17.67, Yaw : 47.16, Alt : 49.3199996948, Lat : 49.2837375, Lng : -123.1147426, Q1 : 0.905559122562, Q2 : 0.0624307319522, Q3 : -0.140339747071, Q4 : 0.395436286926}
2019-04-14 18:11:29.41: SIM {TimeUS : 62435016, Roll : 0.15, Pitch : -17.68, Yaw : 47.12, Alt : 49.3199996948, Lat : 49.2837403, Lng : -123.1147379, Q1 : 0.905638694763, Q2 : 0.0626573264599, Q3 : -0.14032997191, Q4 : 0.395221561193}
2019-04-14 18:11:29.51: SIM {TimeUS : 62534976, Roll : 0.18, Pitch : -17.69, Yaw : 47.1, Alt : 49.3199996948, Lat : 49.283743, Lng : -123.1147332, Q1 : 0.905695140362, Q2 : 0.062923848629, Q3 : -0.140373602509, Q4 : 0.395034432411}
2019-04-14 18:11:29.61: SIM {TimeUS : 62634936, Roll : 0.19, Pitch : -17.73, Yaw : 47.07, Alt : 49.3199996948, Lat : 49.2837459, Lng : -123.1147285, Q1 : 0.905727803707, Q2 : 0.0631152838469, Q3 : -0.140615046024, Q4 : 0.394842982292}
2019-04-14 18:11:29.71: SIM {TimeUS : 62734896, Roll : 0.17, Pitch : -17.77, Yaw : 47.05, Alt : 49.3199996948, Lat : 49.2837488, Lng : -123.1147237, Q1 : 0.905755162239, Q2 : 0.0630397871137, Q3 : -0.14102819562, Q4 : 0.394644916058}
2019-04-14 18:11:29.81: SIM {TimeUS : 62834856, Roll : 0.14, Pitch : -17.81, Yaw : 47.04, Alt : 49.3199996948, Lat : 49.2837515, Lng : -123.114719, Q1 : 0.905762195587, Q2 : 0.0629801526666, Q3 : -0.141455799341, Q4 : 0.394485235214}
2019-04-14 18:11:29.91: SIM {TimeUS : 62934816, Roll : 0.15, Pitch : -17.84, Yaw : 47.03, Alt : 49.3199996948, Lat : 49.2837544, Lng : -123.1147142, Q1 : 0.905757248402, Q2 : 0.0630935281515, Q3 : -0.141658976674, Q4 : 0.394405603409}
2019-04-14 18:11:30.01: SIM {TimeUS : 63035609, Roll : 0.17, Pitch : -17.84, Yaw : 47.03, Alt : 49.3199996948, Lat : 49.2837573, Lng : -123.1147094, Q1 : 0.905764698982, Q2 : 0.0632560700178, Q3 : -0.141607508063, Q4 : 0.394380986691}
2019-04-14 18:11:30.11: SIM {TimeUS : 63135569, Roll : 0.18, Pitch : -17.8, Yaw : 47.02, Alt : 49.3199996948, Lat : 49.2837601, Lng : -123.1147046, Q1 : 0.905813336372, Q2 : 0.0632408261299, Q3 : -0.141290068626, Q4 : 0.394385516644}
2019-04-14 18:11:30.21: SIM {TimeUS : 63235529, Roll : 0.17, Pitch : -17.78, Yaw : 47.02, Alt : 49.3199996948, Lat : 49.283763, Lng : -123.1146998, Q1 : 0.905853390694, Q2 : 0.0630846843123, Q3 : -0.141138002276, Q4 : 0.394372940063}
2019-04-14 18:11:30.31: SIM {TimeUS : 63335489, Roll : 0.16, Pitch : -17.77, Yaw : 47.02, Alt : 49.3199996948, Lat : 49.2837659, Lng : -123.114695, Q1 : 0.905880987644, Q2 : 0.0629315152764, Q3 : -0.141107857227, Q4 : 0.394344806671}
2019-04-14 18:11:30.41: SIM {TimeUS : 63435449, Roll : 0.15, Pitch : -17.77, Yaw : 47.01, Alt : 49.3300018311, Lat : 49.2837688, Lng : -123.1146902, Q1 : 0.905892789364, Q2 : 0.0628836303949, Q3 : -0.14115460217, Q4 : 0.394308567047}
2019-04-14 18:11:30.51: SIM {TimeUS : 63535409, Roll : 0.15, Pitch : -17.79, Yaw : 47.01, Alt : 49.3300018311, Lat : 49.2837715, Lng : -123.1146854, Q1 : 0.905889987946, Q2 : 0.062908552587, Q3 : -0.141335338354, Q4 : 0.394246339798}
2019-04-14 18:11:30.61: SIM {TimeUS : 63635369, Roll : 0.15, Pitch : -17.82, Yaw : 47.0, Alt : 49.3300018311, Lat : 49.2837745, Lng : -123.1146806, Q1 : 0.905887126923, Q2 : 0.0630011186004, Q3 : -0.141518294811, Q4 : 0.394172489643}
2019-04-14 18:11:30.71: SIM {TimeUS : 63735329, Roll : 0.14, Pitch : -17.85, Yaw : 46.99, Alt : 49.3300018311, Lat : 49.2837774, Lng : -123.1146757, Q1 : 0.905879616737, Q2 : 0.0630659237504, Q3 : -0.141819626093, Q4 : 0.394071042538}
2019-04-14 18:11:30.81: SIM {TimeUS : 63835289, Roll : 0.14, Pitch : -17.9, Yaw : 46.98, Alt : 49.3300018311, Lat : 49.2837802, Lng : -123.1146709, Q1 : 0.905860543251, Q2 : 0.0631730556488, Q3 : -0.142223000526, Q4 : 0.393952399492}
2019-04-14 18:11:30.91: SIM {TimeUS : 63935249, Roll : 0.14, Pitch : -17.93, Yaw : 46.97, Alt : 49.3300018311, Lat : 49.2837831, Lng : -123.1146661, Q1 : 0.905866086483, Q2 : 0.0632572323084, Q3 : -0.142450675368, Q4 : 0.393843799829}
2019-04-14 18:11:31.01: SIM {TimeUS : 64035209, Roll : 0.13, Pitch : -17.95, Yaw : 46.95, Alt : 49.3300018311, Lat : 49.283786, Lng : -123.1146612, Q1 : 0.905884742737, Q2 : 0.0632824450731, Q3 : -0.142668068409, Q4 : 0.393718183041}
2019-04-14 18:11:31.11: SIM {TimeUS : 64135169, Roll : 0.13, Pitch : -17.97, Yaw : 46.94, Alt : 49.3300018311, Lat : 49.2837889, Lng : -123.1146564, Q1 : 0.905912935734, Q2 : 0.0633062496781, Q3 : -0.142819419503, Q4 : 0.393594652414}
2019-04-14 18:11:31.21: SIM {TimeUS : 64235129, Roll : 0.15, Pitch : -17.97, Yaw : 46.93, Alt : 49.3300018311, Lat : 49.2837917, Lng : -123.1146515, Q1 : 0.905960023403, Q2 : 0.0634172484279, Q3 : -0.142738059163, Q4 : 0.393497884274}
2019-04-14 18:11:31.31: SIM {TimeUS : 64335089, Roll : 0.18, Pitch : -17.97, Yaw : 46.91, Alt : 49.3300018311, Lat : 49.2837946, Lng : -123.1146467, Q1 : 0.905988514423, Q2 : 0.0636469200253, Q3 : -0.142715483904, Q4 : 0.393403381109}
2019-04-14 18:11:31.41: SIM {TimeUS : 64435049, Roll : 0.19, Pitch : -17.99, Yaw : 46.89, Alt : 49.3300018311, Lat : 49.2837976, Lng : -123.1146418, Q1 : 0.906009733677, Q2 : 0.0637965202332, Q3 : -0.142824754119, Q4 : 0.393290579319}
2019-04-14 18:11:31.51: SIM {TimeUS : 64535009, Roll : 0.2, Pitch : -18.0, Yaw : 46.88, Alt : 49.3300018311, Lat : 49.2838005, Lng : -123.1146369, Q1 : 0.90604442358, Q2 : 0.0638734176755, Q3 : -0.1428399086, Q4 : 0.393192708492}
2019-04-14 18:11:31.61: SIM {TimeUS : 64634969, Roll : 0.21, Pitch : -17.99, Yaw : 46.87, Alt : 49.3300018311, Lat : 49.2838033, Lng : -123.1146321, Q1 : 0.906087517738, Q2 : 0.0639151111245, Q3 : -0.142770379782, Q4 : 0.393111854792}
2019-04-14 18:11:31.71: SIM {TimeUS : 64734929, Roll : 0.21, Pitch : -17.99, Yaw : 46.86, Alt : 49.3400001526, Lat : 49.2838063, Lng : -123.1146272, Q1 : 0.906130552292, Q2 : 0.0639030262828, Q3 : -0.142716050148, Q4 : 0.393034338951}
2019-04-14 18:11:31.81: SIM {TimeUS : 64834889, Roll : 0.19, Pitch : -18.0, Yaw : 46.85, Alt : 49.3400001526, Lat : 49.2838092, Lng : -123.1146223, Q1 : 0.906153619289, Q2 : 0.0637913197279, Q3 : -0.142891094089, Q4 : 0.392935693264}
2019-04-14 18:11:31.91: SIM {TimeUS : 64934849, Roll : 0.17, Pitch : -18.03, Yaw : 46.84, Alt : 49.3400001526, Lat : 49.2838122, Lng : -123.1146174, Q1 : 0.906153321266, Q2 : 0.0636653080583, Q3 : -0.143268212676, Q4 : 0.392819494009}
2019-04-14 18:11:32.01: SIM {TimeUS : 65035642, Roll : 0.14, Pitch : -18.04, Yaw : 46.84, Alt : 49.3400001526, Lat : 49.2838151, Lng : -123.1146125, Q1 : 0.906177401543, Q2 : 0.0635146051645, Q3 : -0.143413886428, Q4 : 0.39273506403}
2019-04-14 18:11:32.11: SIM {TimeUS : 65135602, Roll : 0.15, Pitch : -18.02, Yaw : 46.83, Alt : 49.3400001526, Lat : 49.2838181, Lng : -123.1146076, Q1 : 0.906219899654, Q2 : 0.0634838715196, Q3 : -0.143261313438, Q4 : 0.392697781324}
2019-04-14 18:11:32.21: SIM {TimeUS : 65235562, Roll : 0.16, Pitch : -18.01, Yaw : 46.82, Alt : 49.3400001526, Lat : 49.2838209, Lng : -123.1146027, Q1 : 0.906253755093, Q2 : 0.0635418072343, Q3 : -0.143093168736, Q4 : 0.392671525478}
2019-04-14 18:11:32.31: SIM {TimeUS : 65335522, Roll : 0.17, Pitch : -18.02, Yaw : 46.81, Alt : 49.3400001526, Lat : 49.2838238, Lng : -123.1145977, Q1 : 0.906267166138, Q2 : 0.0636342912912, Q3 : -0.143112972379, Q4 : 0.392618358135}
2019-04-14 18:11:32.41: SIM {TimeUS : 65435482, Roll : 0.16, Pitch : -18.04, Yaw : 46.81, Alt : 49.3400001526, Lat : 49.2838269, Lng : -123.1145928, Q1 : 0.906274318695, Q2 : 0.0636223107576, Q3 : -0.143309220672, Q4 : 0.392532140017}
2019-04-14 18:11:32.51: SIM {TimeUS : 65535442, Roll : 0.14, Pitch : -18.07, Yaw : 46.8, Alt : 49.3400001526, Lat : 49.2838298, Lng : -123.1145879, Q1 : 0.906278610229, Q2 : 0.0635254234076, Q3 : -0.143622890115, Q4 : 0.392423331738}
2019-04-14 18:11:32.61: SIM {TimeUS : 65635402, Roll : 0.13, Pitch : -18.09, Yaw : 46.79, Alt : 49.3400001526, Lat : 49.2838328, Lng : -123.114583, Q1 : 0.906287014484, Q2 : 0.0634842142463, Q3 : -0.143853902817, Q4 : 0.392325907946}
2019-04-14 18:11:32.71: SIM {TimeUS : 65735362, Roll : 0.13, Pitch : -18.11, Yaw : 46.78, Alt : 49.3400001526, Lat : 49.2838357, Lng : -123.1145781, Q1 : 0.906290411949, Q2 : 0.0635919421911, Q3 : -0.144013956189, Q4 : 0.392241895199}
2019-04-14 18:11:32.81: SIM {TimeUS : 65835322, Roll : 0.15, Pitch : -18.12, Yaw : 46.77, Alt : 49.3400001526, Lat : 49.2838385, Lng : -123.1145732, Q1 : 0.906294882298, Q2 : 0.0637733861804, Q3 : -0.144066870213, Q4 : 0.392182767391}
2019-04-14 18:11:32.91: SIM {TimeUS : 65935282, Roll : 0.18, Pitch : -18.13, Yaw : 46.76, Alt : 49.3400001526, Lat : 49.2838415, Lng : -123.1145682, Q1 : 0.906299591064, Q2 : 0.064021743834, Q3 : -0.144062682986, Q4 : 0.392132937908}
