2019-04-14 15:52:04.60: SIM {TimeUS : 40016487, Roll : 0.0, Pitch : 0.0, Yaw : 0.0, Alt : 30.1000003815, Lat : 49.28357, Lng : -123.11502, Q1 : 1.0, Q2 : 0.0, Q3 : 0.0, Q4 : 0.0}
2019-04-14 15:52:04.71: SIM {TimeUS : 40135606, Roll : 0.0, Pitch : 0.0, Yaw : 0.0, Alt : 30.1000003815, Lat : 49.28357, Lng : -123.11502, Q1 : 1.0, Q2 : 0.0, Q3 : 0.0, Q4 : 0.0}
2019-04-14 15:52:04.81: SIM {TimeUS : 40235566, Roll : 0.0, Pitch : 0.0, Yaw : 0.0, Alt : 30.1000003815, Lat : 49.28357, Lng : -123.11502, Q1 : 1.0, Q2 : 0.0, Q3 : 0.0, Q4 : 0.0}
2019-04-14 15:52:04.91: SIM {TimeUS : 40335526, Roll : 0.0, Pitch : 0.0, Yaw : 0.0, Alt : 30.1000003815, Lat : 49.28357, Lng : -123.11502, Q1 : 1.0, Q2 : 0.0, Q3 : 0.0, Q4 : 0.0}
2019-04-14 15:52:05.01: SIM {TimeUS : 40435486, Roll : 0.0, Pitch : 0.0, Yaw : 0.0, Alt : 30.1000003815, Lat : 49.28357, Lng : -123.11502, Q1 : 1.0, Q2 : 0.0, Q3 : 0.0, Q4 : 0.0}
2019-04-14 15:52:05.11: SIM {TimeUS : 40535446, Roll : 0.0, Pitch : 0.0, Yaw : 0.0, Alt : 30.1000003815, Lat : 49.28357, Lng : -123.11502, Q1 : 1.0, Q2 : 0.0, Q3 : 0.0, Q4 : 0.0}
2019-04-14 15:52:05.21: SIM {TimeUS : 40635406, Roll : 0.0, Pitch : 0.0, Yaw : 0.0, Alt : 30.1000003815, Lat : 49.28357, Lng : -123.11502, Q1 : 1.0, Q2 : 0.0, Q3 : 0.0, Q4 : 0.0}
2019-04-14 15:52:05.31: SIM {TimeUS : 40735366, Roll : 0.0, Pitch : 0.0, Yaw : 0.0, Alt : 30.1000003815, Lat : 49.28357, Lng : -123.11502, Q1 : 1.0, Q2 : 0.0, Q3 : 0.0, Q4 : 0.0}
2019-04-14 15:52:05.41: SIM {TimeUS : 40835326, Roll : 0.0, Pitch : 0.0, Yaw : 0.0, Alt : 30.1000003815, Lat : 49.28357, Lng : -123.11502, Q1 : 1.0, Q2 : 0.0, Q3 : 0.0, Q4 : 0.0}
2019-04-14 15:52:05.51: SIM {TimeUS : 40935286, Roll : 0.0, Pitch : 0.0, Yaw : 0.0, Alt : 30.1000003815, Lat : 49.28357, Lng : -123.11502, Q1 : 1.0, Q2 : 0.0, Q3 : 0.0, Q4 : 0.0}
2019-04-14 15:52:05.61: SIM {TimeUS : 41035246, Roll : 0.0, Pitch : 0.0, Yaw : 0.0, Alt : 30.1000003815, Lat : 49.28357, Lng : -123.11502, Q1 : 1.0, Q2 : 0.0, Q3 : 0.0, Q4 : 0.0}
2019-04-14 15:52:05.71: SIM {TimeUS : 41135206, Roll : 0.0, Pitch : 0.0, Yaw : 0.0, Alt : 30.1000003815, Lat : 49.28357, Lng : -123.11502, Q1 : 1.0, Q2 : 0.0, Q3 : 0.0, Q4 : 0.0}
2019-04-14 15:52:05.81: SIM {TimeUS : 41235166, Roll : 0.0, Pitch : 0.0, Yaw : 0.0, Alt : 30.1000003815, Lat : 49.28357, Lng : -123.11502, Q1 : 1.0, Q2 : 0.0, Q3 : 0.0, Q4 : 0.0}
2019-04-14 15:52:05.91: SIM {TimeUS : 41335126, Roll : 0.0, Pitch : 0.0, Yaw : 0.0, Alt : 30.1000003815, Lat : 49.28357, Lng : -123.11502, Q1 : 1.0, Q2 : 0.0, Q3 : 0.0, Q4 : 0.0}
2019-04-14 15:52:06.01: SIM {TimeUS : 41435086, Roll : 0.0, Pitch : 0.0, Yaw : 0.0, Alt : 30.1000003815, Lat : 49.28357, Lng : -123.11502, Q1 : 1.0, Q2 : 0.0, Q3 : 0.0, Q4 : 0.0}
2019-04-14 15:52:06.11: SIM {TimeUS : 41535046, Roll : 0.0, Pitch : 0.0, Yaw : 0.0, Alt : 30.1000003815, Lat : 49.28357, Lng : -123.11502, Q1 : 1.0, Q2 : 0.0, Q3 : 0.0, Q4 : 0.0}
2019-04-14 15:52:06.21: SIM {TimeUS : 41635006, Roll : 0.0, Pitch : 0.0, Yaw : 0.0, Alt : 30.1000003815, Lat : 49.28357, Lng : -123.11502, Q1 : 1.0, Q2 : 0.0, Q3 : 0.0, Q4 : 0.0}
2019-04-14 15:52:06.31: SIM {TimeUS : 41734966, Roll : 0.0, Pitch : 0.0, Yaw : 0.0, Alt : 30.1000003815, Lat : 49.28357, Lng : -123.11502, Q1 : 1.0, Q2 : 0.0, Q3 : 0.0, Q4 : 0.0}
2019-04-14 15:52:06.41: SIM {TimeUS : 41834926, Roll : 0.0, Pitch : 0.0, Yaw : 0.0, Alt : 30.1000003815, Lat : 49.28357, Lng : -123.11502, Q1 : 1.0, Q2 : 0.0, Q3 : 0.0, Q4 : 0.0}
2019-04-14 15:52:06.51: SIM {TimeUS : 41934886, Roll : 0.0, Pitch : 0.0, Yaw : 0.0, Alt : 30.1000003815, Lat : 49.28357, Lng : -123.11502, Q1 : 1.0, Q2 : 0.0, Q3 : 0.0, Q4 : 0.0}
2019-04-14 15:52:06.61: SIM {TimeUS : 42034846, Roll : 0.0, Pitch : 0.0, Yaw : 0.0, Alt : 30.1000003815, Lat : 49.28357, Lng : -123.11502, Q1 : 1.0, Q2 : 0.0, Q3 : 0.0, Q4 : 0.0}
2019-04-14 15:52:06.71: SIM {TimeUS : 42135639, Roll : 0.0, Pitch : 0.0, Yaw : 0.0, Alt : 30.1000003815, Lat : 49.28357, Lng : -123.11502, Q1 : 1.0, Q2 : 0.0, Q3 : 0.0, Q4 : 0.0}
2019-04-14 15:52:06.81: SIM {TimeUS : 42235599, Roll : 0.0, Pitch : 0.0, Yaw : 0.0, Alt : 30.1000003815, Lat : 49.28357, Lng : -123.11502, Q1 : 1.0, Q2 : 0.0, Q3 : 0.0, Q4 : 0.0}
2019-04-14 15:52:06.91: SIM {TimeUS : 42335559, Roll : 0.0, Pitch : 0.0, Yaw : 360.0, Alt : 30.1000003815, Lat : 49.28357, Lng : -123.11502, Q1 : 1.0, Q2 : 0.0, Q3 : 0.0, Q4 : -2.01208320838e-11}
2019-04-14 15:52:07.01: SIM {TimeUS : 42435519, Roll : 0.0, Pitch : 0.0, Yaw : 360.0, Alt : 30.1000003815, Lat : 49.28357, Lng : -123.11502, Q1 : 1.0, Q2 : 0.0, Q3 : 0.0, Q4 : -2.4061257875e-08}
2019-04-14 15:52:07.11: SIM {TimeUS : 42535479, Roll : 0.0, Pitch : 0.0, Yaw : 359.99, Alt : 30.1000003815, Lat : 49.28357, Lng : -123.11502, Q1 : 1.0, Q2 : 0.0, Q3 : 0.0, Q4 : -1.76403858632e-07}
2019-04-14 15:52:07.21: SIM {TimeUS : 42635439, Roll : 0.0, Pitch : 0.0, Yaw : 359.99, Alt : 30.1000003815, Lat : 49.28357, Lng : -123.11502, Q1 : 1.0, Q2 : 0.0, Q3 : 0.0, Q4 : -3.94443929963e-07}
2019-04-14 15:52:07.31: SIM {TimeUS : 42735399, Roll : 0.0, Pitch : 0.0, Yaw : 359.99, Alt : 30.1000003815, Lat : 49.28357, Lng : -123.11502, Q1 : 1.0, Q2 : 0.0, Q3 : 0.0, Q4 : -6.18526712515e-07}
2019-04-14 15:52:07.41: SIM {TimeUS : 42835359, Roll : 0.0, Pitch : 0.0, Yaw : 359.99, Alt : 30.1000003815, Lat : 49.28357, Lng : -123.11502, Q1 : 1.0, Q2 : 0.0, Q3 : 0.0, Q4 : -8.17617774374e-07}
2019-04-14 15:52:07.51: SIM {TimeUS : 42935319, Roll : 0.0, Pitch : 0.0, Yaw : 359.99, Alt : 30.1000003815, Lat : 49.28357, Lng : -123.11502, Q1 : 1.0, Q2 : 0.0, Q3 : 0.0, Q4 : -1.04502339582e-06}
2019-04-14 15:52:07.61: SIM {TimeUS : 43035279, Roll : 0.0, Pitch : 0.0, Yaw : 359.99, Alt : 30.1000003815, Lat : 49.28357, Lng : -123.11502, Q1 : 1.0, Q2 : 0.0, Q3 : 0.0, Q4 : -1.23467987123e-06}
2019-04-14 15:52:07.71: SIM {TimeUS : 43135239, Roll : 0.0, Pitch : 0.0, Yaw : 359.99, Alt : 30.1000003815, Lat : 49.28357, Lng : -123.11502, Q1 : 1.0, Q2 : 0.0, Q3 : 0.0, Q4 : -1.44366288168e-06}
2019-04-14 15:52:07.81: SIM {TimeUS : 43235199, Roll : 0.0, Pitch : 0.0, Yaw : 359.99, Alt : 30.1200008392, Lat : 49.28357, Lng : -123.11502, Q1 : 1.0, Q2 : 0.0, Q3 : 0.0, Q4 : -1.66061602158e-06}
2019-04-14 15:52:07.91: SIM {TimeUS : 43335159, Roll : 0.0, Pitch : 0.0, Yaw : 359.99, Alt : 30.1399993896, Lat : 49.28357, Lng : -123.11502, Q1 : 1.0, Q2 : 0.0, Q3 : 0.0, Q4 : -1.90088985619e-06}
2019-04-14 15:52:08.01: SIM {TimeUS : 43435119, Roll : 0.0, Pitch : 0.0, Yaw : 359.99, Alt : 30.1800003052, Lat : 49.28357, Lng : -123.11502, Q1 : 1.0, Q2 : 0.0, Q3 : 0.0, Q4 : -2.13615430766e-06}
2019-04-14 15:52:08.11: SIM {TimeUS : 43535079, Roll : 0.0, Pitch : 0.0, Yaw : 359.99, Alt : 30.2099990845, Lat : 49.28357, Lng : -123.11502, Q1 : 1.0, Q2 : -5.64689844396e-06, Q3 : -4.94103051096e-06, Q4 : -2.40307417698e-06}
2019-04-14 15:52:08.21: SIM {TimeUS : 43635039, Roll : -0.16, Pitch : -0.17, Yaw : 359.99, Alt : 30.2700004578, Lat : 49.28357, Lng : -123.11502, Q1 : 0.999997794628, Q2 : -0.00147506175563, Q3 : -0.00150126754306, Q4 : -2.16490589082e-05}
2019-04-14 15:52:08.31: SIM {TimeUS : 43734999, Roll : -0.47, Pitch : -0.49, Yaw : 359.99, Alt : 30.3899993896, Lat : 49.28357, Lng : -123.11502, Q1 : 0.99998241663, Q2 : -0.00410194834694, Q3 : -0.00428082607687, Q4 : -7.05306447344e-05}
2019-04-14 15:52:08.41: SIM {TimeUS : 43834959, Roll : -0.72, Pitch : -0.73, Yaw : 359.98, Alt : 30.5400009155, Lat : 49.28357, Lng : -123.11502, Q1 : 0.999959170818, Q2 : -0.00635253963992, Q3 : -0.00643345480785, Q4 : -0.000141060052556}
2019-04-14 15:52:08.51: SIM {TimeUS : 43934919, Roll : -0.84, Pitch : -0.79, Yaw : 359.97, Alt : 30.7000007629, Lat : 49.28357, Lng : -123.11502, Q1 : 0.999948859215, Q2 : -0.00733708590269, Q3 : -0.00695329578593, Q4 : -0.000232500038692}
2019-04-14 15:52:08.61: SIM {TimeUS : 44034879, Roll : -0.79, Pitch : -0.7, Yaw : 359.96, Alt : 30.8500003815, Lat : 49.28357, Lng : -123.1150201, Q1 : 0.99995726347, Q2 : -0.00692168390378, Q3 : -0.00611981935799, Q4 : -0.000328355818056}
2019-04-14 15:52:08.71: SIM {TimeUS : 44134839, Roll : -0.63, Pitch : -0.51, Yaw : 359.95, Alt : 31.0100002289, Lat : 49.2835701, Lng : -123.1150201, Q1 : 0.999974310398, Q2 : -0.00554337631911, Q3 : -0.00452684890479, Q4 : -0.00041429096018}
2019-04-14 15:52:08.81: SIM {TimeUS : 44235632, Roll : -0.43, Pitch : -0.31, Yaw : 359.94, Alt : 31.1599998474, Lat : 49.2835701, Lng : -123.1150202, Q1 : 0.99998909235, Q2 : -0.00377354468219, Q3 : -0.0027077391278, Q4 : -0.00048743156367}
2019-04-14 15:52:08.91: SIM {TimeUS : 44335592, Roll : -0.23, Pitch : -0.13, Yaw : 359.93, Alt : 31.3299999237, Lat : 49.2835702, Lng : -123.1150203, Q1 : 0.999997079372, Q2 : -0.00204594363458, Q3 : -0.00118881650269, Q4 : -0.000543828587979}
2019-04-14 15:52:09.01: SIM {TimeUS : 44435552, Roll : -0.05, Pitch : -0.03, Yaw : 359.93, Alt : 31.5, Lat : 49.2835702, Lng : -123.1150204, Q1 : 0.999999642372, Q2 : -0.000512143189553, Q3 : -0.0003307328152, Q4 : -0.000581943371799}
2019-04-14 15:52:09.11: SIM {TimeUS : 44535512, Roll : 0.04, Pitch : 0.0, Yaw : 359.93, Alt : 31.6700000763, Lat : 49.2835702, Lng : -123.1150205, Q1 : 0.999999761581, Q2 : 0.000413092493545, Q3 : 4.51033884019e-05, Q4 : -0.000596367754042}
2019-04-14 15:52:09.21: SIM {TimeUS : 44635472, Roll : 0.07, Pitch : 0.02, Yaw : 359.93, Alt : 31.8500003815, Lat : 49.2835703, Lng : -123.1150205, Q1 : 0.999999582767, Q2 : 0.000678976357449, Q3 : 0.000200399532332, Q4 : -0.000594379846007}
2019-04-14 15:52:09.31: SIM {TimeUS : 44735432, Roll : 0.06, Pitch : 0.02, Yaw : 359.93, Alt : 32.0299987793, Lat : 49.2835703, Lng : -123.1150206, Q1 : 0.999999642372, Q2 : 0.000599690596573, Q3 : 0.000207002114621, Q4 : -0.000578261795454}
2019-04-14 15:52:09.41: SIM {TimeUS : 44835392, Roll : 0.06, Pitch : 0.02, Yaw : 359.93, Alt : 32.2200012207, Lat : 49.2835703, Lng : -123.1150207, Q1 : 0.999999642372, Q2 : 0.000546547875274, Q3 : 0.000254607846728, Q4 : -0.000555881531909}
2019-04-14 15:52:09.51: SIM {TimeUS : 44935352, Roll : 0.06, Pitch : 0.04, Yaw : 359.93, Alt : 32.4099998474, Lat : 49.2835703, Lng : -123.1150207, Q1 : 0.999999642372, Q2 : 0.000593969132751, Q3 : 0.000362523132935, Q4 : -0.000528678821865}
2019-04-14 15:52:09.61: SIM {TimeUS : 45035312, Roll : 0.08, Pitch : 0.05, Yaw : 359.94, Alt : 32.6100006104, Lat : 49.2835703, Lng : -123.1150208, Q1 : 0.999999463558, Q2 : 0.000778006215114, Q3 : 0.000499382789712, Q4 : -0.000510349171236}
2019-04-14 15:52:09.71: SIM {TimeUS : 45135272, Roll : 0.12, Pitch : 0.07, Yaw : 359.94, Alt : 32.8100013733, Lat : 49.2835703, Lng : -123.1150208, Q1 : 0.999999046326, Q2 : 0.0010876954766, Q3 : 0.000643290462904, Q4 : -0.00050065072719}
2019-04-14 15:52:09.81: SIM {TimeUS : 45235232, Roll : 0.15, Pitch : 0.1, Yaw : 359.94, Alt : 33.0099983215, Lat : 49.2835704, Lng : -123.1150208, Q1 : 0.999998569489, Q2 : 0.00132522522472, Q3 : 0.000912151532248, Q4 : -0.000493389146868}
2019-04-14 15:52:09.91: SIM {TimeUS : 45335192, Roll : 0.15, Pitch : 0.14, Yaw : 359.94, Alt : 33.2099990845, Lat : 49.2835704, Lng : -123.1150209, Q1 : 0.999998152256, Q2 : 0.00138966366649, Q3 : 0.00122520979494, Q4 : -0.000499708694406}
2019-04-14 15:52:10.01: SIM {TimeUS : 45435152, Roll : 0.15, Pitch : 0.16, Yaw : 359.94, Alt : 33.4099998474, Lat : 49.2835704, Lng : -123.1150209, Q1 : 0.999997913837, Q2 : 0.00135080725886, Q3 : 0.00144192937296, Q4 : -0.000508511206135}
2019-04-14 15:52:10.11: SIM {TimeUS : 45535112, Roll : 0.15, Pitch : 0.18, Yaw : 359.94, Alt : 33.6199989319, Lat : 49.2835704, Lng : -123.1150209, Q1 : 0.999997615814, Q2 : 0.00139067613054, Q3 : 0.00161846913397, Q4 : -0.000512527767569}
2019-04-14 15:52:10.21: SIM {TimeUS : 45635072, Roll : 0.17, Pitch : 0.18, Yaw : 359.94, Alt : 33.8300018311, Lat : 49.2835704, Lng : -123.1150209, Q1 : 0.999997377396, Q2 : 0.00151350372471, Q3 : 0.00162558339071, Q4 : -0.000520781788509}
2019-04-14 15:52:10.31: SIM {TimeUS : 45735032, Roll : 0.17, Pitch : 0.17, Yaw : 359.93, Alt : 34.0400009155, Lat : 49.2835704, Lng : -123.1150209, Q1 : 0.999997437, Q2 : 0.00154973659664, Q3 : 0.00156528619118, Q4 : -0.000540063483641}
2019-04-14 15:52:10.41: SIM {TimeUS : 45834992, Roll : 0.15, Pitch : 0.17, Yaw : 359.93, Alt : 34.25, Lat : 49.2835706, Lng : -123.1150209, Q1 : 0.999997794628, Q2 : 0.00135922874324, Q3 : 0.00150673161261, Q4 : -0.000563409004826}
2019-04-14 15:52:10.51: SIM {TimeUS : 45934952, Roll : 0.13, Pitch : 0.13, Yaw : 359.93, Alt : 34.4599990845, Lat : 49.2835706, Lng : -123.1150209, Q1 : 0.999998390675, Q2 : 0.00117508450057, Q3 : 0.00121307687368, Q4 : -0.000577350729145}
2019-04-14 15:52:10.61: SIM {TimeUS : 46034912, Roll : 0.11, Pitch : 0.08, Yaw : 359.93, Alt : 34.6699981689, Lat : 49.2835706, Lng : -123.1150209, Q1 : 0.999999046326, Q2 : 0.00103372591548, Q3 : 0.000729265506379, Q4 : -0.000582752050832}
2019-04-14 15:52:10.71: SIM {TimeUS : 46134872, Roll : 0.1, Pitch : 0.04, Yaw : 359.93, Alt : 34.8899993896, Lat : 49.2835704, Lng : -123.1150209, Q1 : 0.999999344349, Q2 : 0.000896092387848, Q3 : 0.00035776317236, Q4 : -0.000595905294176}
2019-04-14 15:52:10.81: SIM {TimeUS : 46234832, Roll : 0.08, Pitch : 0.02, Yaw : 359.92, Alt : 35.0999984741, Lat : 49.2835704, Lng : -123.1150209, Q1 : 0.999999523163, Q2 : 0.000768758007325, Q3 : 0.000189574828255, Q4 : -0.000624048872851}
2019-04-14 15:52:10.91: SIM {TimeUS : 46335625, Roll : 0.08, Pitch : 0.03, Yaw : 359.92, Alt : 35.3199996948, Lat : 49.2835704, Lng : -123.1150209, Q1 : 0.999999463558, Q2 : 0.000744748744182, Q3 : 0.000269240350462, Q4 : -0.000664892024361}
2019-04-14 15:52:11.01: SIM {TimeUS : 46435585, Roll : 0.06, Pitch : 0.02, Yaw : 359.91, Alt : 35.5400009155, Lat : 49.2835704, Lng : -123.1150208, Q1 : 0.999999523163, Q2 : 0.000604240747634, Q3 : 0.000230945457588, Q4 : -0.000705370912328}
2019-04-14 15:52:11.11: SIM {TimeUS : 46535545, Roll : 0.04, Pitch : 0.02, Yaw : 359.91, Alt : 35.7599983215, Lat : 49.2835704, Lng : -123.1150208, Q1 : 0.999999642372, Q2 : 0.0003623465891, Q3 : 0.000239897155552, Q4 : -0.000742794305552}
2019-04-14 15:52:11.21: SIM {TimeUS : 46635505, Roll : 0.01, Pitch : 0.03, Yaw : 359.91, Alt : 35.9799995422, Lat : 49.2835704, Lng : -123.1150208, Q1 : 0.999999642372, Q2 : 0.000143650919199, Q3 : 0.000284386944259, Q4 : -0.000778478570282}
2019-04-14 15:52:11.31: SIM {TimeUS : 46735465, Roll : 0.0, Pitch : 0.04, Yaw : 359.9, Alt : 36.2000007629, Lat : 49.2835704, Lng : -123.1150208, Q1 : 0.999999582767, Q2 : -5.81542190048e-06, Q3 : 0.000361449318007, Q4 : -0.000811001867987}
2019-04-14 15:52:11.41: SIM {TimeUS : 46835425, Roll : -0.01, Pitch : 0.03, Yaw : 359.9, Alt : 36.4199981689, Lat : 49.2835704, Lng : -123.1150207, Q1 : 0.999999582767, Q2 : -0.000148413906572, Q3 : 0.000265712937107, Q4 : -0.000836403225549}
2019-04-14 15:52:11.51: SIM {TimeUS : 46935385, Roll : -0.02, Pitch : 0.0, Yaw : 359.9, Alt : 36.6399993896, Lat : 49.2835704, Lng : -123.1150207, Q1 : 0.999999582767, Q2 : -0.000227700569667, Q3 : 6.86791754561e-05, Q4 : -0.000865126785357}
2019-04-14 15:52:11.61: SIM {TimeUS : 47035345, Roll : -0.03, Pitch : -0.01, Yaw : 359.89, Alt : 36.8600006104, Lat : 49.2835704, Lng : -123.1150207, Q1 : 0.999999582767, Q2 : -0.000269274809398, Q3 : -0.000117687130114, Q4 : -0.00088925648015}
2019-04-14 15:52:11.71: SIM {TimeUS : 47135305, Roll : -0.03, Pitch : -0.02, Yaw : 359.89, Alt : 37.0900001526, Lat : 49.2835704, Lng : -123.1150207, Q1 : 0.999999523163, Q2 : -0.000264746078756, Q3 : -0.000239710599999, Q4 : -0.000904290413018}
2019-04-14 15:52:11.81: SIM {TimeUS : 47235265, Roll : -0.01, Pitch : -0.04, Yaw : 359.89, Alt : 37.3100013733, Lat : 49.2835704, Lng : -123.1150207, Q1 : 0.999999523163, Q2 : -0.00011341112986, Q3 : -0.000358060759027, Q4 : -0.000914734031539}
2019-04-14 15:52:11.91: SIM {TimeUS : 47335225, Roll : -0.01, Pitch : -0.05, Yaw : 359.89, Alt : 37.5400009155, Lat : 49.2835704, Lng : -123.1150207, Q1 : 0.999999463558, Q2 : -9.6057781775e-05, Q3 : -0.000498557405081, Q4 : -0.000919220445212}
2019-04-14 15:52:12.01: SIM {TimeUS : 47435185, Roll : -0.02, Pitch : -0.08, Yaw : 359.89, Alt : 37.7599983215, Lat : 49.2835704, Lng : -123.1150207, Q1 : 0.999999284744, Q2 : -0.000249290140346, Q3 : -0.000712543202098, Q4 : -0.0009219381609}
2019-04-14 15:52:12.11: SIM {TimeUS : 47535145, Roll : -0.06, Pitch : -0.09, Yaw : 359.89, Alt : 37.9900016785, Lat : 49.2835704, Lng : -123.1150207, Q1 : 0.999999046326, Q2 : -0.000534013961442, Q3 : -0.000860598520376, Q4 : -0.000932841619942}
2019-04-14 15:52:12.21: SIM {TimeUS : 47635105, Roll : -0.09, Pitch : -0.09, Yaw : 359.89, Alt : 38.2200012207, Lat : 49.2835704, Lng : -123.1150206, Q1 : 0.999998807907, Q2 : -0.000860993750393, Q3 : -0.000839166692458, Q4 : -0.000955401686952}
2019-04-14 15:52:12.31: SIM {TimeUS : 47735065, Roll : -0.12, Pitch : -0.08, Yaw : 359.88, Alt : 38.4500007629, Lat : 49.2835704, Lng : -123.1150206, Q1 : 0.999998629093, Q2 : -0.00106975797098, Q3 : -0.000774536165409, Q4 : -0.000984951038845}
2019-04-14 15:52:12.41: SIM {TimeUS : 47835025, Roll : -0.12, Pitch : -0.07, Yaw : 359.88, Alt : 38.6699981689, Lat : 49.2835704, Lng : -123.1150206, Q1 : 0.999998629093, Q2 : -0.00111277785618, Q3 : -0.000650325033348, Q4 : -0.00101533927955}
2019-04-14 15:52:12.51: SIM {TimeUS : 47934985, Roll : -0.11, Pitch : -0.04, Yaw : 359.87, Alt : 38.9000015259, Lat : 49.2835704, Lng : -123.1150206, Q1 : 0.999998927116, Q2 : -0.000962607678957, Q3 : -0.000421058561187, Q4 : -0.00105041172355}
2019-04-14 15:52:12.61: SIM {TimeUS : 48034945, Roll : -0.08, Pitch : -0.04, Yaw : 359.87, Alt : 39.1300010681, Lat : 49.2835704, Lng : -123.1150206, Q1 : 0.99999910593, Q2 : -0.00071100651985, Q3 : -0.000375906558475, Q4 : -0.00108545832336}
2019-04-14 15:52:12.71: SIM {TimeUS : 48134905, Roll : -0.06, Pitch : -0.04, Yaw : 359.87, Alt : 39.3600006104, Lat : 49.2835704, Lng : -123.1150206, Q1 : 0.99999910593, Q2 : -0.00057822704548, Q3 : -0.000435181398643, Q4 : -0.00112256978173}
2019-04-14 15:52:12.81: SIM {TimeUS : 48234865, Roll : -0.05, Pitch : -0.03, Yaw : 359.86, Alt : 39.5900001526, Lat : 49.2835704, Lng : -123.1150206, Q1 : 0.999999165535, Q2 : -0.000514385290444, Q3 : -0.000310868403176, Q4 : -0.00114702247083}
2019-04-14 15:52:12.91: SIM {TimeUS : 48334825, Roll : -0.07, Pitch : 0.0, Yaw : 359.86, Alt : 39.8199996948, Lat : 49.2835706, Lng : -123.1150206, Q1 : 0.99999910593, Q2 : -0.000643579405732, Q3 : -6.73742542858e-05, Q4 : -0.0011674183188}
2019-04-14 15:52:13.01: SIM {TimeUS : 48435618, Roll : -0.07, Pitch : 0.02, Yaw : 359.86, Alt : 40.0600013733, Lat : 49.2835706, Lng : -123.1150206, Q1 : 0.999999046326, Q2 : -0.000631932867691, Q3 : 0.000250677694567, Q4 : -0.00119094434194}
2019-04-14 15:52:13.11: SIM {TimeUS : 48535578, Roll : -0.05, Pitch : 0.07, Yaw : 359.86, Alt : 40.2900009155, Lat : 49.2835706, Lng : -123.1150206, Q1 : 0.999998927116, Q2 : -0.000493956555147, Q3 : 0.000640953076072, Q4 : -0.00121057883371}
2019-04-14 15:52:13.21: SIM {TimeUS : 48635538, Roll : -0.04, Pitch : 0.08, Yaw : 359.86, Alt : 40.5200004578, Lat : 49.2835706, Lng : -123.1150206, Q1 : 0.999998927116, Q2 : -0.000356787262717, Q3 : 0.000711120606866, Q4 : -0.00121241947636}
2019-04-14 15:52:13.31: SIM {TimeUS : 48735498, Roll : -0.01, Pitch : 0.07, Yaw : 359.86, Alt : 40.75, Lat : 49.2835706, Lng : -123.1150207, Q1 : 0.999999046326, Q2 : -0.000121053948533, Q3 : 0.000670927285682, Q4 : -0.00120947067626}
2019-04-14 15:52:13.41: SIM {TimeUS : 48835458, Roll : 0.02, Pitch : 0.08, Yaw : 359.86, Alt : 40.9799995422, Lat : 49.2835706, Lng : -123.1150207, Q1 : 0.999998986721, Q2 : 0.00022107710538, Q3 : 0.000764469790738, Q4 : -0.00120957696345}
2019-04-14 15:52:13.51: SIM {TimeUS : 48935418, Roll : 0.07, Pitch : 0.12, Yaw : 359.86, Alt : 41.2200012207, Lat : 49.2835706, Lng : -123.1150207, Q1 : 0.999998509884, Q2 : 0.000670606095809, Q3 : 0.00104867632035, Q4 : -0.00121770671103}
2019-04-14 15:52:13.61: SIM {TimeUS : 49035378, Roll : 0.1, Pitch : 0.15, Yaw : 359.85, Alt : 41.4500007629, Lat : 49.2835706, Lng : -123.1150207, Q1 : 0.999997854233, Q2 : 0.000920201418921, Q3 : 0.00137692678254, Q4 : -0.00123726332095}
2019-04-14 15:52:13.71: SIM {TimeUS : 49135338, Roll : 0.09, Pitch : 0.18, Yaw : 359.85, Alt : 41.6800003052, Lat : 49.2835706, Lng : -123.1150207, Q1 : 0.999997615814, Q2 : 0.000792278093286, Q3 : 0.0016186820576, Q4 : -0.0012523450423}
2019-04-14 15:52:13.81: SIM {TimeUS : 49235298, Roll : 0.04, Pitch : 0.2, Yaw : 359.85, Alt : 41.9199981689, Lat : 49.2835706, Lng : -123.1150207, Q1 : 0.99999755621, Q2 : 0.000358754245099, Q3 : 0.00178349821363, Q4 : -0.00127094530035}
2019-04-14 15:52:13.91: SIM {TimeUS : 49335258, Roll : 0.0, Pitch : 0.21, Yaw : 359.85, Alt : 42.1500015259, Lat : 49.2835706, Lng : -123.1150207, Q1 : 0.999997437, Q2 : -7.61973133194e-05, Q3 : 0.00186085456517, Q4 : -0.00129394046962}
2019-04-14 15:52:14.01: SIM {TimeUS : 49435218, Roll : -0.02, Pitch : 0.18, Yaw : 359.84, Alt : 42.3800010681, Lat : 49.2835706, Lng : -123.1150207, Q1 : 0.999997794628, Q2 : -0.00021168794774, Q3 : 0.0016242864076, Q4 : -0.00131817953661}
2019-04-14 15:52:14.11: SIM {TimeUS : 49535178, Roll : -0.02, Pitch : 0.14, Yaw : 359.84, Alt : 42.6199989319, Lat : 49.2835706, Lng : -123.1150207, Q1 : 0.999998271465, Q2 : -0.000191400205949, Q3 : 0.00125279964413, Q4 : -0.00134424469434}
2019-04-14 15:52:14.21: SIM {TimeUS : 49635138, Roll : -0.01, Pitch : 0.13, Yaw : 359.84, Alt : 42.8499984741, Lat : 49.2835706, Lng : -123.1150207, Q1 : 0.999998390675, Q2 : -9.0915869805e-05, Q3 : 0.00114501488861, Q4 : -0.00138119829353}
2019-04-14 15:52:14.31: SIM {TimeUS : 49735098, Roll : 0.02, Pitch : 0.13, Yaw : 359.83, Alt : 43.0900001526, Lat : 49.2835706, Lng : -123.1150207, Q1 : 0.999998211861, Q2 : 0.000216818152694, Q3 : 0.00121224008035, Q4 : -0.00142994406633}
2019-04-14 15:52:14.41: SIM {TimeUS : 49835058, Roll : 0.08, Pitch : 0.14, Yaw : 359.83, Alt : 43.3199996948, Lat : 49.2835706, Lng : -123.1150207, Q1 : 0.999997854233, Q2 : 0.000702396442648, Q3 : 0.00128703983501, Q4 : -0.00147103483323}
2019-04-14 15:52:14.51: SIM {TimeUS : 49935018, Roll : 0.12, Pitch : 0.13, Yaw : 359.82, Alt : 43.5600013733, Lat : 49.2835706, Lng : -123.1150207, Q1 : 0.999997615814, Q2 : 0.00107536255382, Q3 : 0.00115409051068, Q4 : -0.00150872580707}
2019-04-14 15:52:14.61: SIM {TimeUS : 50034978, Roll : 0.12, Pitch : 0.1, Yaw : 359.82, Alt : 43.7900009155, Lat : 49.2835706, Lng : -123.1150207, Q1 : 0.999997794628, Q2 : 0.00109048478771, Q3 : 0.000926259381231, Q4 : -0.00153504975606}
2019-04-14 15:52:14.71: SIM {TimeUS : 50134938, Roll : 0.08, Pitch : 0.08, Yaw : 359.82, Alt : 44.0299987793, Lat : 49.2835704, Lng : -123.1150207, Q1 : 0.99999833107, Q2 : 0.000709584506694, Q3 : 0.000740914430935, Q4 : -0.00153649225831}
2019-04-14 15:52:14.81: SIM {TimeUS : 50234898, Roll : 0.02, Pitch : 0.07, Yaw : 359.82, Alt : 44.2700004578, Lat : 49.2835704, Lng : -123.1150207, Q1 : 0.999998569489, Q2 : 0.000183966505574, Q3 : 0.000661372614559, Q4 : -0.00153765978757}
2019-04-14 15:52:14.91: SIM {TimeUS : 50334858, Roll : -0.02, Pitch : 0.08, Yaw : 359.82, Alt : 44.5, Lat : 49.2835704, Lng : -123.1150207, Q1 : 0.999998569489, Q2 : -0.000184832955711, Q3 : 0.00070524943294, Q4 : -0.00154484482482}
2019-04-14 15:52:15.01: SIM {TimeUS : 50434818, Roll : -0.04, Pitch : 0.07, Yaw : 359.82, Alt : 44.7400016785, Lat : 49.2835704, Lng : -123.1150206, Q1 : 0.999998509884, Q2 : -0.000367723347154, Q3 : 0.000688608270139, Q4 : -0.00155452953186}
2019-04-14 15:52:15.11: SIM {TimeUS : 50535611, Roll : -0.03, Pitch : 0.06, Yaw : 359.82, Alt : 44.9799995422, Lat : 49.2835704, Lng : -123.1150206, Q1 : 0.999998569489, Q2 : -0.00033858185634, Q3 : 0.000562992936466, Q4 : -0.00156829075422}
2019-04-14 15:52:15.21: SIM {TimeUS : 50635571, Roll : -0.04, Pitch : 0.04, Yaw : 359.81, Alt : 45.2099990845, Lat : 49.2835704, Lng : -123.1150206, Q1 : 0.999998569489, Q2 : -0.000378386495868, Q3 : 0.000420079566538, Q4 : -0.00159025972243}
2019-04-14 15:52:15.31: SIM {TimeUS : 50735531, Roll : -0.03, Pitch : 0.03, Yaw : 359.81, Alt : 45.4500007629, Lat : 49.2835703, Lng : -123.1150206, Q1 : 0.999998569489, Q2 : -0.000340915197739, Q3 : 0.000270954187727, Q4 : -0.00162240059581}
2019-04-14 15:52:15.41: SIM {TimeUS : 50835491, Roll : -0.02, Pitch : 0.01, Yaw : 359.8, Alt : 45.6800003052, Lat : 49.2835703, Lng : -123.1150206, Q1 : 0.999998569489, Q2 : -0.000175922046765, Q3 : 0.000163189382874, Q4 : -0.00166362617165}
2019-04-14 15:52:15.51: SIM {TimeUS : 50935451, Roll : -0.01, Pitch : 0.01, Yaw : 359.8, Alt : 45.9099998474, Lat : 49.2835703, Lng : -123.1150206, Q1 : 0.999998509884, Q2 : -0.000110663764644, Q3 : 9.86179511528e-05, Q4 : -0.00170894211624}
2019-04-14 15:52:15.61: SIM {TimeUS : 51035411, Roll : -0.01, Pitch : 0.0, Yaw : 359.79, Alt : 46.1399993896, Lat : 49.2835703, Lng : -123.1150206, Q1 : 0.999998450279, Q2 : -0.00012361361587, Q3 : -2.03294821404e-05, Q4 : -0.00175597064663}
2019-04-14 15:52:15.71: SIM {TimeUS : 51135371, Roll : -0.01, Pitch : -0.02, Yaw : 359.79, Alt : 46.3699989319, Lat : 49.2835703, Lng : -123.1150206, Q1 : 0.99999833107, Q2 : -0.000164166965988, Q3 : -0.00024125399068, Q4 : -0.00180451804772}
2019-04-14 15:52:15.81: SIM {TimeUS : 51235331, Roll : -0.02, Pitch : -0.04, Yaw : 359.78, Alt : 46.5900001526, Lat : 49.2835703, Lng : -123.1150206, Q1 : 0.999998211861, Q2 : -0.000200226219022, Q3 : -0.000394748116378, Q4 : -0.00184739078395}
2019-04-14 15:52:15.91: SIM {TimeUS : 51335291, Roll : -0.02, Pitch : -0.05, Yaw : 359.78, Alt : 46.8100013733, Lat : 49.2835703, Lng : -123.1150206, Q1 : 0.999998092651, Q2 : -0.000178645830601, Q3 : -0.000490762875415, Q4 : -0.00188028917182}
2019-04-14 15:52:16.01: SIM {TimeUS : 51435251, Roll : -0.02, Pitch : -0.06, Yaw : 359.78, Alt : 47.0200004578, Lat : 49.2835703, Lng : -123.1150205, Q1 : 0.999997973442, Q2 : -0.000262085464783, Q3 : -0.000543420028407, Q4 : -0.00190798018593}
2019-04-14 15:52:16.11: SIM {TimeUS : 51535211, Roll : -0.05, Pitch : -0.05, Yaw : 359.77, Alt : 47.2200012207, Lat : 49.2835703, Lng : -123.1150205, Q1 : 0.999997913837, Q2 : -0.000463888951344, Q3 : -0.000501379719935, Q4 : -0.00193386804312}
2019-04-14 15:52:16.21: SIM {TimeUS : 51635171, Roll : -0.08, Pitch : -0.04, Yaw : 359.77, Alt : 47.4199981689, Lat : 49.2835703, Lng : -123.1150205, Q1 : 0.999997735023, Q2 : -0.000728959217668, Q3 : -0.000434665184002, Q4 : -0.00195886869915}
2019-04-14 15:52:16.31: SIM {TimeUS : 51735131, Roll : -0.1, Pitch : -0.04, Yaw : 359.77, Alt : 47.5999984741, Lat : 49.2835703, Lng : -123.1150205, Q1 : 0.999997496605, Q2 : -0.000933686620556, Q3 : -0.00038123872946, Q4 : -0.00198422814719}
2019-04-14 15:52:16.41: SIM {TimeUS : 51835091, Roll : -0.14, Pitch : -0.06, Yaw : 359.77, Alt : 47.7799987793, Lat : 49.2835703, Lng : -123.1150205, Q1 : 0.999997019768, Q2 : -0.00125701364595, Q3 : -0.00056427490199, Q4 : -0.00200680317357}
2019-04-14 15:52:16.51: SIM {TimeUS : 51935051, Roll : -0.16, Pitch : -0.07, Yaw : 359.76, Alt : 47.9399986267, Lat : 49.2835703, Lng : -123.1150205, Q1 : 0.999996781349, Q2 : -0.00141324067954, Q3 : -0.000630155322142, Q4 : -0.00202952045947}
2019-04-14 15:52:16.61: SIM {TimeUS : 52035011, Roll : -0.15, Pitch : -0.06, Yaw : 359.76, Alt : 48.0900001526, Lat : 49.2835703, Lng : -123.1150205, Q1 : 0.999996840954, Q2 : -0.00131950236391, Q3 : -0.0005977867404, Q4 : -0.00205185543746}
2019-04-14 15:52:16.71: SIM {TimeUS : 52134971, Roll : -0.12, Pitch : -0.05, Yaw : 359.76, Alt : 48.2299995422, Lat : 49.2835703, Lng : -123.1150205, Q1 : 0.999997079372, Q2 : -0.00111993192695, Q3 : -0.00051810243167, Q4 : -0.00207377504557}
2019-04-14 15:52:16.81: SIM {TimeUS : 52234931, Roll : -0.1, Pitch : -0.05, Yaw : 359.75, Alt : 48.3600006104, Lat : 49.2835703, Lng : -123.1150205, Q1 : 0.999997258186, Q2 : -0.000940669153351, Q3 : -0.000454226043075, Q4 : -0.00209588510916}
2019-04-14 15:52:16.91: SIM {TimeUS : 52334891, Roll : -0.08, Pitch : -0.05, Yaw : 359.75, Alt : 48.4799995422, Lat : 49.2835703, Lng : -123.1150205, Q1 : 0.999997377396, Q2 : -0.000722557015251, Q3 : -0.000483202980831, Q4 : -0.00211876863614}
2019-04-14 15:52:17.01: SIM {TimeUS : 52434851, Roll : -0.05, Pitch : -0.06, Yaw : 359.75, Alt : 48.5800018311, Lat : 49.2835703, Lng : -123.1150205, Q1 : 0.999997437, Q2 : -0.000461305462522, Q3 : -0.0005345758982, Q4 : -0.00214640935883}
2019-04-14 15:52:17.11: SIM {TimeUS : 52535644, Roll : -0.03, Pitch : -0.06, Yaw : 359.74, Alt : 48.6800003052, Lat : 49.2835703, Lng : -123.1150206, Q1 : 0.999997377396, Q2 : -0.000325609085849, Q3 : -0.000593768374529, Q4 : -0.00218244665302}
2019-04-14 15:52:17.21: SIM {TimeUS : 52635604, Roll : -0.03, Pitch : -0.07, Yaw : 359.74, Alt : 48.7599983215, Lat : 49.2835703, Lng : -123.1150206, Q1 : 0.999997317791, Q2 : -0.000271668832283, Q3 : -0.000641758553684, Q4 : -0.00221863994375}
2019-04-14 15:52:17.31: SIM {TimeUS : 52735564, Roll : 0.0, Pitch : -0.06, Yaw : 359.74, Alt : 48.8300018311, Lat : 49.2835703, Lng : -123.1150206, Q1 : 0.999997317791, Q2 : -8.56613914948e-05, Q3 : -0.000565741211176, Q4 : -0.00225196708925}
2019-04-14 15:52:17.41: SIM {TimeUS : 52835524, Roll : 0.01, Pitch : -0.05, Yaw : 359.73, Alt : 48.8899993896, Lat : 49.2835703, Lng : -123.1150206, Q1 : 0.999997317791, Q2 : 0.000152376131155, Q3 : -0.000439707800979, Q4 : -0.00227821222506}
2019-04-14 15:52:17.51: SIM {TimeUS : 52935484, Roll : 0.03, Pitch : -0.03, Yaw : 359.73, Alt : 48.9399986267, Lat : 49.2835703, Lng : -123.1150206, Q1 : 0.999997258186, Q2 : 0.000295612786431, Q3 : -0.000291618838673, Q4 : -0.00229713483714}
2019-04-14 15:52:17.61: SIM {TimeUS : 53035444, Roll : 0.05, Pitch : -0.02, Yaw : 359.73, Alt : 48.9799995422, Lat : 49.2835703, Lng : -123.1150206, Q1 : 0.999997258186, Q2 : 0.000436564238044, Q3 : -0.000205403208383, Q4 : -0.00230917474255}
2019-04-14 15:52:17.71: SIM {TimeUS : 53135404, Roll : 0.14, Pitch : -0.09, Yaw : 359.73, Alt : 49.0200004578, Lat : 49.2835703, Lng : -123.1150206, Q1 : 0.999996125698, Q2 : 0.00128566811327, Q3 : -0.000814815110061, Q4 : -0.0023209603969}
2019-04-14 15:52:17.81: SIM {TimeUS : 53235364, Roll : 0.4, Pitch : -0.34, Yaw : 359.73, Alt : 49.0600013733, Lat : 49.2835703, Lng : -123.1150206, Q1 : 0.999986469746, Q2 : 0.0035399319604, Q3 : -0.00300311925821, Q4 : -0.00233914656565}
2019-04-14 15:52:17.91: SIM {TimeUS : 53335324, Roll : 0.84, Pitch : -0.77, Yaw : 359.72, Alt : 49.0800018311, Lat : 49.2835703, Lng : -123.1150206, Q1 : 0.999947071075, Q2 : 0.00737017858773, Q3 : -0.00678238645196, Q4 : -0.00235614273697}
2019-04-14 15:52:18.01: SIM {TimeUS : 53435284, Roll : 1.46, Pitch : -1.35, Yaw : 359.71, Alt : 49.1100006104, Lat : 49.2835703, Lng : -123.1150206, Q1 : 0.99984562397, Q2 : 0.0127603719011, Q3 : -0.0118486927822, Q4 : -0.00236336002126}
2019-04-14 15:52:18.11: SIM {TimeUS : 53535244, Roll : 2.2, Pitch : -2.03, Yaw : 359.69, Alt : 49.1300010681, Lat : 49.2835704, Lng : -123.1150205, Q1 : 0.999655008316, Q2 : 0.0191506352276, Q3 : -0.0178231354803, Q4 : -0.00233689253218}
2019-04-14 15:52:18.21: SIM {TimeUS : 53635204, Roll : 2.95, Pitch : -2.72, Yaw : 359.67, Alt : 49.1500015259, Lat : 49.2835704, Lng : -123.1150205, Q1 : 0.999383330345, Q2 : 0.0256760809571, Q3 : -0.0238462444395, Q4 : -0.00224874354899}
2019-04-14 15:52:18.31: SIM {TimeUS : 53735164, Roll : 3.61, Pitch : -3.3, Yaw : 359.65, Alt : 49.1599998474, Lat : 49.2835707, Lng : -123.1150203, Q1 : 0.999085426331, Q2 : 0.0314401574433, Q3 : -0.028903471306, Q4 : -0.00209333072416}
2019-04-14 15:52:18.41: SIM {TimeUS : 53835124, Roll : 4.12, Pitch : -3.74, Yaw : 359.65, Alt : 49.1800003052, Lat : 49.2835708, Lng : -123.1150201, Q1 : 0.998818039894, Q2 : 0.0358880124986, Q3 : -0.0327279418707, Q4 : -0.00187466817442}
2019-04-14 15:52:18.51: SIM {TimeUS : 53935084, Roll : 4.49, Pitch : -4.08, Yaw : 359.65, Alt : 49.1899986267, Lat : 49.2835709, Lng : -123.1150199, Q1 : 0.998596489429, Q2 : 0.0390598513186, Q3 : -0.0357311815023, Q4 : -0.00162300653756}
2019-04-14 15:52:18.61: SIM {TimeUS : 54035044, Roll : 4.76, Pitch : -4.35, Yaw : 359.66, Alt : 49.2000007629, Lat : 49.2835712, Lng : -123.1150195, Q1 : 0.998413741589, Q2 : 0.0414158515632, Q3 : -0.0381174385548, Q4 : -0.00135538249742}
2019-04-14 15:52:18.71: SIM {TimeUS : 54135004, Roll : 5.0, Pitch : -4.63, Yaw : 359.67, Alt : 49.2099990845, Lat : 49.2835715, Lng : -123.115019, Q1 : 0.998231768608, Q2 : 0.0435144528747, Q3 : -0.0404805764556, Q4 : -0.00109210214578}
2019-04-14 15:52:18.81: SIM {TimeUS : 54234964, Roll : 5.26, Pitch : -4.91, Yaw : 359.67, Alt : 49.2099990845, Lat : 49.2835719, Lng : -123.1150185, Q1 : 0.998028278351, Q2 : 0.0457498207688, Q3 : -0.0429634526372, Q4 : -0.000825655471999}
2019-04-14 15:52:18.91: SIM {TimeUS : 54334924, Roll : 5.53, Pitch : -5.19, Yaw : 359.68, Alt : 49.2200012207, Lat : 49.2835722, Lng : -123.1150178, Q1 : 0.997810184956, Q2 : 0.0481377765536, Q3 : -0.0453575626016, Q4 : -0.000536565319635}
2019-04-14 15:52:19.01: SIM {TimeUS : 54434884, Roll : 5.77, Pitch : -5.43, Yaw : 359.69, Alt : 49.2299995422, Lat : 49.2835727, Lng : -123.1150171, Q1 : 0.997607588768, Q2 : 0.0502324327826, Q3 : -0.0474951043725, Q4 : -0.000251974124694}
2019-04-14 15:52:19.11: SIM {TimeUS : 54534844, Roll : 5.96, Pitch : -5.62, Yaw : 359.7, Alt : 49.2299995422, Lat : 49.2835732, Lng : -123.1150163, Q1 : 0.997442722321, Q2 : 0.0518684349954, Q3 : -0.0491708144546, Q4 : 1.3301520994e-05}
2019-04-14 15:52:19.21: SIM {TimeUS : 54635637, Roll : 6.09, Pitch : -5.76, Yaw : 359.72, Alt : 49.2400016785, Lat : 49.2835738, Lng : -123.1150154, Q1 : 0.997327923775, Q2 : 0.0529626235366, Q3 : -0.0503181405365, Q4 : 0.000252777826972}
2019-04-14 15:52:19.31: SIM {TimeUS : 54735597, Roll : 6.17, Pitch : -5.85, Yaw : 359.73, Alt : 49.2400016785, Lat : 49.2835744, Lng : -123.1150144, Q1 : 0.997245073318, Q2 : 0.053703635931, Q3 : -0.0511658638716, Q4 : 0.000425824546255}
2019-04-14 15:52:19.41: SIM {TimeUS : 54835557, Roll : 6.26, Pitch : -5.94, Yaw : 359.73, Alt : 49.25, Lat : 49.283575, Lng : -123.1150133, Q1 : 0.997165501118, Q2 : 0.0544400773942, Q3 : -0.0519322752953, Q4 : 0.000544691225514}
2019-04-14 15:52:19.51: SIM {TimeUS : 54935517, Roll : 6.42, Pitch : -6.02, Yaw : 359.74, Alt : 49.25, Lat : 49.2835757, Lng : -123.1150122, Q1 : 0.997051596642, Q2 : 0.0558738783002, Q3 : -0.0525902658701, Q4 : 0.000750825041905}
2019-04-14 15:52:19.61: SIM {TimeUS : 55035477, Roll : 6.81, Pitch : -5.96, Yaw : 0.01, Alt : 49.2599983215, Lat : 49.2835764, Lng : -123.115011, Q1 : 0.996876299381, Q2 : 0.0593920461833, Q3 : -0.0519587136805, Q4 : 0.00324737373739}
2019-04-14 15:52:19.71: SIM {TimeUS : 55135437, Roll : 7.44, Pitch : -5.83, Yaw : 1.16, Alt : 49.2599983215, Lat : 49.2835771, Lng : -123.1150096, Q1 : 0.996512532234, Q2 : 0.0653136223555, Q3 : -0.0501550398767, Q4 : 0.0134694669396}
2019-04-14 15:52:19.81: SIM {TimeUS : 55235397, Roll : 8.01, Pitch : -5.94, Yaw : 3.78, Alt : 49.2599983215, Lat : 49.2835781, Lng : -123.1150083, Q1 : 0.995550334454, Q2 : 0.0714805275202, Q3 : -0.0493671447039, Q4 : 0.0365096479654}
2019-04-14 15:52:19.91: SIM {TimeUS : 55335357, Roll : 8.27, Pitch : -6.47, Yaw : 7.98, Alt : 49.2599983215, Lat : 49.2835788, Lng : -123.1150068, Q1 : 0.993101835251, Q2 : 0.0757854282856, Q3 : -0.0511359758675, Q4 : 0.0734192728996}
2019-04-14 15:52:20.01: SIM {TimeUS : 55435317, Roll : 7.99, Pitch : -7.42, Yaw : 13.62, Alt : 49.2599983215, Lat : 49.2835798, Lng : -123.1150052, Q1 : 0.987908005714, Q2 : 0.0767363607883, Q3 : -0.055910680443, Q4 : 0.122569404542}
2019-04-14 15:52:20.11: SIM {TimeUS : 55535277, Roll : 7.06, Pitch : -8.7, Yaw : 20.45, Alt : 49.2599983215, Lat : 49.2835806, Lng : -123.1150035, Q1 : 0.978589653969, Q2 : 0.0738745555282, Q3 : -0.0636124536395, Q4 : 0.181268721819}
2019-04-14 15:52:20.21: SIM {TimeUS : 55635237, Roll : 5.48, Pitch : -10.08, Yaw : 28.2, Alt : 49.2700004578, Lat : 49.2835816, Lng : -123.1150016, Q1 : 0.963979005814, Q2 : 0.0676195845008, Q3 : -0.0735689252615, Q4 : 0.246494784951}
2019-04-14 15:52:20.31: SIM {TimeUS : 55735197, Roll : 3.15, Pitch : -11.37, Yaw : 36.51, Alt : 49.2700004578, Lat : 49.2835825, Lng : -123.1149997, Q1 : 0.943768978119, Q2 : 0.0570152625442, Q3 : -0.0854703634977, Q4 : 0.31423586607}
2019-04-14 15:52:20.41: SIM {TimeUS : 55835157, Roll : 0.11, Pitch : -12.27, Yaw : 44.66, Alt : 49.2700004578, Lat : 49.2835836, Lng : -123.1149976, Q1 : 0.919637143612, Q2 : 0.0415884293616, Q3 : -0.0985050946474, Q4 : 0.377934753895}
2019-04-14 15:52:20.51: SIM {TimeUS : 55935117, Roll : -3.05, Pitch : -12.67, Yaw : 51.77, Alt : 49.2700004578, Lat : 49.2835847, Lng : -123.1149955, Q1 : 0.895130097866, Q2 : 0.0243173316121, Q3 : -0.110815517604, Q4 : 0.431127279997}
2019-04-14 15:52:20.61: SIM {TimeUS : 56035077, Roll : -5.69, Pitch : -12.65, Yaw : 57.14, Alt : 49.2700004578, Lat : 49.2835858, Lng : -123.1149933, Q1 : 0.874388217926, Q2 : 0.00927923154086, Q3 : -0.120334655046, Q4 : 0.469977378845}
2019-04-14 15:52:20.71: SIM {TimeUS : 56135037, Roll : -7.35, Pitch : -12.49, Yaw : 60.51, Alt : 49.2700004578, Lat : 49.2835871, Lng : -123.1149911, Q1 : 0.860404312611, Q2 : -0.000350458692992, Q3 : -0.125977367163, Q4 : 0.493795543909}
2019-04-14 15:52:20.81: SIM {TimeUS : 56234997, Roll : -7.93, Pitch : -12.42, Yaw : 61.97, Alt : 49.2700004578, Lat : 49.2835885, Lng : -123.1149889, Q1 : 0.854077398777, Q2 : -0.00337388901971, Q3 : -0.12799616158, Q4 : 0.50414031744}
2019-04-14 15:52:20.91: SIM {TimeUS : 56334957, Roll : -7.59, Pitch : -12.59, Yaw : 61.83, Alt : 49.2700004578, Lat : 49.2835899, Lng : -123.1149866, Q1 : 0.854609966278, Q2 : -0.000213815917959, Q3 : -0.127706646919, Q4 : 0.503321766853}
2019-04-14 15:52:21.01: SIM {TimeUS : 56434917, Roll : -6.54, Pitch : -13.02, Yaw : 60.44, Alt : 49.2700004578, Lat : 49.2835915, Lng : -123.1149844, Q1 : 0.860357999802, Q2 : 0.00795845501125, Q3 : -0.126394897699, Q4 : 0.493705451488}
2019-04-14 15:52:21.11: SIM {TimeUS : 56534877, Roll : -5.02, Pitch : -13.65, Yaw : 58.15, Alt : 49.2700004578, Lat : 49.2835932, Lng : -123.114982, Q1 : 0.869444489479, Q2 : 0.0196756273508, Q3 : -0.124971173704, Q4 : 0.477557688951}
2019-04-14 15:52:21.21: SIM {TimeUS : 56634837, Roll : -3.24, Pitch : -14.36, Yaw : 55.29, Alt : 49.2799987793, Lat : 49.283595, Lng : -123.1149796, Q1 : 0.880170583725, Q2 : 0.033088568598, Q3 : -0.123767778277, Q4 : 0.457040965557}
2019-04-14 15:52:21.31: SIM {TimeUS : 56735630, Roll : -1.38, Pitch : -15.02, Yaw : 52.12, Alt : 49.2799987793, Lat : 49.2835968, Lng : -123.1149771, Q1 : 0.891222953796, Q2 : 0.0466666482389, Q3 : -0.122700966895, Q4 : 0.434152513742}
2019-04-14 15:52:21.41: SIM {TimeUS : 56835590, Roll : 0.34, Pitch : -15.49, Yaw : 49.04, Alt : 49.2799987793, Lat : 49.2835986, Lng : -123.1149746, Q1 : 0.901306986809, Q2 : 0.0586884133518, Q3 : -0.121439374983, Q4 : 0.411647707224}
2019-04-14 15:52:21.51: SIM {TimeUS : 56935550, Roll : 1.78, Pitch : -15.74, Yaw : 46.34, Alt : 49.2799987793, Lat : 49.2836005, Lng : -123.1149719, Q1 : 0.909706354141, Q2 : 0.0680896565318, Q3 : -0.119787849486, Q4 : 0.39172565937}
2019-04-14 15:52:21.61: SIM {TimeUS : 57035510, Roll : 2.83, Pitch : -15.79, Yaw : 44.26, Alt : 49.2799987793, Lat : 49.2836024, Lng : -123.1149691, Q1 : 0.915955722332, Q2 : 0.0744541212916, Q3 : -0.118002153933, Q4 : 0.376240938902}
2019-04-14 15:52:21.71: SIM {TimeUS : 57135470, Roll : 3.41, Pitch : -15.74, Yaw : 42.94, Alt : 49.2799987793, Lat : 49.2836043, Lng : -123.1149661, Q1 : 0.919920682907, Q2 : 0.0776247084141, Q3 : -0.116611242294, Q4 : 0.366226971149}
2019-04-14 15:52:21.81: SIM {TimeUS : 57235430, Roll : 3.53, Pitch : -15.68, Yaw : 42.38, Alt : 49.2799987793, Lat : 49.2836062, Lng : -123.1149631, Q1 : 0.921686351299, Q2 : 0.077800758183, Q3 : -0.116116523743, Q4 : 0.361881524324}
2019-04-14 15:52:21.91: SIM {TimeUS : 57335390, Roll : 3.24, Pitch : -15.66, Yaw : 42.52, Alt : 49.2799987793, Lat : 49.2836081, Lng : -123.1149599, Q1 : 0.921462357044, Q2 : 0.0755695849657, Q3 : -0.116777643561, Q4 : 0.362711131573}
2019-04-14 15:52:22.01: SIM {TimeUS : 57435350, Roll : 2.64, Pitch : -15.72, Yaw : 43.22, Alt : 49.2799987793, Lat : 49.2836102, Lng : -123.1149566, Q1 : 0.919557392597, Q2 : 0.0715983137488, Q3 : -0.118735134602, Q4 : 0.367681801319}
2019-04-14 15:52:22.11: SIM {TimeUS : 57535310, Roll : 1.84, Pitch : -15.84, Yaw : 44.3, Alt : 49.2799987793, Lat : 49.2836122, Lng : -123.1149531, Q1 : 0.916376650333, Q2 : 0.066734559834, Q3 : -0.121627695858, Q4 : 0.375509083271}
2019-04-14 15:52:22.21: SIM {TimeUS : 57635270, Roll : 0.97, Pitch : -15.99, Yaw : 45.59, Alt : 49.2900009155, Lat : 49.2836141, Lng : -123.1149497, Q1 : 0.912415146828, Q2 : 0.0616589784622, Q3 : -0.124974653125, Q4 : 0.384809285402}
2019-04-14 15:52:22.31: SIM {TimeUS : 57735230, Roll : 0.14, Pitch : -16.13, Yaw : 46.91, Alt : 49.2900009155, Lat : 49.2836163, Lng : -123.1149462, Q1 : 0.908205211163, Q2 : 0.0569807142019, Q3 : -0.12823459506, Q4 : 0.394299864769}
2019-04-14 15:52:22.41: SIM {TimeUS : 57835190, Roll : -0.55, Pitch : -16.24, Yaw : 48.11, Alt : 49.2900009155, Lat : 49.2836183, Lng : -123.1149426, Q1 : 0.904253482819, Q2 : 0.053216278553, Q3 : -0.130957812071, Q4 : 0.402918994427}
2019-04-14 15:52:22.51: SIM {TimeUS : 57935150, Roll : -1.06, Pitch : -16.33, Yaw : 49.07, Alt : 49.2900009155, Lat : 49.2836205, Lng : -123.114939, Q1 : 0.90096372366, Q2 : 0.0506589449942, Q3 : -0.133058518171, Q4 : 0.4098700881}
2019-04-14 15:52:22.61: SIM {TimeUS : 58035110, Roll : -1.37, Pitch : -16.4, Yaw : 49.74, Alt : 49.2900009155, Lat : 49.2836226, Lng : -123.1149353, Q1 : 0.898633003235, Q2 : 0.0492484867573, Q3 : -0.134417131543, Q4 : 0.414686977863}
2019-04-14 15:52:22.71: SIM {TimeUS : 58135070, Roll : -1.48, Pitch : -16.45, Yaw : 50.08, Alt : 49.2900009155, Lat : 49.2836249, Lng : -123.1149316, Q1 : 0.897376716137, Q2 : 0.0489307045937, Q3 : -0.135093852878, Q4 : 0.417217582464}
2019-04-14 15:52:22.81: SIM {TimeUS : 58235030, Roll : -1.43, Pitch : -16.47, Yaw : 50.12, Alt : 49.2900009155, Lat : 49.283627, Lng : -123.1149279, Q1 : 0.897180020809, Q2 : 0.0495047904551, Q3 : -0.135049417615, Q4 : 0.417587071657}
2019-04-14 15:52:22.91: SIM {TimeUS : 58334990, Roll : -1.21, Pitch : -16.48, Yaw : 49.9, Alt : 49.2900009155, Lat : 49.2836293, Lng : -123.1149241, Q1 : 0.89786529541, Q2 : 0.0509606637061, Q3 : -0.134421750903, Q4 : 0.416139006615}
2019-04-14 15:52:23.01: SIM {TimeUS : 58434950, Roll : -0.91, Pitch : -16.5, Yaw : 49.5, Alt : 49.2900009155, Lat : 49.2836317, Lng : -123.1149203, Q1 : 0.899175465107, Q2 : 0.0529163964093, Q3 : -0.133662298322, Q4 : 0.41330114007}
2019-04-14 15:52:23.11: SIM {TimeUS : 58534910, Roll : -0.55, Pitch : -16.54, Yaw : 48.98, Alt : 49.2900009155, Lat : 49.2836341, Lng : -123.1149164, Q1 : 0.900827407837, Q2 : 0.0552615039051, Q3 : -0.132891118526, Q4 : 0.409629255533}
2019-04-14 15:52:23.21: SIM {TimeUS : 58634870, Roll : -0.17, Pitch : -16.57, Yaw : 48.42, Alt : 49.2900009155, Lat : 49.2836365, Lng : -123.1149125, Q1 : 0.902583241463, Q2 : 0.057733848691, Q3 : -0.132046982646, Q4 : 0.405677169561}
2019-04-14 15:52:23.31: SIM {TimeUS : 58734830, Roll : 0.16, Pitch : -16.59, Yaw : 47.9, Alt : 49.2900009155, Lat : 49.2836389, Lng : -123.1149085, Q1 : 0.904238939285, Q2 : 0.0598723180592, Q3 : -0.131359308958, Q4 : 0.401885509491}
2019-04-14 15:52:23.41: SIM {TimeUS : 58835623, Roll : 0.4, Pitch : -16.64, Yaw : 47.44, Alt : 49.2900009155, Lat : 49.2836413, Lng : -123.1149045, Q1 : 0.905639886856, Q2 : 0.0614516735077, Q3 : -0.131073787808, Q4 : 0.398572176695}
2019-04-14 15:52:23.51: SIM {TimeUS : 58935583, Roll : 0.55, Pitch : -16.69, Yaw : 47.11, Alt : 49.2900009155, Lat : 49.2836437, Lng : -123.1149005, Q1 : 0.906665802002, Q2 : 0.0624272041023, Q3 : -0.131110399961, Q4 : 0.396068245173}
2019-04-14 15:52:23.61: SIM {TimeUS : 59035543, Roll : 0.62, Pitch : -16.75, Yaw : 46.9, Alt : 49.2900009155, Lat : 49.2836462, Lng : -123.1148964, Q1 : 0.907275557518, Q2 : 0.0629034414887, Q3 : -0.131481871009, Q4 : 0.394470274448}
2019-04-14 15:52:23.71: SIM {TimeUS : 59135503, Roll : 0.6, Pitch : -16.79, Yaw : 46.82, Alt : 49.2900009155, Lat : 49.2836486, Lng : -123.1148923, Q1 : 0.907504379749, Q2 : 0.0628341957927, Q3 : -0.131976038218, Q4 : 0.393789350986}
2019-04-14 15:52:23.81: SIM {TimeUS : 59235463, Roll : 0.53, Pitch : -16.85, Yaw : 46.85, Alt : 49.2900009155, Lat : 49.2836511, Lng : -123.114888, Q1 : 0.907373845577, Q2 : 0.062482777983, Q3 : -0.132611006498, Q4 : 0.393932729959}
2019-04-14 15:52:23.91: SIM {TimeUS : 59335423, Roll : 0.41, Pitch : -16.89, Yaw : 46.97, Alt : 49.2900009155, Lat : 49.2836536, Lng : -123.1148839, Q1 : 0.906972527504, Q2 : 0.0618604831398, Q3 : -0.133325740695, Q4 : 0.394713014364}
2019-04-14 15:52:24.01: SIM {TimeUS : 59435383, Roll : 0.27, Pitch : -16.93, Yaw : 47.14, Alt : 49.2900009155, Lat : 49.283656, Lng : -123.1148797, Q1 : 0.906399130821, Q2 : 0.0610980428755, Q3 : -0.134018480778, Q4 : 0.395912528038}
2019-04-14 15:52:24.11: SIM {TimeUS : 59535343, Roll : 0.14, Pitch : -16.96, Yaw : 47.35, Alt : 49.2900009155, Lat : 49.2836585, Lng : -123.1148754, Q1 : 0.905739545822, Q2 : 0.0603951998055, Q3 : -0.134605497122, Q4 : 0.397328168154}
2019-04-14 15:52:24.21: SIM {TimeUS : 59635303, Roll : 0.03, Pitch : -16.99, Yaw : 47.54, Alt : 49.2900009155, Lat : 49.283661, Lng : -123.1148712, Q1 : 0.905078053474, Q2 : 0.059831019491, Q3 : -0.135132029653, Q4 : 0.398739725351}
2019-04-14 15:52:24.31: SIM {TimeUS : 59735263, Roll : -0.07, Pitch : -17.02, Yaw : 47.71, Alt : 49.2999992371, Lat : 49.2836637, Lng : -123.1148669, Q1 : 0.904504477978, Q2 : 0.0593103654683, Q3 : -0.135599553585, Q4 : 0.399958401918}
2019-04-14 15:52:24.41: SIM {TimeUS : 59835223, Roll : -0.14, Pitch : -17.04, Yaw : 47.84, Alt : 49.2999992371, Lat : 49.2836662, Lng : -123.1148625, Q1 : 0.90407127142, Q2 : 0.0589703842998, Q3 : -0.135947704315, Q4 : 0.40086889267}
2019-04-14 15:52:24.51: SIM {TimeUS : 59935183, Roll : -0.17, Pitch : -17.06, Yaw : 47.92, Alt : 49.2999992371, Lat : 49.2836688, Lng : -123.1148582, Q1 : 0.903800368309, Q2 : 0.0588362589478, Q3 : -0.13621468842, Q4 : 0.401408493519}
2019-04-14 15:52:24.61: SIM {TimeUS : 60035143, Roll : -0.19, Pitch : -17.09, Yaw : 47.94, Alt : 49.2999992371, Lat : 49.2836713, Lng : -123.1148538, Q1 : 0.903690993786, Q2 : 0.0588528104126, Q3 : -0.136497363448, Q4 : 0.401556223631}
2019-04-14 15:52:24.71: SIM {TimeUS : 60135103, Roll : -0.19, Pitch : -17.12, Yaw : 47.92, Alt : 49.2999992371, Lat : 49.283674, Lng : -123.1148494, Q1 : 0.903737425804, Q2 : 0.0589114204049, Q3 : -0.13676995039, Q4 : 0.40135037899}
2019-04-14 15:52:24.81: SIM {TimeUS : 60235063, Roll : -0.18, Pitch : -17.14, Yaw : 47.85, Alt : 49.2999992371, Lat : 49.2836766, Lng : -123.114845, Q1 : 0.903927385807, Q2 : 0.0589838251472, Q3 : -0.136935323477, Q4 : 0.400855302811}
2019-04-14 15:52:24.91: SIM {TimeUS : 60335023, Roll : -0.16, Pitch : -17.17, Yaw : 47.76, Alt : 49.2999992371, Lat : 49.2836791, Lng : -123.1148406, Q1 : 0.904208421707, Q2 : 0.0591314770281, Q3 : -0.137084379792, Q4 : 0.400148063898}
2019-04-14 15:52:25.01: SIM {TimeUS : 60434983, Roll : -0.11, Pitch : -17.2, Yaw : 47.66, Alt : 49.2999992371, Lat : 49.2836819, Lng : -123.1148362, Q1 : 0.904515206814, Q2 : 0.0595110207796, Q3 : -0.137245669961, Q4 : 0.399342358112}
2019-04-14 15:52:25.11: SIM {TimeUS : 60534943, Roll : -0.04, Pitch : -17.24, Yaw : 47.55, Alt : 49.2999992371, Lat : 49.2836845, Lng : -123.1148317, Q1 : 0.904813587666, Q2 : 0.0600690506399, Q3 : -0.137362778187, Q4 : 0.398541778326}
2019-04-14 15:52:25.21: SIM {TimeUS : 60634903, Roll : 0.03, Pitch : -17.28, Yaw : 47.45, Alt : 49.2999992371, Lat : 49.2836871, Lng : -123.1148272, Q1 : 0.905068993568, Q2 : 0.060746088624, Q3 : -0.137476429343, Q4 : 0.397819399834}
2019-04-14 15:52:25.31: SIM {TimeUS : 60734863, Roll : 0.11, Pitch : -17.32, Yaw : 47.36, Alt : 49.3100013733, Lat : 49.2836899, Lng : -123.1148227, Q1 : 0.905277490616, Q2 : 0.0614414922893, Q3 : -0.137553170323, Q4 : 0.397211194038}
2019-04-14 15:52:25.41: SIM {TimeUS : 60834823, Roll : 0.17, Pitch : -17.36, Yaw : 47.29, Alt : 49.3100013733, Lat : 49.2836925, Lng : -123.1148181, Q1 : 0.905436515808, Q2 : 0.0619307011366, Q3 : -0.137654915452, Q4 : 0.396737247705}
2019-04-14 15:52:25.51: SIM {TimeUS : 60935616, Roll : 0.18, Pitch : -17.37, Yaw : 47.25, Alt : 49.3100013733, Lat : 49.2836953, Lng : -123.1148136, Q1 : 0.905566632748, Q2 : 0.0620365962386, Q3 : -0.137745708227, Q4 : 0.396392077208}
2019-04-14 15:52:25.61: SIM {TimeUS : 61035576, Roll : 0.16, Pitch : -17.37, Yaw : 47.22, Alt : 49.3100013733, Lat : 49.283698, Lng : -123.114809, Q1 : 0.905663192272, Q2 : 0.0618357285857, Q3 : -0.137807101011, Q4 : 0.396181404591}
2019-04-14 15:52:25.71: SIM {TimeUS : 61135536, Roll : 0.16, Pitch : -17.36, Yaw : 47.22, Alt : 49.3100013733, Lat : 49.2837007, Lng : -123.1148045, Q1 : 0.905699074268, Q2 : 0.0617354027927, Q3 : -0.137782141566, Q4 : 0.396123677492}
2019-04-14 15:52:25.81: SIM {TimeUS : 61235496, Roll : 0.15, Pitch : -17.37, Yaw : 47.22, Alt : 49.3100013733, Lat : 49.2837034, Lng : -123.1148, Q1 : 0.905674934387, Q2 : 0.061680868268, Q3 : -0.137840390205, Q4 : 0.396167248487}
2019-04-14 15:52:25.91: SIM {TimeUS : 61335456, Roll : 0.14, Pitch : -17.4, Yaw : 47.24, Alt : 49.3100013733, Lat : 49.283706, Lng : -123.1147954, Q1 : 0.905583143234, Q2 : 0.061786595732, Q3 : -0.138124197721, Q4 : 0.39626160264}
2019-04-14 15:52:26.01: SIM {TimeUS : 61435416, Roll : 0.14, Pitch : -17.47, Yaw : 47.26, Alt : 49.3100013733, Lat : 49.2837089, Lng : -123.1147908, Q1 : 0.90543961525, Q2 : 0.0620294846594, Q3 : -0.138642832637, Q4 : 0.396370619535}
2019-04-14 15:52:26.11: SIM {TimeUS : 61535376, Roll : 0.13, Pitch : -17.51, Yaw : 47.28, Alt : 49.3100013733, Lat : 49.2837115, Lng : -123.1147862, Q1 : 0.905323326588, Q2 : 0.0621411092579, Q3 : -0.139035329223, Q4 : 0.396481126547}
2019-04-14 15:52:26.21: SIM {TimeUS : 61635336, Roll : 0.12, Pitch : -17.53, Yaw : 47.29, Alt : 49.3100013733, Lat : 49.2837144, Lng : -123.1147815, Q1 : 0.905264437199, Q2 : 0.062086801976, Q3 : -0.139186561108, Q4 : 0.396571218967}
2019-04-14 15:52:26.31: SIM {TimeUS : 61735296, Roll : 0.09, Pitch : -17.54, Yaw : 47.3, Alt : 49.3199996948, Lat : 49.283717, Lng : -123.1147769, Q1 : 0.905236124992, Q2 : 0.0619465485215, Q3 : -0.139386847615, Q4 : 0.396587371826}
2019-04-14 15:52:26.41: SIM {TimeUS : 61835256, Roll : 0.06, Pitch : -17.57, Yaw : 47.3, Alt : 49.3199996948, Lat : 49.2837199, Lng : -123.1147723, Q1 : 0.905225753784, Q2 : 0.0618038438261, Q3 : -0.139677971601, Q4 : 0.396530866623}
2019-04-14 15:52:26.51: SIM {TimeUS : 61935216, Roll : 0.06, Pitch : -17.58, Yaw : 47.29, Alt : 49.3199996948, Lat : 49.2837226, Lng : -123.1147676, Q1 : 0.905242681503, Q2 : 0.0617956742644, Q3 : -0.139805346727, Q4 : 0.396448642015}
2019-04-14 15:52:26.61: SIM {TimeUS : 62035176, Roll : 0.06, Pitch : -17.6, Yaw : 47.27, Alt : 49.3199996948, Lat : 49.2837253, Lng : -123.1147629, Q1 : 0.905279695988, Q2 : 0.0618289746344, Q3 : -0.13994191587, Q4 : 0.396310657263}
2019-04-14 15:52:26.71: SIM {TimeUS : 62135136, Roll : 0.07, Pitch : -17.61, Yaw : 47.25, Alt : 49.3199996948, Lat : 49.2837282, Lng : -123.1147582, Q1 : 0.905334770679, Q2 : 0.0619262978435, Q3 : -0.140016227961, Q4 : 0.396143347025}
2019-04-14 15:52:26.81: SIM {TimeUS : 62235096, Roll : 0.09, Pitch : -17.63, Yaw : 47.22, Alt : 49.3199996948, Lat : 49.2837309, Lng : -123.1147536, Q1 : 0.905398845673, Q2 : 0.0621018968523, Q3 : -0.140118524432, Q4 : 0.395933151245}
2019-04-14 15:52:26.91: SIM {TimeUS : 62335056, Roll : 0.11, Pitch : -17.64, Yaw : 47.19, Alt : 49.3199996948, Lat : 49.2837338, Lng : -123.1147489, Q1 : 0.90547990799, Q2 : 0.0622858293355, Q3 : -0.140146285295, Q4 : 0.395709037781}
2019-04-14 15:52:27.01: SIM {TimeUS : 62435016, Roll : 0.13, Pitch : -17.65, Yaw : 47.16, Alt : 49.3199996948, Lat : 49.2837366, Lng : -123.1147441, Q1 : 0.905554533005, Q2 : 0.0624994449317, Q3 : -0.140167877078, Q4 : 0.395496875048}
2019-04-14 15:52:27.11: SIM {TimeUS : 62534976, Roll : 0.16, Pitch : -17.67, Yaw : 47.13, Alt : 49.3199996948, Lat : 49.2837393, Lng : -123.1147394, Q1 : 0.905612707138, Q2 : 0.0627319440246, Q3 : -0.140263870358, Q4 : 0.395292848349}
2019-04-14 15:52:27.21: SIM {TimeUS : 62634936, Roll : 0.16, Pitch : -17.71, Yaw : 47.11, Alt : 49.3199996948, Lat : 49.2837422, Lng : -123.1147347, Q1 : 0.905647933483, Q2 : 0.0628742054105, Q3 : -0.140578314662, Q4 : 0.395077705383}
2019-04-14 15:52:27.31: SIM {TimeUS : 62734896, Roll : 0.15, Pitch : -17.75, Yaw : 47.08, Alt : 49.3199996948, Lat : 49.2837451, Lng : -123.11473, Q1 : 0.905680894852, Q2 : 0.0628517121077, Q3 : -0.140983685851, Q4 : 0.394861221313}
2019-04-14 15:52:27.41: SIM {TimeUS : 62834856, Roll : 0.13, Pitch : -17.8, Yaw : 47.07, Alt : 49.3199996948, Lat : 49.2837478, Lng : -123.1147252, Q1 : 0.90570217371, Q2 : 0.0628648474813, Q3 : -0.14136967063, Q4 : 0.394672214985}
2019-04-14 15:52:27.51: SIM {TimeUS : 62934816, Roll : 0.15, Pitch : -17.82, Yaw : 47.05, Alt : 49.3199996948, Lat : 49.2837507, Lng : -123.1147205, Q1 : 0.905718564987, Q2 : 0.063029460609, Q3 : -0.14152392745, Q4 : 0.3945530653}
2019-04-14 15:52:27.61: SIM {TimeUS : 63035609, Roll : 0.17, Pitch : -17.82, Yaw : 47.04, Alt : 49.3199996948, Lat : 49.2837536, Lng : -123.1147157, Q1 : 0.905747413635, Q2 : 0.0632413849235, Q3 : -0.141412645578, Q4 : 0.394492805004}
2019-04-14 15:52:27.71: SIM {TimeUS : 63135569, Roll : 0.19, Pitch : -17.78, Yaw : 47.03, Alt : 49.3300018311, Lat : 49.2837563, Lng : -123.1147109, Q1 : 0.905812501907, Q2 : 0.0632577165961, Q3 : -0.141053810716, Q4 : 0.394469201565}
2019-04-14 15:52:27.81: SIM {TimeUS : 63235529, Roll : 0.19, Pitch : -17.75, Yaw : 47.02, Alt : 49.3300018311, Lat : 49.2837593, Lng : -123.1147061, Q1 : 0.905861973763, Q2 : 0.0631320104003, Q3 : -0.140873655677, Q4 : 0.3944401443}
2019-04-14 15:52:27.91: SIM {TimeUS : 63335489, Roll : 0.18, Pitch : -17.74, Yaw : 47.02, Alt : 49.3300018311, Lat : 49.283762, Lng : -123.1147013, Q1 : 0.905900239944, Q2 : 0.0629695132375, Q3 : -0.14080940187, Q4 : 0.39440125227}
2019-04-14 15:52:28.01: SIM {TimeUS : 63435449, Roll : 0.17, Pitch : -17.74, Yaw : 47.02, Alt : 49.3300018311, Lat : 49.2837649, Lng : -123.1146965, Q1 : 0.90591531992, Q2 : 0.0628836974502, Q3 : -0.140870332718, Q4 : 0.394358485937}
2019-04-14 15:52:28.11: SIM {TimeUS : 63535409, Roll : 0.15, Pitch : -17.76, Yaw : 47.01, Alt : 49.3300018311, Lat : 49.2837679, Lng : -123.1146917, Q1 : 0.905914485455, Q2 : 0.0628495514393, Q3 : -0.141056805849, Q4 : 0.394299149513}
2019-04-14 15:52:28.21: SIM {TimeUS : 63635369, Roll : 0.15, Pitch : -17.78, Yaw : 47.01, Alt : 49.3300018311, Lat : 49.2837707, Lng : -123.1146869, Q1 : 0.905908763409, Q2 : 0.0628807023168, Q3 : -0.141257181764, Q4 : 0.394235640764}
2019-04-14 15:52:28.31: SIM {TimeUS : 63735329, Roll : 0.14, Pitch : -17.82, Yaw : 47.0, Alt : 49.3300018311, Lat : 49.2837735, Lng : -123.1146821, Q1 : 0.905894160271, Q2 : 0.0629114508629, Q3 : -0.141577363014, Q4 : 0.394149392843}
2019-04-14 15:52:28.41: SIM {TimeUS : 63835289, Roll : 0.13, Pitch : -17.86, Yaw : 46.99, Alt : 49.3300018311, Lat : 49.2837764, Lng : -123.1146773, Q1 : 0.905869185925, Q2 : 0.0630290210247, Q3 : -0.141952842474, Q4 : 0.394053071737}
2019-04-14 15:52:28.51: SIM {TimeUS : 63935249, Roll : 0.14, Pitch : -17.9, Yaw : 46.98, Alt : 49.3300018311, Lat : 49.2837793, Lng : -123.1146724, Q1 : 0.90585488081, Q2 : 0.0632220283151, Q3 : -0.142220407724, Q4 : 0.393958419561}
2019-04-14 15:52:28.61: SIM {TimeUS : 64035209, Roll : 0.15, Pitch : -17.93, Yaw : 46.97, Alt : 49.3300018311, Lat : 49.2837822, Lng : -123.1146676, Q1 : 0.905857026577, Q2 : 0.0633366554976, Q3 : -0.142465248704, Q4 : 0.393846750259}
2019-04-14 15:52:28.71: SIM {TimeUS : 64135169, Roll : 0.15, Pitch : -17.95, Yaw : 46.95, Alt : 49.3300018311, Lat : 49.283785, Lng : -123.1146627, Q1 : 0.905878841877, Q2 : 0.0633878558874, Q3 : -0.142630338669, Q4 : 0.393728554249}
2019-04-14 15:52:28.81: SIM {TimeUS : 64235129, Roll : 0.16, Pitch : -17.95, Yaw : 46.94, Alt : 49.3300018311, Lat : 49.283788, Lng : -123.1146579, Q1 : 0.905923426151, Q2 : 0.0634819790721, Q3 : -0.142548635602, Q4 : 0.39364027977}
2019-04-14 15:52:28.91: SIM {TimeUS : 64335089, Roll : 0.19, Pitch : -17.95, Yaw : 46.93, Alt : 49.3300018311, Lat : 49.2837909, Lng : -123.1146531, Q1 : 0.905958175659, Q2 : 0.0636628121138, Q3 : -0.142496004701, Q4 : 0.393550217152}
2019-04-14 15:52:29.01: SIM {TimeUS : 64435049, Roll : 0.19, Pitch : -17.97, Yaw : 46.91, Alt : 49.3300018311, Lat : 49.2837938, Lng : -123.1146482, Q1 : 0.905988752842, Q2 : 0.0637462511659, Q3 : -0.14259159565, Q4 : 0.393431633711}
2019-04-14 15:52:29.11: SIM {TimeUS : 64535009, Roll : 0.2, Pitch : -17.97, Yaw : 46.9, Alt : 49.3300018311, Lat : 49.2837966, Lng : -123.1146433, Q1 : 0.906023085117, Q2 : 0.0638294965029, Q3 : -0.1426217556, Q4 : 0.393328130245}
2019-04-14 15:52:29.21: SIM {TimeUS : 64634969, Roll : 0.21, Pitch : -17.97, Yaw : 46.88, Alt : 49.3400001526, Lat : 49.2837995, Lng : -123.1146385, Q1 : 0.90606969595, Q2 : 0.0638636946678, Q3 : -0.142554074526, Q4 : 0.393239766359}
2019-04-14 15:52:29.31: SIM {TimeUS : 64734929, Roll : 0.21, Pitch : -17.96, Yaw : 46.87, Alt : 49.3400001526, Lat : 49.2838025, Lng : -123.1146336, Q1 : 0.906113505363, Q2 : 0.0638446360826, Q3 : -0.142533972859, Q4 : 0.393149107695}
2019-04-14 15:52:29.41: SIM {TimeUS : 64834889, Roll : 0.19, Pitch : -17.98, Yaw : 46.86, Alt : 49.3400001526, Lat : 49.2838054, Lng : -123.1146287, Q1 : 0.906134128571, Q2 : 0.0637365654111, Q3 : -0.142757490277, Q4 : 0.393038064241}
2019-04-14 15:52:29.51: SIM {TimeUS : 64934849, Roll : 0.16, Pitch : -18.02, Yaw : 46.85, Alt : 49.3400001526, Lat : 49.2838082, Lng : -123.1146238, Q1 : 0.906129777431, Q2 : 0.0636281445622, Q3 : -0.143147051334, Q4 : 0.392924010754}
2019-04-14 15:52:29.61: SIM {TimeUS : 65035642, Roll : 0.15, Pitch : -18.02, Yaw : 46.85, Alt : 49.3400001526, Lat : 49.2838112, Lng : -123.1146189, Q1 : 0.90615427494, Q2 : 0.0635124519467, Q3 : -0.143245279789, Q4 : 0.392850279808}
2019-04-14 15:52:29.71: SIM {TimeUS : 65135602, Roll : 0.16, Pitch : -18.0, Yaw : 46.84, Alt : 49.3400001526, Lat : 49.2838141, Lng : -123.114614, Q1 : 0.906199812889, Q2 : 0.063494130969, Q3 : -0.143055737019, Q4 : 0.392817378044}
2019-04-14 15:52:29.81: SIM {TimeUS : 65235562, Roll : 0.17, Pitch : -17.98, Yaw : 46.83, Alt : 49.3400001526, Lat : 49.2838171, Lng : -123.1146091, Q1 : 0.906239926815, Q2 : 0.0635396391153, Q3 : -0.142856881022, Q4 : 0.392789810896}
2019-04-14 15:52:29.91: SIM {TimeUS : 65335522, Roll : 0.18, Pitch : -17.99, Yaw : 46.82, Alt : 49.3400001526, Lat : 49.2838201, Lng : -123.1146041, Q1 : 0.906255125999, Q2 : 0.0636014565825, Q3 : -0.14291536808, Q4 : 0.392723500729}
2019-04-14 15:52:30.01: SIM {TimeUS : 65435482, Roll : 0.17, Pitch : -18.02, Yaw : 46.82, Alt : 49.3400001526, Lat : 49.283823, Lng : -123.1145993, Q1 : 0.906262934208, Q2 : 0.0635753124952, Q3 : -0.14314262569, Q4 : 0.392626851797}
2019-04-14 15:52:30.11: SIM {TimeUS : 65535442, Roll : 0.14, Pitch : -18.04, Yaw : 46.81, Alt : 49.3400001526, Lat : 49.2838258, Lng : -123.1145944, Q1 : 0.906271159649, Q2 : 0.0634860172868, Q3 : -0.143439844251, Q4 : 0.392513871193}
2019-04-14 15:52:30.21: SIM {TimeUS : 65635402, Roll : 0.13, Pitch : -18.07, Yaw : 46.8, Alt : 49.3400001526, Lat : 49.2838288, Lng : -123.1145895, Q1 : 0.906278789043, Q2 : 0.0634742230177, Q3 : -0.143696665764, Q4 : 0.392404258251}
2019-04-14 15:52:30.31: SIM {TimeUS : 65735362, Roll : 0.14, Pitch : -18.1, Yaw : 46.79, Alt : 49.3400001526, Lat : 49.2838317, Lng : -123.1145846, Q1 : 0.906279444695, Q2 : 0.063606493175, Q3 : -0.14389513433, Q4 : 0.392308533192}
2019-04-14 15:52:30.41: SIM {TimeUS : 65835322, Roll : 0.15, Pitch : -18.12, Yaw : 46.77, Alt : 49.3400001526, Lat : 49.2838347, Lng : -123.1145797, Q1 : 0.906283855438, Q2 : 0.0637766718864, Q3 : -0.14401102066, Q4 : 0.392228186131}
2019-04-14 15:52:30.51: SIM {TimeUS : 65935282, Roll : 0.18, Pitch : -18.12, Yaw : 46.76, Alt : 49.3400001526, Lat : 49.2838377, Lng : -123.1145747, Q1 : 0.906300604343, Q2 : 0.0639570578933, Q3 : -0.143995985389, Q4 : 0.392165601254}
