2019-04-14 18:25:33.10: SIM {TimeUS : 40716207, Roll : 0.0, Pitch : 0.0, Yaw : 0.0, Alt : 30.1000003815, Lat : 49.28357, Lng : -123.11502, Q1 : 1.0, Q2 : 0.0, Q3 : 0.0, Q4 : 0.0}
2019-04-14 18:25:33.21: SIM {TimeUS : 40835326, Roll : 0.0, Pitch : 0.0, Yaw : 0.0, Alt : 30.1000003815, Lat : 49.28357, Lng : -123.11502, Q1 : 1.0, Q2 : 0.0, Q3 : 0.0, Q4 : 0.0}
2019-04-14 18:25:33.31: SIM {TimeUS : 40935286, Roll : 0.0, Pitch : 0.0, Yaw : 0.0, Alt : 30.1000003815, Lat : 49.28357, Lng : -123.11502, Q1 : 1.0, Q2 : 0.0, Q3 : 0.0, Q4 : 0.0}
2019-04-14 18:25:33.41: SIM {TimeUS : 41035246, Roll : 0.0, Pitch : 0.0, Yaw : 0.0, Alt : 30.1000003815, Lat : 49.28357, Lng : -123.11502, Q1 : 1.0, Q2 : 0.0, Q3 : 0.0, Q4 : 0.0}
2019-04-14 18:25:33.51: SIM {TimeUS : 41135206, Roll : 0.0, Pitch : 0.0, Yaw : 0.0, Alt : 30.1000003815, Lat : 49.28357, Lng : -123.11502, Q1 : 1.0, Q2 : 0.0, Q3 : 0.0, Q4 : 0.0}
2019-04-14 18:25:33.61: SIM {TimeUS : 41235166, Roll : 0.0, Pitch : 0.0, Yaw : 0.0, Alt : 30.1000003815, Lat : 49.28357, Lng : -123.11502, Q1 : 1.0, Q2 : 0.0, Q3 : 0.0, Q4 : 0.0}
2019-04-14 18:25:33.71: SIM {TimeUS : 41335126, Roll : 0.0, Pitch : 0.0, Yaw : 0.0, Alt : 30.1000003815, Lat : 49.28357, Lng : -123.11502, Q1 : 1.0, Q2 : 0.0, Q3 : 0.0, Q4 : 0.0}
2019-04-14 18:25:33.81: SIM {TimeUS : 41435086, Roll : 0.0, Pitch : 0.0, Yaw : 0.0, Alt : 30.1000003815, Lat : 49.28357, Lng : -123.11502, Q1 : 1.0, Q2 : 0.0, Q3 : 0.0, Q4 : 0.0}
2019-04-14 18:25:33.91: SIM {TimeUS : 41535046, Roll : 0.0, Pitch : 0.0, Yaw : 0.0, Alt : 30.1000003815, Lat : 49.28357, Lng : -123.11502, Q1 : 1.0, Q2 : 0.0, Q3 : 0.0, Q4 : 0.0}
2019-04-14 18:25:34.01: SIM {TimeUS : 41635006, Roll : 0.0, Pitch : 0.0, Yaw : 0.0, Alt : 30.1000003815, Lat : 49.28357, Lng : -123.11502, Q1 : 1.0, Q2 : 0.0, Q3 : 0.0, Q4 : 0.0}
2019-04-14 18:25:34.11: SIM {TimeUS : 41734966, Roll : 0.0, Pitch : 0.0, Yaw : 0.0, Alt : 30.1000003815, Lat : 49.28357, Lng : -123.11502, Q1 : 1.0, Q2 : 0.0, Q3 : 0.0, Q4 : 0.0}
2019-04-14 18:25:34.21: SIM {TimeUS : 41834926, Roll : 0.0, Pitch : 0.0, Yaw : 0.0, Alt : 30.1000003815, Lat : 49.28357, Lng : -123.11502, Q1 : 1.0, Q2 : 0.0, Q3 : 0.0, Q4 : 0.0}
2019-04-14 18:25:34.31: SIM {TimeUS : 41934886, Roll : 0.0, Pitch : 0.0, Yaw : 0.0, Alt : 30.1000003815, Lat : 49.28357, Lng : -123.11502, Q1 : 1.0, Q2 : 0.0, Q3 : 0.0, Q4 : 0.0}
2019-04-14 18:25:34.41: SIM {TimeUS : 42034846, Roll : 0.0, Pitch : 0.0, Yaw : 0.0, Alt : 30.1000003815, Lat : 49.28357, Lng : -123.11502, Q1 : 1.0, Q2 : 0.0, Q3 : 0.0, Q4 : 0.0}
2019-04-14 18:25:34.51: SIM {TimeUS : 42134806, Roll : 0.0, Pitch : 0.0, Yaw : 0.0, Alt : 30.1000003815, Lat : 49.28357, Lng : -123.11502, Q1 : 1.0, Q2 : 0.0, Q3 : 0.0, Q4 : 0.0}
2019-04-14 18:25:34.61: SIM {TimeUS : 42234766, Roll : 0.0, Pitch : 0.0, Yaw : 0.0, Alt : 30.1000003815, Lat : 49.28357, Lng : -123.11502, Q1 : 1.0, Q2 : 0.0, Q3 : 0.0, Q4 : 0.0}
2019-04-14 18:25:34.71: SIM {TimeUS : 42334726, Roll : 0.0, Pitch : 0.0, Yaw : 0.0, Alt : 30.1000003815, Lat : 49.28357, Lng : -123.11502, Q1 : 1.0, Q2 : 0.0, Q3 : 0.0, Q4 : 0.0}
2019-04-14 18:25:34.81: SIM {TimeUS : 42434686, Roll : 0.0, Pitch : 0.0, Yaw : 0.0, Alt : 30.1000003815, Lat : 49.28357, Lng : -123.11502, Q1 : 1.0, Q2 : 0.0, Q3 : 0.0, Q4 : 0.0}
2019-04-14 18:25:34.91: SIM {TimeUS : 42534646, Roll : 0.0, Pitch : 0.0, Yaw : 0.0, Alt : 30.1000003815, Lat : 49.28357, Lng : -123.11502, Q1 : 1.0, Q2 : 0.0, Q3 : 0.0, Q4 : 0.0}
2019-04-14 18:25:35.01: SIM {TimeUS : 42634606, Roll : 0.0, Pitch : 0.0, Yaw : 0.0, Alt : 30.1000003815, Lat : 49.28357, Lng : -123.11502, Q1 : 1.0, Q2 : 0.0, Q3 : 0.0, Q4 : 0.0}
2019-04-14 18:25:35.11: SIM {TimeUS : 42734566, Roll : 0.0, Pitch : 0.0, Yaw : 0.0, Alt : 30.1000003815, Lat : 49.28357, Lng : -123.11502, Q1 : 1.0, Q2 : 0.0, Q3 : 0.0, Q4 : 0.0}
2019-04-14 18:25:35.22: SIM {TimeUS : 42835359, Roll : 0.0, Pitch : 0.0, Yaw : 0.0, Alt : 30.1000003815, Lat : 49.28357, Lng : -123.11502, Q1 : 1.0, Q2 : 0.0, Q3 : 0.0, Q4 : 0.0}
2019-04-14 18:25:35.31: SIM {TimeUS : 42935319, Roll : 0.0, Pitch : 0.0, Yaw : 0.0, Alt : 30.1000003815, Lat : 49.28357, Lng : -123.11502, Q1 : 1.0, Q2 : 0.0, Q3 : 0.0, Q4 : 0.0}
2019-04-14 18:25:35.41: SIM {TimeUS : 43035279, Roll : 0.0, Pitch : 0.0, Yaw : 360.0, Alt : 30.1000003815, Lat : 49.28357, Lng : -123.11502, Q1 : 1.0, Q2 : 0.0, Q3 : 0.0, Q4 : -7.94657811776e-11}
2019-04-14 18:25:35.51: SIM {TimeUS : 43135239, Roll : 0.0, Pitch : 0.0, Yaw : 360.0, Alt : 30.1000003815, Lat : 49.28357, Lng : -123.11502, Q1 : 1.0, Q2 : 0.0, Q3 : 0.0, Q4 : -2.43134365974e-08}
2019-04-14 18:25:35.61: SIM {TimeUS : 43235199, Roll : 0.0, Pitch : 0.0, Yaw : 359.99, Alt : 30.1000003815, Lat : 49.28357, Lng : -123.11502, Q1 : 1.0, Q2 : 0.0, Q3 : 0.0, Q4 : -1.77324835704e-07}
2019-04-14 18:25:35.71: SIM {TimeUS : 43335159, Roll : 0.0, Pitch : 0.0, Yaw : 359.99, Alt : 30.1000003815, Lat : 49.28357, Lng : -123.11502, Q1 : 1.0, Q2 : 0.0, Q3 : 0.0, Q4 : -3.21791020497e-07}
2019-04-14 18:25:35.81: SIM {TimeUS : 43435119, Roll : 0.0, Pitch : 0.0, Yaw : 359.99, Alt : 30.1000003815, Lat : 49.28357, Lng : -123.11502, Q1 : 1.0, Q2 : 0.0, Q3 : 0.0, Q4 : -5.03919011408e-07}
2019-04-14 18:25:35.91: SIM {TimeUS : 43535079, Roll : 0.0, Pitch : 0.0, Yaw : 359.99, Alt : 30.1000003815, Lat : 49.28357, Lng : -123.11502, Q1 : 1.0, Q2 : 0.0, Q3 : 0.0, Q4 : -7.16915394605e-07}
2019-04-14 18:25:36.01: SIM {TimeUS : 43635039, Roll : 0.0, Pitch : 0.0, Yaw : 359.99, Alt : 30.1000003815, Lat : 49.28357, Lng : -123.11502, Q1 : 1.0, Q2 : 0.0, Q3 : 0.0, Q4 : -9.02877729914e-07}
2019-04-14 18:25:36.11: SIM {TimeUS : 43734999, Roll : 0.0, Pitch : 0.0, Yaw : 359.99, Alt : 30.1000003815, Lat : 49.28357, Lng : -123.11502, Q1 : 1.0, Q2 : 0.0, Q3 : 0.0, Q4 : -1.15568968795e-06}
2019-04-14 18:25:36.21: SIM {TimeUS : 43834959, Roll : 0.0, Pitch : 0.0, Yaw : 359.99, Alt : 30.1000003815, Lat : 49.28357, Lng : -123.11502, Q1 : 1.0, Q2 : 0.0, Q3 : 0.0, Q4 : -1.33984929107e-06}
2019-04-14 18:25:36.31: SIM {TimeUS : 43934919, Roll : 0.0, Pitch : 0.0, Yaw : 359.99, Alt : 30.1200008392, Lat : 49.28357, Lng : -123.11502, Q1 : 1.0, Q2 : 0.0, Q3 : 0.0, Q4 : -1.5400768234e-06}
2019-04-14 18:25:36.41: SIM {TimeUS : 44034879, Roll : 0.0, Pitch : 0.0, Yaw : 359.99, Alt : 30.1499996185, Lat : 49.28357, Lng : -123.11502, Q1 : 1.0, Q2 : 0.0, Q3 : 0.0, Q4 : -1.75638444944e-06}
2019-04-14 18:25:36.51: SIM {TimeUS : 44134839, Roll : 0.0, Pitch : 0.0, Yaw : 359.99, Alt : 30.1800003052, Lat : 49.28357, Lng : -123.11502, Q1 : 1.0, Q2 : 0.0, Q3 : 0.0, Q4 : -1.97041572392e-06}
2019-04-14 18:25:36.61: SIM {TimeUS : 44234799, Roll : 0.0, Pitch : 0.0, Yaw : 359.99, Alt : 30.2099990845, Lat : 49.28357, Lng : -123.11502, Q1 : 1.0, Q2 : -5.64826132177e-06, Q3 : -4.94225696457e-06, Q4 : -2.26604834097e-06}
2019-04-14 18:25:36.71: SIM {TimeUS : 44334759, Roll : -0.17, Pitch : -0.15, Yaw : 359.99, Alt : 30.2700004578, Lat : 49.28357, Lng : -123.11502, Q1 : 0.999997794628, Q2 : -0.00156723405235, Q3 : -0.00138915493153, Q4 : -1.87464047485e-05}
2019-04-14 18:25:36.81: SIM {TimeUS : 44434719, Roll : -0.46, Pitch : -0.45, Yaw : 359.99, Alt : 30.3899993896, Lat : 49.28357, Lng : -123.11502, Q1 : 0.999983966351, Q2 : -0.00403989059851, Q3 : -0.00396654801443, Q4 : -6.38887067907e-05}
2019-04-14 18:25:36.91: SIM {TimeUS : 44534679, Roll : -0.69, Pitch : -0.69, Yaw : 359.98, Alt : 30.5400009155, Lat : 49.28357, Lng : -123.11502, Q1 : 0.999963462353, Q2 : -0.00604204554111, Q3 : -0.00605393294245, Q4 : -0.000126953425934}
2019-04-14 18:25:37.01: SIM {TimeUS : 44634639, Roll : -0.8, Pitch : -0.78, Yaw : 359.98, Alt : 30.7000007629, Lat : 49.28357, Lng : -123.11502, Q1 : 0.999951779842, Q2 : -0.00703866640106, Q3 : -0.00684772757813, Q4 : -0.000209064761293}
2019-04-14 18:25:37.11: SIM {TimeUS : 44734599, Roll : -0.77, Pitch : -0.74, Yaw : 359.97, Alt : 30.8500003815, Lat : 49.28357, Lng : -123.1150201, Q1 : 0.999956130981, Q2 : -0.00677524274215, Q3 : -0.0064576594159, Q4 : -0.000297704013065}
2019-04-14 18:25:37.21: SIM {TimeUS : 44834559, Roll : -0.62, Pitch : -0.58, Yaw : 359.96, Alt : 31.0100002289, Lat : 49.28357, Lng : -123.1150201, Q1 : 0.999971807003, Q2 : -0.00546139711514, Q3 : -0.00513770664111, Q4 : -0.000376407784643}
2019-04-14 18:25:37.32: SIM {TimeUS : 44935352, Roll : -0.4, Pitch : -0.38, Yaw : 359.95, Alt : 31.1599998474, Lat : 49.2835701, Lng : -123.1150202, Q1 : 0.999987900257, Q2 : -0.0035781278275, Q3 : -0.00335077755153, Q4 : -0.000438228889834}
2019-04-14 18:25:37.41: SIM {TimeUS : 45035312, Roll : -0.18, Pitch : -0.19, Yaw : 359.94, Alt : 31.3199996948, Lat : 49.2835701, Lng : -123.1150203, Q1 : 0.999997138977, Q2 : -0.0016425952781, Q3 : -0.00168283295352, Q4 : -0.000484149291879}
2019-04-14 18:25:37.51: SIM {TimeUS : 45135272, Roll : -0.01, Pitch : -0.04, Yaw : 359.94, Alt : 31.4899997711, Lat : 49.2835702, Lng : -123.1150204, Q1 : 0.999999761581, Q2 : -0.000108717511466, Q3 : -0.000414719426772, Q4 : -0.000514512241352}
2019-04-14 18:25:37.61: SIM {TimeUS : 45235232, Roll : 0.08, Pitch : 0.04, Yaw : 359.93, Alt : 31.6700000763, Lat : 49.2835702, Lng : -123.1150204, Q1 : 0.999999523163, Q2 : 0.00072525156429, Q3 : 0.000413979316363, Q4 : -0.00052894797409}
2019-04-14 18:25:37.71: SIM {TimeUS : 45335192, Roll : 0.1, Pitch : 0.08, Yaw : 359.93, Alt : 31.8400001526, Lat : 49.2835703, Lng : -123.1150205, Q1 : 0.99999910593, Q2 : 0.000953731185291, Q3 : 0.000783141353168, Q4 : -0.000537665910088}
2019-04-14 18:25:37.81: SIM {TimeUS : 45435152, Roll : 0.08, Pitch : 0.09, Yaw : 359.93, Alt : 32.0299987793, Lat : 49.2835703, Lng : -123.1150206, Q1 : 0.99999922514, Q2 : 0.000754698994569, Q3 : 0.000844473775942, Q4 : -0.00054325198289}
2019-04-14 18:25:37.91: SIM {TimeUS : 45535112, Roll : 0.07, Pitch : 0.1, Yaw : 359.93, Alt : 32.2099990845, Lat : 49.2835703, Lng : -123.1150206, Q1 : 0.99999922514, Q2 : 0.000636143609881, Q3 : 0.000950898858719, Q4 : -0.000533820537385}
2019-04-14 18:25:38.01: SIM {TimeUS : 45635072, Roll : 0.07, Pitch : 0.12, Yaw : 359.94, Alt : 32.4000015259, Lat : 49.2835703, Lng : -123.1150207, Q1 : 0.99999910593, Q2 : 0.000696418515872, Q3 : 0.00105027714744, Q4 : -0.00051821564557}
2019-04-14 18:25:38.11: SIM {TimeUS : 45735032, Roll : 0.09, Pitch : 0.13, Yaw : 359.94, Alt : 32.5999984741, Lat : 49.2835703, Lng : -123.1150207, Q1 : 0.999998867512, Q2 : 0.000839891959913, Q3 : 0.00116971123498, Q4 : -0.000487084180349}
2019-04-14 18:25:38.21: SIM {TimeUS : 45834992, Roll : 0.1, Pitch : 0.15, Yaw : 359.94, Alt : 32.7900009155, Lat : 49.2835704, Lng : -123.1150207, Q1 : 0.999998629093, Q2 : 0.000933213508688, Q3 : 0.00131732935552, Q4 : -0.000453677057521}
2019-04-14 18:25:38.31: SIM {TimeUS : 45934952, Roll : 0.12, Pitch : 0.15, Yaw : 359.95, Alt : 32.9900016785, Lat : 49.2835704, Lng : -123.1150208, Q1 : 0.999998509884, Q2 : 0.00105524458922, Q3 : 0.00131831748877, Q4 : -0.000422990560764}
2019-04-14 18:25:38.41: SIM {TimeUS : 46034912, Roll : 0.13, Pitch : 0.14, Yaw : 359.95, Alt : 33.1899986267, Lat : 49.2835704, Lng : -123.1150208, Q1 : 0.999998509884, Q2 : 0.00114520720672, Q3 : 0.00124202435836, Q4 : -0.000397332303692}
2019-04-14 18:25:38.51: SIM {TimeUS : 46134872, Roll : 0.13, Pitch : 0.13, Yaw : 359.95, Alt : 33.4000015259, Lat : 49.2835704, Lng : -123.1150208, Q1 : 0.999998569489, Q2 : 0.00119570957031, Q3 : 0.00116178009193, Q4 : -0.000378204480512}
2019-04-14 18:25:38.61: SIM {TimeUS : 46234832, Roll : 0.13, Pitch : 0.12, Yaw : 359.95, Alt : 33.5999984741, Lat : 49.2835704, Lng : -123.1150208, Q1 : 0.999998569489, Q2 : 0.00120664539281, Q3 : 0.00112085626461, Q4 : -0.000363599159755}
2019-04-14 18:25:38.71: SIM {TimeUS : 46334792, Roll : 0.15, Pitch : 0.13, Yaw : 359.95, Alt : 33.8100013733, Lat : 49.2835704, Lng : -123.1150208, Q1 : 0.999998390675, Q2 : 0.00131418299861, Q3 : 0.0011542912107, Q4 : -0.000363130820915}
2019-04-14 18:25:38.81: SIM {TimeUS : 46434752, Roll : 0.15, Pitch : 0.13, Yaw : 359.95, Alt : 34.0200004578, Lat : 49.2835704, Lng : -123.1150208, Q1 : 0.99999833107, Q2 : 0.00136443879455, Q3 : 0.00114223523997, Q4 : -0.000369912188035}
2019-04-14 18:25:38.91: SIM {TimeUS : 46534712, Roll : 0.14, Pitch : 0.11, Yaw : 359.95, Alt : 34.2299995422, Lat : 49.2835704, Lng : -123.1150208, Q1 : 0.999998569489, Q2 : 0.00128049647901, Q3 : 0.00104477198329, Q4 : -0.000390033586882}
2019-04-14 18:25:39.01: SIM {TimeUS : 46634672, Roll : 0.12, Pitch : 0.11, Yaw : 359.95, Alt : 34.4399986267, Lat : 49.2835704, Lng : -123.1150208, Q1 : 0.999998807907, Q2 : 0.00113189115655, Q3 : 0.000979940639809, Q4 : -0.000418414390879}
2019-04-14 18:25:39.11: SIM {TimeUS : 46734632, Roll : 0.1, Pitch : 0.1, Yaw : 359.94, Alt : 34.6599998474, Lat : 49.2835704, Lng : -123.1150208, Q1 : 0.999999046326, Q2 : 0.000898670288734, Q3 : 0.000934142852202, Q4 : -0.000461240182631}
2019-04-14 18:25:39.21: SIM {TimeUS : 46834592, Roll : 0.08, Pitch : 0.07, Yaw : 359.94, Alt : 34.8699989319, Lat : 49.2835704, Lng : -123.1150208, Q1 : 0.999999403954, Q2 : 0.000724361336324, Q3 : 0.000653999566566, Q4 : -0.000513927720021}
2019-04-14 18:25:39.31: SIM {TimeUS : 46934552, Roll : 0.06, Pitch : 0.04, Yaw : 359.93, Alt : 35.0900001526, Lat : 49.2835704, Lng : -123.1150208, Q1 : 0.999999582767, Q2 : 0.000585030938964, Q3 : 0.000370755646145, Q4 : -0.000571559474338}
2019-04-14 18:25:39.42: SIM {TimeUS : 47035345, Roll : 0.03, Pitch : 0.02, Yaw : 359.92, Alt : 35.3100013733, Lat : 49.2835704, Lng : -123.1150208, Q1 : 0.999999761581, Q2 : 0.000329835951561, Q3 : 0.000212257247767, Q4 : -0.000625365588348}
2019-04-14 18:25:39.51: SIM {TimeUS : 47135305, Roll : 0.02, Pitch : 0.01, Yaw : 359.92, Alt : 35.5200004578, Lat : 49.2835704, Lng : -123.1150208, Q1 : 0.999999761581, Q2 : 0.000215533058508, Q3 : 0.000162643089425, Q4 : -0.000671853602398}
2019-04-14 18:25:39.61: SIM {TimeUS : 47235265, Roll : 0.02, Pitch : 0.01, Yaw : 359.91, Alt : 35.7400016785, Lat : 49.2835704, Lng : -123.1150207, Q1 : 0.999999701977, Q2 : 0.000231810787227, Q3 : 0.000131853521452, Q4 : -0.000714142981451}
2019-04-14 18:25:39.71: SIM {TimeUS : 47335225, Roll : 0.01, Pitch : -0.01, Yaw : 359.91, Alt : 35.9599990845, Lat : 49.2835704, Lng : -123.1150207, Q1 : 0.999999701977, Q2 : 8.93930409802e-05, Q3 : -0.000100677527371, Q4 : -0.00074698147364}
2019-04-14 18:25:39.81: SIM {TimeUS : 47435185, Roll : -0.02, Pitch : -0.05, Yaw : 359.91, Alt : 36.1800003052, Lat : 49.2835704, Lng : -123.1150207, Q1 : 0.999999582767, Q2 : -0.000206977376365, Q3 : -0.000452114851214, Q4 : -0.000771778053604}
2019-04-14 18:25:39.91: SIM {TimeUS : 47535145, Roll : -0.05, Pitch : -0.07, Yaw : 359.9, Alt : 36.4000015259, Lat : 49.2835704, Lng : -123.1150207, Q1 : 0.999999344349, Q2 : -0.000515140360221, Q3 : -0.000652766320854, Q4 : -0.000792529259343}
2019-04-14 18:25:40.01: SIM {TimeUS : 47635105, Roll : -0.09, Pitch : -0.09, Yaw : 359.9, Alt : 36.6300010681, Lat : 49.2835704, Lng : -123.1150207, Q1 : 0.999999046326, Q2 : -0.000805189891253, Q3 : -0.00079696328612, Q4 : -0.000811447564047}
2019-04-14 18:25:40.11: SIM {TimeUS : 47735065, Roll : -0.09, Pitch : -0.08, Yaw : 359.9, Alt : 36.8499984741, Lat : 49.2835704, Lng : -123.1150207, Q1 : 0.999998986721, Q2 : -0.000860967149492, Q3 : -0.000781088485382, Q4 : -0.000825269962661}
2019-04-14 18:25:40.21: SIM {TimeUS : 47835025, Roll : -0.08, Pitch : -0.07, Yaw : 359.9, Alt : 37.0699996948, Lat : 49.2835704, Lng : -123.1150207, Q1 : 0.99999910593, Q2 : -0.000777579494752, Q3 : -0.000665670610033, Q4 : -0.000838994979858}
2019-04-14 18:25:40.31: SIM {TimeUS : 47934985, Roll : -0.07, Pitch : -0.05, Yaw : 359.9, Alt : 37.2999992371, Lat : 49.2835704, Lng : -123.1150207, Q1 : 0.999999344349, Q2 : -0.00062055257149, Q3 : -0.000461468909634, Q4 : -0.000850913114846}
2019-04-14 18:25:40.41: SIM {TimeUS : 48034945, Roll : -0.05, Pitch : -0.03, Yaw : 359.9, Alt : 37.5200004578, Lat : 49.2835704, Lng : -123.1150207, Q1 : 0.999999463558, Q2 : -0.000468582235044, Q3 : -0.000324964814354, Q4 : -0.00085790688172}
2019-04-14 18:25:40.51: SIM {TimeUS : 48134905, Roll : -0.06, Pitch : -0.04, Yaw : 359.9, Alt : 37.75, Lat : 49.2835704, Lng : -123.1150206, Q1 : 0.999999403954, Q2 : -0.000538882391993, Q3 : -0.000349984475179, Q4 : -0.000862174259964}
2019-04-14 18:25:40.61: SIM {TimeUS : 48234865, Roll : -0.07, Pitch : -0.03, Yaw : 359.89, Alt : 37.9799995422, Lat : 49.2835704, Lng : -123.1150206, Q1 : 0.999999344349, Q2 : -0.00069647282362, Q3 : -0.000285907473881, Q4 : -0.000876221398357}
2019-04-14 18:25:40.71: SIM {TimeUS : 48334825, Roll : -0.1, Pitch : -0.01, Yaw : 359.89, Alt : 38.2000007629, Lat : 49.2835704, Lng : -123.1150206, Q1 : 0.999999165535, Q2 : -0.000905836292077, Q3 : -0.000162942276802, Q4 : -0.000896079174709}
2019-04-14 18:25:40.81: SIM {TimeUS : 48434785, Roll : -0.1, Pitch : 0.0, Yaw : 359.89, Alt : 38.4300003052, Lat : 49.2835704, Lng : -123.1150206, Q1 : 0.999999165535, Q2 : -0.000922103761695, Q3 : -3.77160031348e-05, Q4 : -0.000913964293431}
2019-04-14 18:25:40.91: SIM {TimeUS : 48534745, Roll : -0.08, Pitch : 0.02, Yaw : 359.89, Alt : 38.6599998474, Lat : 49.2835706, Lng : -123.1150206, Q1 : 0.999999284744, Q2 : -0.000700401084032, Q3 : 0.000195599073777, Q4 : -0.000934614043217}
2019-04-14 18:25:41.01: SIM {TimeUS : 48634705, Roll : -0.05, Pitch : 0.02, Yaw : 359.89, Alt : 38.8899993896, Lat : 49.2835706, Lng : -123.1150207, Q1 : 0.999999463558, Q2 : -0.000471064617159, Q3 : 0.000196248161956, Q4 : -0.000943325867411}
2019-04-14 18:25:41.11: SIM {TimeUS : 48734665, Roll : -0.02, Pitch : 0.01, Yaw : 359.89, Alt : 39.1199989319, Lat : 49.2835706, Lng : -123.1150207, Q1 : 0.999999523163, Q2 : -0.000217865439481, Q3 : 0.000159451970831, Q4 : -0.000948862289079}
2019-04-14 18:25:41.21: SIM {TimeUS : 48834625, Roll : 0.01, Pitch : 0.03, Yaw : 359.89, Alt : 39.3499984741, Lat : 49.2835706, Lng : -123.1150207, Q1 : 0.999999463558, Q2 : 9.91919732769e-05, Q3 : 0.000331251183525, Q4 : -0.000954595801886}
2019-04-14 18:25:41.31: SIM {TimeUS : 48934585, Roll : 0.05, Pitch : 0.07, Yaw : 359.88, Alt : 39.5800018311, Lat : 49.2835706, Lng : -123.1150207, Q1 : 0.99999922514, Q2 : 0.0004514567554, Q3 : 0.000627537956461, Q4 : -0.000969634391367}
2019-04-14 18:25:41.41: SIM {TimeUS : 49034545, Roll : 0.07, Pitch : 0.1, Yaw : 359.88, Alt : 39.8100013733, Lat : 49.2835706, Lng : -123.1150207, Q1 : 0.999998867512, Q2 : 0.000694723392371, Q3 : 0.000935899908654, Q4 : -0.00099350977689}
2019-04-14 18:25:41.52: SIM {TimeUS : 49135338, Roll : 0.06, Pitch : 0.13, Yaw : 359.88, Alt : 40.0400009155, Lat : 49.2835706, Lng : -123.1150207, Q1 : 0.999998569489, Q2 : 0.00061018258566, Q3 : 0.00119631027337, Q4 : -0.00101439538412}
2019-04-14 18:25:41.61: SIM {TimeUS : 49235298, Roll : 0.02, Pitch : 0.16, Yaw : 359.87, Alt : 40.2700004578, Lat : 49.2835706, Lng : -123.1150207, Q1 : 0.999998450279, Q2 : 0.000214700878132, Q3 : 0.00140402570833, Q4 : -0.00105478730984}
2019-04-14 18:25:41.71: SIM {TimeUS : 49335258, Roll : -0.01, Pitch : 0.16, Yaw : 359.87, Alt : 40.5099983215, Lat : 49.2835706, Lng : -123.1150207, Q1 : 0.99999833107, Q2 : -0.000132204339025, Q3 : 0.00148362817708, Q4 : -0.00108913565055}
2019-04-14 18:25:41.81: SIM {TimeUS : 49435218, Roll : -0.03, Pitch : 0.15, Yaw : 359.87, Alt : 40.7400016785, Lat : 49.2835706, Lng : -123.1150207, Q1 : 0.999998450279, Q2 : -0.00032458914211, Q3 : 0.00133384624496, Q4 : -0.00111041136552}
2019-04-14 18:25:41.91: SIM {TimeUS : 49535178, Roll : -0.04, Pitch : 0.12, Yaw : 359.86, Alt : 40.9700012207, Lat : 49.2835706, Lng : -123.1150207, Q1 : 0.999998629093, Q2 : -0.000353454466676, Q3 : 0.00112853839528, Q4 : -0.00113666674588}
2019-04-14 18:25:42.01: SIM {TimeUS : 49635138, Roll : -0.02, Pitch : 0.12, Yaw : 359.86, Alt : 41.2000007629, Lat : 49.2835706, Lng : -123.1150207, Q1 : 0.999998688698, Q2 : -0.000221749767661, Q3 : 0.00110553298146, Q4 : -0.00116455589887}
2019-04-14 18:25:42.11: SIM {TimeUS : 49735098, Roll : 0.01, Pitch : 0.14, Yaw : 359.86, Alt : 41.4399986267, Lat : 49.2835706, Lng : -123.1150207, Q1 : 0.999998509884, Q2 : 0.000136685266625, Q3 : 0.00123159878422, Q4 : -0.00119815708604}
2019-04-14 18:25:42.21: SIM {TimeUS : 49835058, Roll : 0.06, Pitch : 0.14, Yaw : 359.85, Alt : 41.6699981689, Lat : 49.2835706, Lng : -123.1150207, Q1 : 0.999998271465, Q2 : 0.000582487264182, Q3 : 0.00128671142738, Q4 : -0.00123301986605}
2019-04-14 18:25:42.31: SIM {TimeUS : 49935018, Roll : 0.1, Pitch : 0.12, Yaw : 359.85, Alt : 41.9099998474, Lat : 49.2835706, Lng : -123.1150207, Q1 : 0.999998211861, Q2 : 0.000895249540918, Q3 : 0.00106168910861, Q4 : -0.00126992398873}
2019-04-14 18:25:42.41: SIM {TimeUS : 50034978, Roll : 0.1, Pitch : 0.08, Yaw : 359.85, Alt : 42.1399993896, Lat : 49.2835706, Lng : -123.1150207, Q1 : 0.999998450279, Q2 : 0.000897601537872, Q3 : 0.000747202779166, Q4 : -0.00130787550006}
2019-04-14 18:25:42.51: SIM {TimeUS : 50134938, Roll : 0.06, Pitch : 0.06, Yaw : 359.84, Alt : 42.3699989319, Lat : 49.2835706, Lng : -123.1150207, Q1 : 0.999998807907, Q2 : 0.000562029774301, Q3 : 0.00052360619884, Q4 : -0.00133193447255}
2019-04-14 18:25:42.61: SIM {TimeUS : 50234898, Roll : 0.0, Pitch : 0.05, Yaw : 359.84, Alt : 42.6100006104, Lat : 49.2835706, Lng : -123.1150207, Q1 : 0.999998986721, Q2 : 8.23350637802e-05, Q3 : 0.000453376502264, Q4 : -0.00134735112078}
2019-04-14 18:25:42.71: SIM {TimeUS : 50334858, Roll : -0.02, Pitch : 0.07, Yaw : 359.84, Alt : 42.8400001526, Lat : 49.2835706, Lng : -123.1150207, Q1 : 0.999998867512, Q2 : -0.000256169878412, Q3 : 0.000612660951447, Q4 : -0.00135632127058}
2019-04-14 18:25:42.81: SIM {TimeUS : 50434818, Roll : -0.05, Pitch : 0.08, Yaw : 359.84, Alt : 43.0800018311, Lat : 49.2835704, Lng : -123.1150207, Q1 : 0.999998748302, Q2 : -0.00043685833225, Q3 : 0.000716061505955, Q4 : -0.00136340339668}
2019-04-14 18:25:42.91: SIM {TimeUS : 50534778, Roll : -0.05, Pitch : 0.07, Yaw : 359.84, Alt : 43.3100013733, Lat : 49.2835704, Lng : -123.1150207, Q1 : 0.999998748302, Q2 : -0.000450658408226, Q3 : 0.000649564201012, Q4 : -0.00136998237576}
2019-04-14 18:25:43.01: SIM {TimeUS : 50634738, Roll : -0.05, Pitch : 0.05, Yaw : 359.84, Alt : 43.5499992371, Lat : 49.2835704, Lng : -123.1150207, Q1 : 0.999998807907, Q2 : -0.00051639409503, Q3 : 0.00051938497927, Q4 : -0.00138135976158}
2019-04-14 18:25:43.11: SIM {TimeUS : 50734698, Roll : -0.05, Pitch : 0.04, Yaw : 359.84, Alt : 43.7799987793, Lat : 49.2835704, Lng : -123.1150207, Q1 : 0.999998807907, Q2 : -0.000487724668346, Q3 : 0.000376692303689, Q4 : -0.0013956099283}
2019-04-14 18:25:43.21: SIM {TimeUS : 50834658, Roll : -0.03, Pitch : 0.03, Yaw : 359.83, Alt : 44.0200004578, Lat : 49.2835704, Lng : -123.1150207, Q1 : 0.999998867512, Q2 : -0.000320574908983, Q3 : 0.000303513603285, Q4 : -0.00142002501525}
2019-04-14 18:25:43.31: SIM {TimeUS : 50934618, Roll : -0.02, Pitch : 0.03, Yaw : 359.83, Alt : 44.2599983215, Lat : 49.2835704, Lng : -123.1150206, Q1 : 0.999998927116, Q2 : -0.000176698507858, Q3 : 0.000282310240436, Q4 : -0.00144863605965}
2019-04-14 18:25:43.41: SIM {TimeUS : 51034578, Roll : -0.02, Pitch : 0.01, Yaw : 359.83, Alt : 44.4900016785, Lat : 49.2835704, Lng : -123.1150206, Q1 : 0.999998867512, Q2 : -0.00020404838142, Q3 : 0.000140960110002, Q4 : -0.00147811230272}
2019-04-14 18:25:43.51: SIM {TimeUS : 51134538, Roll : -0.02, Pitch : -0.01, Yaw : 359.82, Alt : 44.7299995422, Lat : 49.2835704, Lng : -123.1150206, Q1 : 0.999998807907, Q2 : -0.000258124229731, Q3 : -0.000121834709716, Q4 : -0.00150660739746}
2019-04-14 18:25:43.61: SIM {TimeUS : 51235331, Roll : -0.02, Pitch : -0.03, Yaw : 359.82, Alt : 44.9700012207, Lat : 49.2835704, Lng : -123.1150206, Q1 : 0.999998748302, Q2 : -0.000248253549216, Q3 : -0.000331793271471, Q4 : -0.00153844233137}
2019-04-14 18:25:43.71: SIM {TimeUS : 51335291, Roll : -0.01, Pitch : -0.05, Yaw : 359.82, Alt : 45.2000007629, Lat : 49.2835703, Lng : -123.1150206, Q1 : 0.999998629093, Q2 : -0.000163185948622, Q3 : -0.000440225674538, Q4 : -0.00157046772074}
2019-04-14 18:25:43.81: SIM {TimeUS : 51435251, Roll : -0.02, Pitch : -0.05, Yaw : 359.81, Alt : 45.4399986267, Lat : 49.2835703, Lng : -123.1150206, Q1 : 0.999998569489, Q2 : -0.000194354375708, Q3 : -0.000447947357316, Q4 : -0.00160434353165}
2019-04-14 18:25:43.91: SIM {TimeUS : 51535211, Roll : -0.04, Pitch : -0.04, Yaw : 359.81, Alt : 45.6699981689, Lat : 49.2835703, Lng : -123.1150206, Q1 : 0.999998509884, Q2 : -0.000421118136728, Q3 : -0.000384698621929, Q4 : -0.00163967593107}
2019-04-14 18:25:44.01: SIM {TimeUS : 51635171, Roll : -0.08, Pitch : -0.03, Yaw : 359.8, Alt : 45.9099998474, Lat : 49.2835703, Lng : -123.1150206, Q1 : 0.999998271465, Q2 : -0.000752520398237, Q3 : -0.000310970179271, Q4 : -0.00167345593218}
2019-04-14 18:25:44.11: SIM {TimeUS : 51735131, Roll : -0.11, Pitch : -0.02, Yaw : 359.8, Alt : 46.1399993896, Lat : 49.2835703, Lng : -123.1150206, Q1 : 0.999998033047, Q2 : -0.00099450792186, Q3 : -0.000234738661675, Q4 : -0.00170802732464}
2019-04-14 18:25:44.21: SIM {TimeUS : 51835091, Roll : -0.12, Pitch : -0.01, Yaw : 359.8, Alt : 46.3600006104, Lat : 49.2835703, Lng : -123.1150206, Q1 : 0.999997913837, Q2 : -0.00104795966763, Q3 : -0.000114545538963, Q4 : -0.00174192863051}
2019-04-14 18:25:44.31: SIM {TimeUS : 51935051, Roll : -0.1, Pitch : 0.0, Yaw : 359.79, Alt : 46.5800018311, Lat : 49.2835703, Lng : -123.1150206, Q1 : 0.999997973442, Q2 : -0.000943926803302, Q3 : 7.28776358301e-05, Q4 : -0.00177335110493}
2019-04-14 18:25:44.41: SIM {TimeUS : 52035011, Roll : -0.08, Pitch : 0.01, Yaw : 359.79, Alt : 46.7999992371, Lat : 49.2835703, Lng : -123.1150206, Q1 : 0.999998092651, Q2 : -0.000719377247151, Q3 : 0.000148466890096, Q4 : -0.00180121546146}
2019-04-14 18:25:44.51: SIM {TimeUS : 52134971, Roll : -0.06, Pitch : 0.0, Yaw : 359.79, Alt : 47.0099983215, Lat : 49.2835703, Lng : -123.1150206, Q1 : 0.999998211861, Q2 : -0.000536345760338, Q3 : 8.32697551232e-05, Q4 : -0.00182498968206}
2019-04-14 18:25:44.61: SIM {TimeUS : 52234931, Roll : -0.05, Pitch : 0.0, Yaw : 359.78, Alt : 47.2200012207, Lat : 49.2835703, Lng : -123.1150206, Q1 : 0.999998152256, Q2 : -0.000465069548227, Q3 : -5.95478195464e-05, Q4 : -0.00184717250522}
2019-04-14 18:25:44.71: SIM {TimeUS : 52334891, Roll : -0.03, Pitch : -0.03, Yaw : 359.78, Alt : 47.4099998474, Lat : 49.2835703, Lng : -123.1150206, Q1 : 0.999998152256, Q2 : -0.000314055621857, Q3 : -0.000292328331852, Q4 : -0.00186645588838}
2019-04-14 18:25:44.81: SIM {TimeUS : 52434851, Roll : -0.01, Pitch : -0.06, Yaw : 359.78, Alt : 47.5999984741, Lat : 49.2835703, Lng : -123.1150206, Q1 : 0.999998092651, Q2 : -0.000108544991235, Q3 : -0.000527350232005, Q4 : -0.00188230234198}
2019-04-14 18:25:44.91: SIM {TimeUS : 52534811, Roll : -0.01, Pitch : -0.1, Yaw : 359.78, Alt : 47.7700004578, Lat : 49.2835703, Lng : -123.1150206, Q1 : 0.999997794628, Q2 : -9.05217966647e-05, Q3 : -0.00091587897623, Q4 : -0.00189843820408}
2019-04-14 18:25:45.01: SIM {TimeUS : 52634771, Roll : -0.02, Pitch : -0.14, Yaw : 359.78, Alt : 47.9399986267, Lat : 49.2835703, Lng : -123.1150207, Q1 : 0.999997377396, Q2 : -0.000178719346877, Q3 : -0.00124334532302, Q4 : -0.0019172008615}
2019-04-14 18:25:45.11: SIM {TimeUS : 52734731, Roll : 0.0, Pitch : -0.15, Yaw : 359.77, Alt : 48.0900001526, Lat : 49.2835703, Lng : -123.1150207, Q1 : 0.999997258186, Q2 : -4.22357288699e-06, Q3 : -0.00131078308914, Q4 : -0.00193728855811}
2019-04-14 18:25:45.21: SIM {TimeUS : 52834691, Roll : 0.03, Pitch : -0.13, Yaw : 359.77, Alt : 48.2299995422, Lat : 49.2835703, Lng : -123.1150207, Q1 : 0.999997377396, Q2 : 0.000293641351163, Q3 : -0.0011623299215, Q4 : -0.00196061795577}
2019-04-14 18:25:45.31: SIM {TimeUS : 52934651, Roll : 0.06, Pitch : -0.1, Yaw : 359.77, Alt : 48.3600006104, Lat : 49.2835703, Lng : -123.1150207, Q1 : 0.999997437, Q2 : 0.000535736966413, Q3 : -0.000909624854103, Q4 : -0.00198606587946}
2019-04-14 18:25:45.41: SIM {TimeUS : 53034611, Roll : 0.07, Pitch : -0.07, Yaw : 359.76, Alt : 48.4799995422, Lat : 49.2835703, Lng : -123.1150207, Q1 : 0.999997615814, Q2 : 0.000620678765699, Q3 : -0.000612460076809, Q4 : -0.00201315921731}
2019-04-14 18:25:45.51: SIM {TimeUS : 53134571, Roll : 0.07, Pitch : -0.04, Yaw : 359.76, Alt : 48.5800018311, Lat : 49.2835704, Lng : -123.1150207, Q1 : 0.99999755621, Q2 : 0.000679482182022, Q3 : -0.000418283219915, Q4 : -0.00204519252293}
2019-04-14 18:25:45.62: SIM {TimeUS : 53235364, Roll : 0.06, Pitch : -0.05, Yaw : 359.76, Alt : 48.6699981689, Lat : 49.2835704, Lng : -123.1150207, Q1 : 0.99999755621, Q2 : 0.000568766670767, Q3 : -0.000478952424601, Q4 : -0.00208397745155}
2019-04-14 18:25:45.71: SIM {TimeUS : 53335324, Roll : 0.04, Pitch : -0.05, Yaw : 359.75, Alt : 48.75, Lat : 49.2835704, Lng : -123.1150207, Q1 : 0.999997615814, Q2 : 0.000366372521967, Q3 : -0.000465560762677, Q4 : -0.00212159217335}
2019-04-14 18:25:45.81: SIM {TimeUS : 53435284, Roll : 0.02, Pitch : -0.04, Yaw : 359.75, Alt : 48.8199996948, Lat : 49.2835704, Lng : -123.1150207, Q1 : 0.99999755621, Q2 : 0.000237808693782, Q3 : -0.00037298630923, Q4 : -0.00215576589108}
2019-04-14 18:25:45.91: SIM {TimeUS : 53535244, Roll : 0.01, Pitch : -0.03, Yaw : 359.74, Alt : 48.8800010681, Lat : 49.2835704, Lng : -123.1150207, Q1 : 0.99999755621, Q2 : 0.000114214934001, Q3 : -0.000274727906799, Q4 : -0.00218774494715}
2019-04-14 18:25:46.01: SIM {TimeUS : 53635204, Roll : 0.0, Pitch : 0.0, Yaw : 359.74, Alt : 48.9399986267, Lat : 49.2835704, Lng : -123.1150207, Q1 : 0.99999755621, Q2 : 7.23049743101e-05, Q3 : -8.15416060505e-05, Q4 : -0.00221211579628}
2019-04-14 18:25:46.11: SIM {TimeUS : 53735164, Roll : 0.02, Pitch : 0.02, Yaw : 359.74, Alt : 48.9799995422, Lat : 49.2835704, Lng : -123.1150207, Q1 : 0.999997437, Q2 : 0.000246900017373, Q3 : 0.00020057457732, Q4 : -0.00222911755554}
2019-04-14 18:25:46.21: SIM {TimeUS : 53835124, Roll : 0.1, Pitch : 0.0, Yaw : 359.74, Alt : 49.0200004578, Lat : 49.2835704, Lng : -123.1150207, Q1 : 0.999997079372, Q2 : 0.000916065066122, Q3 : 4.62751404484e-06, Q4 : -0.00224403431639}
2019-04-14 18:25:46.31: SIM {TimeUS : 53935084, Roll : 0.32, Pitch : -0.19, Yaw : 359.74, Alt : 49.0499992371, Lat : 49.2835704, Lng : -123.1150207, Q1 : 0.999992012978, Q2 : 0.00280523835681, Q3 : -0.00172034394927, Q4 : -0.00226073712111}
2019-04-14 18:25:46.41: SIM {TimeUS : 54035044, Roll : 0.71, Pitch : -0.58, Yaw : 359.73, Alt : 49.0800018311, Lat : 49.2835704, Lng : -123.1150207, Q1 : 0.999964654446, Q2 : 0.00626441044733, Q3 : -0.00512145971879, Q4 : -0.0022756292019}
2019-04-14 18:25:46.51: SIM {TimeUS : 54135004, Roll : 1.28, Pitch : -1.16, Yaw : 359.72, Alt : 49.0999984741, Lat : 49.2835704, Lng : -123.1150207, Q1 : 0.999882340431, Q2 : 0.0112180123106, Q3 : -0.0102113224566, Q4 : -0.00228112912737}
2019-04-14 18:25:46.61: SIM {TimeUS : 54234964, Roll : 1.99, Pitch : -1.86, Yaw : 359.7, Alt : 49.1300010681, Lat : 49.2835706, Lng : -123.1150206, Q1 : 0.999713182449, Q2 : 0.0173603724688, Q3 : -0.016344094649, Q4 : -0.00225118780509}
2019-04-14 18:25:46.71: SIM {TimeUS : 54334924, Roll : 2.75, Pitch : -2.58, Yaw : 359.68, Alt : 49.1399993896, Lat : 49.2835706, Lng : -123.1150206, Q1 : 0.999454677105, Q2 : 0.0239406470209, Q3 : -0.0226390082389, Q4 : -0.00216840044595}
2019-04-14 18:25:46.81: SIM {TimeUS : 54434884, Roll : 3.42, Pitch : -3.23, Yaw : 359.67, Alt : 49.1599998474, Lat : 49.2835707, Lng : -123.1150204, Q1 : 0.99915343523, Q2 : 0.0298169478774, Q3 : -0.0282715298235, Q4 : -0.00202877353877}
2019-04-14 18:25:46.91: SIM {TimeUS : 54534844, Roll : 3.95, Pitch : -3.72, Yaw : 359.66, Alt : 49.1699981689, Lat : 49.2835709, Lng : -123.1150202, Q1 : 0.998877227306, Q2 : 0.0343730598688, Q3 : -0.0325506366789, Q4 : -0.00181734398939}
2019-04-14 18:25:47.01: SIM {TimeUS : 54634804, Roll : 4.33, Pitch : -4.07, Yaw : 359.66, Alt : 49.1800003052, Lat : 49.2835709, Lng : -123.11502, Q1 : 0.998655498028, Q2 : 0.0376545637846, Q3 : -0.0355946198106, Q4 : -0.00154645333532}
2019-04-14 18:25:47.11: SIM {TimeUS : 54734764, Roll : 4.6, Pitch : -4.34, Yaw : 359.68, Alt : 49.2000007629, Lat : 49.2835713, Lng : -123.1150196, Q1 : 0.998474419117, Q2 : 0.0400636680424, Q3 : -0.0379753112793, Q4 : -0.00124544044957}
2019-04-14 18:25:47.21: SIM {TimeUS : 54834724, Roll : 4.86, Pitch : -4.59, Yaw : 359.69, Alt : 49.2000007629, Lat : 49.2835715, Lng : -123.1150192, Q1 : 0.998298883438, Q2 : 0.0422866530716, Q3 : -0.0401287898421, Q4 : -0.000929640082177}
2019-04-14 18:25:47.31: SIM {TimeUS : 54934684, Roll : 5.14, Pitch : -4.84, Yaw : 359.71, Alt : 49.2099990845, Lat : 49.2835719, Lng : -123.1150186, Q1 : 0.998101770878, Q2 : 0.0447143465281, Q3 : -0.0423459708691, Q4 : -0.000621360901278}
2019-04-14 18:25:47.41: SIM {TimeUS : 55034644, Roll : 5.42, Pitch : -5.09, Yaw : 359.71, Alt : 49.2200012207, Lat : 49.2835722, Lng : -123.115018, Q1 : 0.997891366482, Q2 : 0.0471983216703, Q3 : -0.0445543788373, Q4 : -0.000343907129718}
2019-04-14 18:25:47.51: SIM {TimeUS : 55134604, Roll : 5.68, Pitch : -5.33, Yaw : 359.72, Alt : 49.2299995422, Lat : 49.2835727, Lng : -123.1150173, Q1 : 0.997690618038, Q2 : 0.0494259595871, Q3 : -0.0465888269246, Q4 : -9.34393174248e-05}
2019-04-14 18:25:47.61: SIM {TimeUS : 55234564, Roll : 5.87, Pitch : -5.52, Yaw : 359.72, Alt : 49.2299995422, Lat : 49.2835732, Lng : -123.1150165, Q1 : 0.997528553009, Q2 : 0.0510460361838, Q3 : -0.048282224685, Q4 : 0.000109581786091}
2019-04-14 18:25:47.72: SIM {TimeUS : 55335357, Roll : 6.01, Pitch : -5.66, Yaw : 359.73, Alt : 49.2400016785, Lat : 49.2835737, Lng : -123.1150156, Q1 : 0.997407078743, Q2 : 0.0522708296776, Q3 : -0.049465470016, Q4 : 0.000272398378002}
2019-04-14 18:25:47.81: SIM {TimeUS : 55435317, Roll : 6.11, Pitch : -5.74, Yaw : 359.73, Alt : 49.2400016785, Lat : 49.2835743, Lng : -123.1150147, Q1 : 0.997325122356, Q2 : 0.0531200990081, Q3 : -0.0502064302564, Q4 : 0.000398326461436}
2019-04-14 18:25:47.91: SIM {TimeUS : 55535277, Roll : 6.19, Pitch : -5.82, Yaw : 359.73, Alt : 49.25, Lat : 49.2835749, Lng : -123.1150136, Q1 : 0.99725317955, Q2 : 0.053833797574, Q3 : -0.0508703924716, Q4 : 0.000482445961097}
2019-04-14 18:25:48.01: SIM {TimeUS : 55635237, Roll : 6.31, Pitch : -5.92, Yaw : 359.73, Alt : 49.25, Lat : 49.2835756, Lng : -123.1150125, Q1 : 0.99714910984, Q2 : 0.0549186170101, Q3 : -0.0517426505685, Q4 : 0.000547413306776}
2019-04-14 18:25:48.11: SIM {TimeUS : 55735197, Roll : 6.64, Pitch : -5.94, Yaw : 359.85, Alt : 49.2599983215, Lat : 49.2835764, Lng : -123.1150113, Q1 : 0.996975243092, Q2 : 0.057842489332, Q3 : -0.0518815927207, Q4 : 0.00172411906533}
2019-04-14 18:25:48.21: SIM {TimeUS : 55835157, Roll : 7.23, Pitch : -5.84, Yaw : 0.61, Alt : 49.2599983215, Lat : 49.283577, Lng : -123.11501, Q1 : 0.996677339077, Q2 : 0.0632688030601, Q3 : -0.0505811944604, Q4 : 0.00853537488729}
2019-04-14 18:25:48.31: SIM {TimeUS : 55935117, Roll : 7.87, Pitch : -5.83, Yaw : 2.68, Alt : 49.2599983215, Lat : 49.2835779, Lng : -123.1150087, Q1 : 0.995988249779, Q2 : 0.0697919353843, Q3 : -0.0491750836372, Q4 : 0.0268012098968}
2019-04-14 18:25:48.41: SIM {TimeUS : 56035077, Roll : 8.27, Pitch : -6.2, Yaw : 6.34, Alt : 49.2599983215, Lat : 49.2835788, Lng : -123.1150072, Q1 : 0.994188070297, Q2 : 0.0749483779073, Q3 : -0.0499038696289, Q4 : 0.0590127743781}
2019-04-14 18:25:48.51: SIM {TimeUS : 56135037, Roll : 8.19, Pitch : -7.04, Yaw : 11.5, Alt : 49.2700004578, Lat : 49.2835797, Lng : -123.1150057, Q1 : 0.990101397038, Q2 : 0.0771176218987, Q3 : -0.053814701736, Q4 : 0.104192703962}
2019-04-14 18:25:48.61: SIM {TimeUS : 56234997, Roll : 7.5, Pitch : -8.26, Yaw : 17.94, Alt : 49.2700004578, Lat : 49.2835805, Lng : -123.115004, Q1 : 0.98234140873, Q2 : 0.0756589844823, Q3 : -0.0608952008188, Q4 : 0.159915193915}
2019-04-14 18:25:48.71: SIM {TimeUS : 56334957, Roll : 6.14, Pitch : -9.68, Yaw : 25.41, Alt : 49.2700004578, Lat : 49.2835814, Lng : -123.1150022, Q1 : 0.969644904137, Q2 : 0.0706235617399, Q3 : -0.0704450756311, Q4 : 0.223245531321}
2019-04-14 18:25:48.81: SIM {TimeUS : 56434917, Roll : 4.08, Pitch : -11.04, Yaw : 33.59, Alt : 49.2700004578, Lat : 49.2835824, Lng : -123.1150002, Q1 : 0.951290607452, Q2 : 0.0617109499872, Q3 : -0.0818115398288, Q4 : 0.290765821934}
2019-04-14 18:25:48.91: SIM {TimeUS : 56534877, Roll : 1.22, Pitch : -12.12, Yaw : 41.91, Alt : 49.2700004578, Lat : 49.2835834, Lng : -123.1149981, Q1 : 0.928168475628, Q2 : 0.0477217845619, Q3 : -0.0947795733809, Q4 : 0.356711119413}
2019-04-14 18:25:49.01: SIM {TimeUS : 56634837, Roll : -1.98, Pitch : -12.7, Yaw : 49.48, Alt : 49.2700004578, Lat : 49.2835844, Lng : -123.1149961, Q1 : 0.903277695179, Q2 : 0.0306663550436, Q3 : -0.107689887285, Q4 : 0.414188206196}
2019-04-14 18:25:49.11: SIM {TimeUS : 56734797, Roll : -4.88, Pitch : -12.82, Yaw : 55.53, Alt : 49.2700004578, Lat : 49.2835855, Lng : -123.114994, Q1 : 0.880741655827, Q2 : 0.0145259164274, Q3 : -0.118499219418, Q4 : 0.458302408457}
2019-04-14 18:25:49.21: SIM {TimeUS : 56834757, Roll : -6.92, Pitch : -12.7, Yaw : 59.6, Alt : 49.2700004578, Lat : 49.2835867, Lng : -123.1149918, Q1 : 0.86416220665, Q2 : 0.00282751210034, Q3 : -0.125675007701, Q4 : 0.487259149551}
2019-04-14 18:25:49.31: SIM {TimeUS : 56934717, Roll : -7.88, Pitch : -12.55, Yaw : 61.69, Alt : 49.2700004578, Lat : 49.2835881, Lng : -123.1149895, Q1 : 0.855207920074, Q2 : -0.00275192828849, Q3 : -0.128755167127, Q4 : 0.502029836178}
2019-04-14 18:25:49.41: SIM {TimeUS : 57034677, Roll : -7.84, Pitch : -12.57, Yaw : 62.07, Alt : 49.2700004578, Lat : 49.2835896, Lng : -123.1149873, Q1 : 0.853562295437, Q2 : -0.00190370040946, Q3 : -0.128687918186, Q4 : 0.504843831062}
2019-04-14 18:25:49.51: SIM {TimeUS : 57134637, Roll : -6.99, Pitch : -12.85, Yaw : 61.07, Alt : 49.2700004578, Lat : 49.2835911, Lng : -123.114985, Q1 : 0.857753872871, Q2 : 0.00456257490441, Q3 : -0.127038881183, Q4 : 0.498094975948}
2019-04-14 18:25:49.61: SIM {TimeUS : 57234597, Roll : -5.6, Pitch : -13.36, Yaw : 59.06, Alt : 49.2700004578, Lat : 49.2835928, Lng : -123.1149827, Q1 : 0.865929245949, Q2 : 0.0150502258912, Q3 : -0.125099733472, Q4 : 0.484035223722}
2019-04-14 18:25:49.71: SIM {TimeUS : 57334557, Roll : -3.89, Pitch : -14.02, Yaw : 56.36, Alt : 49.2799987793, Lat : 49.2835946, Lng : -123.1149803, Q1 : 0.876296460629, Q2 : 0.0278808884323, Q3 : -0.123527728021, Q4 : 0.46483117342}
2019-04-14 18:25:49.82: SIM {TimeUS : 57435350, Roll : -2.07, Pitch : -14.71, Yaw : 53.26, Alt : 49.2799987793, Lat : 49.2835964, Lng : -123.1149778, Q1 : 0.887429654598, Q2 : 0.0413837656379, Q3 : -0.122492164373, Q4 : 0.442438274622}
2019-04-14 18:25:49.91: SIM {TimeUS : 57535310, Roll : -0.31, Pitch : -15.27, Yaw : 50.12, Alt : 49.2799987793, Lat : 49.2835982, Lng : -123.1149753, Q1 : 0.897952318192, Q2 : 0.0538441427052, Q3 : -0.121535927057, Q4 : 0.41953715682}
2019-04-14 18:25:50.01: SIM {TimeUS : 57635270, Roll : 1.22, Pitch : -15.62, Yaw : 47.25, Alt : 49.2799987793, Lat : 49.2836, Lng : -123.1149725, Q1 : 0.907024204731, Q2 : 0.0641672760248, Q3 : -0.120309099555, Q4 : 0.398391097784}
2019-04-14 18:25:50.11: SIM {TimeUS : 57735230, Roll : 2.4, Pitch : -15.77, Yaw : 44.93, Alt : 49.2799987793, Lat : 49.2836019, Lng : -123.1149698, Q1 : 0.914060294628, Q2 : 0.0716545134783, Q3 : -0.11882289499, Q4 : 0.38110435009}
2019-04-14 18:25:50.21: SIM {TimeUS : 57835190, Roll : 3.17, Pitch : -15.77, Yaw : 43.32, Alt : 49.2799987793, Lat : 49.2836038, Lng : -123.1149669, Q1 : 0.918823540211, Q2 : 0.076144464314, Q3 : -0.117374405265, Q4 : 0.369037359953}
2019-04-14 18:25:50.31: SIM {TimeUS : 57935150, Roll : 3.49, Pitch : -15.74, Yaw : 42.48, Alt : 49.2799987793, Lat : 49.2836057, Lng : -123.1149639, Q1 : 0.921314775944, Q2 : 0.0777660384774, Q3 : -0.116629734635, Q4 : 0.362669348717}
2019-04-14 18:25:50.41: SIM {TimeUS : 58035110, Roll : 3.39, Pitch : -15.73, Yaw : 42.38, Alt : 49.2799987793, Lat : 49.2836077, Lng : -123.1149607, Q1 : 0.921733319759, Q2 : 0.0767978206277, Q3 : -0.116940885782, Q4 : 0.361710727215}
2019-04-14 18:25:50.51: SIM {TimeUS : 58135070, Roll : 2.92, Pitch : -15.78, Yaw : 42.89, Alt : 49.2799987793, Lat : 49.2836097, Lng : -123.1149575, Q1 : 0.920373737812, Q2 : 0.0737075954676, Q3 : -0.118503324687, Q4 : 0.365289479494}
2019-04-14 18:25:50.61: SIM {TimeUS : 58235030, Roll : 2.2, Pitch : -15.86, Yaw : 43.85, Alt : 49.2799987793, Lat : 49.2836116, Lng : -123.1149541, Q1 : 0.917630851269, Q2 : 0.069199025631, Q3 : -0.120921865106, Q4 : 0.372213691473}
2019-04-14 18:25:50.71: SIM {TimeUS : 58334990, Roll : 1.37, Pitch : -15.97, Yaw : 45.08, Alt : 49.2799987793, Lat : 49.2836136, Lng : -123.1149507, Q1 : 0.913943231106, Q2 : 0.0642089620233, Q3 : -0.123820632696, Q4 : 0.381121248007}
2019-04-14 18:25:50.81: SIM {TimeUS : 58434950, Roll : 0.51, Pitch : -16.09, Yaw : 46.4, Alt : 49.2799987793, Lat : 49.2836158, Lng : -123.1149472, Q1 : 0.909818530083, Q2 : 0.0592546835542, Q3 : -0.126933082938, Q4 : 0.390649706125}
2019-04-14 18:25:50.91: SIM {TimeUS : 58534910, Roll : -0.23, Pitch : -16.2, Yaw : 47.65, Alt : 49.2799987793, Lat : 49.2836178, Lng : -123.1149436, Q1 : 0.905750751495, Q2 : 0.0550651401281, Q3 : -0.129804983735, Q4 : 0.399667531252}
2019-04-14 18:25:51.01: SIM {TimeUS : 58634870, Roll : -0.81, Pitch : -16.28, Yaw : 48.71, Alt : 49.2799987793, Lat : 49.28362, Lng : -123.11494, Q1 : 0.902214646339, Q2 : 0.0520063228905, Q3 : -0.131895139813, Q4 : 0.407317787409}
2019-04-14 18:25:51.11: SIM {TimeUS : 58734830, Roll : -1.19, Pitch : -16.31, Yaw : 49.49, Alt : 49.2900009155, Lat : 49.2836221, Lng : -123.1149363, Q1 : 0.899551749229, Q2 : 0.0500349029899, Q3 : -0.1332167238, Q4 : 0.412984907627}
2019-04-14 18:25:51.21: SIM {TimeUS : 58834790, Roll : -1.39, Pitch : -16.35, Yaw : 49.95, Alt : 49.2900009155, Lat : 49.2836244, Lng : -123.1149326, Q1 : 0.897921025753, Q2 : 0.0491180755198, Q3 : -0.133997648954, Q4 : 0.416377186775}
2019-04-14 18:25:51.31: SIM {TimeUS : 58934750, Roll : -1.42, Pitch : -16.39, Yaw : 50.1, Alt : 49.2900009155, Lat : 49.2836266, Lng : -123.1149289, Q1 : 0.897323191166, Q2 : 0.0492739751935, Q3 : -0.134371101856, Q4 : 0.417525589466}
2019-04-14 18:25:51.41: SIM {TimeUS : 59034710, Roll : -1.29, Pitch : -16.45, Yaw : 49.98, Alt : 49.2900009155, Lat : 49.2836288, Lng : -123.1149251, Q1 : 0.897640883923, Q2 : 0.0503430664539, Q3 : -0.134447097778, Q4 : 0.416689902544}
2019-04-14 18:25:51.51: SIM {TimeUS : 59134670, Roll : -1.05, Pitch : -16.51, Yaw : 49.65, Alt : 49.2900009155, Lat : 49.2836311, Lng : -123.1149213, Q1 : 0.898693025112, Q2 : 0.0520491972566, Q3 : -0.134121358395, Q4 : 0.414310604334}
2019-04-14 18:25:51.61: SIM {TimeUS : 59234630, Roll : -0.72, Pitch : -16.56, Yaw : 49.17, Alt : 49.2900009155, Lat : 49.2836335, Lng : -123.1149174, Q1 : 0.900209307671, Q2 : 0.0542084053159, Q3 : -0.133567005396, Q4 : 0.410906970501}
2019-04-14 18:25:51.71: SIM {TimeUS : 59334590, Roll : -0.37, Pitch : -16.6, Yaw : 48.63, Alt : 49.2900009155, Lat : 49.2836359, Lng : -123.1149135, Q1 : 0.901929140091, Q2 : 0.0565423592925, Q3 : -0.132920175791, Q4 : 0.407012254}
2019-04-14 18:25:51.81: SIM {TimeUS : 59434550, Roll : -0.03, Pitch : -16.64, Yaw : 48.08, Alt : 49.2900009155, Lat : 49.2836383, Lng : -123.1149096, Q1 : 0.903627574444, Q2 : 0.0587446503341, Q3 : -0.132310137153, Q4 : 0.403113305569}
2019-04-14 18:25:51.92: SIM {TimeUS : 59535343, Roll : 0.26, Pitch : -16.67, Yaw : 47.6, Alt : 49.2900009155, Lat : 49.2836407, Lng : -123.1149056, Q1 : 0.905139684677, Q2 : 0.0606555901468, Q3 : -0.131751716137, Q4 : 0.399605453014}
2019-04-14 18:25:52.01: SIM {TimeUS : 59635303, Roll : 0.49, Pitch : -16.7, Yaw : 47.22, Alt : 49.2900009155, Lat : 49.2836432, Lng : -123.1149016, Q1 : 0.906309843063, Q2 : 0.0620910562575, Q3 : -0.131418511271, Q4 : 0.39683291316}
2019-04-14 18:25:52.11: SIM {TimeUS : 59735263, Roll : 0.62, Pitch : -16.73, Yaw : 46.96, Alt : 49.2900009155, Lat : 49.2836456, Lng : -123.1148975, Q1 : 0.907095849514, Q2 : 0.0629053786397, Q3 : -0.131326153874, Q4 : 0.394934773445}
2019-04-14 18:25:52.21: SIM {TimeUS : 59835223, Roll : 0.65, Pitch : -16.76, Yaw : 46.83, Alt : 49.2900009155, Lat : 49.2836481, Lng : -123.1148934, Q1 : 0.907484591007, Q2 : 0.0631487891078, Q3 : -0.131479606032, Q4 : 0.39395070076}
2019-04-14 18:25:52.31: SIM {TimeUS : 59935183, Roll : 0.61, Pitch : -16.8, Yaw : 46.82, Alt : 49.2900009155, Lat : 49.2836505, Lng : -123.1148893, Q1 : 0.907503306866, Q2 : 0.0629181489348, Q3 : -0.131945818663, Q4 : 0.393788427114}
2019-04-14 18:25:52.41: SIM {TimeUS : 60035143, Roll : 0.51, Pitch : -16.84, Yaw : 46.9, Alt : 49.2900009155, Lat : 49.283653, Lng : -123.1148851, Q1 : 0.907215416431, Q2 : 0.0623435266316, Q3 : -0.132631137967, Q4 : 0.39431270957}
2019-04-14 18:25:52.51: SIM {TimeUS : 60135103, Roll : 0.35, Pitch : -16.89, Yaw : 47.06, Alt : 49.2900009155, Lat : 49.2836554, Lng : -123.1148809, Q1 : 0.906714081764, Q2 : 0.0614239871502, Q3 : -0.133439213037, Q4 : 0.395336151123}
2019-04-14 18:25:52.61: SIM {TimeUS : 60235063, Roll : 0.17, Pitch : -16.92, Yaw : 47.25, Alt : 49.2999992371, Lat : 49.2836579, Lng : -123.1148766, Q1 : 0.906103134155, Q2 : 0.0603530406952, Q3 : -0.134240761399, Q4 : 0.396628290415}
2019-04-14 18:25:52.71: SIM {TimeUS : 60335023, Roll : 0.0, Pitch : -16.95, Yaw : 47.45, Alt : 49.2999992371, Lat : 49.2836604, Lng : -123.1148722, Q1 : 0.90546131134, Q2 : 0.0593782663345, Q3 : -0.134965628386, Q4 : 0.397992908955}
2019-04-14 18:25:52.81: SIM {TimeUS : 60434983, Roll : -0.11, Pitch : -17.0, Yaw : 47.63, Alt : 49.2999992371, Lat : 49.2836631, Lng : -123.1148681, Q1 : 0.904838323593, Q2 : 0.0587639734149, Q3 : -0.135637491941, Q4 : 0.399270445108}
2019-04-14 18:25:52.91: SIM {TimeUS : 60534943, Roll : -0.19, Pitch : -17.04, Yaw : 47.78, Alt : 49.2999992371, Lat : 49.2836656, Lng : -123.1148637, Q1 : 0.904309272766, Q2 : 0.0585161298513, Q3 : -0.136170253158, Q4 : 0.400322675705}
2019-04-14 18:25:53.01: SIM {TimeUS : 60634903, Roll : -0.21, Pitch : -17.09, Yaw : 47.88, Alt : 49.2999992371, Lat : 49.2836682, Lng : -123.1148594, Q1 : 0.903924167156, Q2 : 0.0585738644004, Q3 : -0.136592879891, Q4 : 0.401039391756}
2019-04-14 18:25:53.11: SIM {TimeUS : 60734863, Roll : -0.2, Pitch : -17.13, Yaw : 47.92, Alt : 49.2999992371, Lat : 49.2836707, Lng : -123.114855, Q1 : 0.903713285923, Q2 : 0.0588603243232, Q3 : -0.13687697053, Q4 : 0.401375770569}
2019-04-14 18:25:53.21: SIM {TimeUS : 60834823, Roll : -0.18, Pitch : -17.17, Yaw : 47.92, Alt : 49.2999992371, Lat : 49.2836734, Lng : -123.1148507, Q1 : 0.903675377369, Q2 : 0.0592080913484, Q3 : -0.137058392167, Q4 : 0.401347994804}
2019-04-14 18:25:53.31: SIM {TimeUS : 60934783, Roll : -0.14, Pitch : -17.19, Yaw : 47.87, Alt : 49.2999992371, Lat : 49.283676, Lng : -123.1148463, Q1 : 0.903797388077, Q2 : 0.0594803541899, Q3 : -0.137153878808, Q4 : 0.401000231504}
2019-04-14 18:25:53.41: SIM {TimeUS : 61034743, Roll : -0.11, Pitch : -17.2, Yaw : 47.79, Alt : 49.2999992371, Lat : 49.2836785, Lng : -123.1148418, Q1 : 0.904047787189, Q2 : 0.0597061663866, Q3 : -0.137124598026, Q4 : 0.400411844254}
2019-04-14 18:25:53.51: SIM {TimeUS : 61134703, Roll : -0.05, Pitch : -17.2, Yaw : 47.69, Alt : 49.3100013733, Lat : 49.2836811, Lng : -123.1148374, Q1 : 0.904368817806, Q2 : 0.0600003004074, Q3 : -0.136986851692, Q4 : 0.399689406157}
2019-04-14 18:25:53.61: SIM {TimeUS : 61234663, Roll : 0.0, Pitch : -17.21, Yaw : 47.58, Alt : 49.3100013733, Lat : 49.2836839, Lng : -123.114833, Q1 : 0.904700100422, Q2 : 0.0603547692299, Q3 : -0.136953040957, Q4 : 0.398897141218}
2019-04-14 18:25:53.71: SIM {TimeUS : 61334623, Roll : 0.06, Pitch : -17.25, Yaw : 47.48, Alt : 49.3100013733, Lat : 49.2836865, Lng : -123.1148284, Q1 : 0.904987096786, Q2 : 0.0608998052776, Q3 : -0.137074530125, Q4 : 0.398120850325}
2019-04-14 18:25:53.81: SIM {TimeUS : 61434583, Roll : 0.13, Pitch : -17.31, Yaw : 47.38, Alt : 49.3100013733, Lat : 49.2836892, Lng : -123.114824, Q1 : 0.90519785881, Q2 : 0.0615536756814, Q3 : -0.137364044785, Q4 : 0.397440701723}
2019-04-14 18:25:53.91: SIM {TimeUS : 61534543, Roll : 0.18, Pitch : -17.35, Yaw : 47.31, Alt : 49.3100013733, Lat : 49.2836919, Lng : -123.1148195, Q1 : 0.905382215977, Q2 : 0.0619681067765, Q3 : -0.137527838349, Q4 : 0.396899342537}
2019-04-14 18:25:54.02: SIM {TimeUS : 61635336, Roll : 0.21, Pitch : -17.34, Yaw : 47.26, Alt : 49.3100013733, Lat : 49.2836945, Lng : -123.1148149, Q1 : 0.905548751354, Q2 : 0.0621475167572, Q3 : -0.137422963977, Q4 : 0.396527588367}
2019-04-14 18:25:54.11: SIM {TimeUS : 61735296, Roll : 0.21, Pitch : -17.34, Yaw : 47.23, Alt : 49.3100013733, Lat : 49.2836973, Lng : -123.1148104, Q1 : 0.905650913715, Q2 : 0.0621355585754, Q3 : -0.137442216277, Q4 : 0.396289378405}
2019-04-14 18:25:54.21: SIM {TimeUS : 61835256, Roll : 0.19, Pitch : -17.36, Yaw : 47.22, Alt : 49.3100013733, Lat : 49.2836999, Lng : -123.1148058, Q1 : 0.905681371689, Q2 : 0.0620197579265, Q3 : -0.137682959437, Q4 : 0.396154224873}
2019-04-14 18:25:54.31: SIM {TimeUS : 61935216, Roll : 0.17, Pitch : -17.39, Yaw : 47.22, Alt : 49.3100013733, Lat : 49.2837028, Lng : -123.1148013, Q1 : 0.905662477016, Q2 : 0.0619394667447, Q3 : -0.137959212065, Q4 : 0.396113932133}
2019-04-14 18:25:54.41: SIM {TimeUS : 62035176, Roll : 0.15, Pitch : -17.42, Yaw : 47.23, Alt : 49.3100013733, Lat : 49.2837054, Lng : -123.1147967, Q1 : 0.905597865582, Q2 : 0.0618875958025, Q3 : -0.138304069638, Q4 : 0.396149545908}
2019-04-14 18:25:54.51: SIM {TimeUS : 62135136, Roll : 0.13, Pitch : -17.45, Yaw : 47.24, Alt : 49.3100013733, Lat : 49.2837082, Lng : -123.1147921, Q1 : 0.905516684055, Q2 : 0.0618476569653, Q3 : -0.138578042388, Q4 : 0.396245628595}
2019-04-14 18:25:54.61: SIM {TimeUS : 62235096, Roll : 0.11, Pitch : -17.48, Yaw : 47.26, Alt : 49.3100013733, Lat : 49.2837108, Lng : -123.1147875, Q1 : 0.905432641506, Q2 : 0.0618311427534, Q3 : -0.13882920146, Q4 : 0.396352350712}
2019-04-14 18:25:54.71: SIM {TimeUS : 62335056, Roll : 0.11, Pitch : -17.5, Yaw : 47.28, Alt : 49.3199996948, Lat : 49.2837137, Lng : -123.1147829, Q1 : 0.905358374119, Q2 : 0.0618753358722, Q3 : -0.138989210129, Q4 : 0.396458894014}
2019-04-14 18:25:54.81: SIM {TimeUS : 62435016, Roll : 0.11, Pitch : -17.51, Yaw : 47.29, Alt : 49.3199996948, Lat : 49.2837163, Lng : -123.1147782, Q1 : 0.90529936552, Q2 : 0.0620071664453, Q3 : -0.139099389315, Q4 : 0.396534442902}
2019-04-14 18:25:54.91: SIM {TimeUS : 62534976, Roll : 0.12, Pitch : -17.54, Yaw : 47.29, Alt : 49.3199996948, Lat : 49.2837192, Lng : -123.1147736, Q1 : 0.905258059502, Q2 : 0.0621770359576, Q3 : -0.139226019382, Q4 : 0.396557748318}
2019-04-14 18:25:55.01: SIM {TimeUS : 62634936, Roll : 0.12, Pitch : -17.57, Yaw : 47.28, Alt : 49.3199996948, Lat : 49.283722, Lng : -123.1147689, Q1 : 0.905238389969, Q2 : 0.0622733645141, Q3 : -0.139512360096, Q4 : 0.396486848593}
2019-04-14 18:25:55.11: SIM {TimeUS : 62734896, Roll : 0.1, Pitch : -17.61, Yaw : 47.27, Alt : 49.3199996948, Lat : 49.2837247, Lng : -123.1147643, Q1 : 0.905242085457, Q2 : 0.0622263774276, Q3 : -0.139949351549, Q4 : 0.396331757307}
2019-04-14 18:25:55.21: SIM {TimeUS : 62834856, Roll : 0.08, Pitch : -17.66, Yaw : 47.25, Alt : 49.3199996948, Lat : 49.2837275, Lng : -123.1147596, Q1 : 0.905257821083, Q2 : 0.0622536987066, Q3 : -0.140384763479, Q4 : 0.396137446165}
2019-04-14 18:25:55.31: SIM {TimeUS : 62934816, Roll : 0.1, Pitch : -17.69, Yaw : 47.23, Alt : 49.3199996948, Lat : 49.2837302, Lng : -123.1147549, Q1 : 0.905292272568, Q2 : 0.0624527595937, Q3 : -0.140584081411, Q4 : 0.395956575871}
2019-04-14 18:25:55.41: SIM {TimeUS : 63034776, Roll : 0.13, Pitch : -17.7, Yaw : 47.2, Alt : 49.3199996948, Lat : 49.2837331, Lng : -123.1147502, Q1 : 0.905360579491, Q2 : 0.0626656338573, Q3 : -0.140526235104, Q4 : 0.395787298679}
2019-04-14 18:25:55.51: SIM {TimeUS : 63134736, Roll : 0.16, Pitch : -17.68, Yaw : 47.17, Alt : 49.3199996948, Lat : 49.2837358, Lng : -123.1147455, Q1 : 0.905453264713, Q2 : 0.0628162994981, Q3 : -0.140319079161, Q4 : 0.395624905825}
2019-04-14 18:25:55.61: SIM {TimeUS : 63234696, Roll : 0.17, Pitch : -17.67, Yaw : 47.15, Alt : 49.3199996948, Lat : 49.2837387, Lng : -123.1147407, Q1 : 0.905551850796, Q2 : 0.0627850219607, Q3 : -0.140199571848, Q4 : 0.395446568727}
2019-04-14 18:25:55.71: SIM {TimeUS : 63334656, Roll : 0.16, Pitch : -17.65, Yaw : 47.13, Alt : 49.3199996948, Lat : 49.2837416, Lng : -123.114736, Q1 : 0.905649840832, Q2 : 0.0627008602023, Q3 : -0.14011105895, Q4 : 0.395266830921}
2019-04-14 18:25:55.81: SIM {TimeUS : 63434616, Roll : 0.16, Pitch : -17.64, Yaw : 47.1, Alt : 49.3199996948, Lat : 49.2837443, Lng : -123.1147313, Q1 : 0.905748188496, Q2 : 0.0625798627734, Q3 : -0.140027686954, Q4 : 0.395090192556}
2019-04-14 18:25:55.91: SIM {TimeUS : 63534576, Roll : 0.15, Pitch : -17.65, Yaw : 47.08, Alt : 49.3199996948, Lat : 49.2837472, Lng : -123.1147265, Q1 : 0.905810534954, Q2 : 0.0624956786633, Q3 : -0.140157565475, Q4 : 0.394914448261}
2019-04-14 18:25:56.01: SIM {TimeUS : 63634536, Roll : 0.14, Pitch : -17.68, Yaw : 47.07, Alt : 49.3199996948, Lat : 49.28375, Lng : -123.1147217, Q1 : 0.905841290951, Q2 : 0.0625145882368, Q3 : -0.14040787518, Q4 : 0.394751995802}
2019-04-14 18:25:56.11: SIM {TimeUS : 63735329, Roll : 0.13, Pitch : -17.73, Yaw : 47.05, Alt : 49.3199996948, Lat : 49.2837528, Lng : -123.1147169, Q1 : 0.905834257603, Q2 : 0.0625749751925, Q3 : -0.140861734748, Q4 : 0.394596904516}
2019-04-14 18:25:56.21: SIM {TimeUS : 63835289, Roll : 0.13, Pitch : -17.78, Yaw : 47.04, Alt : 49.3300018311, Lat : 49.2837557, Lng : -123.1147122, Q1 : 0.90580791235, Q2 : 0.0627681389451, Q3 : -0.141303762794, Q4 : 0.394468575716}
2019-04-14 18:25:56.31: SIM {TimeUS : 63935249, Roll : 0.15, Pitch : -17.81, Yaw : 47.03, Alt : 49.3300018311, Lat : 49.2837586, Lng : -123.1147074, Q1 : 0.905801653862, Q2 : 0.0629894733429, Q3 : -0.14144808054, Q4 : 0.394395917654}
2019-04-14 18:25:56.41: SIM {TimeUS : 64035209, Roll : 0.15, Pitch : -17.83, Yaw : 47.02, Alt : 49.3300018311, Lat : 49.2837613, Lng : -123.1147026, Q1 : 0.905803978443, Q2 : 0.0631051957607, Q3 : -0.141590967774, Q4 : 0.394320756197}
2019-04-14 18:25:56.51: SIM {TimeUS : 64135169, Roll : 0.15, Pitch : -17.84, Yaw : 47.01, Alt : 49.3300018311, Lat : 49.2837642, Lng : -123.1146977, Q1 : 0.905819714069, Q2 : 0.0631236284971, Q3 : -0.141708374023, Q4 : 0.394239515066}
2019-04-14 18:25:56.61: SIM {TimeUS : 64235129, Roll : 0.16, Pitch : -17.84, Yaw : 47.0, Alt : 49.3300018311, Lat : 49.2837671, Lng : -123.114693, Q1 : 0.905852138996, Q2 : 0.0631383433938, Q3 : -0.141670584679, Q4 : 0.394176214933}
2019-04-14 18:25:56.71: SIM {TimeUS : 64335089, Roll : 0.17, Pitch : -17.85, Yaw : 46.99, Alt : 49.3300018311, Lat : 49.2837699, Lng : -123.1146882, Q1 : 0.905864715576, Q2 : 0.0632513314486, Q3 : -0.141723394394, Q4 : 0.394110292196}
2019-04-14 18:25:56.81: SIM {TimeUS : 64435049, Roll : 0.17, Pitch : -17.87, Yaw : 46.98, Alt : 49.3300018311, Lat : 49.2837728, Lng : -123.1146834, Q1 : 0.90586566925, Q2 : 0.0633433386683, Q3 : -0.141909882426, Q4 : 0.394026100636}
2019-04-14 18:25:56.91: SIM {TimeUS : 64535009, Roll : 0.17, Pitch : -17.89, Yaw : 46.97, Alt : 49.3300018311, Lat : 49.2837758, Lng : -123.1146785, Q1 : 0.905873835087, Q2 : 0.063390314579, Q3 : -0.142074123025, Q4 : 0.393940627575}
2019-04-14 18:25:57.01: SIM {TimeUS : 64634969, Roll : 0.17, Pitch : -17.9, Yaw : 46.96, Alt : 49.3300018311, Lat : 49.2837786, Lng : -123.1146737, Q1 : 0.90590941906, Q2 : 0.063415043056, Q3 : -0.142077684402, Q4 : 0.393853574991}
2019-04-14 18:25:57.11: SIM {TimeUS : 64734929, Roll : 0.18, Pitch : -17.9, Yaw : 46.95, Alt : 49.3300018311, Lat : 49.2837814, Lng : -123.1146689, Q1 : 0.905952215195, Q2 : 0.0634137913585, Q3 : -0.142081722617, Q4 : 0.393753916025}
2019-04-14 18:25:57.21: SIM {TimeUS : 64834889, Roll : 0.17, Pitch : -17.91, Yaw : 46.94, Alt : 49.3300018311, Lat : 49.2837843, Lng : -123.114664, Q1 : 0.905984640121, Q2 : 0.0633868873119, Q3 : -0.142236128449, Q4 : 0.393627792597}
2019-04-14 18:25:57.31: SIM {TimeUS : 64934849, Roll : 0.15, Pitch : -17.95, Yaw : 46.92, Alt : 49.3300018311, Lat : 49.2837873, Lng : -123.1146592, Q1 : 0.905997872353, Q2 : 0.0633386000991, Q3 : -0.142604708672, Q4 : 0.393471717834}
2019-04-14 18:25:57.41: SIM {TimeUS : 65034809, Roll : 0.14, Pitch : -17.96, Yaw : 46.91, Alt : 49.3300018311, Lat : 49.2837902, Lng : -123.1146543, Q1 : 0.906039237976, Q2 : 0.0632604658604, Q3 : -0.142727062106, Q4 : 0.393344700336}
2019-04-14 18:25:57.51: SIM {TimeUS : 65134769, Roll : 0.14, Pitch : -17.95, Yaw : 46.89, Alt : 49.3300018311, Lat : 49.283793, Lng : -123.1146495, Q1 : 0.906091809273, Q2 : 0.0632554516196, Q3 : -0.142656952143, Q4 : 0.393249809742}
2019-04-14 18:25:57.61: SIM {TimeUS : 65234729, Roll : 0.16, Pitch : -17.94, Yaw : 46.88, Alt : 49.3300018311, Lat : 49.2837959, Lng : -123.1146446, Q1 : 0.906136095524, Q2 : 0.0633526667953, Q3 : -0.142550379038, Q4 : 0.393170684576}
2019-04-14 18:25:57.71: SIM {TimeUS : 65334689, Roll : 0.17, Pitch : -17.95, Yaw : 46.87, Alt : 49.3400001526, Lat : 49.2837989, Lng : -123.1146397, Q1 : 0.906165719032, Q2 : 0.0634538605809, Q3 : -0.142582669854, Q4 : 0.39307436347}
2019-04-14 18:25:57.81: SIM {TimeUS : 65434649, Roll : 0.16, Pitch : -17.97, Yaw : 46.86, Alt : 49.3400001526, Lat : 49.2838018, Lng : -123.1146349, Q1 : 0.906191170216, Q2 : 0.0634219944477, Q3 : -0.142755314708, Q4 : 0.392958134413}
2019-04-14 18:25:57.91: SIM {TimeUS : 65534609, Roll : 0.14, Pitch : -17.99, Yaw : 46.84, Alt : 49.3400001526, Lat : 49.2838047, Lng : -123.11463, Q1 : 0.906218230724, Q2 : 0.0633084699512, Q3 : -0.142971590161, Q4 : 0.392835438251}
2019-04-14 18:25:58.01: SIM {TimeUS : 65634569, Roll : 0.13, Pitch : -18.0, Yaw : 46.83, Alt : 49.3400001526, Lat : 49.2838075, Lng : -123.1146251, Q1 : 0.906238615513, Q2 : 0.0632832050323, Q3 : -0.143154501915, Q4 : 0.392725914717}
2019-04-14 18:25:58.12: SIM {TimeUS : 65735362, Roll : 0.14, Pitch : -18.02, Yaw : 46.82, Alt : 49.3400001526, Lat : 49.2838105, Lng : -123.1146202, Q1 : 0.906252622604, Q2 : 0.0634103640914, Q3 : -0.143270462751, Q4 : 0.392630815506}
2019-04-14 18:25:58.21: SIM {TimeUS : 65835322, Roll : 0.15, Pitch : -18.03, Yaw : 46.81, Alt : 49.3400001526, Lat : 49.2838135, Lng : -123.1146153, Q1 : 0.906269311905, Q2 : 0.0635406374931, Q3 : -0.143326878548, Q4 : 0.392550557852}
2019-04-14 18:25:58.31: SIM {TimeUS : 65935282, Roll : 0.17, Pitch : -18.04, Yaw : 46.8, Alt : 49.3400001526, Lat : 49.2838164, Lng : -123.1146104, Q1 : 0.906277894974, Q2 : 0.0637219101191, Q3 : -0.143336847425, Q4 : 0.392497777939}
2019-04-14 18:25:58.41: SIM {TimeUS : 66035242, Roll : 0.18, Pitch : -18.06, Yaw : 46.79, Alt : 49.3400001526, Lat : 49.2838194, Lng : -123.1146055, Q1 : 0.906279921532, Q2 : 0.0638216286898, Q3 : -0.143463954329, Q4 : 0.392430484295}
2019-04-14 18:25:58.51: SIM {TimeUS : 66135202, Roll : 0.19, Pitch : -18.08, Yaw : 46.78, Alt : 49.3400001526, Lat : 49.2838223, Lng : -123.1146006, Q1 : 0.906276106834, Q2 : 0.06393327564, Q3 : -0.143616259098, Q4 : 0.39236536622}
2019-04-14 18:25:58.61: SIM {TimeUS : 66235162, Roll : 0.2, Pitch : -18.1, Yaw : 46.78, Alt : 49.3400001526, Lat : 49.2838251, Lng : -123.1145957, Q1 : 0.906271696091, Q2 : 0.0640664696693, Q3 : -0.143734619021, Q4 : 0.392310410738}
2019-04-14 18:25:58.71: SIM {TimeUS : 66335122, Roll : 0.22, Pitch : -18.11, Yaw : 46.77, Alt : 49.3400001526, Lat : 49.2838281, Lng : -123.1145907, Q1 : 0.906267225742, Q2 : 0.0642841458321, Q3 : -0.143742114305, Q4 : 0.392282485962}
2019-04-14 18:25:58.81: SIM {TimeUS : 66435082, Roll : 0.25, Pitch : -18.12, Yaw : 46.76, Alt : 49.3400001526, Lat : 49.2838311, Lng : -123.1145859, Q1 : 0.906256437302, Q2 : 0.0645692273974, Q3 : -0.143702358007, Q4 : 0.392275035381}
2019-04-14 18:25:58.91: SIM {TimeUS : 66535042, Roll : 0.25, Pitch : -18.12, Yaw : 46.76, Alt : 49.3499984741, Lat : 49.283834, Lng : -123.1145809, Q1 : 0.906278014183, Q2 : 0.0645486786962, Q3 : -0.143674731255, Q4 : 0.392238736153}
2019-04-14 18:25:59.01: SIM {TimeUS : 66635002, Roll : 0.23, Pitch : -18.12, Yaw : 46.75, Alt : 49.3499984741, Lat : 49.283837, Lng : -123.114576, Q1 : 0.906302750111, Q2 : 0.0643662810326, Q3 : -0.143816053867, Q4 : 0.392159759998}
