2019-04-14 17:27:09.00: SIM {TimeUS : 40616247, Roll : 0.0, Pitch : 0.0, Yaw : 0.0, Alt : 30.1000003815, Lat : 49.28357, Lng : -123.11502, Q1 : 1.0, Q2 : 0.0, Q3 : 0.0, Q4 : 0.0}
2019-04-14 17:27:09.11: SIM {TimeUS : 40735366, Roll : 0.0, Pitch : 0.0, Yaw : 0.0, Alt : 30.1000003815, Lat : 49.28357, Lng : -123.11502, Q1 : 1.0, Q2 : 0.0, Q3 : 0.0, Q4 : 0.0}
2019-04-14 17:27:09.21: SIM {TimeUS : 40835326, Roll : 0.0, Pitch : 0.0, Yaw : 0.0, Alt : 30.1000003815, Lat : 49.28357, Lng : -123.11502, Q1 : 1.0, Q2 : 0.0, Q3 : 0.0, Q4 : 0.0}
2019-04-14 17:27:09.31: SIM {TimeUS : 40935286, Roll : 0.0, Pitch : 0.0, Yaw : 0.0, Alt : 30.1000003815, Lat : 49.28357, Lng : -123.11502, Q1 : 1.0, Q2 : 0.0, Q3 : 0.0, Q4 : 0.0}
2019-04-14 17:27:09.41: SIM {TimeUS : 41035246, Roll : 0.0, Pitch : 0.0, Yaw : 0.0, Alt : 30.1000003815, Lat : 49.28357, Lng : -123.11502, Q1 : 1.0, Q2 : 0.0, Q3 : 0.0, Q4 : 0.0}
2019-04-14 17:27:09.51: SIM {TimeUS : 41135206, Roll : 0.0, Pitch : 0.0, Yaw : 0.0, Alt : 30.1000003815, Lat : 49.28357, Lng : -123.11502, Q1 : 1.0, Q2 : 0.0, Q3 : 0.0, Q4 : 0.0}
2019-04-14 17:27:09.61: SIM {TimeUS : 41235166, Roll : 0.0, Pitch : 0.0, Yaw : 0.0, Alt : 30.1000003815, Lat : 49.28357, Lng : -123.11502, Q1 : 1.0, Q2 : 0.0, Q3 : 0.0, Q4 : 0.0}
2019-04-14 17:27:09.71: SIM {TimeUS : 41335126, Roll : 0.0, Pitch : 0.0, Yaw : 0.0, Alt : 30.1000003815, Lat : 49.28357, Lng : -123.11502, Q1 : 1.0, Q2 : 0.0, Q3 : 0.0, Q4 : 0.0}
2019-04-14 17:27:09.81: SIM {TimeUS : 41435086, Roll : 0.0, Pitch : 0.0, Yaw : 0.0, Alt : 30.1000003815, Lat : 49.28357, Lng : -123.11502, Q1 : 1.0, Q2 : 0.0, Q3 : 0.0, Q4 : 0.0}
2019-04-14 17:27:09.91: SIM {TimeUS : 41535046, Roll : 0.0, Pitch : 0.0, Yaw : 0.0, Alt : 30.1000003815, Lat : 49.28357, Lng : -123.11502, Q1 : 1.0, Q2 : 0.0, Q3 : 0.0, Q4 : 0.0}
2019-04-14 17:27:10.01: SIM {TimeUS : 41635006, Roll : 0.0, Pitch : 0.0, Yaw : 0.0, Alt : 30.1000003815, Lat : 49.28357, Lng : -123.11502, Q1 : 1.0, Q2 : 0.0, Q3 : 0.0, Q4 : 0.0}
2019-04-14 17:27:10.11: SIM {TimeUS : 41734966, Roll : 0.0, Pitch : 0.0, Yaw : 0.0, Alt : 30.1000003815, Lat : 49.28357, Lng : -123.11502, Q1 : 1.0, Q2 : 0.0, Q3 : 0.0, Q4 : 0.0}
2019-04-14 17:27:10.21: SIM {TimeUS : 41834926, Roll : 0.0, Pitch : 0.0, Yaw : 0.0, Alt : 30.1000003815, Lat : 49.28357, Lng : -123.11502, Q1 : 1.0, Q2 : 0.0, Q3 : 0.0, Q4 : 0.0}
2019-04-14 17:27:10.31: SIM {TimeUS : 41934886, Roll : 0.0, Pitch : 0.0, Yaw : 0.0, Alt : 30.1000003815, Lat : 49.28357, Lng : -123.11502, Q1 : 1.0, Q2 : 0.0, Q3 : 0.0, Q4 : 0.0}
2019-04-14 17:27:10.41: SIM {TimeUS : 42034846, Roll : 0.0, Pitch : 0.0, Yaw : 0.0, Alt : 30.1000003815, Lat : 49.28357, Lng : -123.11502, Q1 : 1.0, Q2 : 0.0, Q3 : 0.0, Q4 : 0.0}
2019-04-14 17:27:10.51: SIM {TimeUS : 42134806, Roll : 0.0, Pitch : 0.0, Yaw : 0.0, Alt : 30.1000003815, Lat : 49.28357, Lng : -123.11502, Q1 : 1.0, Q2 : 0.0, Q3 : 0.0, Q4 : 0.0}
2019-04-14 17:27:10.61: SIM {TimeUS : 42234766, Roll : 0.0, Pitch : 0.0, Yaw : 0.0, Alt : 30.1000003815, Lat : 49.28357, Lng : -123.11502, Q1 : 1.0, Q2 : 0.0, Q3 : 0.0, Q4 : 0.0}
2019-04-14 17:27:10.71: SIM {TimeUS : 42334726, Roll : 0.0, Pitch : 0.0, Yaw : 0.0, Alt : 30.1000003815, Lat : 49.28357, Lng : -123.11502, Q1 : 1.0, Q2 : 0.0, Q3 : 0.0, Q4 : 0.0}
2019-04-14 17:27:10.81: SIM {TimeUS : 42434686, Roll : 0.0, Pitch : 0.0, Yaw : 0.0, Alt : 30.1000003815, Lat : 49.28357, Lng : -123.11502, Q1 : 1.0, Q2 : 0.0, Q3 : 0.0, Q4 : 0.0}
2019-04-14 17:27:10.91: SIM {TimeUS : 42534646, Roll : 0.0, Pitch : 0.0, Yaw : 0.0, Alt : 30.1000003815, Lat : 49.28357, Lng : -123.11502, Q1 : 1.0, Q2 : 0.0, Q3 : 0.0, Q4 : 0.0}
2019-04-14 17:27:11.01: SIM {TimeUS : 42634606, Roll : 0.0, Pitch : 0.0, Yaw : 0.0, Alt : 30.1000003815, Lat : 49.28357, Lng : -123.11502, Q1 : 1.0, Q2 : 0.0, Q3 : 0.0, Q4 : 0.0}
2019-04-14 17:27:11.11: SIM {TimeUS : 42735399, Roll : 0.0, Pitch : 0.0, Yaw : 0.0, Alt : 30.1000003815, Lat : 49.28357, Lng : -123.11502, Q1 : 1.0, Q2 : 0.0, Q3 : 0.0, Q4 : 0.0}
2019-04-14 17:27:11.21: SIM {TimeUS : 42835359, Roll : 0.0, Pitch : 0.0, Yaw : 0.0, Alt : 30.1000003815, Lat : 49.28357, Lng : -123.11502, Q1 : 1.0, Q2 : 0.0, Q3 : 0.0, Q4 : 0.0}
2019-04-14 17:27:11.31: SIM {TimeUS : 42935319, Roll : 0.0, Pitch : 0.0, Yaw : 360.0, Alt : 30.1000003815, Lat : 49.28357, Lng : -123.11502, Q1 : 1.0, Q2 : 0.0, Q3 : 0.0, Q4 : -2.34232576911e-12}
2019-04-14 17:27:11.41: SIM {TimeUS : 43035279, Roll : 0.0, Pitch : 0.0, Yaw : 360.0, Alt : 30.1000003815, Lat : 49.28357, Lng : -123.11502, Q1 : 1.0, Q2 : 0.0, Q3 : 0.0, Q4 : -1.59578156245e-10}
2019-04-14 17:27:11.51: SIM {TimeUS : 43135239, Roll : 0.0, Pitch : 0.0, Yaw : 360.0, Alt : 30.1000003815, Lat : 49.28357, Lng : -123.11502, Q1 : 1.0, Q2 : 0.0, Q3 : 0.0, Q4 : -8.89988100994e-08}
2019-04-14 17:27:11.61: SIM {TimeUS : 43235199, Roll : 0.0, Pitch : 0.0, Yaw : 359.99, Alt : 30.1000003815, Lat : 49.28357, Lng : -123.11502, Q1 : 1.0, Q2 : 0.0, Q3 : 0.0, Q4 : -2.17793257207e-07}
2019-04-14 17:27:11.71: SIM {TimeUS : 43335159, Roll : 0.0, Pitch : 0.0, Yaw : 359.99, Alt : 30.1000003815, Lat : 49.28357, Lng : -123.11502, Q1 : 1.0, Q2 : 0.0, Q3 : 0.0, Q4 : -3.78347380092e-07}
2019-04-14 17:27:11.81: SIM {TimeUS : 43435119, Roll : 0.0, Pitch : 0.0, Yaw : 359.99, Alt : 30.1000003815, Lat : 49.28357, Lng : -123.11502, Q1 : 1.0, Q2 : 0.0, Q3 : 0.0, Q4 : -5.84485917443e-07}
2019-04-14 17:27:11.91: SIM {TimeUS : 43535079, Roll : 0.0, Pitch : 0.0, Yaw : 359.99, Alt : 30.1000003815, Lat : 49.28357, Lng : -123.11502, Q1 : 1.0, Q2 : 0.0, Q3 : 0.0, Q4 : -7.89566342974e-07}
2019-04-14 17:27:12.01: SIM {TimeUS : 43635039, Roll : 0.0, Pitch : 0.0, Yaw : 359.99, Alt : 30.1000003815, Lat : 49.28357, Lng : -123.11502, Q1 : 1.0, Q2 : 0.0, Q3 : 0.0, Q4 : -1.0078398418e-06}
2019-04-14 17:27:12.11: SIM {TimeUS : 43734999, Roll : 0.0, Pitch : 0.0, Yaw : 359.99, Alt : 30.1000003815, Lat : 49.28357, Lng : -123.11502, Q1 : 1.0, Q2 : 0.0, Q3 : 0.0, Q4 : -1.16363230518e-06}
2019-04-14 17:27:12.21: SIM {TimeUS : 43834959, Roll : 0.0, Pitch : 0.0, Yaw : 359.99, Alt : 30.1100006104, Lat : 49.28357, Lng : -123.11502, Q1 : 1.0, Q2 : 0.0, Q3 : 0.0, Q4 : -1.35582956773e-06}
2019-04-14 17:27:12.31: SIM {TimeUS : 43934919, Roll : 0.0, Pitch : 0.0, Yaw : 359.99, Alt : 30.1299991608, Lat : 49.28357, Lng : -123.11502, Q1 : 1.0, Q2 : 0.0, Q3 : 0.0, Q4 : -1.51546987581e-06}
2019-04-14 17:27:12.41: SIM {TimeUS : 44034879, Roll : 0.0, Pitch : 0.0, Yaw : 359.99, Alt : 30.1599998474, Lat : 49.28357, Lng : -123.11502, Q1 : 1.0, Q2 : 0.0, Q3 : 0.0, Q4 : -1.73192177044e-06}
2019-04-14 17:27:12.51: SIM {TimeUS : 44134839, Roll : 0.0, Pitch : 0.0, Yaw : 359.99, Alt : 30.1900005341, Lat : 49.28357, Lng : -123.11502, Q1 : 1.0, Q2 : 0.0, Q3 : 0.0, Q4 : -1.96201222025e-06}
2019-04-14 17:27:12.61: SIM {TimeUS : 44234799, Roll : -0.03, Pitch : -0.03, Yaw : 359.99, Alt : 30.2299995422, Lat : 49.28357, Lng : -123.11502, Q1 : 0.999999880791, Q2 : -0.000323128857417, Q3 : -0.000274346355582, Q4 : -3.97129360863e-06}
2019-04-14 17:27:12.71: SIM {TimeUS : 44334759, Roll : -0.29, Pitch : -0.25, Yaw : 359.99, Alt : 30.3099994659, Lat : 49.28357, Lng : -123.11502, Q1 : 0.999994277954, Q2 : -0.00256634969264, Q3 : -0.00220529921353, Q4 : -2.94762066915e-05}
2019-04-14 17:27:12.81: SIM {TimeUS : 44434719, Roll : -0.58, Pitch : -0.53, Yaw : 359.99, Alt : 30.4400005341, Lat : 49.28357, Lng : -123.11502, Q1 : 0.999976217747, Q2 : -0.00506754918024, Q3 : -0.00467636622488, Q4 : -8.27971380204e-05}
2019-04-14 17:27:12.91: SIM {TimeUS : 44534679, Roll : -0.76, Pitch : -0.72, Yaw : 359.98, Alt : 30.5900001526, Lat : 49.28357, Lng : -123.11502, Q1 : 0.999957501888, Q2 : -0.00668861437589, Q3 : -0.00634496333078, Q4 : -0.000155673595145}
2019-04-14 17:27:13.01: SIM {TimeUS : 44634639, Roll : -0.81, Pitch : -0.76, Yaw : 359.97, Alt : 30.75, Lat : 49.28357, Lng : -123.11502, Q1 : 0.999951839447, Q2 : -0.00715469103307, Q3 : -0.00671029929072, Q4 : -0.000237505941186}
2019-04-14 17:27:13.11: SIM {TimeUS : 44734599, Roll : -0.73, Pitch : -0.68, Yaw : 359.96, Alt : 30.9099998474, Lat : 49.28357, Lng : -123.1150201, Q1 : 0.999961555004, Q2 : -0.00641501322389, Q3 : -0.00597394676879, Q4 : -0.000316058198223}
2019-04-14 17:27:13.21: SIM {TimeUS : 44835392, Roll : -0.54, Pitch : -0.51, Yaw : 359.95, Alt : 31.0599994659, Lat : 49.2835701, Lng : -123.1150202, Q1 : 0.999978542328, Q2 : -0.00478379242122, Q3 : -0.00445420527831, Q4 : -0.000387028383557}
2019-04-14 17:27:13.31: SIM {TimeUS : 44935352, Roll : -0.32, Pitch : -0.3, Yaw : 359.94, Alt : 31.2199993134, Lat : 49.2835701, Lng : -123.1150202, Q1 : 0.999992370605, Q2 : -0.00282505596988, Q3 : -0.00265261088498, Q4 : -0.000450030376669}
2019-04-14 17:27:13.41: SIM {TimeUS : 45035312, Roll : -0.11, Pitch : -0.12, Yaw : 359.94, Alt : 31.3799991608, Lat : 49.2835702, Lng : -123.1150203, Q1 : 0.999998748302, Q2 : -0.00101215590257, Q3 : -0.00109205278568, Q4 : -0.000499827961903}
2019-04-14 17:27:13.51: SIM {TimeUS : 45135272, Roll : 0.03, Pitch : 0.0, Yaw : 359.93, Alt : 31.5599994659, Lat : 49.2835702, Lng : -123.1150204, Q1 : 0.999999821186, Q2 : 0.000288142822683, Q3 : -4.66815399705e-05, Q4 : -0.000534382881597}
2019-04-14 17:27:13.61: SIM {TimeUS : 45235232, Roll : 0.09, Pitch : 0.06, Yaw : 359.93, Alt : 31.7299995422, Lat : 49.2835703, Lng : -123.1150205, Q1 : 0.999999344349, Q2 : 0.000861947250087, Q3 : 0.000535780680366, Q4 : -0.000553298799787}
2019-04-14 17:27:13.71: SIM {TimeUS : 45335192, Roll : 0.1, Pitch : 0.08, Yaw : 359.93, Alt : 31.9099998474, Lat : 49.2835703, Lng : -123.1150205, Q1 : 0.999999165535, Q2 : 0.00088862888515, Q3 : 0.000719055882655, Q4 : -0.000564078101888}
2019-04-14 17:27:13.81: SIM {TimeUS : 45435152, Roll : 0.07, Pitch : 0.08, Yaw : 359.93, Alt : 32.0999984741, Lat : 49.2835703, Lng : -123.1150206, Q1 : 0.999999344349, Q2 : 0.000662084436044, Q3 : 0.000770428101532, Q4 : -0.000559111125767}
2019-04-14 17:27:13.91: SIM {TimeUS : 45535112, Roll : 0.06, Pitch : 0.09, Yaw : 359.93, Alt : 32.2900009155, Lat : 49.2835703, Lng : -123.1150206, Q1 : 0.999999284744, Q2 : 0.000602834916208, Q3 : 0.000859720108565, Q4 : -0.000528861884959}
2019-04-14 17:27:14.01: SIM {TimeUS : 45635072, Roll : 0.07, Pitch : 0.1, Yaw : 359.94, Alt : 32.4799995422, Lat : 49.2835703, Lng : -123.1150207, Q1 : 0.99999922514, Q2 : 0.000667543557938, Q3 : 0.000919574173167, Q4 : -0.00049693218898}
2019-04-14 17:27:14.11: SIM {TimeUS : 45735032, Roll : 0.08, Pitch : 0.11, Yaw : 359.94, Alt : 32.6699981689, Lat : 49.2835703, Lng : -123.1150207, Q1 : 0.999999046326, Q2 : 0.000779207679443, Q3 : 0.00103476457298, Q4 : -0.000464104203274}
2019-04-14 17:27:14.21: SIM {TimeUS : 45834992, Roll : 0.1, Pitch : 0.14, Yaw : 359.95, Alt : 32.8699989319, Lat : 49.2835704, Lng : -123.1150208, Q1 : 0.999998629093, Q2 : 0.000915750220884, Q3 : 0.00128797919024, Q4 : -0.000433088629507}
2019-04-14 17:27:14.31: SIM {TimeUS : 45934952, Roll : 0.12, Pitch : 0.14, Yaw : 359.95, Alt : 33.0699996948, Lat : 49.2835704, Lng : -123.1150208, Q1 : 0.999998450279, Q2 : 0.00109485874418, Q3 : 0.0013084091479, Q4 : -0.000414796086261}
2019-04-14 17:27:14.41: SIM {TimeUS : 46034912, Roll : 0.14, Pitch : 0.14, Yaw : 359.95, Alt : 33.2700004578, Lat : 49.2835704, Lng : -123.1150208, Q1 : 0.999998390675, Q2 : 0.00127049162984, Q3 : 0.00123453920241, Q4 : -0.00039148592623}
2019-04-14 17:27:14.51: SIM {TimeUS : 46134872, Roll : 0.16, Pitch : 0.13, Yaw : 359.95, Alt : 33.4799995422, Lat : 49.2835704, Lng : -123.1150208, Q1 : 0.999998271465, Q2 : 0.00141014752444, Q3 : 0.00116277940106, Q4 : -0.000374148774426}
2019-04-14 17:27:14.61: SIM {TimeUS : 46234832, Roll : 0.16, Pitch : 0.13, Yaw : 359.95, Alt : 33.6899986267, Lat : 49.2835704, Lng : -123.1150208, Q1 : 0.999998092651, Q2 : 0.00146365957335, Q3 : 0.00121487001888, Q4 : -0.000381227466278}
2019-04-14 17:27:14.71: SIM {TimeUS : 46334792, Roll : 0.17, Pitch : 0.14, Yaw : 359.95, Alt : 33.8899993896, Lat : 49.2835704, Lng : -123.1150208, Q1 : 0.999997854233, Q2 : 0.00154074223246, Q3 : 0.00130466674455, Q4 : -0.000405571132433}
2019-04-14 17:27:14.81: SIM {TimeUS : 46434752, Roll : 0.16, Pitch : 0.13, Yaw : 359.95, Alt : 34.0999984741, Lat : 49.2835704, Lng : -123.1150208, Q1 : 0.999998092651, Q2 : 0.00147617259063, Q3 : 0.00121757457964, Q4 : -0.000433931127191}
2019-04-14 17:27:14.91: SIM {TimeUS : 46534712, Roll : 0.14, Pitch : 0.12, Yaw : 359.94, Alt : 34.3100013733, Lat : 49.2835704, Lng : -123.1150208, Q1 : 0.999998450279, Q2 : 0.00130134855863, Q3 : 0.00108716497198, Q4 : -0.000461464689579}
2019-04-14 17:27:15.01: SIM {TimeUS : 46634672, Roll : 0.12, Pitch : 0.11, Yaw : 359.94, Alt : 34.5299987793, Lat : 49.2835704, Lng : -123.1150208, Q1 : 0.999998867512, Q2 : 0.00105940550566, Q3 : 0.000987620325759, Q4 : -0.000494288164191}
2019-04-14 17:27:15.11: SIM {TimeUS : 46734632, Roll : 0.09, Pitch : 0.1, Yaw : 359.93, Alt : 34.7400016785, Lat : 49.2835704, Lng : -123.1150208, Q1 : 0.99999910593, Q2 : 0.000797003274783, Q3 : 0.00089762324933, Q4 : -0.000533057260327}
2019-04-14 17:27:15.21: SIM {TimeUS : 46834592, Roll : 0.07, Pitch : 0.06, Yaw : 359.93, Alt : 34.9599990845, Lat : 49.2835704, Lng : -123.1150208, Q1 : 0.999999463558, Q2 : 0.000630963942967, Q3 : 0.000563484325539, Q4 : -0.000580563500989}
2019-04-14 17:27:15.31: SIM {TimeUS : 46935385, Roll : 0.06, Pitch : 0.02, Yaw : 359.92, Alt : 35.1699981689, Lat : 49.2835704, Lng : -123.1150208, Q1 : 0.999999642372, Q2 : 0.000526723975781, Q3 : 0.000243446673267, Q4 : -0.000628860201687}
2019-04-14 17:27:15.41: SIM {TimeUS : 47035345, Roll : 0.03, Pitch : 0.0, Yaw : 359.92, Alt : 35.3899993896, Lat : 49.2835704, Lng : -123.1150208, Q1 : 0.999999701977, Q2 : 0.000333186733769, Q3 : 5.94287885178e-05, Q4 : -0.000672905647662}
2019-04-14 17:27:15.51: SIM {TimeUS : 47135305, Roll : 0.02, Pitch : 0.0, Yaw : 359.91, Alt : 35.6100006104, Lat : 49.2835704, Lng : -123.1150208, Q1 : 0.999999701977, Q2 : 0.000222400791245, Q3 : 3.81301033485e-05, Q4 : -0.000707224244252}
2019-04-14 17:27:15.61: SIM {TimeUS : 47235265, Roll : 0.02, Pitch : 0.0, Yaw : 359.91, Alt : 35.8300018311, Lat : 49.2835704, Lng : -123.1150207, Q1 : 0.999999701977, Q2 : 0.000208584795473, Q3 : 5.2751522162e-05, Q4 : -0.000742528703995}
2019-04-14 17:27:15.71: SIM {TimeUS : 47335225, Roll : 0.0, Pitch : -0.01, Yaw : 359.91, Alt : 36.0499992371, Lat : 49.2835704, Lng : -123.1150207, Q1 : 0.999999701977, Q2 : 1.73250828084e-05, Q3 : -0.000105880069896, Q4 : -0.000771975261159}
2019-04-14 17:27:15.81: SIM {TimeUS : 47435185, Roll : -0.03, Pitch : -0.04, Yaw : 359.9, Alt : 36.2700004578, Lat : 49.2835704, Lng : -123.1150207, Q1 : 0.999999582767, Q2 : -0.000284848065348, Q3 : -0.000400183023885, Q4 : -0.000792916165665}
2019-04-14 17:27:15.91: SIM {TimeUS : 47535145, Roll : -0.06, Pitch : -0.06, Yaw : 359.9, Alt : 36.4900016785, Lat : 49.2835704, Lng : -123.1150207, Q1 : 0.999999344349, Q2 : -0.000579377810936, Q3 : -0.000570210046135, Q4 : -0.000807671051007}
2019-04-14 17:27:16.01: SIM {TimeUS : 47635105, Roll : -0.09, Pitch : -0.07, Yaw : 359.9, Alt : 36.7099990845, Lat : 49.2835704, Lng : -123.1150207, Q1 : 0.999999046326, Q2 : -0.000859135121573, Q3 : -0.00067739066435, Q4 : -0.000820896355435}
2019-04-14 17:27:16.11: SIM {TimeUS : 47735065, Roll : -0.1, Pitch : -0.07, Yaw : 359.9, Alt : 36.9399986267, Lat : 49.2835704, Lng : -123.1150207, Q1 : 0.999999046326, Q2 : -0.000876647653058, Q3 : -0.000696183298714, Q4 : -0.000825463794172}
2019-04-14 17:27:16.21: SIM {TimeUS : 47835025, Roll : -0.09, Pitch : -0.07, Yaw : 359.9, Alt : 37.1599998474, Lat : 49.2835704, Lng : -123.1150207, Q1 : 0.999999165535, Q2 : -0.000807146076113, Q3 : -0.000632048526313, Q4 : -0.000829432159662}
2019-04-14 17:27:16.31: SIM {TimeUS : 47934985, Roll : -0.07, Pitch : -0.05, Yaw : 359.9, Alt : 37.3899993896, Lat : 49.2835704, Lng : -123.1150206, Q1 : 0.999999344349, Q2 : -0.000682997284457, Q3 : -0.000451962871011, Q4 : -0.000835913640913}
2019-04-14 17:27:16.41: SIM {TimeUS : 48034945, Roll : -0.06, Pitch : -0.03, Yaw : 359.9, Alt : 37.6100006104, Lat : 49.2835704, Lng : -123.1150206, Q1 : 0.999999463558, Q2 : -0.000542784167919, Q3 : -0.000315331853926, Q4 : -0.00084195099771}
2019-04-14 17:27:16.51: SIM {TimeUS : 48134905, Roll : -0.06, Pitch : -0.03, Yaw : 359.9, Alt : 37.8400001526, Lat : 49.2835704, Lng : -123.1150206, Q1 : 0.999999403954, Q2 : -0.000573398370761, Q3 : -0.000314786098897, Q4 : -0.00084953539772}
2019-04-14 17:27:16.61: SIM {TimeUS : 48234865, Roll : -0.07, Pitch : -0.02, Yaw : 359.9, Alt : 38.0699996948, Lat : 49.2835704, Lng : -123.1150206, Q1 : 0.999999344349, Q2 : -0.00066870462615, Q3 : -0.000213625171455, Q4 : -0.00086834008107}
2019-04-14 17:27:16.71: SIM {TimeUS : 48334825, Roll : -0.09, Pitch : 0.0, Yaw : 359.89, Alt : 38.2900009155, Lat : 49.2835704, Lng : -123.1150206, Q1 : 0.99999922514, Q2 : -0.000865649315529, Q3 : -7.83953728387e-05, Q4 : -0.000895822187886}
2019-04-14 17:27:16.81: SIM {TimeUS : 48434785, Roll : -0.09, Pitch : 0.0, Yaw : 359.89, Alt : 38.5200004578, Lat : 49.2835704, Lng : -123.1150206, Q1 : 0.99999922514, Q2 : -0.000861245498527, Q3 : 4.44571232947e-05, Q4 : -0.00091842317488}
2019-04-14 17:27:16.91: SIM {TimeUS : 48534745, Roll : -0.07, Pitch : 0.03, Yaw : 359.89, Alt : 38.75, Lat : 49.2835704, Lng : -123.1150206, Q1 : 0.999999284744, Q2 : -0.000689350184985, Q3 : 0.000282899185549, Q4 : -0.000943345483392}
2019-04-14 17:27:17.01: SIM {TimeUS : 48634705, Roll : -0.05, Pitch : 0.02, Yaw : 359.88, Alt : 38.9799995422, Lat : 49.2835706, Lng : -123.1150206, Q1 : 0.999999403954, Q2 : -0.000476059183711, Q3 : 0.000242193898885, Q4 : -0.000962242193054}
2019-04-14 17:27:17.11: SIM {TimeUS : 48734665, Roll : -0.02, Pitch : 0.01, Yaw : 359.88, Alt : 39.2099990845, Lat : 49.2835706, Lng : -123.1150207, Q1 : 0.999999523163, Q2 : -0.000223126713536, Q3 : 0.000133111869218, Q4 : -0.000978489872068}
2019-04-14 17:27:17.21: SIM {TimeUS : 48834625, Roll : 0.01, Pitch : 0.03, Yaw : 359.88, Alt : 39.4399986267, Lat : 49.2835706, Lng : -123.1150207, Q1 : 0.999999463558, Q2 : 9.48641536525e-05, Q3 : 0.000283262779703, Q4 : -0.000990254222415}
2019-04-14 17:27:17.31: SIM {TimeUS : 48934585, Roll : 0.04, Pitch : 0.06, Yaw : 359.88, Alt : 39.6699981689, Lat : 49.2835706, Lng : -123.1150207, Q1 : 0.99999922514, Q2 : 0.000434069981566, Q3 : 0.000568492803723, Q4 : -0.00100801023655}
2019-04-14 17:27:17.41: SIM {TimeUS : 49035378, Roll : 0.08, Pitch : 0.09, Yaw : 359.88, Alt : 39.9000015259, Lat : 49.2835706, Lng : -123.1150207, Q1 : 0.999998867512, Q2 : 0.000710164662451, Q3 : 0.000867909460794, Q4 : -0.00103205628693}
2019-04-14 17:27:17.51: SIM {TimeUS : 49135338, Roll : 0.07, Pitch : 0.13, Yaw : 359.87, Alt : 40.1300010681, Lat : 49.2835706, Lng : -123.1150207, Q1 : 0.999998569489, Q2 : 0.000646256958134, Q3 : 0.00114535703324, Q4 : -0.0010523191886}
2019-04-14 17:27:17.61: SIM {TimeUS : 49235298, Roll : 0.02, Pitch : 0.16, Yaw : 359.87, Alt : 40.3600006104, Lat : 49.2835706, Lng : -123.1150207, Q1 : 0.999998390675, Q2 : 0.000221797890845, Q3 : 0.00140059657861, Q4 : -0.00108827021904}
2019-04-14 17:27:17.71: SIM {TimeUS : 49335258, Roll : -0.01, Pitch : 0.17, Yaw : 359.87, Alt : 40.5900001526, Lat : 49.2835706, Lng : -123.1150207, Q1 : 0.999998211861, Q2 : -0.000163658842212, Q3 : 0.00151756580453, Q4 : -0.00111613317858}
2019-04-14 17:27:17.81: SIM {TimeUS : 49435218, Roll : -0.04, Pitch : 0.15, Yaw : 359.87, Alt : 40.8300018311, Lat : 49.2835706, Lng : -123.1150207, Q1 : 0.99999833107, Q2 : -0.000362121179933, Q3 : 0.00138361169957, Q4 : -0.00113383610733}
2019-04-14 17:27:17.91: SIM {TimeUS : 49535178, Roll : -0.04, Pitch : 0.13, Yaw : 359.86, Alt : 41.0600013733, Lat : 49.2835706, Lng : -123.1150207, Q1 : 0.999998509884, Q2 : -0.000411276734667, Q3 : 0.00120738160331, Q4 : -0.00115435547195}
2019-04-14 17:27:18.01: SIM {TimeUS : 49635138, Roll : -0.03, Pitch : 0.13, Yaw : 359.86, Alt : 41.2900009155, Lat : 49.2835706, Lng : -123.1150207, Q1 : 0.999998569489, Q2 : -0.000263510126388, Q3 : 0.00118343823124, Q4 : -0.00118003960233}
2019-04-14 17:27:18.11: SIM {TimeUS : 49735098, Roll : 0.01, Pitch : 0.14, Yaw : 359.86, Alt : 41.5299987793, Lat : 49.2835706, Lng : -123.1150207, Q1 : 0.999998390675, Q2 : 0.000143630357343, Q3 : 0.00130701391026, Q4 : -0.00121432601009}
2019-04-14 17:27:18.21: SIM {TimeUS : 49835058, Roll : 0.06, Pitch : 0.15, Yaw : 359.85, Alt : 41.7599983215, Lat : 49.2835706, Lng : -123.1150207, Q1 : 0.999998092651, Q2 : 0.000604326138273, Q3 : 0.00136275810655, Q4 : -0.0012492062524}
2019-04-14 17:27:18.31: SIM {TimeUS : 49935018, Roll : 0.1, Pitch : 0.12, Yaw : 359.85, Alt : 41.9900016785, Lat : 49.2835706, Lng : -123.1150207, Q1 : 0.999998152256, Q2 : 0.000908493937459, Q3 : 0.0011106627062, Q4 : -0.00128257111646}
2019-04-14 17:27:18.41: SIM {TimeUS : 50034978, Roll : 0.1, Pitch : 0.08, Yaw : 359.84, Alt : 42.2299995422, Lat : 49.2835706, Lng : -123.1150207, Q1 : 0.999998450279, Q2 : 0.000913002062589, Q3 : 0.000747727695853, Q4 : -0.00131559267174}
2019-04-14 17:27:18.51: SIM {TimeUS : 50134938, Roll : 0.06, Pitch : 0.05, Yaw : 359.84, Alt : 42.4599990845, Lat : 49.2835706, Lng : -123.1150207, Q1 : 0.999998807907, Q2 : 0.000593921984546, Q3 : 0.000519113789778, Q4 : -0.00134288705885}
2019-04-14 17:27:18.61: SIM {TimeUS : 50234898, Roll : 0.01, Pitch : 0.05, Yaw : 359.84, Alt : 42.7000007629, Lat : 49.2835706, Lng : -123.1150207, Q1 : 0.999998927116, Q2 : 0.000117898605822, Q3 : 0.000470202212455, Q4 : -0.00136611005291}
2019-04-14 17:27:18.71: SIM {TimeUS : 50334858, Roll : -0.02, Pitch : 0.07, Yaw : 359.84, Alt : 42.9300003052, Lat : 49.2835704, Lng : -123.1150207, Q1 : 0.999998807907, Q2 : -0.000235372179304, Q3 : 0.000671585439704, Q4 : -0.00138252438046}
2019-04-14 17:27:18.81: SIM {TimeUS : 50434818, Roll : -0.04, Pitch : 0.09, Yaw : 359.83, Alt : 43.1699981689, Lat : 49.2835704, Lng : -123.1150207, Q1 : 0.999998629093, Q2 : -0.000398067495553, Q3 : 0.000790251593571, Q4 : -0.00139757920988}
2019-04-14 17:27:18.91: SIM {TimeUS : 50534778, Roll : -0.04, Pitch : 0.08, Yaw : 359.83, Alt : 43.4000015259, Lat : 49.2835704, Lng : -123.1150207, Q1 : 0.999998688698, Q2 : -0.000390373228583, Q3 : 0.000701545970514, Q4 : -0.00141202518716}
2019-04-14 17:27:19.01: SIM {TimeUS : 50634738, Roll : -0.05, Pitch : 0.06, Yaw : 359.83, Alt : 43.6399993896, Lat : 49.2835704, Lng : -123.1150207, Q1 : 0.999998748302, Q2 : -0.000441880227299, Q3 : 0.000562302884646, Q4 : -0.00143155816477}
2019-04-14 17:27:19.11: SIM {TimeUS : 50734698, Roll : -0.04, Pitch : 0.04, Yaw : 359.83, Alt : 43.8699989319, Lat : 49.2835704, Lng : -123.1150207, Q1 : 0.999998807907, Q2 : -0.000415460614022, Q3 : 0.000401015917305, Q4 : -0.0014528199099}
2019-04-14 17:27:19.21: SIM {TimeUS : 50834658, Roll : -0.03, Pitch : 0.03, Yaw : 359.83, Alt : 44.1100006104, Lat : 49.2835704, Lng : -123.1150206, Q1 : 0.999998807907, Q2 : -0.000290462543489, Q3 : 0.00029522908153, Q4 : -0.00147663906682}
2019-04-14 17:27:19.31: SIM {TimeUS : 50934618, Roll : -0.02, Pitch : 0.03, Yaw : 359.82, Alt : 44.3400001526, Lat : 49.2835704, Lng : -123.1150206, Q1 : 0.999998807907, Q2 : -0.00020042216056, Q3 : 0.00026218718267, Q4 : -0.00150070537347}
2019-04-14 17:27:19.41: SIM {TimeUS : 51034578, Roll : -0.02, Pitch : 0.01, Yaw : 359.82, Alt : 44.5800018311, Lat : 49.2835704, Lng : -123.1150206, Q1 : 0.999998807907, Q2 : -0.000216703701881, Q3 : 0.000101899604488, Q4 : -0.00152908079326}
2019-04-14 17:27:19.51: SIM {TimeUS : 51135371, Roll : -0.03, Pitch : -0.02, Yaw : 359.82, Alt : 44.8199996948, Lat : 49.2835703, Lng : -123.1150206, Q1 : 0.999998748302, Q2 : -0.00027443486033, Q3 : -0.000189887330635, Q4 : -0.00156277476344}
2019-04-14 17:27:19.61: SIM {TimeUS : 51235331, Roll : -0.03, Pitch : -0.04, Yaw : 359.81, Alt : 45.0499992371, Lat : 49.2835703, Lng : -123.1150206, Q1 : 0.999998629093, Q2 : -0.000308861111989, Q3 : -0.000381290214136, Q4 : -0.00159505067859}
2019-04-14 17:27:19.71: SIM {TimeUS : 51335291, Roll : -0.02, Pitch : -0.05, Yaw : 359.81, Alt : 45.2900009155, Lat : 49.2835703, Lng : -123.1150206, Q1 : 0.999998569489, Q2 : -0.000260231172433, Q3 : -0.000452239008155, Q4 : -0.001622751588}
2019-04-14 17:27:19.81: SIM {TimeUS : 51435251, Roll : -0.03, Pitch : -0.04, Yaw : 359.81, Alt : 45.5299987793, Lat : 49.2835703, Lng : -123.1150206, Q1 : 0.999998509884, Q2 : -0.000299097329844, Q3 : -0.000427887309343, Q4 : -0.00164936343208}
2019-04-14 17:27:19.91: SIM {TimeUS : 51535211, Roll : -0.05, Pitch : -0.04, Yaw : 359.8, Alt : 45.7599983215, Lat : 49.2835703, Lng : -123.1150206, Q1 : 0.999998450279, Q2 : -0.000476189918118, Q3 : -0.000357914832421, Q4 : -0.00167544186115}
2019-04-14 17:27:20.01: SIM {TimeUS : 51635171, Roll : -0.08, Pitch : -0.03, Yaw : 359.8, Alt : 45.9900016785, Lat : 49.2835703, Lng : -123.1150206, Q1 : 0.999998211861, Q2 : -0.000760590017308, Q3 : -0.000315875222441, Q4 : -0.00169761828147}
2019-04-14 17:27:20.11: SIM {TimeUS : 51735131, Roll : -0.11, Pitch : -0.03, Yaw : 359.8, Alt : 46.2200012207, Lat : 49.2835703, Lng : -123.1150206, Q1 : 0.999997973442, Q2 : -0.000988112180494, Q3 : -0.00029977876693, Q4 : -0.0017210849328}
2019-04-14 17:27:20.21: SIM {TimeUS : 51835091, Roll : -0.12, Pitch : -0.02, Yaw : 359.8, Alt : 46.4500007629, Lat : 49.2835703, Lng : -123.1150206, Q1 : 0.999997854233, Q2 : -0.00106163066812, Q3 : -0.000242374822847, Q4 : -0.00174249801785}
2019-04-14 17:27:20.31: SIM {TimeUS : 51935051, Roll : -0.1, Pitch : -0.01, Yaw : 359.79, Alt : 46.6699981689, Lat : 49.2835703, Lng : -123.1150206, Q1 : 0.999997973442, Q2 : -0.000951616268139, Q3 : -8.84920591488e-05, Q4 : -0.00176440982614}
2019-04-14 17:27:20.41: SIM {TimeUS : 52035011, Roll : -0.08, Pitch : 0.0, Yaw : 359.79, Alt : 46.8800010681, Lat : 49.2835703, Lng : -123.1150206, Q1 : 0.999998152256, Q2 : -0.000733554072212, Q3 : -7.13140252628e-06, Q4 : -0.00178510916885}
2019-04-14 17:27:20.51: SIM {TimeUS : 52134971, Roll : -0.06, Pitch : 0.0, Yaw : 359.79, Alt : 47.0900001526, Lat : 49.2835703, Lng : -123.1150206, Q1 : 0.999998211861, Q2 : -0.000524330826011, Q3 : -7.66361245041e-06, Q4 : -0.0018067418132}
2019-04-14 17:27:20.61: SIM {TimeUS : 52234931, Roll : -0.04, Pitch : -0.01, Yaw : 359.79, Alt : 47.2900009155, Lat : 49.2835703, Lng : -123.1150206, Q1 : 0.999998211861, Q2 : -0.000405455386499, Q3 : -0.000101075762359, Q4 : -0.00183263234794}
2019-04-14 17:27:20.71: SIM {TimeUS : 52334891, Roll : -0.03, Pitch : -0.03, Yaw : 359.78, Alt : 47.4799995422, Lat : 49.2835703, Lng : -123.1150206, Q1 : 0.999998211861, Q2 : -0.000264366244664, Q3 : -0.000294112833217, Q4 : -0.00185867922846}
2019-04-14 17:27:20.81: SIM {TimeUS : 52434851, Roll : -0.01, Pitch : -0.06, Yaw : 359.78, Alt : 47.6599998474, Lat : 49.2835703, Lng : -123.1150206, Q1 : 0.999998033047, Q2 : -0.000105869934487, Q3 : -0.000567570736166, Q4 : -0.00188410002738}
2019-04-14 17:27:20.91: SIM {TimeUS : 52534811, Roll : -0.01, Pitch : -0.11, Yaw : 359.78, Alt : 47.8300018311, Lat : 49.2835703, Lng : -123.1150206, Q1 : 0.999997735023, Q2 : -0.000140112140798, Q3 : -0.000960436591413, Q4 : -0.00190851965453}
2019-04-14 17:27:21.01: SIM {TimeUS : 52634771, Roll : -0.02, Pitch : -0.14, Yaw : 359.77, Alt : 47.9900016785, Lat : 49.2835703, Lng : -123.1150206, Q1 : 0.999997317791, Q2 : -0.000246201554546, Q3 : -0.00126340019051, Q4 : -0.00193324964494}
2019-04-14 17:27:21.11: SIM {TimeUS : 52734731, Roll : 0.0, Pitch : -0.14, Yaw : 359.77, Alt : 48.1399993896, Lat : 49.2835703, Lng : -123.1150206, Q1 : 0.999997258186, Q2 : -5.04166600876e-05, Q3 : -0.00127770355903, Q4 : -0.00196035229601}
2019-04-14 17:27:21.21: SIM {TimeUS : 52834691, Roll : 0.02, Pitch : -0.12, Yaw : 359.77, Alt : 48.2799987793, Lat : 49.2835703, Lng : -123.1150207, Q1 : 0.999997377396, Q2 : 0.00025878706947, Q3 : -0.00108409475069, Q4 : -0.00198912271298}
2019-04-14 17:27:21.31: SIM {TimeUS : 52934651, Roll : 0.06, Pitch : -0.08, Yaw : 359.76, Alt : 48.4000015259, Lat : 49.2835703, Lng : -123.1150207, Q1 : 0.999997496605, Q2 : 0.000536150590051, Q3 : -0.000769511971157, Q4 : -0.0020180977881}
2019-04-14 17:27:21.41: SIM {TimeUS : 53034611, Roll : 0.07, Pitch : -0.05, Yaw : 359.76, Alt : 48.5200004578, Lat : 49.2835703, Lng : -123.1150207, Q1 : 0.99999755621, Q2 : 0.000663938059006, Q3 : -0.000444788223831, Q4 : -0.00204718881287}
2019-04-14 17:27:21.51: SIM {TimeUS : 53135404, Roll : 0.08, Pitch : -0.02, Yaw : 359.76, Alt : 48.6199989319, Lat : 49.2835703, Lng : -123.1150207, Q1 : 0.99999755621, Q2 : 0.000702255347278, Q3 : -0.000237253785599, Q4 : -0.00207494664937}
2019-04-14 17:27:21.61: SIM {TimeUS : 53235364, Roll : 0.07, Pitch : -0.02, Yaw : 359.75, Alt : 48.7000007629, Lat : 49.2835703, Lng : -123.1150207, Q1 : 0.99999755621, Q2 : 0.000632949813735, Q3 : -0.000235834799241, Q4 : -0.00210622278973}
2019-04-14 17:27:21.71: SIM {TimeUS : 53335324, Roll : 0.04, Pitch : -0.03, Yaw : 359.75, Alt : 48.7799987793, Lat : 49.2835704, Lng : -123.1150207, Q1 : 0.999997615814, Q2 : 0.000388697197195, Q3 : -0.000277638959233, Q4 : -0.00213733501732}
2019-04-14 17:27:21.81: SIM {TimeUS : 53435284, Roll : 0.02, Pitch : -0.02, Yaw : 359.75, Alt : 48.8499984741, Lat : 49.2835704, Lng : -123.1150207, Q1 : 0.999997615814, Q2 : 0.00021734382608, Q3 : -0.000228255070397, Q4 : -0.00216414523311}
2019-04-14 17:27:21.91: SIM {TimeUS : 53535244, Roll : 0.0, Pitch : -0.01, Yaw : 359.74, Alt : 48.9099998474, Lat : 49.2835704, Lng : -123.1150207, Q1 : 0.999997615814, Q2 : 7.06555365468e-05, Q3 : -0.00017295993166, Q4 : -0.00219082972035}
2019-04-14 17:27:22.01: SIM {TimeUS : 53635204, Roll : 0.0, Pitch : 0.0, Yaw : 359.74, Alt : 48.9500007629, Lat : 49.2835704, Lng : -123.1150207, Q1 : 0.99999755621, Q2 : 2.5264953365e-05, Q3 : -6.34902607999e-05, Q4 : -0.002215602668}
2019-04-14 17:27:22.11: SIM {TimeUS : 53735164, Roll : 0.07, Pitch : -0.02, Yaw : 359.74, Alt : 49.0, Lat : 49.2835704, Lng : -123.1150207, Q1 : 0.999997258186, Q2 : 0.000670486770105, Q3 : -0.000262882414972, Q4 : -0.0022406890057}
2019-04-14 17:27:22.21: SIM {TimeUS : 53835124, Roll : 0.3, Pitch : -0.19, Yaw : 359.73, Alt : 49.0299987793, Lat : 49.2835704, Lng : -123.1150207, Q1 : 0.999992370605, Q2 : 0.00267180288211, Q3 : -0.00172055221628, Q4 : -0.00226722843945}
2019-04-14 17:27:22.31: SIM {TimeUS : 53935084, Roll : 0.73, Pitch : -0.57, Yaw : 359.73, Alt : 49.0600013733, Lat : 49.2835704, Lng : -123.1150207, Q1 : 0.999964118004, Q2 : 0.00639627734199, Q3 : -0.00505394628271, Q4 : -0.00229578046128}
2019-04-14 17:27:22.41: SIM {TimeUS : 54035044, Roll : 1.32, Pitch : -1.14, Yaw : 359.72, Alt : 49.0900001526, Lat : 49.2835704, Lng : -123.1150207, Q1 : 0.99988090992, Q2 : 0.0115047115833, Q3 : -0.0100231440738, Q4 : -0.00231959903613}
2019-04-14 17:27:22.51: SIM {TimeUS : 54135004, Roll : 2.01, Pitch : -1.85, Yaw : 359.7, Alt : 49.1100006104, Lat : 49.2835704, Lng : -123.1150206, Q1 : 0.999711871147, Q2 : 0.0175449326634, Q3 : -0.0162182599306, Q4 : -0.00231676967815}
2019-04-14 17:27:22.61: SIM {TimeUS : 54234964, Roll : 2.75, Pitch : -2.6, Yaw : 359.67, Alt : 49.1300010681, Lat : 49.2835706, Lng : -123.1150205, Q1 : 0.999450862408, Q2 : 0.0239872355014, Q3 : -0.0227493718266, Q4 : -0.00225575082004}
2019-04-14 17:27:22.71: SIM {TimeUS : 54334924, Roll : 3.43, Pitch : -3.23, Yaw : 359.66, Alt : 49.1500015259, Lat : 49.2835707, Lng : -123.1150204, Q1 : 0.999149978161, Q2 : 0.0298686865717, Q3 : -0.0283329039812, Q4 : -0.00210928870365}
2019-04-14 17:27:22.81: SIM {TimeUS : 54434884, Roll : 3.96, Pitch : -3.73, Yaw : 359.65, Alt : 49.1699981689, Lat : 49.2835708, Lng : -123.1150202, Q1 : 0.998869776726, Q2 : 0.0344815216959, Q3 : -0.0326604098082, Q4 : -0.00188439211342}
2019-04-14 17:27:22.91: SIM {TimeUS : 54534844, Roll : 4.34, Pitch : -4.08, Yaw : 359.66, Alt : 49.1800003052, Lat : 49.2835709, Lng : -123.11502, Q1 : 0.998644769192, Q2 : 0.0378208234906, Q3 : -0.0357168838382, Q4 : -0.0016069302801}
2019-04-14 17:27:23.01: SIM {TimeUS : 54634804, Roll : 4.63, Pitch : -4.34, Yaw : 359.67, Alt : 49.1899986267, Lat : 49.2835712, Lng : -123.1150196, Q1 : 0.998464584351, Q2 : 0.0402918644249, Q3 : -0.0379918068647, Q4 : -0.00130313134287}
2019-04-14 17:27:23.11: SIM {TimeUS : 54734764, Roll : 4.87, Pitch : -4.59, Yaw : 359.69, Alt : 49.2000007629, Lat : 49.2835715, Lng : -123.1150192, Q1 : 0.998294353485, Q2 : 0.0423722043633, Q3 : -0.040150064975, Q4 : -0.000995933660306}
2019-04-14 17:27:23.21: SIM {TimeUS : 54834724, Roll : 5.12, Pitch : -4.84, Yaw : 359.7, Alt : 49.2099990845, Lat : 49.2835719, Lng : -123.1150186, Q1 : 0.998105883598, Q2 : 0.0445865914226, Q3 : -0.0423819385469, Q4 : -0.000687736319378}
2019-04-14 17:27:23.31: SIM {TimeUS : 54934684, Roll : 5.42, Pitch : -5.12, Yaw : 359.71, Alt : 49.2200012207, Lat : 49.2835721, Lng : -123.115018, Q1 : 0.997883617878, Q2 : 0.0471583530307, Q3 : -0.0447678789496, Q4 : -0.000378161814297}
2019-04-14 17:27:23.41: SIM {TimeUS : 55034644, Roll : 5.69, Pitch : -5.36, Yaw : 359.72, Alt : 49.2200012207, Lat : 49.2835727, Lng : -123.1150173, Q1 : 0.997676789761, Q2 : 0.0494732446969, Q3 : -0.0468346104026, Q4 : -8.76530830283e-05}
2019-04-14 17:27:23.51: SIM {TimeUS : 55134604, Roll : 5.89, Pitch : -5.54, Yaw : 359.73, Alt : 49.2299995422, Lat : 49.2835732, Lng : -123.1150165, Q1 : 0.997511684895, Q2 : 0.0512334816158, Q3 : -0.0484311804175, Q4 : 0.000174866247107}
2019-04-14 17:27:23.61: SIM {TimeUS : 55235397, Roll : 6.03, Pitch : -5.68, Yaw : 359.74, Alt : 49.2400016785, Lat : 49.2835737, Lng : -123.1150156, Q1 : 0.997389912605, Q2 : 0.0524501539767, Q3 : -0.0496203005314, Q4 : 0.000374747440219}
2019-04-14 17:27:23.71: SIM {TimeUS : 55335357, Roll : 6.13, Pitch : -5.77, Yaw : 359.74, Alt : 49.2400016785, Lat : 49.2835743, Lng : -123.1150147, Q1 : 0.997304081917, Q2 : 0.053331349045, Q3 : -0.0503992773592, Q4 : 0.000516083382536}
2019-04-14 17:27:23.81: SIM {TimeUS : 55435317, Roll : 6.21, Pitch : -5.84, Yaw : 359.75, Alt : 49.25, Lat : 49.2835749, Lng : -123.1150136, Q1 : 0.997235774994, Q2 : 0.0540193766356, Q3 : -0.0510131083429, Q4 : 0.000597508915234}
2019-04-14 17:27:23.91: SIM {TimeUS : 55535277, Roll : 6.31, Pitch : -5.93, Yaw : 359.74, Alt : 49.25, Lat : 49.2835756, Lng : -123.1150125, Q1 : 0.997145354748, Q2 : 0.0549094453454, Q3 : -0.0518246032298, Q4 : 0.000638620811515}
2019-04-14 17:27:24.01: SIM {TimeUS : 55635237, Roll : 6.61, Pitch : -5.95, Yaw : 359.86, Alt : 49.25, Lat : 49.2835763, Lng : -123.1150113, Q1 : 0.996988832951, Q2 : 0.0575784556568, Q3 : -0.0519092045724, Q4 : 0.00184861710295}
2019-04-14 17:27:24.11: SIM {TimeUS : 55735197, Roll : 7.2, Pitch : -5.85, Yaw : 0.64, Alt : 49.2599983215, Lat : 49.283577, Lng : -123.11501, Q1 : 0.99668943882, Q2 : 0.0630044415593, Q3 : -0.0506225265563, Q4 : 0.0088337501511}
2019-04-14 17:27:24.21: SIM {TimeUS : 55835157, Roll : 7.86, Pitch : -5.85, Yaw : 2.74, Alt : 49.2599983215, Lat : 49.2835779, Lng : -123.1150087, Q1 : 0.995975017548, Q2 : 0.0696602463722, Q3 : -0.0493030063808, Q4 : 0.0273959189653}
2019-04-14 17:27:24.31: SIM {TimeUS : 55935117, Roll : 8.27, Pitch : -6.23, Yaw : 6.44, Alt : 49.2599983215, Lat : 49.2835788, Lng : -123.1150072, Q1 : 0.994123995304, Q2 : 0.0749562680721, Q3 : -0.0500823445618, Q4 : 0.0599233359098}
2019-04-14 17:27:24.41: SIM {TimeUS : 56035077, Roll : 8.19, Pitch : -7.05, Yaw : 11.64, Alt : 49.2599983215, Lat : 49.2835795, Lng : -123.1150056, Q1 : 0.989969551563, Q2 : 0.0771611556411, Q3 : -0.0538277588785, Q4 : 0.105399534106}
2019-04-14 17:27:24.51: SIM {TimeUS : 56135037, Roll : 7.48, Pitch : -8.26, Yaw : 18.11, Alt : 49.2599983215, Lat : 49.2835805, Lng : -123.115004, Q1 : 0.982121646404, Q2 : 0.0755935758352, Q3 : -0.0607377514243, Q4 : 0.161349445581}
2019-04-14 17:27:24.61: SIM {TimeUS : 56234997, Roll : 6.11, Pitch : -9.66, Yaw : 25.59, Alt : 49.2700004578, Lat : 49.2835813, Lng : -123.1150021, Q1 : 0.969302892685, Q2 : 0.070504784584, Q3 : -0.070275388658, Q4 : 0.22481611371}
2019-04-14 17:27:24.71: SIM {TimeUS : 56334957, Roll : 4.03, Pitch : -11.04, Yaw : 33.79, Alt : 49.2700004578, Lat : 49.2835824, Lng : -123.1150002, Q1 : 0.95081871748, Q2 : 0.0614597499371, Q3 : -0.0818433463573, Q4 : 0.292349457741}
2019-04-14 17:27:24.81: SIM {TimeUS : 56434917, Roll : 1.14, Pitch : -12.11, Yaw : 42.09, Alt : 49.2700004578, Lat : 49.2835834, Lng : -123.1149981, Q1 : 0.927630603313, Q2 : 0.0472045987844, Q3 : -0.0949038341641, Q4 : 0.358143091202}
2019-04-14 17:27:24.91: SIM {TimeUS : 56534877, Roll : -2.07, Pitch : -12.69, Yaw : 49.64, Alt : 49.2700004578, Lat : 49.2835843, Lng : -123.1149961, Q1 : 0.90275144577, Q2 : 0.0300446841866, Q3 : -0.107931643724, Q4 : 0.415316641331}
2019-04-14 17:27:25.01: SIM {TimeUS : 56634837, Roll : -4.96, Pitch : -12.81, Yaw : 55.63, Alt : 49.2700004578, Lat : 49.2835855, Lng : -123.114994, Q1 : 0.880328536034, Q2 : 0.0139399440959, Q3 : -0.118696518242, Q4 : 0.459062635899}
2019-04-14 17:27:25.11: SIM {TimeUS : 56734797, Roll : -6.96, Pitch : -12.68, Yaw : 59.66, Alt : 49.2700004578, Lat : 49.2835867, Lng : -123.1149918, Q1 : 0.863926589489, Q2 : 0.00249856058508, Q3 : -0.125657975674, Q4 : 0.487682968378}
2019-04-14 17:27:25.21: SIM {TimeUS : 56834757, Roll : -7.87, Pitch : -12.55, Yaw : 61.71, Alt : 49.2700004578, Lat : 49.2835881, Lng : -123.1149895, Q1 : 0.855140566826, Q2 : -0.00265166792087, Q3 : -0.128668099642, Q4 : 0.502167463303}
2019-04-14 17:27:25.31: SIM {TimeUS : 56934717, Roll : -7.8, Pitch : -12.59, Yaw : 62.05, Alt : 49.2700004578, Lat : 49.2835896, Lng : -123.1149873, Q1 : 0.853640437126, Q2 : -0.00155496003572, Q3 : -0.128636434674, Q4 : 0.50472599268}
2019-04-14 17:27:25.41: SIM {TimeUS : 57034677, Roll : -6.94, Pitch : -12.88, Yaw : 61.02, Alt : 49.2700004578, Lat : 49.2835911, Lng : -123.114985, Q1 : 0.857937812805, Q2 : 0.00501994742081, Q3 : -0.127031356096, Q4 : 0.497775584459}
2019-04-14 17:27:25.51: SIM {TimeUS : 57134637, Roll : -5.54, Pitch : -13.4, Yaw : 59.0, Alt : 49.2700004578, Lat : 49.2835928, Lng : -123.1149827, Q1 : 0.866168439388, Q2 : 0.015607769601, Q3 : -0.125130549073, Q4 : 0.483581393957}
2019-04-14 17:27:25.61: SIM {TimeUS : 57234597, Roll : -3.83, Pitch : -14.05, Yaw : 56.29, Alt : 49.2700004578, Lat : 49.2835946, Lng : -123.1149803, Q1 : 0.876561999321, Q2 : 0.0283774193376, Q3 : -0.123532347381, Q4 : 0.464299023151}
2019-04-14 17:27:25.71: SIM {TimeUS : 57335390, Roll : -2.0, Pitch : -14.72, Yaw : 53.18, Alt : 49.2799987793, Lat : 49.2835964, Lng : -123.1149778, Q1 : 0.887701094151, Q2 : 0.0418045781553, Q3 : -0.122339978814, Q4 : 0.441896021366}
2019-04-14 17:27:25.81: SIM {TimeUS : 57435350, Roll : -0.26, Pitch : -15.26, Yaw : 50.05, Alt : 49.2799987793, Lat : 49.2835982, Lng : -123.1149753, Q1 : 0.89819586277, Q2 : 0.0541415736079, Q3 : -0.121333964169, Q4 : 0.419035822153}
2019-04-14 17:27:25.91: SIM {TimeUS : 57535310, Roll : 1.26, Pitch : -15.62, Yaw : 47.2, Alt : 49.2799987793, Lat : 49.2836, Lng : -123.1149725, Q1 : 0.907206773758, Q2 : 0.0643928721547, Q3 : -0.12015055865, Q4 : 0.397986650467}
2019-04-14 17:27:26.01: SIM {TimeUS : 57635270, Roll : 2.43, Pitch : -15.77, Yaw : 44.89, Alt : 49.2799987793, Lat : 49.2836019, Lng : -123.1149698, Q1 : 0.914173126221, Q2 : 0.0717978999019, Q3 : -0.118757896125, Q4 : 0.380826920271}
2019-04-14 17:27:26.11: SIM {TimeUS : 57735230, Roll : 3.16, Pitch : -15.77, Yaw : 43.3, Alt : 49.2799987793, Lat : 49.2836037, Lng : -123.1149669, Q1 : 0.918881952763, Q2 : 0.0760689377785, Q3 : -0.117427185178, Q4 : 0.36889064312}
2019-04-14 17:27:26.21: SIM {TimeUS : 57835190, Roll : 3.46, Pitch : -15.72, Yaw : 42.49, Alt : 49.2799987793, Lat : 49.2836057, Lng : -123.1149639, Q1 : 0.92134219408, Q2 : 0.0774762928486, Q3 : -0.116607040167, Q4 : 0.362668961287}
2019-04-14 17:27:26.31: SIM {TimeUS : 57935150, Roll : 3.35, Pitch : -15.7, Yaw : 42.4, Alt : 49.2799987793, Lat : 49.2836077, Lng : -123.1149607, Q1 : 0.921718478203, Q2 : 0.0764353722334, Q3 : -0.116857245564, Q4 : 0.361852347851}
2019-04-14 17:27:26.41: SIM {TimeUS : 58035110, Roll : 2.89, Pitch : -15.75, Yaw : 42.92, Alt : 49.2799987793, Lat : 49.2836097, Lng : -123.1149575, Q1 : 0.920304358006, Q2 : 0.0734696090221, Q3 : -0.11837451905, Q4 : 0.365553826094}
2019-04-14 17:27:26.51: SIM {TimeUS : 58135070, Roll : 2.18, Pitch : -15.87, Yaw : 43.89, Alt : 49.2799987793, Lat : 49.2836116, Lng : -123.1149541, Q1 : 0.917494833469, Q2 : 0.069134786725, Q3 : -0.121002860367, Q4 : 0.372534483671}
2019-04-14 17:27:26.61: SIM {TimeUS : 58235030, Roll : 1.34, Pitch : -16.0, Yaw : 45.12, Alt : 49.2799987793, Lat : 49.2836136, Lng : -123.1149507, Q1 : 0.913772404194, Q2 : 0.0641332417727, Q3 : -0.124114051461, Q4 : 0.381448030472}
2019-04-14 17:27:26.71: SIM {TimeUS : 58334990, Roll : 0.5, Pitch : -16.12, Yaw : 46.44, Alt : 49.2799987793, Lat : 49.2836158, Lng : -123.1149472, Q1 : 0.909633100033, Q2 : 0.0593097545207, Q3 : -0.127197369933, Q4 : 0.39098700881}
2019-04-14 17:27:26.81: SIM {TimeUS : 58434950, Roll : -0.26, Pitch : -16.23, Yaw : 47.69, Alt : 49.2799987793, Lat : 49.2836178, Lng : -123.1149436, Q1 : 0.905593514442, Q2 : 0.0549929477274, Q3 : -0.130031302571, Q4 : 0.399960041046}
2019-04-14 17:27:26.91: SIM {TimeUS : 58534910, Roll : -0.85, Pitch : -16.3, Yaw : 48.74, Alt : 49.2799987793, Lat : 49.28362, Lng : -123.11494, Q1 : 0.902084171772, Q2 : 0.0517666265368, Q3 : -0.132260426879, Q4 : 0.407518774271}
2019-04-14 17:27:27.01: SIM {TimeUS : 58634870, Roll : -1.23, Pitch : -16.34, Yaw : 49.51, Alt : 49.2799987793, Lat : 49.2836221, Lng : -123.1149363, Q1 : 0.899453639984, Q2 : 0.0498535037041, Q3 : -0.133527413011, Q4 : 0.413120120764}
2019-04-14 17:27:27.11: SIM {TimeUS : 58734830, Roll : -1.4, Pitch : -16.35, Yaw : 49.96, Alt : 49.2799987793, Lat : 49.2836244, Lng : -123.1149326, Q1 : 0.897871136665, Q2 : 0.0490900017321, Q3 : -0.134047463536, Q4 : 0.416471987963}
2019-04-14 17:27:27.21: SIM {TimeUS : 58834790, Roll : -1.4, Pitch : -16.38, Yaw : 50.11, Alt : 49.2799987793, Lat : 49.2836266, Lng : -123.1149289, Q1 : 0.897323131561, Q2 : 0.0493236854672, Q3 : -0.13419803977, Q4 : 0.417575478554}
2019-04-14 17:27:27.31: SIM {TimeUS : 58934750, Roll : -1.27, Pitch : -16.42, Yaw : 49.98, Alt : 49.2900009155, Lat : 49.2836288, Lng : -123.1149251, Q1 : 0.897684931755, Q2 : 0.0504093617201, Q3 : -0.134126424789, Q4 : 0.416690260172}
2019-04-14 17:27:27.41: SIM {TimeUS : 59034710, Roll : -1.02, Pitch : -16.49, Yaw : 49.64, Alt : 49.2900009155, Lat : 49.2836311, Lng : -123.1149213, Q1 : 0.898742735386, Q2 : 0.0521857440472, Q3 : -0.133924245834, Q4 : 0.414249300957}
2019-04-14 17:27:27.51: SIM {TimeUS : 59134670, Roll : -0.71, Pitch : -16.56, Yaw : 49.15, Alt : 49.2900009155, Lat : 49.2836335, Lng : -123.1149174, Q1 : 0.900266170502, Q2 : 0.0543087683618, Q3 : -0.133517250419, Q4 : 0.410785317421}
2019-04-14 17:27:27.61: SIM {TimeUS : 59234630, Roll : -0.36, Pitch : -16.61, Yaw : 48.6, Alt : 49.2900009155, Lat : 49.2836359, Lng : -123.1149135, Q1 : 0.901988327503, Q2 : 0.0565795600414, Q3 : -0.13301487267, Q4 : 0.406845092773}
2019-04-14 17:27:27.71: SIM {TimeUS : 59334590, Roll : -0.03, Pitch : -16.66, Yaw : 48.06, Alt : 49.2900009155, Lat : 49.2836383, Lng : -123.1149096, Q1 : 0.903679966927, Q2 : 0.0587533675134, Q3 : -0.132502809167, Q4 : 0.402931243181}
2019-04-14 17:27:27.81: SIM {TimeUS : 59435383, Roll : 0.25, Pitch : -16.7, Yaw : 47.58, Alt : 49.2900009155, Lat : 49.2836407, Lng : -123.1149056, Q1 : 0.905182242393, Q2 : 0.0606268681586, Q3 : -0.132001161575, Q4 : 0.399431109428}
2019-04-14 17:27:27.91: SIM {TimeUS : 59535343, Roll : 0.48, Pitch : -16.72, Yaw : 47.2, Alt : 49.2900009155, Lat : 49.2836432, Lng : -123.1149014, Q1 : 0.90635061264, Q2 : 0.0620402656496, Q3 : -0.131568670273, Q4 : 0.396697998047}
2019-04-14 17:27:28.01: SIM {TimeUS : 59635303, Roll : 0.62, Pitch : -16.74, Yaw : 46.95, Alt : 49.2900009155, Lat : 49.2836456, Lng : -123.1148975, Q1 : 0.907113969326, Q2 : 0.0629721879959, Q3 : -0.131413504481, Q4 : 0.394853562117}
2019-04-14 17:27:28.11: SIM {TimeUS : 59735263, Roll : 0.67, Pitch : -16.76, Yaw : 46.82, Alt : 49.2900009155, Lat : 49.283648, Lng : -123.1148934, Q1 : 0.907486498356, Q2 : 0.0632700100541, Q3 : -0.131506845355, Q4 : 0.393917679787}
2019-04-14 17:27:28.21: SIM {TimeUS : 59835223, Roll : 0.63, Pitch : -16.79, Yaw : 46.82, Alt : 49.2900009155, Lat : 49.2836505, Lng : -123.1148892, Q1 : 0.907498717308, Q2 : 0.0630559921265, Q3 : -0.131861567497, Q4 : 0.393805265427}
2019-04-14 17:27:28.31: SIM {TimeUS : 59935183, Roll : 0.52, Pitch : -16.83, Yaw : 46.91, Alt : 49.2900009155, Lat : 49.283653, Lng : -123.1148851, Q1 : 0.907207667828, Q2 : 0.0624373741448, Q3 : -0.132498860359, Q4 : 0.394360214472}
2019-04-14 17:27:28.41: SIM {TimeUS : 60035143, Roll : 0.37, Pitch : -16.89, Yaw : 47.06, Alt : 49.2900009155, Lat : 49.2836554, Lng : -123.1148808, Q1 : 0.906684100628, Q2 : 0.0616206377745, Q3 : -0.133370056748, Q4 : 0.395397603512}
2019-04-14 17:27:28.51: SIM {TimeUS : 60135103, Roll : 0.2, Pitch : -16.94, Yaw : 47.26, Alt : 49.2900009155, Lat : 49.2836579, Lng : -123.1148766, Q1 : 0.906043052673, Q2 : 0.0606423392892, Q3 : -0.134253427386, Q4 : 0.39671716094}
2019-04-14 17:27:28.61: SIM {TimeUS : 60235063, Roll : 0.03, Pitch : -16.97, Yaw : 47.46, Alt : 49.2999992371, Lat : 49.2836604, Lng : -123.1148722, Q1 : 0.905385136604, Q2 : 0.0596826635301, Q3 : -0.134959533811, Q4 : 0.398122668266}
2019-04-14 17:27:28.71: SIM {TimeUS : 60335023, Roll : -0.1, Pitch : -17.0, Yaw : 47.65, Alt : 49.2999992371, Lat : 49.2836631, Lng : -123.114868, Q1 : 0.904773771763, Q2 : 0.0588654093444, Q3 : -0.135618910193, Q4 : 0.39940816164}
2019-04-14 17:27:28.81: SIM {TimeUS : 60434983, Roll : -0.2, Pitch : -17.04, Yaw : 47.8, Alt : 49.2999992371, Lat : 49.2836656, Lng : -123.1148637, Q1 : 0.90425747633, Q2 : 0.0583974979818, Q3 : -0.136175364256, Q4 : 0.400455325842}
2019-04-14 17:27:28.91: SIM {TimeUS : 60534943, Roll : -0.25, Pitch : -17.07, Yaw : 47.9, Alt : 49.2999992371, Lat : 49.2836682, Lng : -123.1148594, Q1 : 0.903885245323, Q2 : 0.0582490973175, Q3 : -0.136593878269, Q4 : 0.401174098253}
2019-04-14 17:27:29.01: SIM {TimeUS : 60634903, Roll : -0.25, Pitch : -17.11, Yaw : 47.95, Alt : 49.2999992371, Lat : 49.2836707, Lng : -123.114855, Q1 : 0.903673231602, Q2 : 0.0584635622799, Q3 : -0.136851504445, Q4 : 0.401532500982}
2019-04-14 17:27:29.11: SIM {TimeUS : 60734863, Roll : -0.21, Pitch : -17.15, Yaw : 47.94, Alt : 49.2999992371, Lat : 49.2836734, Lng : -123.1148506, Q1 : 0.903628230095, Q2 : 0.0589133277535, Q3 : -0.136992484331, Q4 : 0.401520103216}
2019-04-14 17:27:29.21: SIM {TimeUS : 60834823, Roll : -0.16, Pitch : -17.18, Yaw : 47.89, Alt : 49.2999992371, Lat : 49.283676, Lng : -123.1148462, Q1 : 0.903740763664, Q2 : 0.0593643113971, Q3 : -0.137106910348, Q4 : 0.401161074638}
2019-04-14 17:27:29.31: SIM {TimeUS : 60934783, Roll : -0.11, Pitch : -17.2, Yaw : 47.81, Alt : 49.2999992371, Lat : 49.2836785, Lng : -123.1148418, Q1 : 0.903995752335, Q2 : 0.0596798174083, Q3 : -0.13714158535, Q4 : 0.40052741766}
2019-04-14 17:27:29.41: SIM {TimeUS : 61034743, Roll : -0.07, Pitch : -17.21, Yaw : 47.7, Alt : 49.2999992371, Lat : 49.2836811, Lng : -123.1148374, Q1 : 0.90432536602, Q2 : 0.0599300414324, Q3 : -0.137176841497, Q4 : 0.399733185768}
2019-04-14 17:27:29.51: SIM {TimeUS : 61134703, Roll : -0.01, Pitch : -17.23, Yaw : 47.59, Alt : 49.2999992371, Lat : 49.2836839, Lng : -123.1148329, Q1 : 0.90467441082, Q2 : 0.0603362694383, Q3 : -0.137121006846, Q4 : 0.398900419474}
2019-04-14 17:27:29.61: SIM {TimeUS : 61234663, Roll : 0.05, Pitch : -17.24, Yaw : 47.47, Alt : 49.3100013733, Lat : 49.2836865, Lng : -123.1148284, Q1 : 0.905003666878, Q2 : 0.0608256235719, Q3 : -0.137040182948, Q4 : 0.398106306791}
2019-04-14 17:27:29.71: SIM {TimeUS : 61334623, Roll : 0.13, Pitch : -17.27, Yaw : 47.38, Alt : 49.3100013733, Lat : 49.2836892, Lng : -123.114824, Q1 : 0.905260324478, Q2 : 0.0614509880543, Q3 : -0.137084513903, Q4 : 0.397410839796}
2019-04-14 17:27:29.81: SIM {TimeUS : 61434583, Roll : 0.2, Pitch : -17.33, Yaw : 47.3, Alt : 49.3100013733, Lat : 49.2836919, Lng : -123.1148195, Q1 : 0.905429780483, Q2 : 0.0620673112571, Q3 : -0.13734921813, Q4 : 0.396837174892}
2019-04-14 17:27:29.91: SIM {TimeUS : 61535376, Roll : 0.24, Pitch : -17.36, Yaw : 47.24, Alt : 49.3100013733, Lat : 49.2836945, Lng : -123.1148149, Q1 : 0.905572891235, Q2 : 0.0623925700784, Q3 : -0.137471437454, Q4 : 0.396417081356}
2019-04-14 17:27:30.01: SIM {TimeUS : 61635336, Roll : 0.25, Pitch : -17.35, Yaw : 47.21, Alt : 49.3100013733, Lat : 49.2836973, Lng : -123.1148104, Q1 : 0.905693411827, Q2 : 0.0624067224562, Q3 : -0.137386590242, Q4 : 0.396168887615}
2019-04-14 17:27:30.11: SIM {TimeUS : 61735296, Roll : 0.22, Pitch : -17.35, Yaw : 47.2, Alt : 49.3100013733, Lat : 49.2836999, Lng : -123.1148058, Q1 : 0.905744433403, Q2 : 0.0622056163847, Q3 : -0.137506097555, Q4 : 0.396042406559}
2019-04-14 17:27:30.21: SIM {TimeUS : 61835256, Roll : 0.18, Pitch : -17.38, Yaw : 47.2, Alt : 49.3100013733, Lat : 49.2837027, Lng : -123.1148011, Q1 : 0.905714452267, Q2 : 0.0619801543653, Q3 : -0.137862160802, Q4 : 0.39602252841}
2019-04-14 17:27:30.31: SIM {TimeUS : 61935216, Roll : 0.15, Pitch : -17.41, Yaw : 47.22, Alt : 49.3100013733, Lat : 49.2837054, Lng : -123.1147967, Q1 : 0.905638456345, Q2 : 0.0618316754699, Q3 : -0.138218671083, Q4 : 0.396095275879}
2019-04-14 17:27:30.41: SIM {TimeUS : 62035176, Roll : 0.12, Pitch : -17.45, Yaw : 47.24, Alt : 49.3100013733, Lat : 49.2837082, Lng : -123.1147921, Q1 : 0.905527055264, Q2 : 0.0617575645447, Q3 : -0.138571456075, Q4 : 0.396238237619}
2019-04-14 17:27:30.51: SIM {TimeUS : 62135136, Roll : 0.1, Pitch : -17.48, Yaw : 47.27, Alt : 49.3100013733, Lat : 49.2837108, Lng : -123.1147874, Q1 : 0.905411064625, Q2 : 0.0617258660495, Q3 : -0.138853937387, Q4 : 0.39640930295}
2019-04-14 17:27:30.61: SIM {TimeUS : 62235096, Roll : 0.08, Pitch : -17.51, Yaw : 47.29, Alt : 49.3100013733, Lat : 49.2837137, Lng : -123.1147828, Q1 : 0.905299007893, Q2 : 0.0617542937398, Q3 : -0.139124423265, Q4 : 0.396565884352}
2019-04-14 17:27:30.71: SIM {TimeUS : 62335056, Roll : 0.08, Pitch : -17.52, Yaw : 47.31, Alt : 49.3100013733, Lat : 49.2837163, Lng : -123.1147782, Q1 : 0.905223369598, Q2 : 0.0617930293083, Q3 : -0.139271661639, Q4 : 0.396680802107}
2019-04-14 17:27:30.81: SIM {TimeUS : 62435016, Roll : 0.08, Pitch : -17.55, Yaw : 47.32, Alt : 49.3199996948, Lat : 49.2837192, Lng : -123.1147735, Q1 : 0.905165493488, Q2 : 0.0619453899562, Q3 : -0.139456748962, Q4 : 0.396724075079}
2019-04-14 17:27:30.91: SIM {TimeUS : 62534976, Roll : 0.1, Pitch : -17.58, Yaw : 47.31, Alt : 49.3199996948, Lat : 49.283722, Lng : -123.1147689, Q1 : 0.905145466328, Q2 : 0.0621261708438, Q3 : -0.1396304667, Q4 : 0.396680504084}
2019-04-14 17:27:31.01: SIM {TimeUS : 62634936, Roll : 0.1, Pitch : -17.61, Yaw : 47.29, Alt : 49.3199996948, Lat : 49.2837247, Lng : -123.1147642, Q1 : 0.905160665512, Q2 : 0.0622318796813, Q3 : -0.139885827899, Q4 : 0.396539181471}
2019-04-14 17:27:31.11: SIM {TimeUS : 62734896, Roll : 0.08, Pitch : -17.65, Yaw : 47.27, Alt : 49.3199996948, Lat : 49.2837275, Lng : -123.1147595, Q1 : 0.905205011368, Q2 : 0.0622026994824, Q3 : -0.140295043588, Q4 : 0.396297961473}
2019-04-14 17:27:31.21: SIM {TimeUS : 62834856, Roll : 0.07, Pitch : -17.69, Yaw : 47.24, Alt : 49.3199996948, Lat : 49.2837302, Lng : -123.1147549, Q1 : 0.905263245106, Q2 : 0.062238946557, Q3 : -0.140680000186, Q4 : 0.396022617817}
2019-04-14 17:27:31.31: SIM {TimeUS : 62934816, Roll : 0.09, Pitch : -17.72, Yaw : 47.2, Alt : 49.3199996948, Lat : 49.2837331, Lng : -123.1147502, Q1 : 0.905332863331, Q2 : 0.0624681524932, Q3 : -0.140864372253, Q4 : 0.395761758089}
2019-04-14 17:27:31.41: SIM {TimeUS : 63034776, Roll : 0.12, Pitch : -17.72, Yaw : 47.17, Alt : 49.3199996948, Lat : 49.2837358, Lng : -123.1147454, Q1 : 0.905435621738, Q2 : 0.0626749545336, Q3 : -0.140784516931, Q4 : 0.395522385836}
2019-04-14 17:27:31.51: SIM {TimeUS : 63134736, Roll : 0.15, Pitch : -17.71, Yaw : 47.14, Alt : 49.3199996948, Lat : 49.2837387, Lng : -123.1147407, Q1 : 0.905557155609, Q2 : 0.0628093853593, Q3 : -0.140550971031, Q4 : 0.395305812359}
2019-04-14 17:27:31.61: SIM {TimeUS : 63234696, Roll : 0.16, Pitch : -17.69, Yaw : 47.11, Alt : 49.3199996948, Lat : 49.2837415, Lng : -123.114736, Q1 : 0.90567523241, Q2 : 0.0627846568823, Q3 : -0.140384539962, Q4 : 0.395098179579}
2019-04-14 17:27:31.71: SIM {TimeUS : 63334656, Roll : 0.17, Pitch : -17.67, Yaw : 47.08, Alt : 49.3199996948, Lat : 49.2837443, Lng : -123.1147312, Q1 : 0.90578275919, Q2 : 0.0627321004868, Q3 : -0.140252023935, Q4 : 0.394907206297}
2019-04-14 17:27:31.81: SIM {TimeUS : 63434616, Roll : 0.17, Pitch : -17.66, Yaw : 47.06, Alt : 49.3199996948, Lat : 49.2837472, Lng : -123.1147265, Q1 : 0.905867874622, Q2 : 0.0626953691244, Q3 : -0.140129804611, Q4 : 0.394761115313}
2019-04-14 17:27:31.91: SIM {TimeUS : 63534576, Roll : 0.17, Pitch : -17.67, Yaw : 47.05, Alt : 49.3199996948, Lat : 49.28375, Lng : -123.1147217, Q1 : 0.905907034874, Q2 : 0.0627185478806, Q3 : -0.140235736966, Q4 : 0.394630014896}
2019-04-14 17:27:32.01: SIM {TimeUS : 63635369, Roll : 0.18, Pitch : -17.69, Yaw : 47.03, Alt : 49.3199996948, Lat : 49.2837528, Lng : -123.1147169, Q1 : 0.905919373035, Q2 : 0.0628176927567, Q3 : -0.140415102243, Q4 : 0.394522041082}
2019-04-14 17:27:32.11: SIM {TimeUS : 63735329, Roll : 0.16, Pitch : -17.73, Yaw : 47.02, Alt : 49.3199996948, Lat : 49.2837557, Lng : -123.1147121, Q1 : 0.905910670757, Q2 : 0.0628267005086, Q3 : -0.140765085816, Q4 : 0.39441588521}
2019-04-14 17:27:32.21: SIM {TimeUS : 63835289, Roll : 0.15, Pitch : -17.78, Yaw : 47.02, Alt : 49.3300018311, Lat : 49.2837586, Lng : -123.1147074, Q1 : 0.905868172646, Q2 : 0.0628975182772, Q3 : -0.141252815723, Q4 : 0.394327819347}
2019-04-14 17:27:32.31: SIM {TimeUS : 63935249, Roll : 0.15, Pitch : -17.82, Yaw : 47.01, Alt : 49.3300018311, Lat : 49.2837613, Lng : -123.1147026, Q1 : 0.905834794044, Q2 : 0.0630175545812, Q3 : -0.141539052129, Q4 : 0.394282698631}
2019-04-14 17:27:32.41: SIM {TimeUS : 64035209, Roll : 0.14, Pitch : -17.85, Yaw : 47.01, Alt : 49.3300018311, Lat : 49.2837642, Lng : -123.1146977, Q1 : 0.905808806419, Q2 : 0.0630729869008, Q3 : -0.14179739356, Q4 : 0.394240617752}
2019-04-14 17:27:32.51: SIM {TimeUS : 64135169, Roll : 0.13, Pitch : -17.87, Yaw : 47.01, Alt : 49.3300018311, Lat : 49.2837671, Lng : -123.114693, Q1 : 0.90580457449, Q2 : 0.0630509927869, Q3 : -0.141967058182, Q4 : 0.394192904234}
2019-04-14 17:27:32.61: SIM {TimeUS : 64235129, Roll : 0.14, Pitch : -17.86, Yaw : 47.0, Alt : 49.3300018311, Lat : 49.2837699, Lng : -123.1146881, Q1 : 0.905827403069, Q2 : 0.0630888789892, Q3 : -0.141882553697, Q4 : 0.394164830446}
2019-04-14 17:27:32.71: SIM {TimeUS : 64335089, Roll : 0.16, Pitch : -17.87, Yaw : 47.0, Alt : 49.3300018311, Lat : 49.2837728, Lng : -123.1146833, Q1 : 0.905835688114, Q2 : 0.0632394850254, Q3 : -0.14189890027, Q4 : 0.394115746021}
2019-04-14 17:27:32.81: SIM {TimeUS : 64435049, Roll : 0.17, Pitch : -17.89, Yaw : 46.99, Alt : 49.3300018311, Lat : 49.2837758, Lng : -123.1146785, Q1 : 0.905833303928, Q2 : 0.0633751600981, Q3 : -0.142055422068, Q4 : 0.394043028355}
2019-04-14 17:27:32.91: SIM {TimeUS : 64535009, Roll : 0.17, Pitch : -17.91, Yaw : 46.98, Alt : 49.3300018311, Lat : 49.2837786, Lng : -123.1146737, Q1 : 0.90584564209, Q2 : 0.0634394660592, Q3 : -0.142169222236, Q4 : 0.393963307142}
2019-04-14 17:27:33.01: SIM {TimeUS : 64634969, Roll : 0.17, Pitch : -17.9, Yaw : 46.96, Alt : 49.3300018311, Lat : 49.2837814, Lng : -123.1146688, Q1 : 0.905896306038, Q2 : 0.0634374991059, Q3 : -0.142117157578, Q4 : 0.393865793943}
2019-04-14 17:27:33.11: SIM {TimeUS : 64734929, Roll : 0.17, Pitch : -17.9, Yaw : 46.95, Alt : 49.3300018311, Lat : 49.2837843, Lng : -123.114664, Q1 : 0.90595304966, Q2 : 0.0634015798569, Q3 : -0.142101600766, Q4 : 0.393746733665}
2019-04-14 17:27:33.21: SIM {TimeUS : 64834889, Roll : 0.16, Pitch : -17.91, Yaw : 46.93, Alt : 49.3300018311, Lat : 49.2837873, Lng : -123.1146592, Q1 : 0.90599912405, Q2 : 0.0633199810982, Q3 : -0.14226603508, Q4 : 0.393594443798}
2019-04-14 17:27:33.31: SIM {TimeUS : 64934849, Roll : 0.14, Pitch : -17.95, Yaw : 46.92, Alt : 49.3300018311, Lat : 49.2837902, Lng : -123.1146543, Q1 : 0.906027317047, Q2 : 0.0632273033261, Q3 : -0.142633169889, Q4 : 0.393411487341}
2019-04-14 17:27:33.41: SIM {TimeUS : 65034809, Roll : 0.13, Pitch : -17.96, Yaw : 46.9, Alt : 49.3300018311, Lat : 49.283793, Lng : -123.1146494, Q1 : 0.906077802181, Q2 : 0.0631721839309, Q3 : -0.142755746841, Q4 : 0.393259584904}
2019-04-14 17:27:33.51: SIM {TimeUS : 65134769, Roll : 0.14, Pitch : -17.95, Yaw : 46.88, Alt : 49.3300018311, Lat : 49.2837959, Lng : -123.1146446, Q1 : 0.906138539314, Q2 : 0.0632095262408, Q3 : -0.1426743716, Q4 : 0.393143236637}
2019-04-14 17:27:33.61: SIM {TimeUS : 65234729, Roll : 0.16, Pitch : -17.94, Yaw : 46.86, Alt : 49.3300018311, Lat : 49.2837989, Lng : -123.1146397, Q1 : 0.906191408634, Q2 : 0.063329666853, Q3 : -0.14255964756, Q4 : 0.393043577671}
2019-04-14 17:27:33.71: SIM {TimeUS : 65334689, Roll : 0.17, Pitch : -17.95, Yaw : 46.85, Alt : 49.3300018311, Lat : 49.2838018, Lng : -123.1146348, Q1 : 0.906225562096, Q2 : 0.0634582042694, Q3 : -0.14257799089, Q4 : 0.392937481403}
2019-04-14 17:27:33.81: SIM {TimeUS : 65434649, Roll : 0.17, Pitch : -17.97, Yaw : 46.84, Alt : 49.3400001526, Lat : 49.2838047, Lng : -123.11463, Q1 : 0.90624755621, Q2 : 0.0634512156248, Q3 : -0.142786219716, Q4 : 0.392812281847}
2019-04-14 17:27:33.91: SIM {TimeUS : 65534609, Roll : 0.14, Pitch : -17.99, Yaw : 46.83, Alt : 49.3400001526, Lat : 49.2838076, Lng : -123.1146251, Q1 : 0.906273007393, Q2 : 0.0633144900203, Q3 : -0.143044859171, Q4 : 0.392681479454}
2019-04-14 17:27:34.01: SIM {TimeUS : 65635402, Roll : 0.13, Pitch : -18.01, Yaw : 46.82, Alt : 49.3400001526, Lat : 49.2838105, Lng : -123.1146201, Q1 : 0.906289577484, Q2 : 0.0632570758462, Q3 : -0.143255844712, Q4 : 0.392575442791}
2019-04-14 17:27:34.11: SIM {TimeUS : 65735362, Roll : 0.13, Pitch : -18.03, Yaw : 46.8, Alt : 49.3400001526, Lat : 49.2838135, Lng : -123.1146153, Q1 : 0.906299829483, Q2 : 0.0633415281773, Q3 : -0.143401652575, Q4 : 0.392484992743}
2019-04-14 17:27:34.21: SIM {TimeUS : 65835322, Roll : 0.14, Pitch : -18.05, Yaw : 46.79, Alt : 49.3400001526, Lat : 49.2838164, Lng : -123.1146104, Q1 : 0.906309068203, Q2 : 0.0634639263153, Q3 : -0.143489822745, Q4 : 0.392411679029}
2019-04-14 17:27:34.31: SIM {TimeUS : 65935282, Roll : 0.16, Pitch : -18.05, Yaw : 46.79, Alt : 49.3400001526, Lat : 49.2838194, Lng : -123.1146055, Q1 : 0.906313955784, Q2 : 0.0636615231633, Q3 : -0.14346203208, Q4 : 0.392378568649}
2019-04-14 17:27:34.41: SIM {TimeUS : 66035242, Roll : 0.18, Pitch : -18.07, Yaw : 46.78, Alt : 49.3400001526, Lat : 49.2838223, Lng : -123.1146006, Q1 : 0.906310856342, Q2 : 0.0638148784637, Q3 : -0.143499404192, Q4 : 0.392347097397}
2019-04-14 17:27:34.51: SIM {TimeUS : 66135202, Roll : 0.19, Pitch : -18.08, Yaw : 46.78, Alt : 49.3400001526, Lat : 49.2838251, Lng : -123.1145957, Q1 : 0.906306684017, Q2 : 0.0639668703079, Q3 : -0.143547922373, Q4 : 0.392314225435}
2019-04-14 17:27:34.61: SIM {TimeUS : 66235162, Roll : 0.21, Pitch : -18.09, Yaw : 46.77, Alt : 49.3400001526, Lat : 49.2838281, Lng : -123.1145907, Q1 : 0.906299114227, Q2 : 0.0641407743096, Q3 : -0.143592655659, Q4 : 0.392286866903}
2019-04-14 17:27:34.71: SIM {TimeUS : 66335122, Roll : 0.24, Pitch : -18.1, Yaw : 46.77, Alt : 49.3400001526, Lat : 49.2838311, Lng : -123.1145859, Q1 : 0.906285405159, Q2 : 0.0643822625279, Q3 : -0.143608495593, Q4 : 0.392273336649}
2019-04-14 17:27:34.81: SIM {TimeUS : 66435082, Roll : 0.27, Pitch : -18.12, Yaw : 46.76, Alt : 49.3400001526, Lat : 49.2838341, Lng : -123.1145809, Q1 : 0.906261622906, Q2 : 0.0646654739976, Q3 : -0.143669888377, Q4 : 0.392259091139}
2019-04-14 17:27:34.91: SIM {TimeUS : 66535042, Roll : 0.26, Pitch : -18.12, Yaw : 46.76, Alt : 49.3400001526, Lat : 49.283837, Lng : -123.114576, Q1 : 0.906277418137, Q2 : 0.0646088123322, Q3 : -0.143698632717, Q4 : 0.392221480608}
