2019-04-14 17:41:32.60: SIM {TimeUS : 39815734, Roll : 0.0, Pitch : 0.0, Yaw : 0.0, Alt : 30.1000003815, Lat : 49.28357, Lng : -123.11502, Q1 : 1.0, Q2 : 0.0, Q3 : 0.0, Q4 : 0.0}
2019-04-14 17:41:32.71: SIM {TimeUS : 39934853, Roll : 0.0, Pitch : 0.0, Yaw : 0.0, Alt : 30.1000003815, Lat : 49.28357, Lng : -123.11502, Q1 : 1.0, Q2 : 0.0, Q3 : 0.0, Q4 : 0.0}
2019-04-14 17:41:32.81: SIM {TimeUS : 40034813, Roll : 0.0, Pitch : 0.0, Yaw : 0.0, Alt : 30.1000003815, Lat : 49.28357, Lng : -123.11502, Q1 : 1.0, Q2 : 0.0, Q3 : 0.0, Q4 : 0.0}
2019-04-14 17:41:32.91: SIM {TimeUS : 40134773, Roll : 0.0, Pitch : 0.0, Yaw : 0.0, Alt : 30.1000003815, Lat : 49.28357, Lng : -123.11502, Q1 : 1.0, Q2 : 0.0, Q3 : 0.0, Q4 : 0.0}
2019-04-14 17:41:33.01: SIM {TimeUS : 40234733, Roll : 0.0, Pitch : 0.0, Yaw : 0.0, Alt : 30.1000003815, Lat : 49.28357, Lng : -123.11502, Q1 : 1.0, Q2 : 0.0, Q3 : 0.0, Q4 : 0.0}
2019-04-14 17:41:33.11: SIM {TimeUS : 40334693, Roll : 0.0, Pitch : 0.0, Yaw : 0.0, Alt : 30.1000003815, Lat : 49.28357, Lng : -123.11502, Q1 : 1.0, Q2 : 0.0, Q3 : 0.0, Q4 : 0.0}
2019-04-14 17:41:33.21: SIM {TimeUS : 40434653, Roll : 0.0, Pitch : 0.0, Yaw : 0.0, Alt : 30.1000003815, Lat : 49.28357, Lng : -123.11502, Q1 : 1.0, Q2 : 0.0, Q3 : 0.0, Q4 : 0.0}
2019-04-14 17:41:33.31: SIM {TimeUS : 40534613, Roll : 0.0, Pitch : 0.0, Yaw : 0.0, Alt : 30.1000003815, Lat : 49.28357, Lng : -123.11502, Q1 : 1.0, Q2 : 0.0, Q3 : 0.0, Q4 : 0.0}
2019-04-14 17:41:33.41: SIM {TimeUS : 40634573, Roll : 0.0, Pitch : 0.0, Yaw : 0.0, Alt : 30.1000003815, Lat : 49.28357, Lng : -123.11502, Q1 : 1.0, Q2 : 0.0, Q3 : 0.0, Q4 : 0.0}
2019-04-14 17:41:33.51: SIM {TimeUS : 40734533, Roll : 0.0, Pitch : 0.0, Yaw : 0.0, Alt : 30.1000003815, Lat : 49.28357, Lng : -123.11502, Q1 : 1.0, Q2 : 0.0, Q3 : 0.0, Q4 : 0.0}
2019-04-14 17:41:33.61: SIM {TimeUS : 40834493, Roll : 0.0, Pitch : 0.0, Yaw : 0.0, Alt : 30.1000003815, Lat : 49.28357, Lng : -123.11502, Q1 : 1.0, Q2 : 0.0, Q3 : 0.0, Q4 : 0.0}
2019-04-14 17:41:33.71: SIM {TimeUS : 40934453, Roll : 0.0, Pitch : 0.0, Yaw : 0.0, Alt : 30.1000003815, Lat : 49.28357, Lng : -123.11502, Q1 : 1.0, Q2 : 0.0, Q3 : 0.0, Q4 : 0.0}
2019-04-14 17:41:33.81: SIM {TimeUS : 41034413, Roll : 0.0, Pitch : 0.0, Yaw : 0.0, Alt : 30.1000003815, Lat : 49.28357, Lng : -123.11502, Q1 : 1.0, Q2 : 0.0, Q3 : 0.0, Q4 : 0.0}
2019-04-14 17:41:33.91: SIM {TimeUS : 41134373, Roll : 0.0, Pitch : 0.0, Yaw : 0.0, Alt : 30.1000003815, Lat : 49.28357, Lng : -123.11502, Q1 : 1.0, Q2 : 0.0, Q3 : 0.0, Q4 : 0.0}
2019-04-14 17:41:34.01: SIM {TimeUS : 41234333, Roll : 0.0, Pitch : 0.0, Yaw : 0.0, Alt : 30.1000003815, Lat : 49.28357, Lng : -123.11502, Q1 : 1.0, Q2 : 0.0, Q3 : 0.0, Q4 : 0.0}
2019-04-14 17:41:34.11: SIM {TimeUS : 41334293, Roll : 0.0, Pitch : 0.0, Yaw : 0.0, Alt : 30.1000003815, Lat : 49.28357, Lng : -123.11502, Q1 : 1.0, Q2 : 0.0, Q3 : 0.0, Q4 : 0.0}
2019-04-14 17:41:34.21: SIM {TimeUS : 41434253, Roll : 0.0, Pitch : 0.0, Yaw : 0.0, Alt : 30.1000003815, Lat : 49.28357, Lng : -123.11502, Q1 : 1.0, Q2 : 0.0, Q3 : 0.0, Q4 : 0.0}
2019-04-14 17:41:34.31: SIM {TimeUS : 41534213, Roll : 0.0, Pitch : 0.0, Yaw : 0.0, Alt : 30.1000003815, Lat : 49.28357, Lng : -123.11502, Q1 : 1.0, Q2 : 0.0, Q3 : 0.0, Q4 : 0.0}
2019-04-14 17:41:34.41: SIM {TimeUS : 41634173, Roll : 0.0, Pitch : 0.0, Yaw : 0.0, Alt : 30.1000003815, Lat : 49.28357, Lng : -123.11502, Q1 : 1.0, Q2 : 0.0, Q3 : 0.0, Q4 : 0.0}
2019-04-14 17:41:34.51: SIM {TimeUS : 41734133, Roll : 0.0, Pitch : 0.0, Yaw : 0.0, Alt : 30.1000003815, Lat : 49.28357, Lng : -123.11502, Q1 : 1.0, Q2 : 0.0, Q3 : 0.0, Q4 : 0.0}
2019-04-14 17:41:34.61: SIM {TimeUS : 41834093, Roll : 0.0, Pitch : 0.0, Yaw : 0.0, Alt : 30.1000003815, Lat : 49.28357, Lng : -123.11502, Q1 : 1.0, Q2 : 0.0, Q3 : 0.0, Q4 : 0.0}
2019-04-14 17:41:34.71: SIM {TimeUS : 41934886, Roll : 0.0, Pitch : 0.0, Yaw : 0.0, Alt : 30.1000003815, Lat : 49.28357, Lng : -123.11502, Q1 : 1.0, Q2 : 0.0, Q3 : 0.0, Q4 : 0.0}
2019-04-14 17:41:34.81: SIM {TimeUS : 42034846, Roll : 0.0, Pitch : 0.0, Yaw : 0.0, Alt : 30.1000003815, Lat : 49.28357, Lng : -123.11502, Q1 : 1.0, Q2 : 0.0, Q3 : 0.0, Q4 : 0.0}
2019-04-14 17:41:34.91: SIM {TimeUS : 42134806, Roll : 0.0, Pitch : 0.0, Yaw : 0.0, Alt : 30.1000003815, Lat : 49.28357, Lng : -123.11502, Q1 : 1.0, Q2 : 0.0, Q3 : 0.0, Q4 : 2.0134343845e-11}
2019-04-14 17:41:35.01: SIM {TimeUS : 42234766, Roll : 0.0, Pitch : 0.0, Yaw : 360.0, Alt : 30.1000003815, Lat : 49.28357, Lng : -123.11502, Q1 : 1.0, Q2 : 0.0, Q3 : 0.0, Q4 : -2.39970781024e-08}
2019-04-14 17:41:35.11: SIM {TimeUS : 42334726, Roll : 0.0, Pitch : 0.0, Yaw : 359.99, Alt : 30.1000003815, Lat : 49.28357, Lng : -123.11502, Q1 : 1.0, Q2 : 0.0, Q3 : 0.0, Q4 : -2.09441807897e-07}
2019-04-14 17:41:35.21: SIM {TimeUS : 42434686, Roll : 0.0, Pitch : 0.0, Yaw : 359.99, Alt : 30.1000003815, Lat : 49.28357, Lng : -123.11502, Q1 : 1.0, Q2 : 0.0, Q3 : 0.0, Q4 : -3.94013341065e-07}
2019-04-14 17:41:35.31: SIM {TimeUS : 42534646, Roll : 0.0, Pitch : 0.0, Yaw : 359.99, Alt : 30.1000003815, Lat : 49.28357, Lng : -123.11502, Q1 : 1.0, Q2 : 0.0, Q3 : 0.0, Q4 : -6.25983773261e-07}
2019-04-14 17:41:35.41: SIM {TimeUS : 42634606, Roll : 0.0, Pitch : 0.0, Yaw : 359.99, Alt : 30.1000003815, Lat : 49.28357, Lng : -123.11502, Q1 : 1.0, Q2 : 0.0, Q3 : 0.0, Q4 : -8.11361928754e-07}
2019-04-14 17:41:35.51: SIM {TimeUS : 42734566, Roll : 0.0, Pitch : 0.0, Yaw : 359.99, Alt : 30.1000003815, Lat : 49.28357, Lng : -123.11502, Q1 : 1.0, Q2 : 0.0, Q3 : 0.0, Q4 : -1.00283352822e-06}
2019-04-14 17:41:35.61: SIM {TimeUS : 42834526, Roll : 0.0, Pitch : 0.0, Yaw : 359.99, Alt : 30.1000003815, Lat : 49.28357, Lng : -123.11502, Q1 : 1.0, Q2 : 0.0, Q3 : 0.0, Q4 : -1.2169166439e-06}
2019-04-14 17:41:35.71: SIM {TimeUS : 42934486, Roll : 0.0, Pitch : 0.0, Yaw : 359.99, Alt : 30.1000003815, Lat : 49.28357, Lng : -123.11502, Q1 : 1.0, Q2 : 0.0, Q3 : 0.0, Q4 : -1.40465738241e-06}
2019-04-14 17:41:35.81: SIM {TimeUS : 43034446, Roll : 0.0, Pitch : 0.0, Yaw : 359.99, Alt : 30.1200008392, Lat : 49.28357, Lng : -123.11502, Q1 : 1.0, Q2 : 0.0, Q3 : 0.0, Q4 : -1.62752428423e-06}
2019-04-14 17:41:35.91: SIM {TimeUS : 43134406, Roll : 0.0, Pitch : 0.0, Yaw : 359.99, Alt : 30.1399993896, Lat : 49.28357, Lng : -123.11502, Q1 : 1.0, Q2 : 0.0, Q3 : 0.0, Q4 : -1.81144525868e-06}
2019-04-14 17:41:36.01: SIM {TimeUS : 43234366, Roll : 0.0, Pitch : 0.0, Yaw : 359.99, Alt : 30.1800003052, Lat : 49.28357, Lng : -123.11502, Q1 : 1.0, Q2 : 0.0, Q3 : 0.0, Q4 : -2.08465462492e-06}
2019-04-14 17:41:36.11: SIM {TimeUS : 43334326, Roll : 0.0, Pitch : 0.0, Yaw : 359.99, Alt : 30.2099990845, Lat : 49.28357, Lng : -123.11502, Q1 : 1.0, Q2 : -9.67981759459e-06, Q3 : -8.46551756695e-06, Q4 : -2.42156465902e-06}
2019-04-14 17:41:36.21: SIM {TimeUS : 43434286, Roll : -0.18, Pitch : -0.16, Yaw : 359.99, Alt : 30.2700004578, Lat : 49.28357, Lng : -123.11502, Q1 : 0.999997735023, Q2 : -0.00157822563779, Q3 : -0.00143635296263, Q4 : -2.21629998123e-05}
2019-04-14 17:41:36.31: SIM {TimeUS : 43534246, Roll : -0.47, Pitch : -0.42, Yaw : 359.99, Alt : 30.3899993896, Lat : 49.28357, Lng : -123.11502, Q1 : 0.99998486042, Q2 : -0.00410174531862, Q3 : -0.00367411714979, Q4 : -7.61783448979e-05}
2019-04-14 17:41:36.41: SIM {TimeUS : 43634206, Roll : -0.68, Pitch : -0.62, Yaw : 359.98, Alt : 30.5400009155, Lat : 49.28357, Lng : -123.11502, Q1 : 0.999967038631, Q2 : -0.0060022524558, Q3 : -0.00546117359772, Q4 : -0.000156853624503}
2019-04-14 17:41:36.51: SIM {TimeUS : 43734166, Roll : -0.76, Pitch : -0.72, Yaw : 359.97, Alt : 30.7000007629, Lat : 49.28357, Lng : -123.11502, Q1 : 0.999957323074, Q2 : -0.00670055765659, Q3 : -0.00635739928111, Q4 : -0.000249233940849}
2019-04-14 17:41:36.61: SIM {TimeUS : 43834126, Roll : -0.72, Pitch : -0.69, Yaw : 359.96, Alt : 30.8600006104, Lat : 49.28357, Lng : -123.1150201, Q1 : 0.999961733818, Q2 : -0.00631191255525, Q3 : -0.00605021277443, Q4 : -0.00033633725252}
2019-04-14 17:41:36.71: SIM {TimeUS : 43934086, Roll : -0.58, Pitch : -0.52, Yaw : 359.95, Alt : 31.0100002289, Lat : 49.2835701, Lng : -123.1150201, Q1 : 0.999976336956, Q2 : -0.0050910920836, Q3 : -0.00460635218769, Q4 : -0.000412591645727}
2019-04-14 17:41:36.81: SIM {TimeUS : 44034879, Roll : -0.38, Pitch : -0.3, Yaw : 359.94, Alt : 31.1700000763, Lat : 49.2835701, Lng : -123.1150202, Q1 : 0.999990642071, Q2 : -0.00339527474716, Q3 : -0.00264573935419, Q4 : -0.000482195115183}
2019-04-14 17:41:36.91: SIM {TimeUS : 44134839, Roll : -0.2, Pitch : -0.1, Yaw : 359.93, Alt : 31.3299999237, Lat : 49.2835702, Lng : -123.1150203, Q1 : 0.999997854233, Q2 : -0.00179217814002, Q3 : -0.000905474182218, Q4 : -0.000539209868293}
2019-04-14 17:41:37.01: SIM {TimeUS : 44234799, Roll : -0.07, Pitch : 0.02, Yaw : 359.93, Alt : 31.5, Lat : 49.2835702, Lng : -123.1150204, Q1 : 0.999999642372, Q2 : -0.000611423805822, Q3 : 0.000216964122956, Q4 : -0.000579898129217}
2019-04-14 17:41:37.11: SIM {TimeUS : 44334759, Roll : 0.0, Pitch : 0.07, Yaw : 359.93, Alt : 31.6700000763, Lat : 49.2835703, Lng : -123.1150205, Q1 : 0.999999582767, Q2 : 7.58619498811e-05, Q3 : 0.00067879393464, Q4 : -0.000606972316746}
2019-04-14 17:41:37.21: SIM {TimeUS : 44434719, Roll : 0.05, Pitch : 0.05, Yaw : 359.92, Alt : 31.8500003815, Lat : 49.2835703, Lng : -123.1150205, Q1 : 0.999999582767, Q2 : 0.000522984133568, Q3 : 0.00048232942936, Q4 : -0.00061918067513}
2019-04-14 17:41:37.31: SIM {TimeUS : 44534679, Roll : 0.08, Pitch : 0.01, Yaw : 359.92, Alt : 32.0400009155, Lat : 49.2835703, Lng : -123.1150206, Q1 : 0.999999523163, Q2 : 0.000718524330296, Q3 : 0.000163872799021, Q4 : -0.000620721897576}
2019-04-14 17:41:37.41: SIM {TimeUS : 44634639, Roll : 0.07, Pitch : 0.0, Yaw : 359.93, Alt : 32.2200012207, Lat : 49.2835703, Lng : -123.1150207, Q1 : 0.999999642372, Q2 : 0.000629098445643, Q3 : 2.41771267611e-05, Q4 : -0.000609026814345}
2019-04-14 17:41:37.51: SIM {TimeUS : 44734599, Roll : 0.06, Pitch : 0.0, Yaw : 359.93, Alt : 32.4199981689, Lat : 49.2835703, Lng : -123.1150207, Q1 : 0.999999701977, Q2 : 0.000547904463019, Q3 : 8.05573290563e-05, Q4 : -0.00060039042728}
2019-04-14 17:41:37.61: SIM {TimeUS : 44834559, Roll : 0.06, Pitch : 0.03, Yaw : 359.93, Alt : 32.6100006104, Lat : 49.2835703, Lng : -123.1150208, Q1 : 0.999999642372, Q2 : 0.000582168577239, Q3 : 0.00028734022635, Q4 : -0.000589965435211}
2019-04-14 17:41:37.71: SIM {TimeUS : 44934519, Roll : 0.08, Pitch : 0.06, Yaw : 359.93, Alt : 32.8100013733, Lat : 49.2835703, Lng : -123.1150208, Q1 : 0.999999344349, Q2 : 0.000774533720687, Q3 : 0.000564908434171, Q4 : -0.000574298552237}
2019-04-14 17:41:37.81: SIM {TimeUS : 45034479, Roll : 0.12, Pitch : 0.08, Yaw : 359.93, Alt : 33.0099983215, Lat : 49.2835704, Lng : -123.1150208, Q1 : 0.999998986721, Q2 : 0.00110475742258, Q3 : 0.000732398941182, Q4 : -0.000563124136534}
2019-04-14 17:41:37.91: SIM {TimeUS : 45134439, Roll : 0.17, Pitch : 0.09, Yaw : 359.93, Alt : 33.2099990845, Lat : 49.2835704, Lng : -123.1150209, Q1 : 0.999998390675, Q2 : 0.00148698291741, Q3 : 0.000854490092024, Q4 : -0.000558349944185}
2019-04-14 17:41:38.01: SIM {TimeUS : 45234399, Roll : 0.19, Pitch : 0.11, Yaw : 359.93, Alt : 33.4099998474, Lat : 49.2835704, Lng : -123.1150209, Q1 : 0.999997913837, Q2 : 0.00169181614183, Q3 : 0.000976778566837, Q4 : -0.00055492593674}
2019-04-14 17:41:38.11: SIM {TimeUS : 45334359, Roll : 0.18, Pitch : 0.12, Yaw : 359.93, Alt : 33.6199989319, Lat : 49.2835704, Lng : -123.1150209, Q1 : 0.999997913837, Q2 : 0.00163167284336, Q3 : 0.00109905726276, Q4 : -0.000570258242078}
2019-04-14 17:41:38.21: SIM {TimeUS : 45434319, Roll : 0.14, Pitch : 0.14, Yaw : 359.93, Alt : 33.8300018311, Lat : 49.2835704, Lng : -123.1150209, Q1 : 0.999998152256, Q2 : 0.00130636105314, Q3 : 0.00126436259598, Q4 : -0.000600918428972}
2019-04-14 17:41:38.31: SIM {TimeUS : 45534279, Roll : 0.12, Pitch : 0.16, Yaw : 359.92, Alt : 34.0400009155, Lat : 49.2835704, Lng : -123.1150209, Q1 : 0.999998211861, Q2 : 0.00108379323501, Q3 : 0.00140375038609, Q4 : -0.000633385207038}
2019-04-14 17:41:38.41: SIM {TimeUS : 45634239, Roll : 0.12, Pitch : 0.15, Yaw : 359.92, Alt : 34.25, Lat : 49.2835704, Lng : -123.1150209, Q1 : 0.999998211861, Q2 : 0.00109443312977, Q3 : 0.0013673476642, Q4 : -0.000664211984258}
2019-04-14 17:41:38.51: SIM {TimeUS : 45734199, Roll : 0.12, Pitch : 0.14, Yaw : 359.92, Alt : 34.4599990845, Lat : 49.2835704, Lng : -123.1150209, Q1 : 0.999998390675, Q2 : 0.00107774755452, Q3 : 0.00126381660812, Q4 : -0.000680713797919}
2019-04-14 17:41:38.61: SIM {TimeUS : 45834159, Roll : 0.1, Pitch : 0.13, Yaw : 359.92, Alt : 34.6699981689, Lat : 49.2835704, Lng : -123.1150209, Q1 : 0.999998569489, Q2 : 0.000930370413698, Q3 : 0.00121773523279, Q4 : -0.000688074331265}
2019-04-14 17:41:38.71: SIM {TimeUS : 45934119, Roll : 0.09, Pitch : 0.09, Yaw : 359.92, Alt : 34.8899993896, Lat : 49.2835704, Lng : -123.1150209, Q1 : 0.99999910593, Q2 : 0.000794707040768, Q3 : 0.000851319695357, Q4 : -0.00067968678195}
2019-04-14 17:41:38.81: SIM {TimeUS : 46034079, Roll : 0.08, Pitch : 0.04, Yaw : 359.92, Alt : 35.0999984741, Lat : 49.2835704, Lng : -123.1150209, Q1 : 0.999999463558, Q2 : 0.000707488972694, Q3 : 0.00036831657053, Q4 : -0.000675242394209}
2019-04-14 17:41:38.91: SIM {TimeUS : 46134872, Roll : 0.07, Pitch : 0.0, Yaw : 359.92, Alt : 35.3199996948, Lat : 49.2835704, Lng : -123.1150208, Q1 : 0.999999582767, Q2 : 0.000611696101259, Q3 : 8.38823907543e-05, Q4 : -0.000685144856106}
2019-04-14 17:41:39.01: SIM {TimeUS : 46234832, Roll : 0.05, Pitch : 0.0, Yaw : 359.91, Alt : 35.5400009155, Lat : 49.2835704, Lng : -123.1150208, Q1 : 0.999999642372, Q2 : 0.000516273372341, Q3 : -3.1147570553e-05, Q4 : -0.000705582206137}
2019-04-14 17:41:39.11: SIM {TimeUS : 46334792, Roll : 0.05, Pitch : 0.0, Yaw : 359.91, Alt : 35.7599983215, Lat : 49.2835704, Lng : -123.1150208, Q1 : 0.999999582767, Q2 : 0.000512126716785, Q3 : 8.31952711451e-05, Q4 : -0.000731000269298}
2019-04-14 17:41:39.21: SIM {TimeUS : 46434752, Roll : 0.04, Pitch : 0.01, Yaw : 359.91, Alt : 35.9799995422, Lat : 49.2835704, Lng : -123.1150208, Q1 : 0.999999582767, Q2 : 0.000417237606598, Q3 : 0.000124210608192, Q4 : -0.00075420527719}
2019-04-14 17:41:39.31: SIM {TimeUS : 46534712, Roll : 0.01, Pitch : 0.0, Yaw : 359.91, Alt : 36.2000007629, Lat : 49.2835704, Lng : -123.1150208, Q1 : 0.999999701977, Q2 : 0.000168079030118, Q3 : 4.69174483442e-05, Q4 : -0.000778791960329}
2019-04-14 17:41:39.41: SIM {TimeUS : 46634672, Roll : 0.0, Pitch : 0.0, Yaw : 359.9, Alt : 36.4199981689, Lat : 49.2835704, Lng : -123.1150208, Q1 : 0.999999642372, Q2 : -8.60547588672e-05, Q3 : -1.94279655261e-05, Q4 : -0.000805247982498}
2019-04-14 17:41:39.51: SIM {TimeUS : 46734632, Roll : -0.02, Pitch : 0.01, Yaw : 359.9, Alt : 36.6399993896, Lat : 49.2835704, Lng : -123.1150207, Q1 : 0.999999642372, Q2 : -0.000231318699662, Q3 : 9.05110646272e-05, Q4 : -0.000837268598843}
2019-04-14 17:41:39.61: SIM {TimeUS : 46834592, Roll : -0.03, Pitch : 0.0, Yaw : 359.89, Alt : 36.8699989319, Lat : 49.2835704, Lng : -123.1150207, Q1 : 0.999999523163, Q2 : -0.000329787930241, Q3 : 5.90874624322e-05, Q4 : -0.000873917422723}
2019-04-14 17:41:39.71: SIM {TimeUS : 46934552, Roll : -0.03, Pitch : -0.01, Yaw : 359.89, Alt : 37.0900001526, Lat : 49.2835704, Lng : -123.1150207, Q1 : 0.999999523163, Q2 : -0.000326476816554, Q3 : -8.78374703461e-05, Q4 : -0.000910537608434}
2019-04-14 17:41:39.81: SIM {TimeUS : 47034512, Roll : -0.03, Pitch : -0.02, Yaw : 359.89, Alt : 37.3100013733, Lat : 49.2835704, Lng : -123.1150207, Q1 : 0.999999463558, Q2 : -0.000299853534671, Q3 : -0.000210943457205, Q4 : -0.00094394403277}
2019-04-14 17:41:39.91: SIM {TimeUS : 47134472, Roll : -0.02, Pitch : -0.03, Yaw : 359.88, Alt : 37.5400009155, Lat : 49.2835704, Lng : -123.1150207, Q1 : 0.999999463558, Q2 : -0.000194993423065, Q3 : -0.000281645421637, Q4 : -0.000968258827925}
2019-04-14 17:41:40.01: SIM {TimeUS : 47234432, Roll : 0.0, Pitch : -0.03, Yaw : 359.88, Alt : 37.7599983215, Lat : 49.2835704, Lng : -123.1150207, Q1 : 0.999999523163, Q2 : 3.01172258332e-06, Q3 : -0.00029534244095, Q4 : -0.000981480814517}
2019-04-14 17:41:40.11: SIM {TimeUS : 47334392, Roll : 0.0, Pitch : -0.04, Yaw : 359.88, Alt : 37.9900016785, Lat : 49.2835704, Lng : -123.1150207, Q1 : 0.999999463558, Q2 : 2.02740977784e-07, Q3 : -0.000376180832973, Q4 : -0.000982289551757}
2019-04-14 17:41:40.21: SIM {TimeUS : 47434352, Roll : -0.02, Pitch : -0.06, Yaw : 359.88, Alt : 38.2200012207, Lat : 49.2835704, Lng : -123.1150207, Q1 : 0.999999344349, Q2 : -0.000190740407561, Q3 : -0.000567984650843, Q4 : -0.000980614451692}
2019-04-14 17:41:40.31: SIM {TimeUS : 47534312, Roll : -0.05, Pitch : -0.07, Yaw : 359.88, Alt : 38.4500007629, Lat : 49.2835704, Lng : -123.1150206, Q1 : 0.999999165535, Q2 : -0.000454445165815, Q3 : -0.00069742044434, Q4 : -0.000981536810286}
2019-04-14 17:41:40.41: SIM {TimeUS : 47634272, Roll : -0.08, Pitch : -0.07, Yaw : 359.88, Alt : 38.6699981689, Lat : 49.2835704, Lng : -123.1150206, Q1 : 0.999998986721, Q2 : -0.000741493597161, Q3 : -0.000670053297654, Q4 : -0.000996533199213}
2019-04-14 17:41:40.51: SIM {TimeUS : 47734232, Roll : -0.1, Pitch : -0.06, Yaw : 359.88, Alt : 38.9000015259, Lat : 49.2835704, Lng : -123.1150206, Q1 : 0.999998867512, Q2 : -0.000936250202358, Q3 : -0.000570648175199, Q4 : -0.00101550342515}
2019-04-14 17:41:40.61: SIM {TimeUS : 47834192, Roll : -0.11, Pitch : -0.05, Yaw : 359.88, Alt : 39.1300010681, Lat : 49.2835704, Lng : -123.1150206, Q1 : 0.999998927116, Q2 : -0.000961462152191, Q3 : -0.000469639635412, Q4 : -0.00102945475373}
2019-04-14 17:41:40.71: SIM {TimeUS : 47934152, Roll : -0.09, Pitch : -0.03, Yaw : 359.88, Alt : 39.3600006104, Lat : 49.2835706, Lng : -123.1150206, Q1 : 0.999999046326, Q2 : -0.000827603507787, Q3 : -0.000300064886687, Q4 : -0.00104604347143}
2019-04-14 17:41:40.81: SIM {TimeUS : 48034112, Roll : -0.07, Pitch : -0.03, Yaw : 359.87, Alt : 39.5900001526, Lat : 49.2835706, Lng : -123.1150206, Q1 : 0.99999922514, Q2 : -0.000620901526418, Q3 : -0.000271915836493, Q4 : -0.00106976099778}
2019-04-14 17:41:40.91: SIM {TimeUS : 48134072, Roll : -0.05, Pitch : -0.03, Yaw : 359.87, Alt : 39.8199996948, Lat : 49.2835706, Lng : -123.1150206, Q1 : 0.99999922514, Q2 : -0.000485083466629, Q3 : -0.000309292285237, Q4 : -0.00110739527736}
2019-04-14 17:41:41.01: SIM {TimeUS : 48234865, Roll : -0.05, Pitch : -0.01, Yaw : 359.86, Alt : 40.0600013733, Lat : 49.2835706, Lng : -123.1150206, Q1 : 0.99999922514, Q2 : -0.000440448988229, Q3 : -0.000167595761013, Q4 : -0.00113662646618}
2019-04-14 17:41:41.11: SIM {TimeUS : 48334825, Roll : -0.06, Pitch : 0.01, Yaw : 359.86, Alt : 40.2900009155, Lat : 49.2835706, Lng : -123.1150206, Q1 : 0.999999165535, Q2 : -0.000563903944567, Q3 : 0.000110463879537, Q4 : -0.00116261676885}
2019-04-14 17:41:41.21: SIM {TimeUS : 48434785, Roll : -0.06, Pitch : 0.04, Yaw : 359.86, Alt : 40.5200004578, Lat : 49.2835706, Lng : -123.1150206, Q1 : 0.99999910593, Q2 : -0.00054972351063, Q3 : 0.000384127197322, Q4 : -0.00118984479923}
2019-04-14 17:41:41.31: SIM {TimeUS : 48534745, Roll : -0.04, Pitch : 0.08, Yaw : 359.85, Alt : 40.75, Lat : 49.2835706, Lng : -123.1150206, Q1 : 0.999998927116, Q2 : -0.000409086904256, Q3 : 0.000726713973563, Q4 : -0.00122649071272}
2019-04-14 17:41:41.41: SIM {TimeUS : 48634705, Roll : -0.02, Pitch : 0.1, Yaw : 359.85, Alt : 40.9799995422, Lat : 49.2835706, Lng : -123.1150206, Q1 : 0.999998748302, Q2 : -0.00025058031315, Q3 : 0.000896690355148, Q4 : -0.00125949154608}
2019-04-14 17:41:41.51: SIM {TimeUS : 48734665, Roll : 0.0, Pitch : 0.11, Yaw : 359.85, Alt : 41.2200012207, Lat : 49.2835706, Lng : -123.1150206, Q1 : 0.999998688698, Q2 : 4.4551477913e-05, Q3 : 0.000997516210191, Q4 : -0.00128568359651}
2019-04-14 17:41:41.61: SIM {TimeUS : 48834625, Roll : 0.04, Pitch : 0.13, Yaw : 359.85, Alt : 41.4500007629, Lat : 49.2835706, Lng : -123.1150206, Q1 : 0.99999833107, Q2 : 0.000421678822022, Q3 : 0.00121852895245, Q4 : -0.00130412657745}
2019-04-14 17:41:41.71: SIM {TimeUS : 48934585, Roll : 0.09, Pitch : 0.17, Yaw : 359.84, Alt : 41.6800003052, Lat : 49.2835706, Lng : -123.1150207, Q1 : 0.999997615814, Q2 : 0.000867727678269, Q3 : 0.00152194336988, Q4 : -0.00132042495534}
2019-04-14 17:41:41.81: SIM {TimeUS : 49034545, Roll : 0.12, Pitch : 0.2, Yaw : 359.84, Alt : 41.9199981689, Lat : 49.2835706, Lng : -123.1150207, Q1 : 0.999996960163, Q2 : 0.00109673885163, Q3 : 0.00176726141945, Q4 : -0.00133930728771}
2019-04-14 17:41:41.91: SIM {TimeUS : 49134505, Roll : 0.1, Pitch : 0.21, Yaw : 359.84, Alt : 42.1500015259, Lat : 49.2835706, Lng : -123.1150207, Q1 : 0.999996840954, Q2 : 0.000925362925045, Q3 : 0.0019082861254, Q4 : -0.00134772981983}
2019-04-14 17:41:42.01: SIM {TimeUS : 49234465, Roll : 0.05, Pitch : 0.22, Yaw : 359.84, Alt : 42.3800010681, Lat : 49.2835706, Lng : -123.1150207, Q1 : 0.999997019768, Q2 : 0.000441697629867, Q3 : 0.00197839015163, Q4 : -0.0013565964764}
2019-04-14 17:41:42.11: SIM {TimeUS : 49334425, Roll : 0.0, Pitch : 0.22, Yaw : 359.84, Alt : 42.6199989319, Lat : 49.2835706, Lng : -123.1150206, Q1 : 0.999997138977, Q2 : -6.23516898486e-05, Q3 : 0.00196630670689, Q4 : -0.00137053965591}
2019-04-14 17:41:42.21: SIM {TimeUS : 49434385, Roll : -0.03, Pitch : 0.19, Yaw : 359.84, Alt : 42.8499984741, Lat : 49.2835706, Lng : -123.1150206, Q1 : 0.999997615814, Q2 : -0.000278456514934, Q3 : 0.00166999432258, Q4 : -0.00138739217073}
2019-04-14 17:41:42.31: SIM {TimeUS : 49534345, Roll : -0.02, Pitch : 0.14, Yaw : 359.83, Alt : 43.0900001526, Lat : 49.2835706, Lng : -123.1150206, Q1 : 0.999998211861, Q2 : -0.000245625968091, Q3 : 0.00124506803695, Q4 : -0.00140511465725}
2019-04-14 17:41:42.41: SIM {TimeUS : 49634305, Roll : 0.0, Pitch : 0.12, Yaw : 359.83, Alt : 43.3199996948, Lat : 49.2835706, Lng : -123.1150206, Q1 : 0.99999833107, Q2 : -8.28796255519e-05, Q3 : 0.00112605700269, Q4 : -0.00142893078737}
2019-04-14 17:41:42.51: SIM {TimeUS : 49734265, Roll : 0.02, Pitch : 0.13, Yaw : 359.83, Alt : 43.5600013733, Lat : 49.2835706, Lng : -123.1150206, Q1 : 0.999998211861, Q2 : 0.00025445735082, Q3 : 0.0011983665172, Q4 : -0.00146560149733}
2019-04-14 17:41:42.61: SIM {TimeUS : 49834225, Roll : 0.08, Pitch : 0.15, Yaw : 359.82, Alt : 43.7900009155, Lat : 49.2835704, Lng : -123.1150206, Q1 : 0.999997735023, Q2 : 0.000725482532289, Q3 : 0.00131401629187, Q4 : -0.00150004646275}
2019-04-14 17:41:42.71: SIM {TimeUS : 49934185, Roll : 0.12, Pitch : 0.13, Yaw : 359.82, Alt : 44.0299987793, Lat : 49.2835704, Lng : -123.1150206, Q1 : 0.99999755621, Q2 : 0.00105618813541, Q3 : 0.00119530351367, Q4 : -0.00153644708917}
2019-04-14 17:41:42.81: SIM {TimeUS : 50034145, Roll : 0.12, Pitch : 0.11, Yaw : 359.82, Alt : 44.2700004578, Lat : 49.2835704, Lng : -123.1150206, Q1 : 0.999997735023, Q2 : 0.00105300627183, Q3 : 0.000972377078142, Q4 : -0.0015680801589}
2019-04-14 17:41:42.91: SIM {TimeUS : 50134105, Roll : 0.07, Pitch : 0.08, Yaw : 359.81, Alt : 44.5, Lat : 49.2835704, Lng : -123.1150206, Q1 : 0.999998211861, Q2 : 0.000658266479149, Q3 : 0.00077164650429, Q4 : -0.00158640090376}
2019-04-14 17:41:43.01: SIM {TimeUS : 50234065, Roll : 0.01, Pitch : 0.07, Yaw : 359.81, Alt : 44.7400016785, Lat : 49.2835704, Lng : -123.1150206, Q1 : 0.999998509884, Q2 : 0.000126100232592, Q3 : 0.000621620914899, Q4 : -0.0016003686469}
2019-04-14 17:41:43.11: SIM {TimeUS : 50334858, Roll : -0.02, Pitch : 0.06, Yaw : 359.81, Alt : 44.9700012207, Lat : 49.2835704, Lng : -123.1150206, Q1 : 0.999998509884, Q2 : -0.000255864200881, Q3 : 0.000593300210312, Q4 : -0.00161635305267}
2019-04-14 17:41:43.21: SIM {TimeUS : 50434818, Roll : -0.05, Pitch : 0.05, Yaw : 359.81, Alt : 45.2099990845, Lat : 49.2835703, Lng : -123.1150206, Q1 : 0.999998450279, Q2 : -0.000450453080703, Q3 : 0.000498311244883, Q4 : -0.00163269881159}
2019-04-14 17:41:43.31: SIM {TimeUS : 50534778, Roll : -0.05, Pitch : 0.03, Yaw : 359.81, Alt : 45.4500007629, Lat : 49.2835703, Lng : -123.1150206, Q1 : 0.999998509884, Q2 : -0.000457040529, Q3 : 0.000287644332275, Q4 : -0.00165706616826}
2019-04-14 17:41:43.41: SIM {TimeUS : 50634738, Roll : -0.05, Pitch : 0.0, Yaw : 359.8, Alt : 45.6800003052, Lat : 49.2835703, Lng : -123.1150205, Q1 : 0.999998450279, Q2 : -0.000469087914098, Q3 : 4.71798812214e-05, Q4 : -0.001690668636}
2019-04-14 17:41:43.51: SIM {TimeUS : 50734698, Roll : -0.04, Pitch : -0.01, Yaw : 359.8, Alt : 45.9099998474, Lat : 49.2835703, Lng : -123.1150205, Q1 : 0.999998450279, Q2 : -0.000397190015065, Q3 : -0.000143250625115, Q4 : -0.00172384164762}
2019-04-14 17:41:43.61: SIM {TimeUS : 50834658, Roll : -0.02, Pitch : -0.02, Yaw : 359.79, Alt : 46.1399993896, Lat : 49.2835703, Lng : -123.1150205, Q1 : 0.999998390675, Q2 : -0.000233367842156, Q3 : -0.000234812090639, Q4 : -0.001755058649}
2019-04-14 17:41:43.71: SIM {TimeUS : 50934618, Roll : -0.02, Pitch : -0.02, Yaw : 359.79, Alt : 46.3699989319, Lat : 49.2835703, Lng : -123.1150205, Q1 : 0.99999833107, Q2 : -0.000179745242349, Q3 : -0.000241296598688, Q4 : -0.00178757682443}
2019-04-14 17:41:43.81: SIM {TimeUS : 51034578, Roll : -0.02, Pitch : -0.03, Yaw : 359.79, Alt : 46.5900001526, Lat : 49.2835703, Lng : -123.1150205, Q1 : 0.999998271465, Q2 : -0.000210335754673, Q3 : -0.000332210969646, Q4 : -0.00182393949945}
2019-04-14 17:41:43.91: SIM {TimeUS : 51134538, Roll : -0.02, Pitch : -0.05, Yaw : 359.78, Alt : 46.8100013733, Lat : 49.2835703, Lng : -123.1150205, Q1 : 0.999998092651, Q2 : -0.000241410976741, Q3 : -0.000515897467267, Q4 : -0.00186028610915}
2019-04-14 17:41:44.01: SIM {TimeUS : 51234498, Roll : -0.02, Pitch : -0.06, Yaw : 359.78, Alt : 47.0200004578, Lat : 49.2835703, Lng : -123.1150205, Q1 : 0.999997973442, Q2 : -0.0002614982659, Q3 : -0.00058588385582, Q4 : -0.00189728720579}
2019-04-14 17:41:44.11: SIM {TimeUS : 51334458, Roll : -0.02, Pitch : -0.06, Yaw : 359.77, Alt : 47.2200012207, Lat : 49.2835703, Lng : -123.1150205, Q1 : 0.999997973442, Q2 : -0.000205620759516, Q3 : -0.00057149969507, Q4 : -0.00193104660138}
2019-04-14 17:41:44.21: SIM {TimeUS : 51434418, Roll : -0.02, Pitch : -0.06, Yaw : 359.77, Alt : 47.4099998474, Lat : 49.2835703, Lng : -123.1150205, Q1 : 0.999997913837, Q2 : -0.000257704989053, Q3 : -0.000526564719621, Q4 : -0.00195818161592}
2019-04-14 17:41:44.31: SIM {TimeUS : 51534378, Roll : -0.04, Pitch : -0.05, Yaw : 359.77, Alt : 47.5999984741, Lat : 49.2835703, Lng : -123.1150205, Q1 : 0.999997854233, Q2 : -0.000424220255809, Q3 : -0.000463484378997, Q4 : -0.00198093848303}
2019-04-14 17:41:44.41: SIM {TimeUS : 51634338, Roll : -0.08, Pitch : -0.07, Yaw : 359.77, Alt : 47.7799987793, Lat : 49.2835703, Lng : -123.1150205, Q1 : 0.999997496605, Q2 : -0.000749512924813, Q3 : -0.000684448576067, Q4 : -0.00200355355628}
2019-04-14 17:41:44.51: SIM {TimeUS : 51734298, Roll : -0.12, Pitch : -0.1, Yaw : 359.76, Alt : 47.9399986267, Lat : 49.2835703, Lng : -123.1150205, Q1 : 0.999997019768, Q2 : -0.0010642540874, Q3 : -0.000872612872627, Q4 : -0.00202286266722}
2019-04-14 17:41:44.61: SIM {TimeUS : 51834258, Roll : -0.14, Pitch : -0.09, Yaw : 359.76, Alt : 48.0900001526, Lat : 49.2835703, Lng : -123.1150205, Q1 : 0.999996781349, Q2 : -0.00123239704408, Q3 : -0.000853148463648, Q4 : -0.0020417154301}
2019-04-14 17:41:44.71: SIM {TimeUS : 51934218, Roll : -0.13, Pitch : -0.06, Yaw : 359.76, Alt : 48.2299995422, Lat : 49.2835703, Lng : -123.1150205, Q1 : 0.999997019768, Q2 : -0.00117741443682, Q3 : -0.000580989522859, Q4 : -0.00206126831472}
2019-04-14 17:41:44.81: SIM {TimeUS : 52034178, Roll : -0.11, Pitch : -0.03, Yaw : 359.76, Alt : 48.3600006104, Lat : 49.2835703, Lng : -123.1150205, Q1 : 0.999997317791, Q2 : -0.000990109168924, Q3 : -0.000270074902801, Q4 : -0.00208417419344}
2019-04-14 17:41:44.91: SIM {TimeUS : 52134138, Roll : -0.08, Pitch : 0.0, Yaw : 359.75, Alt : 48.4799995422, Lat : 49.2835703, Lng : -123.1150205, Q1 : 0.999997496605, Q2 : -0.000782203744166, Q3 : -5.23993257957e-05, Q4 : -0.00210660416633}
2019-04-14 17:41:45.01: SIM {TimeUS : 52234098, Roll : -0.07, Pitch : 0.0, Yaw : 359.75, Alt : 48.5800018311, Lat : 49.2835703, Lng : -123.1150205, Q1 : 0.999997496605, Q2 : -0.00068340980215, Q3 : 8.94907407201e-06, Q4 : -0.00212756847031}
2019-04-14 17:41:45.11: SIM {TimeUS : 52334891, Roll : -0.05, Pitch : 0.0, Yaw : 359.75, Alt : 48.6699981689, Lat : 49.2835703, Lng : -123.1150205, Q1 : 0.99999755621, Q2 : -0.000496537715662, Q3 : -8.31008437672e-05, Q4 : -0.00215422478504}
2019-04-14 17:41:45.21: SIM {TimeUS : 52434851, Roll : -0.02, Pitch : -0.02, Yaw : 359.74, Alt : 48.75, Lat : 49.2835703, Lng : -123.1150205, Q1 : 0.99999755621, Q2 : -0.000248510361416, Q3 : -0.000214670872083, Q4 : -0.00218678289093}
2019-04-14 17:41:45.31: SIM {TimeUS : 52534811, Roll : -0.01, Pitch : -0.04, Yaw : 359.74, Alt : 48.8199996948, Lat : 49.2835703, Lng : -123.1150205, Q1 : 0.999997437, Q2 : -0.000115195784019, Q3 : -0.000367664237274, Q4 : -0.00222043297254}
2019-04-14 17:41:45.41: SIM {TimeUS : 52634771, Roll : -0.01, Pitch : -0.06, Yaw : 359.74, Alt : 48.8899993896, Lat : 49.2835703, Lng : -123.1150205, Q1 : 0.999997317791, Q2 : -0.00014475993521, Q3 : -0.000526614545379, Q4 : -0.00225138827227}
2019-04-14 17:41:45.51: SIM {TimeUS : 52734731, Roll : 0.02, Pitch : -0.07, Yaw : 359.73, Alt : 48.9399986267, Lat : 49.2835703, Lng : -123.1150205, Q1 : 0.999997138977, Q2 : 0.000221430891543, Q3 : -0.000648169894703, Q4 : -0.00228806724772}
2019-04-14 17:41:45.61: SIM {TimeUS : 52834691, Roll : 0.19, Pitch : -0.18, Yaw : 359.73, Alt : 48.9799995422, Lat : 49.2835703, Lng : -123.1150205, Q1 : 0.999994635582, Q2 : 0.00165915023535, Q3 : -0.00159792194609, Q4 : -0.00232335855253}
2019-04-14 17:41:45.71: SIM {TimeUS : 52934651, Roll : 0.53, Pitch : -0.45, Yaw : 359.72, Alt : 49.0200004578, Lat : 49.2835703, Lng : -123.1150205, Q1 : 0.999978423119, Q2 : 0.00464297318831, Q3 : -0.00400542328134, Q4 : -0.00235340651125}
2019-04-14 17:41:45.81: SIM {TimeUS : 53034611, Roll : 1.05, Pitch : -0.92, Yaw : 359.72, Alt : 49.0499992371, Lat : 49.2835703, Lng : -123.1150205, Q1 : 0.999922513962, Q2 : 0.00919360946864, Q3 : -0.00805249251425, Q4 : -0.00236942269839}
2019-04-14 17:41:45.91: SIM {TimeUS : 53134571, Roll : 1.73, Pitch : -1.54, Yaw : 359.7, Alt : 49.0800018311, Lat : 49.2835703, Lng : -123.1150205, Q1 : 0.99979108572, Q2 : 0.0151301249862, Q3 : -0.0135414469987, Q4 : -0.0023588296026}
2019-04-14 17:41:46.01: SIM {TimeUS : 53234531, Roll : 2.49, Pitch : -2.27, Yaw : 359.68, Alt : 49.1100006104, Lat : 49.2835703, Lng : -123.1150204, Q1 : 0.999563455582, Q2 : 0.021732846275, Q3 : -0.0198811329901, Q4 : -0.00230265944265}
2019-04-14 17:41:46.11: SIM {TimeUS : 53334491, Roll : 3.2, Pitch : -2.96, Yaw : 359.66, Alt : 49.1300010681, Lat : 49.2835704, Lng : -123.1150203, Q1 : 0.999272406101, Q2 : 0.0279086194932, Q3 : -0.0259053241462, Q4 : -0.00218106526881}
2019-04-14 17:41:46.21: SIM {TimeUS : 53434451, Roll : 3.78, Pitch : -3.51, Yaw : 359.65, Alt : 49.1500015259, Lat : 49.2835706, Lng : -123.1150201, Q1 : 0.998982787132, Q2 : 0.0329526141286, Q3 : -0.030717400834, Q4 : -0.00199073553085}
2019-04-14 17:41:46.31: SIM {TimeUS : 53534411, Roll : 4.21, Pitch : -3.91, Yaw : 359.65, Alt : 49.1599998474, Lat : 49.2835708, Lng : -123.1150199, Q1 : 0.998739361763, Q2 : 0.0366719402373, Q3 : -0.0342331379652, Q4 : -0.00174223748036}
2019-04-14 17:41:46.41: SIM {TimeUS : 53634371, Roll : 4.53, Pitch : -4.19, Yaw : 359.66, Alt : 49.1699981689, Lat : 49.2835709, Lng : -123.1150196, Q1 : 0.998547434807, Q2 : 0.0394386202097, Q3 : -0.036681432277, Q4 : -0.00146049307659}
2019-04-14 17:41:46.51: SIM {TimeUS : 53734331, Roll : 4.81, Pitch : -4.41, Yaw : 359.68, Alt : 49.1899986267, Lat : 49.2835713, Lng : -123.1150192, Q1 : 0.9983766675, Q2 : 0.0418529137969, Q3 : -0.0386142171919, Q4 : -0.00115503533743}
2019-04-14 17:41:46.61: SIM {TimeUS : 53834291, Roll : 5.09, Pitch : -4.64, Yaw : 359.69, Alt : 49.2000007629, Lat : 49.2835715, Lng : -123.1150187, Q1 : 0.998191952705, Q2 : 0.0442987047136, Q3 : -0.0406162701547, Q4 : -0.000856243248563}
2019-04-14 17:41:46.71: SIM {TimeUS : 53934251, Roll : 5.38, Pitch : -4.92, Yaw : 359.7, Alt : 49.2099990845, Lat : 49.2835719, Lng : -123.1150181, Q1 : 0.997975289822, Q2 : 0.0468241944909, Q3 : -0.043041549623, Q4 : -0.000571071985178}
2019-04-14 17:41:46.81: SIM {TimeUS : 54034211, Roll : 5.64, Pitch : -5.2, Yaw : 359.7, Alt : 49.2099990845, Lat : 49.2835722, Lng : -123.1150175, Q1 : 0.997759640217, Q2 : 0.0490700080991, Q3 : -0.0454726144671, Q4 : -0.000309256836772}
2019-04-14 17:41:46.91: SIM {TimeUS : 54134171, Roll : 5.85, Pitch : -5.45, Yaw : 359.71, Alt : 49.2200012207, Lat : 49.2835727, Lng : -123.1150167, Q1 : 0.997567355633, Q2 : 0.0508629828691, Q3 : -0.0476689562201, Q4 : -7.63627103879e-05}
2019-04-14 17:41:47.01: SIM {TimeUS : 54234131, Roll : 6.0, Pitch : -5.65, Yaw : 359.71, Alt : 49.2299995422, Lat : 49.2835733, Lng : -123.1150159, Q1 : 0.997415721416, Q2 : 0.0522075630724, Q3 : -0.0493582300842, Q4 : 0.000133414709126}
2019-04-14 17:41:47.11: SIM {TimeUS : 54334091, Roll : 6.11, Pitch : -5.76, Yaw : 359.72, Alt : 49.2299995422, Lat : 49.2835739, Lng : -123.115015, Q1 : 0.99731439352, Q2 : 0.053159493953, Q3 : -0.0503781735897, Q4 : 0.000311220821459}
2019-04-14 17:41:47.21: SIM {TimeUS : 54434884, Roll : 6.21, Pitch : -5.86, Yaw : 359.73, Alt : 49.2400016785, Lat : 49.2835745, Lng : -123.1150139, Q1 : 0.997227191925, Q2 : 0.0540091320872, Q3 : -0.0511931367218, Q4 : 0.000432655448094}
2019-04-14 17:41:47.31: SIM {TimeUS : 54534844, Roll : 6.31, Pitch : -5.94, Yaw : 359.73, Alt : 49.2400016785, Lat : 49.2835751, Lng : -123.1150129, Q1 : 0.99714410305, Q2 : 0.0548492744565, Q3 : -0.0519128963351, Q4 : 0.000507362361532}
2019-04-14 17:41:47.41: SIM {TimeUS : 54634804, Roll : 6.51, Pitch : -5.99, Yaw : 359.76, Alt : 49.25, Lat : 49.2835758, Lng : -123.1150117, Q1 : 0.997026503086, Q2 : 0.0565971843898, Q3 : -0.0522878430784, Q4 : 0.000926887907553}
2019-04-14 17:41:47.51: SIM {TimeUS : 54734764, Roll : 6.95, Pitch : -5.92, Yaw : 0.2, Alt : 49.25, Lat : 49.2835765, Lng : -123.1150105, Q1 : 0.996814787388, Q2 : 0.0607101172209, Q3 : -0.0514838248491, Q4 : 0.00490358425304}
2019-04-14 17:41:47.61: SIM {TimeUS : 54834724, Roll : 7.6, Pitch : -5.85, Yaw : 1.71, Alt : 49.25, Lat : 49.2835774, Lng : -123.1150092, Q1 : 0.996331930161, Q2 : 0.0670166611671, Q3 : -0.04996015504, Q4 : 0.0183144863695}
2019-04-14 17:41:47.71: SIM {TimeUS : 54934684, Roll : 8.15, Pitch : -6.07, Yaw : 4.77, Alt : 49.2599983215, Lat : 49.2835782, Lng : -123.1150077, Q1 : 0.995043158531, Q2 : 0.0731394961476, Q3 : -0.0498935654759, Q4 : 0.0452808067203}
2019-04-14 17:41:47.81: SIM {TimeUS : 55034644, Roll : 8.29, Pitch : -6.73, Yaw : 9.4, Alt : 49.2599983215, Lat : 49.2835791, Lng : -123.1150062, Q1 : 0.991959095001, Q2 : 0.0767796859145, Q3 : -0.0524427033961, Q4 : 0.0858594477177}
2019-04-14 17:41:47.91: SIM {TimeUS : 55134604, Roll : 7.84, Pitch : -7.79, Yaw : 15.39, Alt : 49.2599983215, Lat : 49.28358, Lng : -123.1150046, Q1 : 0.985751092434, Q2 : 0.0767315626144, Q3 : -0.0580668486655, Q4 : 0.137968689203}
2019-04-14 17:41:48.01: SIM {TimeUS : 55234564, Roll : 6.71, Pitch : -9.12, Yaw : 22.5, Alt : 49.2599983215, Lat : 49.2835808, Lng : -123.1150028, Q1 : 0.975074112415, Q2 : 0.0727805271745, Q3 : -0.0664732605219, Q4 : 0.198783397675}
2019-04-14 17:41:48.11: SIM {TimeUS : 55334524, Roll : 4.92, Pitch : -10.49, Yaw : 30.46, Alt : 49.2599983215, Lat : 49.2835818, Lng : -123.1150009, Q1 : 0.958902537823, Q2 : 0.0653124004602, Q3 : -0.0769295990467, Q4 : 0.265183120966}
2019-04-14 17:41:48.21: SIM {TimeUS : 55434484, Roll : 2.32, Pitch : -11.67, Yaw : 38.81, Alt : 49.2599983215, Lat : 49.2835828, Lng : -123.1149989, Q1 : 0.937408864498, Q2 : 0.0528394691646, Q3 : -0.0891924798489, Q4 : 0.332441389561}
2019-04-14 17:41:48.31: SIM {TimeUS : 55534444, Roll : -0.84, Pitch : -12.42, Yaw : 46.74, Alt : 49.2700004578, Lat : 49.2835837, Lng : -123.1149969, Q1 : 0.912827849388, Q2 : 0.036205932498, Q3 : -0.102277442813, Q4 : 0.393667072058}
2019-04-14 17:41:48.41: SIM {TimeUS : 55634404, Roll : -3.93, Pitch : -12.68, Yaw : 53.41, Alt : 49.2700004578, Lat : 49.2835849, Lng : -123.1149947, Q1 : 0.889024674892, Q2 : 0.0191303938627, Q3 : -0.113979436457, Q4 : 0.443032562733}
2019-04-14 17:41:48.51: SIM {TimeUS : 55734364, Roll : -6.3, Pitch : -12.61, Yaw : 58.22, Alt : 49.2700004578, Lat : 49.2835861, Lng : -123.1149926, Q1 : 0.869990706444, Q2 : 0.00561172142625, Q3 : -0.122418582439, Q4 : 0.477596461773}
2019-04-14 17:41:48.61: SIM {TimeUS : 55834324, Roll : -7.63, Pitch : -12.45, Yaw : 61.02, Alt : 49.2700004578, Lat : 49.2835873, Lng : -123.1149904, Q1 : 0.858181536198, Q2 : -0.00206495216116, Q3 : -0.126874312758, Q4 : 0.497416436672}
2019-04-14 17:41:48.71: SIM {TimeUS : 55934284, Roll : -7.92, Pitch : -12.42, Yaw : 62.0, Alt : 49.2700004578, Lat : 49.2835887, Lng : -123.1149881, Q1 : 0.853946328163, Q2 : -0.00329938600771, Q3 : -0.127908229828, Q4 : 0.504385054111}
2019-04-14 17:41:48.81: SIM {TimeUS : 56034244, Roll : -7.35, Pitch : -12.63, Yaw : 61.47, Alt : 49.2700004578, Lat : 49.2835903, Lng : -123.1149859, Q1 : 0.856157302856, Q2 : 0.00134907534812, Q3 : -0.126923888922, Q4 : 0.500882446766}
2019-04-14 17:41:48.91: SIM {TimeUS : 56134204, Roll : -6.13, Pitch : -13.11, Yaw : 59.8, Alt : 49.2700004578, Lat : 49.283592, Lng : -123.1149835, Q1 : 0.863022089005, Q2 : 0.010735662654, Q3 : -0.125353097916, Q4 : 0.489248603582}
2019-04-14 17:41:49.01: SIM {TimeUS : 56234164, Roll : -4.51, Pitch : -13.78, Yaw : 57.32, Alt : 49.2700004578, Lat : 49.2835935, Lng : -123.1149812, Q1 : 0.872691810131, Q2 : 0.0231842696667, Q3 : -0.124023988843, Q4 : 0.47168803215}
2019-04-14 17:41:49.11: SIM {TimeUS : 56334124, Roll : -2.72, Pitch : -14.52, Yaw : 54.36, Alt : 49.2700004578, Lat : 49.2835953, Lng : -123.1149788, Q1 : 0.883561372757, Q2 : 0.0367332622409, Q3 : -0.123175896704, Q4 : 0.450330674648}
2019-04-14 17:41:49.21: SIM {TimeUS : 56434084, Roll : -0.92, Pitch : -15.15, Yaw : 51.21, Alt : 49.2799987793, Lat : 49.2835971, Lng : -123.1149763, Q1 : 0.894349038601, Q2 : 0.049750816077, Q3 : -0.122370861471, Q4 : 0.427422523499}
2019-04-14 17:41:49.31: SIM {TimeUS : 56534877, Roll : 0.73, Pitch : -15.6, Yaw : 48.18, Alt : 49.2799987793, Lat : 49.283599, Lng : -123.1149737, Q1 : 0.904061973095, Q2 : 0.0612208284438, Q3 : -0.121306985617, Q4 : 0.405226528645}
2019-04-14 17:41:49.41: SIM {TimeUS : 56634837, Roll : 2.08, Pitch : -15.81, Yaw : 45.64, Alt : 49.2799987793, Lat : 49.2836008, Lng : -123.114971, Q1 : 0.911836743355, Q2 : 0.0699884518981, Q3 : -0.119764231145, Q4 : 0.386408984661}
2019-04-14 17:41:49.51: SIM {TimeUS : 56734797, Roll : 3.03, Pitch : -15.84, Yaw : 43.76, Alt : 49.2799987793, Lat : 49.2836029, Lng : -123.1149681, Q1 : 0.917401492596, Q2 : 0.0757050663233, Q3 : -0.118108682334, Q4 : 0.372415959835}
2019-04-14 17:41:49.61: SIM {TimeUS : 56834757, Roll : 3.51, Pitch : -15.8, Yaw : 42.65, Alt : 49.2799987793, Lat : 49.2836048, Lng : -123.1149651, Q1 : 0.920694828033, Q2 : 0.0782896727324, Q3 : -0.116920955479, Q4 : 0.364034742117}
2019-04-14 17:41:49.71: SIM {TimeUS : 56934717, Roll : 3.54, Pitch : -15.73, Yaw : 42.3, Alt : 49.2799987793, Lat : 49.2836067, Lng : -123.1149621, Q1 : 0.921863734722, Q2 : 0.0779302418232, Q3 : -0.116590164602, Q4 : 0.361249089241}
2019-04-14 17:41:49.81: SIM {TimeUS : 57034677, Roll : 3.17, Pitch : -15.72, Yaw : 42.61, Alt : 49.2799987793, Lat : 49.2836086, Lng : -123.1149588, Q1 : 0.921146214008, Q2 : 0.0752335339785, Q3 : -0.117426775396, Q4 : 0.363373875618}
2019-04-14 17:41:49.91: SIM {TimeUS : 57134637, Roll : 2.5, Pitch : -15.77, Yaw : 43.44, Alt : 49.2799987793, Lat : 49.2836106, Lng : -123.1149555, Q1 : 0.918871164322, Q2 : 0.0709139481187, Q3 : -0.119460083544, Q4 : 0.369291573763}
2019-04-14 17:41:50.01: SIM {TimeUS : 57234597, Roll : 1.66, Pitch : -15.88, Yaw : 44.6, Alt : 49.2799987793, Lat : 49.2836127, Lng : -123.1149521, Q1 : 0.915471076965, Q2 : 0.0657115504146, Q3 : -0.122348614037, Q4 : 0.377657949924}
2019-04-14 17:41:50.11: SIM {TimeUS : 57334557, Roll : 0.77, Pitch : -16.01, Yaw : 45.91, Alt : 49.2799987793, Lat : 49.2836147, Lng : -123.1149487, Q1 : 0.911423683167, Q2 : 0.0605057030916, Q3 : -0.125628739595, Q4 : 0.387121915817}
2019-04-14 17:41:50.21: SIM {TimeUS : 57434517, Roll : -0.05, Pitch : -16.15, Yaw : 47.21, Alt : 49.2900009155, Lat : 49.2836168, Lng : -123.1149451, Q1 : 0.907251119614, Q2 : 0.0558376573026, Q3 : -0.128907233477, Q4 : 0.396434783936}
2019-04-14 17:41:50.31: SIM {TimeUS : 57534477, Roll : -0.73, Pitch : -16.26, Yaw : 48.35, Alt : 49.2900009155, Lat : 49.2836189, Lng : -123.1149415, Q1 : 0.903450250626, Q2 : 0.0521623156965, Q3 : -0.131677791476, Q4 : 0.404620528221}
2019-04-14 17:41:50.41: SIM {TimeUS : 57634437, Roll : -1.22, Pitch : -16.35, Yaw : 49.24, Alt : 49.2900009155, Lat : 49.2836209, Lng : -123.1149379, Q1 : 0.900417864323, Q2 : 0.0496602356434, Q3 : -0.133679196239, Q4 : 0.410988301039}
2019-04-14 17:41:50.51: SIM {TimeUS : 57734397, Roll : -1.48, Pitch : -16.4, Yaw : 49.82, Alt : 49.2900009155, Lat : 49.2836232, Lng : -123.1149342, Q1 : 0.898401021957, Q2 : 0.0484283305705, Q3 : -0.134755909443, Q4 : 0.415176123381}
2019-04-14 17:41:50.61: SIM {TimeUS : 57834357, Roll : -1.53, Pitch : -16.42, Yaw : 50.07, Alt : 49.2900009155, Lat : 49.2836254, Lng : -123.1149305, Q1 : 0.897467494011, Q2 : 0.0484270863235, Q3 : -0.134987026453, Q4 : 0.417115598917}
2019-04-14 17:41:50.71: SIM {TimeUS : 57934317, Roll : -1.4, Pitch : -16.45, Yaw : 50.03, Alt : 49.2900009155, Lat : 49.2836276, Lng : -123.1149267, Q1 : 0.897511541843, Q2 : 0.0495416335762, Q3 : -0.13475215435, Q4 : 0.416965901852}
2019-04-14 17:41:50.81: SIM {TimeUS : 58034277, Roll : -1.13, Pitch : -16.5, Yaw : 49.76, Alt : 49.2900009155, Lat : 49.2836299, Lng : -123.1149229, Q1 : 0.898338854313, Q2 : 0.0514526851475, Q3 : -0.134323805571, Q4 : 0.415086835623}
2019-04-14 17:41:50.91: SIM {TimeUS : 58134237, Roll : -0.81, Pitch : -16.57, Yaw : 49.32, Alt : 49.2900009155, Lat : 49.2836323, Lng : -123.1149191, Q1 : 0.899707973003, Q2 : 0.0537434257567, Q3 : -0.133899465203, Q4 : 0.411956518888}
2019-04-14 17:41:51.01: SIM {TimeUS : 58234197, Roll : -0.46, Pitch : -16.62, Yaw : 48.78, Alt : 49.2900009155, Lat : 49.2836347, Lng : -123.1149152, Q1 : 0.901392102242, Q2 : 0.056049566716, Q3 : -0.133334949613, Q4 : 0.408133000135}
2019-04-14 17:41:51.11: SIM {TimeUS : 58334157, Roll : -0.11, Pitch : -16.65, Yaw : 48.23, Alt : 49.2900009155, Lat : 49.2836371, Lng : -123.1149113, Q1 : 0.903143405914, Q2 : 0.058277644217, Q3 : -0.132597565651, Q4 : 0.40417021513}
2019-04-14 17:41:51.21: SIM {TimeUS : 58434117, Roll : 0.18, Pitch : -16.67, Yaw : 47.72, Alt : 49.2900009155, Lat : 49.2836395, Lng : -123.1149073, Q1 : 0.904758036137, Q2 : 0.0600998848677, Q3 : -0.131984829903, Q4 : 0.400475949049}
2019-04-14 17:41:51.31: SIM {TimeUS : 58534077, Roll : 0.42, Pitch : -16.69, Yaw : 47.3, Alt : 49.2900009155, Lat : 49.2836419, Lng : -123.1149033, Q1 : 0.906063735485, Q2 : 0.0616296119988, Q3 : -0.131503269076, Q4 : 0.397438377142}
2019-04-14 17:41:51.41: SIM {TimeUS : 58634870, Roll : 0.6, Pitch : -16.7, Yaw : 47.0, Alt : 49.2900009155, Lat : 49.2836444, Lng : -123.1148992, Q1 : 0.907001376152, Q2 : 0.0627359524369, Q3 : -0.131085172296, Q4 : 0.395258665085}
2019-04-14 17:41:51.51: SIM {TimeUS : 58734830, Roll : 0.69, Pitch : -16.7, Yaw : 46.83, Alt : 49.2900009155, Lat : 49.2836468, Lng : -123.1148952, Q1 : 0.907530426979, Q2 : 0.0632195472717, Q3 : -0.130906239152, Q4 : 0.394024550915}
2019-04-14 17:41:51.61: SIM {TimeUS : 58834790, Roll : 0.67, Pitch : -16.73, Yaw : 46.79, Alt : 49.2900009155, Lat : 49.2836493, Lng : -123.114891, Q1 : 0.907655358315, Q2 : 0.0631476566195, Q3 : -0.131213992834, Q4 : 0.393645852804}
2019-04-14 17:41:51.71: SIM {TimeUS : 58934750, Roll : 0.58, Pitch : -16.78, Yaw : 46.85, Alt : 49.2900009155, Lat : 49.2836518, Lng : -123.1148868, Q1 : 0.907432496548, Q2 : 0.0626539066434, Q3 : -0.131909832358, Q4 : 0.394005835056}
2019-04-14 17:41:51.81: SIM {TimeUS : 59034710, Roll : 0.43, Pitch : -16.85, Yaw : 46.99, Alt : 49.2900009155, Lat : 49.2836542, Lng : -123.1148827, Q1 : 0.906941473484, Q2 : 0.0619005337358, Q3 : -0.132901400328, Q4 : 0.394921213388}
2019-04-14 17:41:51.91: SIM {TimeUS : 59134670, Roll : 0.26, Pitch : -16.92, Yaw : 47.18, Alt : 49.2900009155, Lat : 49.2836567, Lng : -123.1148784, Q1 : 0.906299352646, Q2 : 0.0609917715192, Q3 : -0.133930325508, Q4 : 0.396187096834}
2019-04-14 17:41:52.01: SIM {TimeUS : 59234630, Roll : 0.1, Pitch : -16.97, Yaw : 47.39, Alt : 49.2900009155, Lat : 49.2836592, Lng : -123.1148742, Q1 : 0.905598759651, Q2 : 0.0601629763842, Q3 : -0.134824410081, Q4 : 0.397610068321}
2019-04-14 17:41:52.11: SIM {TimeUS : 59334590, Roll : -0.03, Pitch : -17.01, Yaw : 47.59, Alt : 49.2900009155, Lat : 49.2836618, Lng : -123.1148698, Q1 : 0.90493875742, Q2 : 0.0594267174602, Q3 : -0.135486349463, Q4 : 0.398995935917}
2019-04-14 17:41:52.21: SIM {TimeUS : 59434550, Roll : -0.14, Pitch : -17.03, Yaw : 47.75, Alt : 49.2900009155, Lat : 49.2836644, Lng : -123.1148655, Q1 : 0.904395759106, Q2 : 0.0588374063373, Q3 : -0.135911092162, Q4 : 0.400168389082}
2019-04-14 17:41:52.31: SIM {TimeUS : 59534510, Roll : -0.19, Pitch : -17.04, Yaw : 47.87, Alt : 49.2900009155, Lat : 49.2836669, Lng : -123.1148613, Q1 : 0.904005110264, Q2 : 0.058552224189, Q3 : -0.136109158397, Q4 : 0.4010245502}
2019-04-14 17:41:52.41: SIM {TimeUS : 59634470, Roll : -0.21, Pitch : -17.06, Yaw : 47.93, Alt : 49.2999992371, Lat : 49.2836694, Lng : -123.1148569, Q1 : 0.903760075569, Q2 : 0.0586010664701, Q3 : -0.13629771769, Q4 : 0.401505410671}
2019-04-14 17:41:52.51: SIM {TimeUS : 59734430, Roll : -0.19, Pitch : -17.08, Yaw : 47.95, Alt : 49.2999992371, Lat : 49.283672, Lng : -123.1148525, Q1 : 0.90367859602, Q2 : 0.0588532015681, Q3 : -0.136428236961, Q4 : 0.401607602835}
2019-04-14 17:41:52.61: SIM {TimeUS : 59834390, Roll : -0.15, Pitch : -17.12, Yaw : 47.91, Alt : 49.2999992371, Lat : 49.2836747, Lng : -123.1148481, Q1 : 0.90374237299, Q2 : 0.0592635795474, Q3 : -0.136565342546, Q4 : 0.40135705471}
2019-04-14 17:41:52.71: SIM {TimeUS : 59934350, Roll : -0.09, Pitch : -17.16, Yaw : 47.84, Alt : 49.2999992371, Lat : 49.2836773, Lng : -123.1148437, Q1 : 0.903921306133, Q2 : 0.0597486682236, Q3 : -0.136726692319, Q4 : 0.400826901197}
2019-04-14 17:41:52.81: SIM {TimeUS : 60034310, Roll : -0.04, Pitch : -17.19, Yaw : 47.74, Alt : 49.2999992371, Lat : 49.2836799, Lng : -123.1148393, Q1 : 0.904189407825, Q2 : 0.060198944062, Q3 : -0.136876553297, Q4 : 0.400103002787}
2019-04-14 17:41:52.91: SIM {TimeUS : 60134270, Roll : 0.0, Pitch : -17.22, Yaw : 47.63, Alt : 49.2999992371, Lat : 49.2836826, Lng : -123.1148349, Q1 : 0.904517292976, Q2 : 0.0604571141303, Q3 : -0.13703328371, Q4 : 0.399268507957}
2019-04-14 17:41:53.01: SIM {TimeUS : 60234230, Roll : 0.01, Pitch : -17.24, Yaw : 47.52, Alt : 49.2999992371, Lat : 49.2836852, Lng : -123.1148304, Q1 : 0.904858469963, Q2 : 0.0605756118894, Q3 : -0.13715955615, Q4 : 0.398433208466}
2019-04-14 17:41:53.11: SIM {TimeUS : 60334190, Roll : 0.02, Pitch : -17.26, Yaw : 47.42, Alt : 49.2999992371, Lat : 49.2836878, Lng : -123.1148259, Q1 : 0.905166745186, Q2 : 0.0606069974601, Q3 : -0.137346118689, Q4 : 0.397663146257}
2019-04-14 17:41:53.21: SIM {TimeUS : 60434150, Roll : 0.05, Pitch : -17.29, Yaw : 47.34, Alt : 49.2999992371, Lat : 49.2836906, Lng : -123.1148214, Q1 : 0.905397474766, Q2 : 0.0608259253204, Q3 : -0.137546479702, Q4 : 0.397034734488}
2019-04-14 17:41:53.31: SIM {TimeUS : 60534110, Roll : 0.09, Pitch : -17.33, Yaw : 47.28, Alt : 49.2999992371, Lat : 49.2836932, Lng : -123.1148169, Q1 : 0.905551850796, Q2 : 0.0611704289913, Q3 : -0.13769505918, Q4 : 0.396577984095}
2019-04-14 17:41:53.41: SIM {TimeUS : 60634070, Roll : 0.13, Pitch : -17.36, Yaw : 47.24, Alt : 49.3100013733, Lat : 49.283696, Lng : -123.1148123, Q1 : 0.905629098415, Q2 : 0.0615478120744, Q3 : -0.137854129076, Q4 : 0.396287858486}
2019-04-14 17:41:53.51: SIM {TimeUS : 60734863, Roll : 0.17, Pitch : -17.4, Yaw : 47.22, Alt : 49.3100013733, Lat : 49.2836986, Lng : -123.1148078, Q1 : 0.905634462833, Q2 : 0.0619852095842, Q3 : -0.137995228171, Q4 : 0.396158248186}
2019-04-14 17:41:53.61: SIM {TimeUS : 60834823, Roll : 0.19, Pitch : -17.42, Yaw : 47.22, Alt : 49.3100013733, Lat : 49.2837014, Lng : -123.1148032, Q1 : 0.905609190464, Q2 : 0.0622080080211, Q3 : -0.138106763363, Q4 : 0.396142303944}
2019-04-14 17:41:53.71: SIM {TimeUS : 60934783, Roll : 0.17, Pitch : -17.43, Yaw : 47.23, Alt : 49.3100013733, Lat : 49.283704, Lng : -123.1147986, Q1 : 0.905577123165, Q2 : 0.0620963983238, Q3 : -0.138227492571, Q4 : 0.396191000938}
2019-04-14 17:41:53.81: SIM {TimeUS : 61034743, Roll : 0.12, Pitch : -17.43, Yaw : 47.24, Alt : 49.3100013733, Lat : 49.2837069, Lng : -123.114794, Q1 : 0.905531823635, Q2 : 0.0617636330426, Q3 : -0.138442799449, Q4 : 0.396271318197}
2019-04-14 17:41:53.91: SIM {TimeUS : 61134703, Roll : 0.08, Pitch : -17.44, Yaw : 47.27, Alt : 49.3100013733, Lat : 49.2837095, Lng : -123.1147894, Q1 : 0.905472934246, Q2 : 0.0614807382226, Q3 : -0.138612210751, Q4 : 0.396390646696}
2019-04-14 17:41:54.01: SIM {TimeUS : 61234663, Roll : 0.06, Pitch : -17.45, Yaw : 47.29, Alt : 49.3100013733, Lat : 49.2837123, Lng : -123.1147848, Q1 : 0.905406117439, Q2 : 0.0613527223468, Q3 : -0.13878326118, Q4 : 0.396503269672}
2019-04-14 17:41:54.11: SIM {TimeUS : 61334623, Roll : 0.07, Pitch : -17.49, Yaw : 47.3, Alt : 49.3100013733, Lat : 49.283715, Lng : -123.1147802, Q1 : 0.905314564705, Q2 : 0.0615583918989, Q3 : -0.139049515128, Q4 : 0.396587103605}
2019-04-14 17:41:54.21: SIM {TimeUS : 61434583, Roll : 0.08, Pitch : -17.55, Yaw : 47.3, Alt : 49.3100013733, Lat : 49.2837178, Lng : -123.1147755, Q1 : 0.905225217342, Q2 : 0.0619022473693, Q3 : -0.139452144504, Q4 : 0.396596193314}
2019-04-14 17:41:54.31: SIM {TimeUS : 61534543, Roll : 0.09, Pitch : -17.58, Yaw : 47.29, Alt : 49.3199996948, Lat : 49.2837205, Lng : -123.1147709, Q1 : 0.905203342438, Q2 : 0.0620618872344, Q3 : -0.13968808949, Q4 : 0.396538227797}
2019-04-14 17:41:54.41: SIM {TimeUS : 61634503, Roll : 0.09, Pitch : -17.58, Yaw : 47.28, Alt : 49.3199996948, Lat : 49.2837234, Lng : -123.1147662, Q1 : 0.905244529247, Q2 : 0.0620841048658, Q3 : -0.139687225223, Q4 : 0.396441012621}
2019-04-14 17:41:54.51: SIM {TimeUS : 61734463, Roll : 0.09, Pitch : -17.59, Yaw : 47.26, Alt : 49.3199996948, Lat : 49.2837261, Lng : -123.1147615, Q1 : 0.905299663544, Q2 : 0.0620704069734, Q3 : -0.13976624608, Q4 : 0.3962893188}
2019-04-14 17:41:54.61: SIM {TimeUS : 61834423, Roll : 0.09, Pitch : -17.61, Yaw : 47.24, Alt : 49.3199996948, Lat : 49.283729, Lng : -123.1147569, Q1 : 0.905354499817, Q2 : 0.0620918758214, Q3 : -0.140005499125, Q4 : 0.39607617259}
2019-04-14 17:41:54.71: SIM {TimeUS : 61934383, Roll : 0.08, Pitch : -17.64, Yaw : 47.21, Alt : 49.3199996948, Lat : 49.2837317, Lng : -123.1147522, Q1 : 0.905417084694, Q2 : 0.0621249340475, Q3 : -0.14022873342, Q4 : 0.395848870277}
2019-04-14 17:41:54.81: SIM {TimeUS : 62034343, Roll : 0.09, Pitch : -17.67, Yaw : 47.18, Alt : 49.3199996948, Lat : 49.2837344, Lng : -123.1147475, Q1 : 0.905476093292, Q2 : 0.0622146725655, Q3 : -0.140433341265, Q4 : 0.395627230406}
2019-04-14 17:41:54.91: SIM {TimeUS : 62134303, Roll : 0.1, Pitch : -17.68, Yaw : 47.16, Alt : 49.3199996948, Lat : 49.2837373, Lng : -123.1147427, Q1 : 0.905543148518, Q2 : 0.0623309016228, Q3 : -0.140545397997, Q4 : 0.39541554451}
2019-04-14 17:41:55.01: SIM {TimeUS : 62234263, Roll : 0.12, Pitch : -17.7, Yaw : 47.13, Alt : 49.3199996948, Lat : 49.2837401, Lng : -123.114738, Q1 : 0.905603945255, Q2 : 0.0625464171171, Q3 : -0.140602603555, Q4 : 0.395221948624}
2019-04-14 17:41:55.11: SIM {TimeUS : 62334223, Roll : 0.15, Pitch : -17.7, Yaw : 47.1, Alt : 49.3199996948, Lat : 49.283743, Lng : -123.1147333, Q1 : 0.905671417713, Q2 : 0.062720887363, Q3 : -0.140563547611, Q4 : 0.395053505898}
2019-04-14 17:41:55.21: SIM {TimeUS : 62434183, Roll : 0.17, Pitch : -17.71, Yaw : 47.08, Alt : 49.3199996948, Lat : 49.2837458, Lng : -123.1147286, Q1 : 0.905725181103, Q2 : 0.0629054531455, Q3 : -0.140541613102, Q4 : 0.394908726215}
2019-04-14 17:41:55.31: SIM {TimeUS : 62534143, Roll : 0.19, Pitch : -17.73, Yaw : 47.06, Alt : 49.3199996948, Lat : 49.2837485, Lng : -123.1147238, Q1 : 0.905755758286, Q2 : 0.0631127804518, Q3 : -0.140621483326, Q4 : 0.394777059555}
2019-04-14 17:41:55.41: SIM {TimeUS : 62634103, Roll : 0.2, Pitch : -17.76, Yaw : 47.05, Alt : 49.3199996948, Lat : 49.2837515, Lng : -123.114719, Q1 : 0.905770301819, Q2 : 0.0632463544607, Q3 : -0.140877828002, Q4 : 0.394630968571}
2019-04-14 17:41:55.51: SIM {TimeUS : 62734063, Roll : 0.18, Pitch : -17.8, Yaw : 47.03, Alt : 49.3199996948, Lat : 49.2837543, Lng : -123.1147143, Q1 : 0.905776381493, Q2 : 0.0631940513849, Q3 : -0.141280770302, Q4 : 0.394481182098}
2019-04-14 17:41:55.61: SIM {TimeUS : 62834856, Roll : 0.15, Pitch : -17.84, Yaw : 47.03, Alt : 49.3199996948, Lat : 49.2837571, Lng : -123.1147095, Q1 : 0.905768930912, Q2 : 0.0631370991468, Q3 : -0.141704082489, Q4 : 0.39435556531}
2019-04-14 17:41:55.71: SIM {TimeUS : 62934816, Roll : 0.15, Pitch : -17.87, Yaw : 47.02, Alt : 49.3199996948, Lat : 49.28376, Lng : -123.1147047, Q1 : 0.905757725239, Q2 : 0.0632374808192, Q3 : -0.141911357641, Q4 : 0.394290685654}
2019-04-14 17:41:55.81: SIM {TimeUS : 63034776, Roll : 0.17, Pitch : -17.87, Yaw : 47.01, Alt : 49.3199996948, Lat : 49.2837629, Lng : -123.1146999, Q1 : 0.905772745609, Q2 : 0.0633652806282, Q3 : -0.141814962029, Q4 : 0.394270390272}
2019-04-14 17:41:55.91: SIM {TimeUS : 63134736, Roll : 0.19, Pitch : -17.83, Yaw : 47.01, Alt : 49.3300018311, Lat : 49.2837656, Lng : -123.1146951, Q1 : 0.905832469463, Q2 : 0.063327640295, Q3 : -0.14149145782, Q4 : 0.394255399704}
2019-04-14 17:41:56.01: SIM {TimeUS : 63234696, Roll : 0.17, Pitch : -17.81, Yaw : 47.0, Alt : 49.3300018311, Lat : 49.2837685, Lng : -123.1146903, Q1 : 0.905887246132, Q2 : 0.0631531774998, Q3 : -0.141354948282, Q4 : 0.394206494093}
2019-04-14 17:41:56.11: SIM {TimeUS : 63334656, Roll : 0.16, Pitch : -17.8, Yaw : 46.99, Alt : 49.3300018311, Lat : 49.2837715, Lng : -123.1146855, Q1 : 0.90592944622, Q2 : 0.0630150213838, Q3 : -0.141306445003, Q4 : 0.394148916006}
2019-04-14 17:41:56.21: SIM {TimeUS : 63434616, Roll : 0.15, Pitch : -17.79, Yaw : 46.99, Alt : 49.3300018311, Lat : 49.2837743, Lng : -123.1146807, Q1 : 0.905964016914, Q2 : 0.0629194229841, Q3 : -0.141320064664, Q4 : 0.39407992363}
2019-04-14 17:41:56.31: SIM {TimeUS : 63534576, Roll : 0.15, Pitch : -17.81, Yaw : 46.98, Alt : 49.3300018311, Lat : 49.2837771, Lng : -123.1146759, Q1 : 0.905974626541, Q2 : 0.0629322752357, Q3 : -0.141500025988, Q4 : 0.393988847733}
2019-04-14 17:41:56.41: SIM {TimeUS : 63634536, Roll : 0.15, Pitch : -17.84, Yaw : 46.97, Alt : 49.3300018311, Lat : 49.2837801, Lng : -123.114671, Q1 : 0.905974626541, Q2 : 0.063058771193, Q3 : -0.141706034541, Q4 : 0.393894672394}
2019-04-14 17:41:56.51: SIM {TimeUS : 63734496, Roll : 0.15, Pitch : -17.88, Yaw : 46.96, Alt : 49.3300018311, Lat : 49.283783, Lng : -123.1146661, Q1 : 0.905965745449, Q2 : 0.063171043992, Q3 : -0.142025887966, Q4 : 0.393781930208}
2019-04-14 17:41:56.61: SIM {TimeUS : 63834456, Roll : 0.15, Pitch : -17.93, Yaw : 46.94, Alt : 49.3300018311, Lat : 49.2837859, Lng : -123.1146613, Q1 : 0.905947685242, Q2 : 0.0633004680276, Q3 : -0.142420917749, Q4 : 0.393660008907}
2019-04-14 17:41:56.71: SIM {TimeUS : 63934416, Roll : 0.15, Pitch : -17.96, Yaw : 46.93, Alt : 49.3300018311, Lat : 49.2837887, Lng : -123.1146565, Q1 : 0.905952513218, Q2 : 0.0633869990706, Q3 : -0.142670303583, Q4 : 0.393544495106}
2019-04-14 17:41:56.81: SIM {TimeUS : 64034376, Roll : 0.14, Pitch : -17.98, Yaw : 46.92, Alt : 49.3300018311, Lat : 49.2837916, Lng : -123.1146515, Q1 : 0.905969023705, Q2 : 0.0634254589677, Q3 : -0.142891868949, Q4 : 0.393419981003}
2019-04-14 17:41:56.91: SIM {TimeUS : 64134336, Roll : 0.14, Pitch : -18.0, Yaw : 46.9, Alt : 49.3300018311, Lat : 49.2837946, Lng : -123.1146468, Q1 : 0.905992746353, Q2 : 0.0634608417749, Q3 : -0.143058747053, Q4 : 0.393298923969}
2019-04-14 17:41:57.01: SIM {TimeUS : 64234296, Roll : 0.16, Pitch : -18.0, Yaw : 46.89, Alt : 49.3300018311, Lat : 49.2837975, Lng : -123.1146419, Q1 : 0.906037807465, Q2 : 0.0635728240013, Q3 : -0.142958179116, Q4 : 0.393213689327}
2019-04-14 17:41:57.11: SIM {TimeUS : 64334256, Roll : 0.19, Pitch : -18.0, Yaw : 46.88, Alt : 49.3300018311, Lat : 49.2838003, Lng : -123.1146369, Q1 : 0.90606790781, Q2 : 0.06378929317, Q3 : -0.142877861857, Q4 : 0.393138408661}
2019-04-14 17:41:57.21: SIM {TimeUS : 64434216, Roll : 0.21, Pitch : -18.01, Yaw : 46.86, Alt : 49.3300018311, Lat : 49.2838032, Lng : -123.1146322, Q1 : 0.906087875366, Q2 : 0.0639429315925, Q3 : -0.14292524755, Q4 : 0.393050223589}
2019-04-14 17:41:57.31: SIM {TimeUS : 64534176, Roll : 0.22, Pitch : -18.01, Yaw : 46.85, Alt : 49.3400001526, Lat : 49.2838062, Lng : -123.1146273, Q1 : 0.906114220619, Q2 : 0.0640092939138, Q3 : -0.142932251096, Q4 : 0.392976105213}
2019-04-14 17:41:57.41: SIM {TimeUS : 64634136, Roll : 0.22, Pitch : -18.01, Yaw : 46.84, Alt : 49.3400001526, Lat : 49.2838091, Lng : -123.1146223, Q1 : 0.906148910522, Q2 : 0.0640264376998, Q3 : -0.142858669162, Q4 : 0.392920106649}
2019-04-14 17:41:57.51: SIM {TimeUS : 64734096, Roll : 0.22, Pitch : -18.0, Yaw : 46.84, Alt : 49.3400001526, Lat : 49.283812, Lng : -123.1146175, Q1 : 0.906184077263, Q2 : 0.0639905482531, Q3 : -0.142786070704, Q4 : 0.392871171236}
2019-04-14 17:41:57.61: SIM {TimeUS : 64834889, Roll : 0.2, Pitch : -18.01, Yaw : 46.83, Alt : 49.3400001526, Lat : 49.283815, Lng : -123.1146126, Q1 : 0.906197965145, Q2 : 0.0638865604997, Q3 : -0.142961084843, Q4 : 0.392792493105}
2019-04-14 17:41:57.71: SIM {TimeUS : 64934849, Roll : 0.18, Pitch : -18.04, Yaw : 46.83, Alt : 49.3400001526, Lat : 49.2838178, Lng : -123.1146077, Q1 : 0.906190991402, Q2 : 0.0637699961662, Q3 : -0.143309921026, Q4 : 0.392700344324}
2019-04-14 17:41:57.81: SIM {TimeUS : 65034809, Roll : 0.16, Pitch : -18.05, Yaw : 46.82, Alt : 49.3400001526, Lat : 49.2838208, Lng : -123.1146028, Q1 : 0.906212210655, Q2 : 0.0636288449168, Q3 : -0.143398806453, Q4 : 0.392641842365}
2019-04-14 17:41:57.91: SIM {TimeUS : 65134769, Roll : 0.16, Pitch : -18.03, Yaw : 46.82, Alt : 49.3400001526, Lat : 49.2838238, Lng : -123.1145979, Q1 : 0.90624576807, Q2 : 0.063618734479, Q3 : -0.143254548311, Q4 : 0.392618656158}
2019-04-14 17:41:58.01: SIM {TimeUS : 65234729, Roll : 0.18, Pitch : -18.02, Yaw : 46.81, Alt : 49.3400001526, Lat : 49.2838267, Lng : -123.114593, Q1 : 0.906267166138, Q2 : 0.0637094900012, Q3 : -0.14313480258, Q4 : 0.392598181963}
2019-04-14 17:41:58.11: SIM {TimeUS : 65334689, Roll : 0.19, Pitch : -18.03, Yaw : 46.8, Alt : 49.3400001526, Lat : 49.2838297, Lng : -123.114588, Q1 : 0.906275033951, Q2 : 0.0637839660048, Q3 : -0.143214195967, Q4 : 0.392539024353}
2019-04-14 17:41:58.21: SIM {TimeUS : 65434649, Roll : 0.17, Pitch : -18.06, Yaw : 46.79, Alt : 49.3400001526, Lat : 49.2838325, Lng : -123.1145831, Q1 : 0.906282782555, Q2 : 0.0637468397617, Q3 : -0.143435448408, Q4 : 0.39244633913}
2019-04-14 17:41:58.31: SIM {TimeUS : 65534609, Roll : 0.15, Pitch : -18.08, Yaw : 46.79, Alt : 49.3400001526, Lat : 49.2838354, Lng : -123.1145782, Q1 : 0.906290113926, Q2 : 0.0636098980904, Q3 : -0.143753737211, Q4 : 0.39233520627}
2019-04-14 17:41:58.41: SIM {TimeUS : 65634569, Roll : 0.13, Pitch : -18.1, Yaw : 46.78, Alt : 49.3400001526, Lat : 49.2838384, Lng : -123.1145733, Q1 : 0.906306445599, Q2 : 0.0635519325733, Q3 : -0.143973037601, Q4 : 0.392226487398}
2019-04-14 17:41:58.51: SIM {TimeUS : 65734529, Roll : 0.13, Pitch : -18.12, Yaw : 46.77, Alt : 49.3400001526, Lat : 49.2838414, Lng : -123.1145684, Q1 : 0.906318604946, Q2 : 0.063615038991, Q3 : -0.144131287932, Q4 : 0.392129927874}
