2019-04-14 18:06:06.30: SIM {TimeUS : 40716207, Roll : 0.0, Pitch : 0.0, Yaw : 0.0, Alt : 30.1000003815, Lat : 49.28357, Lng : -123.11502, Q1 : 1.0, Q2 : 0.0, Q3 : 0.0, Q4 : 0.0}
2019-04-14 18:06:06.41: SIM {TimeUS : 40835326, Roll : 0.0, Pitch : 0.0, Yaw : 0.0, Alt : 30.1000003815, Lat : 49.28357, Lng : -123.11502, Q1 : 1.0, Q2 : 0.0, Q3 : 0.0, Q4 : 0.0}
2019-04-14 18:06:06.51: SIM {TimeUS : 40935286, Roll : 0.0, Pitch : 0.0, Yaw : 0.0, Alt : 30.1000003815, Lat : 49.28357, Lng : -123.11502, Q1 : 1.0, Q2 : 0.0, Q3 : 0.0, Q4 : 0.0}
2019-04-14 18:06:06.61: SIM {TimeUS : 41035246, Roll : 0.0, Pitch : 0.0, Yaw : 0.0, Alt : 30.1000003815, Lat : 49.28357, Lng : -123.11502, Q1 : 1.0, Q2 : 0.0, Q3 : 0.0, Q4 : 0.0}
2019-04-14 18:06:06.71: SIM {TimeUS : 41135206, Roll : 0.0, Pitch : 0.0, Yaw : 0.0, Alt : 30.1000003815, Lat : 49.28357, Lng : -123.11502, Q1 : 1.0, Q2 : 0.0, Q3 : 0.0, Q4 : 0.0}
2019-04-14 18:06:06.81: SIM {TimeUS : 41235166, Roll : 0.0, Pitch : 0.0, Yaw : 0.0, Alt : 30.1000003815, Lat : 49.28357, Lng : -123.11502, Q1 : 1.0, Q2 : 0.0, Q3 : 0.0, Q4 : 0.0}
2019-04-14 18:06:06.91: SIM {TimeUS : 41335126, Roll : 0.0, Pitch : 0.0, Yaw : 0.0, Alt : 30.1000003815, Lat : 49.28357, Lng : -123.11502, Q1 : 1.0, Q2 : 0.0, Q3 : 0.0, Q4 : 0.0}
2019-04-14 18:06:07.01: SIM {TimeUS : 41435086, Roll : 0.0, Pitch : 0.0, Yaw : 0.0, Alt : 30.1000003815, Lat : 49.28357, Lng : -123.11502, Q1 : 1.0, Q2 : 0.0, Q3 : 0.0, Q4 : 0.0}
2019-04-14 18:06:07.11: SIM {TimeUS : 41535046, Roll : 0.0, Pitch : 0.0, Yaw : 0.0, Alt : 30.1000003815, Lat : 49.28357, Lng : -123.11502, Q1 : 1.0, Q2 : 0.0, Q3 : 0.0, Q4 : 0.0}
2019-04-14 18:06:07.21: SIM {TimeUS : 41635006, Roll : 0.0, Pitch : 0.0, Yaw : 0.0, Alt : 30.1000003815, Lat : 49.28357, Lng : -123.11502, Q1 : 1.0, Q2 : 0.0, Q3 : 0.0, Q4 : 0.0}
2019-04-14 18:06:07.31: SIM {TimeUS : 41734966, Roll : 0.0, Pitch : 0.0, Yaw : 0.0, Alt : 30.1000003815, Lat : 49.28357, Lng : -123.11502, Q1 : 1.0, Q2 : 0.0, Q3 : 0.0, Q4 : 0.0}
2019-04-14 18:06:07.41: SIM {TimeUS : 41834926, Roll : 0.0, Pitch : 0.0, Yaw : 0.0, Alt : 30.1000003815, Lat : 49.28357, Lng : -123.11502, Q1 : 1.0, Q2 : 0.0, Q3 : 0.0, Q4 : 0.0}
2019-04-14 18:06:07.51: SIM {TimeUS : 41934886, Roll : 0.0, Pitch : 0.0, Yaw : 0.0, Alt : 30.1000003815, Lat : 49.28357, Lng : -123.11502, Q1 : 1.0, Q2 : 0.0, Q3 : 0.0, Q4 : 0.0}
2019-04-14 18:06:07.61: SIM {TimeUS : 42034846, Roll : 0.0, Pitch : 0.0, Yaw : 0.0, Alt : 30.1000003815, Lat : 49.28357, Lng : -123.11502, Q1 : 1.0, Q2 : 0.0, Q3 : 0.0, Q4 : 0.0}
2019-04-14 18:06:07.71: SIM {TimeUS : 42134806, Roll : 0.0, Pitch : 0.0, Yaw : 0.0, Alt : 30.1000003815, Lat : 49.28357, Lng : -123.11502, Q1 : 1.0, Q2 : 0.0, Q3 : 0.0, Q4 : 0.0}
2019-04-14 18:06:07.81: SIM {TimeUS : 42234766, Roll : 0.0, Pitch : 0.0, Yaw : 0.0, Alt : 30.1000003815, Lat : 49.28357, Lng : -123.11502, Q1 : 1.0, Q2 : 0.0, Q3 : 0.0, Q4 : 0.0}
2019-04-14 18:06:07.91: SIM {TimeUS : 42334726, Roll : 0.0, Pitch : 0.0, Yaw : 0.0, Alt : 30.1000003815, Lat : 49.28357, Lng : -123.11502, Q1 : 1.0, Q2 : 0.0, Q3 : 0.0, Q4 : 0.0}
2019-04-14 18:06:08.01: SIM {TimeUS : 42434686, Roll : 0.0, Pitch : 0.0, Yaw : 0.0, Alt : 30.1000003815, Lat : 49.28357, Lng : -123.11502, Q1 : 1.0, Q2 : 0.0, Q3 : 0.0, Q4 : 0.0}
2019-04-14 18:06:08.11: SIM {TimeUS : 42534646, Roll : 0.0, Pitch : 0.0, Yaw : 0.0, Alt : 30.1000003815, Lat : 49.28357, Lng : -123.11502, Q1 : 1.0, Q2 : 0.0, Q3 : 0.0, Q4 : 0.0}
2019-04-14 18:06:08.21: SIM {TimeUS : 42634606, Roll : 0.0, Pitch : 0.0, Yaw : 0.0, Alt : 30.1000003815, Lat : 49.28357, Lng : -123.11502, Q1 : 1.0, Q2 : 0.0, Q3 : 0.0, Q4 : 0.0}
2019-04-14 18:06:08.31: SIM {TimeUS : 42734566, Roll : 0.0, Pitch : 0.0, Yaw : 0.0, Alt : 30.1000003815, Lat : 49.28357, Lng : -123.11502, Q1 : 1.0, Q2 : 0.0, Q3 : 0.0, Q4 : 0.0}
2019-04-14 18:06:08.42: SIM {TimeUS : 42835359, Roll : 0.0, Pitch : 0.0, Yaw : 0.0, Alt : 30.1000003815, Lat : 49.28357, Lng : -123.11502, Q1 : 1.0, Q2 : 0.0, Q3 : 0.0, Q4 : 0.0}
2019-04-14 18:06:08.51: SIM {TimeUS : 42935319, Roll : 0.0, Pitch : 0.0, Yaw : 0.0, Alt : 30.1000003815, Lat : 49.28357, Lng : -123.11502, Q1 : 1.0, Q2 : 0.0, Q3 : 0.0, Q4 : 0.0}
2019-04-14 18:06:08.61: SIM {TimeUS : 43035279, Roll : 0.0, Pitch : 0.0, Yaw : 360.0, Alt : 30.1000003815, Lat : 49.28357, Lng : -123.11502, Q1 : 1.0, Q2 : 0.0, Q3 : 0.0, Q4 : -7.94657811776e-11}
2019-04-14 18:06:08.71: SIM {TimeUS : 43135239, Roll : 0.0, Pitch : 0.0, Yaw : 360.0, Alt : 30.1000003815, Lat : 49.28357, Lng : -123.11502, Q1 : 1.0, Q2 : 0.0, Q3 : 0.0, Q4 : -2.43134365974e-08}
2019-04-14 18:06:08.81: SIM {TimeUS : 43235199, Roll : 0.0, Pitch : 0.0, Yaw : 359.99, Alt : 30.1000003815, Lat : 49.28357, Lng : -123.11502, Q1 : 1.0, Q2 : 0.0, Q3 : 0.0, Q4 : -1.85399159136e-07}
2019-04-14 18:06:08.91: SIM {TimeUS : 43335159, Roll : 0.0, Pitch : 0.0, Yaw : 359.99, Alt : 30.1000003815, Lat : 49.28357, Lng : -123.11502, Q1 : 1.0, Q2 : 0.0, Q3 : 0.0, Q4 : -3.05644618948e-07}
2019-04-14 18:06:09.01: SIM {TimeUS : 43435119, Roll : 0.0, Pitch : 0.0, Yaw : 359.99, Alt : 30.1000003815, Lat : 49.28357, Lng : -123.11502, Q1 : 1.0, Q2 : 0.0, Q3 : 0.0, Q4 : -4.95841447901e-07}
2019-04-14 18:06:09.11: SIM {TimeUS : 43535079, Roll : 0.0, Pitch : 0.0, Yaw : 359.99, Alt : 30.1000003815, Lat : 49.28357, Lng : -123.11502, Q1 : 1.0, Q2 : 0.0, Q3 : 0.0, Q4 : -6.84619863023e-07}
2019-04-14 18:06:09.21: SIM {TimeUS : 43635039, Roll : 0.0, Pitch : 0.0, Yaw : 359.99, Alt : 30.1000003815, Lat : 49.28357, Lng : -123.11502, Q1 : 1.0, Q2 : 0.0, Q3 : 0.0, Q4 : -8.94803235951e-07}
2019-04-14 18:06:09.31: SIM {TimeUS : 43734999, Roll : 0.0, Pitch : 0.0, Yaw : 359.99, Alt : 30.1000003815, Lat : 49.28357, Lng : -123.11502, Q1 : 1.0, Q2 : 0.0, Q3 : 0.0, Q4 : -1.13146575131e-06}
2019-04-14 18:06:09.41: SIM {TimeUS : 43834959, Roll : 0.0, Pitch : 0.0, Yaw : 359.99, Alt : 30.1000003815, Lat : 49.28357, Lng : -123.11502, Q1 : 1.0, Q2 : 0.0, Q3 : 0.0, Q4 : -1.29947875394e-06}
2019-04-14 18:06:09.51: SIM {TimeUS : 43934919, Roll : 0.0, Pitch : 0.0, Yaw : 359.99, Alt : 30.1200008392, Lat : 49.28357, Lng : -123.11502, Q1 : 1.0, Q2 : 0.0, Q3 : 0.0, Q4 : -1.49970242092e-06}
2019-04-14 18:06:09.61: SIM {TimeUS : 44034879, Roll : 0.0, Pitch : 0.0, Yaw : 359.99, Alt : 30.1499996185, Lat : 49.28357, Lng : -123.11502, Q1 : 1.0, Q2 : 0.0, Q3 : 0.0, Q4 : -1.7563821757e-06}
2019-04-14 18:06:09.71: SIM {TimeUS : 44134839, Roll : 0.0, Pitch : 0.0, Yaw : 359.99, Alt : 30.1800003052, Lat : 49.28357, Lng : -123.11502, Q1 : 1.0, Q2 : 0.0, Q3 : 0.0, Q4 : -2.02692422135e-06}
2019-04-14 18:06:09.81: SIM {TimeUS : 44234799, Roll : 0.0, Pitch : 0.0, Yaw : 359.99, Alt : 30.2099990845, Lat : 49.28357, Lng : -123.11502, Q1 : 1.0, Q2 : -8.47327100928e-06, Q3 : -6.59360648569e-06, Q4 : -2.27970008382e-06}
2019-04-14 18:06:09.91: SIM {TimeUS : 44334759, Roll : -0.18, Pitch : -0.16, Yaw : 359.99, Alt : 30.2700004578, Lat : 49.28357, Lng : -123.11502, Q1 : 0.999997794628, Q2 : -0.00157635495998, Q3 : -0.00140314491, Q4 : -1.49912193592e-05}
2019-04-14 18:06:10.01: SIM {TimeUS : 44434719, Roll : -0.46, Pitch : -0.45, Yaw : 359.99, Alt : 30.3899993896, Lat : 49.28357, Lng : -123.11502, Q1 : 0.99998408556, Q2 : -0.00403704401106, Q3 : -0.00394439417869, Q4 : -5.3272513469e-05}
2019-04-14 18:06:10.11: SIM {TimeUS : 44534679, Roll : -0.69, Pitch : -0.68, Yaw : 359.99, Alt : 30.5400009155, Lat : 49.28357, Lng : -123.11502, Q1 : 0.999963700771, Q2 : -0.00606113113463, Q3 : -0.00598876504228, Q4 : -0.000122477969853}
2019-04-14 18:06:10.21: SIM {TimeUS : 44634639, Roll : -0.81, Pitch : -0.77, Yaw : 359.98, Alt : 30.7000007629, Lat : 49.28357, Lng : -123.11502, Q1 : 0.999952018261, Q2 : -0.00707148201764, Q3 : -0.00677192769945, Q4 : -0.000210260943277}
2019-04-14 18:06:10.31: SIM {TimeUS : 44734599, Roll : -0.77, Pitch : -0.72, Yaw : 359.97, Alt : 30.8500003815, Lat : 49.28357, Lng : -123.1150201, Q1 : 0.999956667423, Q2 : -0.00680152559653, Q3 : -0.00634489115328, Q4 : -0.00029380529304}
2019-04-14 18:06:10.41: SIM {TimeUS : 44834559, Roll : -0.62, Pitch : -0.57, Yaw : 359.96, Alt : 31.0100002289, Lat : 49.28357, Lng : -123.1150201, Q1 : 0.999972164631, Q2 : -0.00549415498972, Q3 : -0.00504094548523, Q4 : -0.000370303867385}
2019-04-14 18:06:10.52: SIM {TimeUS : 44935352, Roll : -0.41, Pitch : -0.37, Yaw : 359.95, Alt : 31.1599998474, Lat : 49.2835701, Lng : -123.1150202, Q1 : 0.999987959862, Q2 : -0.00360439810902, Q3 : -0.00330026354641, Q4 : -0.000436339149019}
2019-04-14 18:06:10.61: SIM {TimeUS : 45035312, Roll : -0.19, Pitch : -0.18, Yaw : 359.94, Alt : 31.3199996948, Lat : 49.2835701, Lng : -123.1150203, Q1 : 0.999997138977, Q2 : -0.00167444779072, Q3 : -0.00165162619669, Q4 : -0.000484644260723}
2019-04-14 18:06:10.71: SIM {TimeUS : 45135272, Roll : -0.01, Pitch : -0.04, Yaw : 359.94, Alt : 31.4899997711, Lat : 49.2835702, Lng : -123.1150204, Q1 : 0.999999761581, Q2 : -0.000145950034494, Q3 : -0.00041041316581, Q4 : -0.000514526211191}
2019-04-14 18:06:10.81: SIM {TimeUS : 45235232, Roll : 0.07, Pitch : 0.04, Yaw : 359.93, Alt : 31.6700000763, Lat : 49.2835702, Lng : -123.1150204, Q1 : 0.999999523163, Q2 : 0.000688120024279, Q3 : 0.000405741360737, Q4 : -0.000529474578798}
2019-04-14 18:06:10.91: SIM {TimeUS : 45335192, Roll : 0.1, Pitch : 0.08, Yaw : 359.93, Alt : 31.8500003815, Lat : 49.2835703, Lng : -123.1150205, Q1 : 0.999999165535, Q2 : 0.000923326762859, Q3 : 0.000759116199333, Q4 : -0.000536726380233}
2019-04-14 18:06:11.01: SIM {TimeUS : 45435152, Roll : 0.08, Pitch : 0.09, Yaw : 359.93, Alt : 32.0299987793, Lat : 49.2835703, Lng : -123.1150206, Q1 : 0.99999922514, Q2 : 0.000721221033018, Q3 : 0.000830035540275, Q4 : -0.000539765402209}
2019-04-14 18:06:11.11: SIM {TimeUS : 45535112, Roll : 0.06, Pitch : 0.1, Yaw : 359.93, Alt : 32.2200012207, Lat : 49.2835703, Lng : -123.1150206, Q1 : 0.999999284744, Q2 : 0.00059645815054, Q3 : 0.000919561600313, Q4 : -0.000525147421286}
2019-04-14 18:06:11.21: SIM {TimeUS : 45635072, Roll : 0.07, Pitch : 0.11, Yaw : 359.94, Alt : 32.4099998474, Lat : 49.2835703, Lng : -123.1150207, Q1 : 0.999999165535, Q2 : 0.000630191410892, Q3 : 0.00102847849485, Q4 : -0.00050409178948}
2019-04-14 18:06:11.31: SIM {TimeUS : 45735032, Roll : 0.08, Pitch : 0.12, Yaw : 359.94, Alt : 32.5999984741, Lat : 49.2835703, Lng : -123.1150207, Q1 : 0.999998986721, Q2 : 0.000758255075198, Q3 : 0.0011289967224, Q4 : -0.000474607310025}
2019-04-14 18:06:11.41: SIM {TimeUS : 45834992, Roll : 0.09, Pitch : 0.14, Yaw : 359.94, Alt : 32.7999992371, Lat : 49.2835704, Lng : -123.1150207, Q1 : 0.999998688698, Q2 : 0.000862320535816, Q3 : 0.00127626443282, Q4 : -0.000445551995654}
2019-04-14 18:06:11.51: SIM {TimeUS : 45934952, Roll : 0.11, Pitch : 0.14, Yaw : 359.95, Alt : 32.9900016785, Lat : 49.2835704, Lng : -123.1150208, Q1 : 0.999998569489, Q2 : 0.00103119912092, Q3 : 0.00127859064378, Q4 : -0.000421610166086}
2019-04-14 18:06:11.61: SIM {TimeUS : 46034912, Roll : 0.13, Pitch : 0.13, Yaw : 359.95, Alt : 33.2000007629, Lat : 49.2835704, Lng : -123.1150208, Q1 : 0.999998509884, Q2 : 0.00117190973833, Q3 : 0.00121179758571, Q4 : -0.000399933895096}
2019-04-14 18:06:11.71: SIM {TimeUS : 46134872, Roll : 0.14, Pitch : 0.13, Yaw : 359.95, Alt : 33.4000015259, Lat : 49.2835704, Lng : -123.1150208, Q1 : 0.999998450279, Q2 : 0.00128139206208, Q3 : 0.00114023603965, Q4 : -0.000379818084184}
2019-04-14 18:06:11.81: SIM {TimeUS : 46234832, Roll : 0.15, Pitch : 0.12, Yaw : 359.95, Alt : 33.5999984741, Lat : 49.2835704, Lng : -123.1150208, Q1 : 0.999998390675, Q2 : 0.00132707227021, Q3 : 0.00112405547407, Q4 : -0.000367113738321}
2019-04-14 18:06:11.91: SIM {TimeUS : 46334792, Roll : 0.16, Pitch : 0.13, Yaw : 359.95, Alt : 33.8100013733, Lat : 49.2835704, Lng : -123.1150208, Q1 : 0.999998211861, Q2 : 0.00142554298509, Q3 : 0.00119126285426, Q4 : -0.000365076411981}
2019-04-14 18:06:12.01: SIM {TimeUS : 46434752, Roll : 0.16, Pitch : 0.13, Yaw : 359.95, Alt : 34.0200004578, Lat : 49.2835704, Lng : -123.1150208, Q1 : 0.999998211861, Q2 : 0.00143414060585, Q3 : 0.00117766414769, Q4 : -0.000368830777006}
2019-04-14 18:06:12.11: SIM {TimeUS : 46534712, Roll : 0.14, Pitch : 0.12, Yaw : 359.95, Alt : 34.2299995422, Lat : 49.2835704, Lng : -123.1150208, Q1 : 0.999998569489, Q2 : 0.00128108519129, Q3 : 0.00105961796362, Q4 : -0.000381628895411}
2019-04-14 18:06:12.21: SIM {TimeUS : 46634672, Roll : 0.12, Pitch : 0.11, Yaw : 359.95, Alt : 34.4399986267, Lat : 49.2835704, Lng : -123.1150208, Q1 : 0.999998867512, Q2 : 0.00107894325629, Q3 : 0.000984711805359, Q4 : -0.00040418523713}
2019-04-14 18:06:12.31: SIM {TimeUS : 46734632, Roll : 0.09, Pitch : 0.1, Yaw : 359.94, Alt : 34.6599998474, Lat : 49.2835704, Lng : -123.1150208, Q1 : 0.99999910593, Q2 : 0.000824963557534, Q3 : 0.000929501838982, Q4 : -0.0004425002262}
2019-04-14 18:06:12.41: SIM {TimeUS : 46834592, Roll : 0.07, Pitch : 0.07, Yaw : 359.94, Alt : 34.8699989319, Lat : 49.2835704, Lng : -123.1150208, Q1 : 0.999999463558, Q2 : 0.000640676473267, Q3 : 0.00064711010782, Q4 : -0.000495996733662}
2019-04-14 18:06:12.51: SIM {TimeUS : 46934552, Roll : 0.05, Pitch : 0.04, Yaw : 359.93, Alt : 35.0900001526, Lat : 49.2835704, Lng : -123.1150208, Q1 : 0.999999642372, Q2 : 0.000465588178486, Q3 : 0.00036598846782, Q4 : -0.000561174529139}
2019-04-14 18:06:12.62: SIM {TimeUS : 47035345, Roll : 0.02, Pitch : 0.02, Yaw : 359.92, Alt : 35.3100013733, Lat : 49.2835704, Lng : -123.1150208, Q1 : 0.999999761581, Q2 : 0.000231365003856, Q3 : 0.000214465078898, Q4 : -0.000624686537776}
2019-04-14 18:06:12.71: SIM {TimeUS : 47135305, Roll : 0.01, Pitch : 0.01, Yaw : 359.92, Alt : 35.5200004578, Lat : 49.2835704, Lng : -123.1150208, Q1 : 0.999999761581, Q2 : 0.000151068685227, Q3 : 0.00015673507005, Q4 : -0.000680269382428}
2019-04-14 18:06:12.81: SIM {TimeUS : 47235265, Roll : 0.02, Pitch : 0.01, Yaw : 359.91, Alt : 35.7400016785, Lat : 49.2835704, Lng : -123.1150208, Q1 : 0.999999701977, Q2 : 0.000192970153876, Q3 : 0.000107258543721, Q4 : -0.000733547029085}
2019-04-14 18:06:12.91: SIM {TimeUS : 47335225, Roll : 0.01, Pitch : -0.01, Yaw : 359.91, Alt : 35.9599990845, Lat : 49.2835704, Lng : -123.1150207, Q1 : 0.999999642372, Q2 : 8.82587046362e-05, Q3 : -0.000119250325952, Q4 : -0.000778371642809}
2019-04-14 18:06:13.01: SIM {TimeUS : 47435185, Roll : -0.02, Pitch : -0.05, Yaw : 359.9, Alt : 36.1800003052, Lat : 49.2835704, Lng : -123.1150207, Q1 : 0.999999523163, Q2 : -0.000182394272997, Q3 : -0.000464900309453, Q4 : -0.000808845798019}
2019-04-14 18:06:13.11: SIM {TimeUS : 47535145, Roll : -0.05, Pitch : -0.07, Yaw : 359.9, Alt : 36.4000015259, Lat : 49.2835704, Lng : -123.1150207, Q1 : 0.999999344349, Q2 : -0.000506142270751, Q3 : -0.000649592315312, Q4 : -0.000825735565741}
2019-04-14 18:06:13.21: SIM {TimeUS : 47635105, Roll : -0.09, Pitch : -0.08, Yaw : 359.9, Alt : 36.6300010681, Lat : 49.2835704, Lng : -123.1150207, Q1 : 0.999999046326, Q2 : -0.000811528705526, Q3 : -0.000776558823418, Q4 : -0.000839865242597}
2019-04-14 18:06:13.31: SIM {TimeUS : 47735065, Roll : -0.1, Pitch : -0.08, Yaw : 359.9, Alt : 36.8499984741, Lat : 49.2835704, Lng : -123.1150207, Q1 : 0.999998927116, Q2 : -0.00089009408839, Q3 : -0.000783692696132, Q4 : -0.00084935373161}
2019-04-14 18:06:13.41: SIM {TimeUS : 47835025, Roll : -0.09, Pitch : -0.08, Yaw : 359.9, Alt : 37.0699996948, Lat : 49.2835704, Lng : -123.1150207, Q1 : 0.999998986721, Q2 : -0.000869563082233, Q3 : -0.00070861534914, Q4 : -0.00086079974426}
2019-04-14 18:06:13.51: SIM {TimeUS : 47934985, Roll : -0.08, Pitch : -0.05, Yaw : 359.9, Alt : 37.2999992371, Lat : 49.2835704, Lng : -123.1150207, Q1 : 0.99999922514, Q2 : -0.00073708652053, Q3 : -0.000502124777995, Q4 : -0.000868955627084}
2019-04-14 18:06:13.61: SIM {TimeUS : 48034945, Roll : -0.06, Pitch : -0.03, Yaw : 359.89, Alt : 37.5200004578, Lat : 49.2835704, Lng : -123.1150207, Q1 : 0.999999403954, Q2 : -0.000593060220126, Q3 : -0.000338838173775, Q4 : -0.000873036391567}
2019-04-14 18:06:13.71: SIM {TimeUS : 48134905, Roll : -0.07, Pitch : -0.03, Yaw : 359.9, Alt : 37.75, Lat : 49.2835704, Lng : -123.1150207, Q1 : 0.999999403954, Q2 : -0.000618457619566, Q3 : -0.00032522919355, Q4 : -0.000872031378094}
2019-04-14 18:06:13.81: SIM {TimeUS : 48234865, Roll : -0.08, Pitch : -0.02, Yaw : 359.89, Alt : 37.9799995422, Lat : 49.2835704, Lng : -123.1150207, Q1 : 0.999999344349, Q2 : -0.000715716625564, Q3 : -0.000224334740778, Q4 : -0.000874225399457}
2019-04-14 18:06:13.91: SIM {TimeUS : 48334825, Roll : -0.1, Pitch : 0.0, Yaw : 359.89, Alt : 38.2000007629, Lat : 49.2835704, Lng : -123.1150207, Q1 : 0.99999922514, Q2 : -0.000913398514967, Q3 : -7.33906344976e-05, Q4 : -0.000881116546225}
2019-04-14 18:06:14.01: SIM {TimeUS : 48434785, Roll : -0.1, Pitch : 0.0, Yaw : 359.89, Alt : 38.4300003052, Lat : 49.2835704, Lng : -123.1150207, Q1 : 0.99999922514, Q2 : -0.000904165732209, Q3 : 4.88466248498e-05, Q4 : -0.000886784982868}
2019-04-14 18:06:14.11: SIM {TimeUS : 48534745, Roll : -0.07, Pitch : 0.02, Yaw : 359.89, Alt : 38.6599998474, Lat : 49.2835706, Lng : -123.1150207, Q1 : 0.999999344349, Q2 : -0.000665353843942, Q3 : 0.000236895997659, Q4 : -0.000899033504538}
2019-04-14 18:06:14.21: SIM {TimeUS : 48634705, Roll : -0.04, Pitch : 0.02, Yaw : 359.89, Alt : 38.8899993896, Lat : 49.2835706, Lng : -123.1150207, Q1 : 0.999999463558, Q2 : -0.000408682331908, Q3 : 0.000209076679312, Q4 : -0.000911502400413}
2019-04-14 18:06:14.31: SIM {TimeUS : 48734665, Roll : -0.01, Pitch : 0.01, Yaw : 359.89, Alt : 39.1199989319, Lat : 49.2835706, Lng : -123.1150207, Q1 : 0.999999523163, Q2 : -0.00012581620831, Q3 : 0.000147467144416, Q4 : -0.000926166481804}
2019-04-14 18:06:14.41: SIM {TimeUS : 48834625, Roll : 0.02, Pitch : 0.03, Yaw : 359.89, Alt : 39.3499984741, Lat : 49.2835706, Lng : -123.1150207, Q1 : 0.999999463558, Q2 : 0.000193312123884, Q3 : 0.000319914252032, Q4 : -0.000938621873502}
2019-04-14 18:06:14.51: SIM {TimeUS : 48934585, Roll : 0.06, Pitch : 0.07, Yaw : 359.89, Alt : 39.5800018311, Lat : 49.2835706, Lng : -123.1150207, Q1 : 0.99999922514, Q2 : 0.000532548001502, Q3 : 0.000619867234491, Q4 : -0.000959005206823}
2019-04-14 18:06:14.61: SIM {TimeUS : 49034545, Roll : 0.08, Pitch : 0.1, Yaw : 359.88, Alt : 39.8100013733, Lat : 49.2835706, Lng : -123.1150207, Q1 : 0.999998807907, Q2 : 0.000762528274208, Q3 : 0.000943102117162, Q4 : -0.000984039041214}
2019-04-14 18:06:14.72: SIM {TimeUS : 49135338, Roll : 0.07, Pitch : 0.14, Yaw : 359.88, Alt : 40.0400009155, Lat : 49.2835706, Lng : -123.1150207, Q1 : 0.999998509884, Q2 : 0.000655089563224, Q3 : 0.00123615050688, Q4 : -0.00100553932134}
2019-04-14 18:06:14.81: SIM {TimeUS : 49235298, Roll : 0.02, Pitch : 0.16, Yaw : 359.88, Alt : 40.2700004578, Lat : 49.2835706, Lng : -123.1150207, Q1 : 0.99999833107, Q2 : 0.000234746519709, Q3 : 0.00147456966806, Q4 : -0.001047653961}
2019-04-14 18:06:14.91: SIM {TimeUS : 49335258, Roll : -0.01, Pitch : 0.17, Yaw : 359.87, Alt : 40.5099983215, Lat : 49.2835706, Lng : -123.1150207, Q1 : 0.999998211861, Q2 : -0.000125339094666, Q3 : 0.00156054878607, Q4 : -0.00108305399772}
2019-04-14 18:06:15.01: SIM {TimeUS : 49435218, Roll : -0.03, Pitch : 0.15, Yaw : 359.87, Alt : 40.7400016785, Lat : 49.2835706, Lng : -123.1150207, Q1 : 0.999998390675, Q2 : -0.000331465795171, Q3 : 0.00137249391992, Q4 : -0.00111046258826}
2019-04-14 18:06:15.11: SIM {TimeUS : 49535178, Roll : -0.04, Pitch : 0.12, Yaw : 359.86, Alt : 40.9700012207, Lat : 49.2835706, Lng : -123.1150207, Q1 : 0.999998629093, Q2 : -0.000397959374823, Q3 : 0.00111542141531, Q4 : -0.00114218681119}
2019-04-14 18:06:15.21: SIM {TimeUS : 49635138, Roll : -0.03, Pitch : 0.12, Yaw : 359.86, Alt : 41.2099990845, Lat : 49.2835706, Lng : -123.1150207, Q1 : 0.999998688698, Q2 : -0.000311818846967, Q3 : 0.00105044269003, Q4 : -0.00117944017984}
2019-04-14 18:06:15.31: SIM {TimeUS : 49735098, Roll : 0.0, Pitch : 0.13, Yaw : 359.86, Alt : 41.4399986267, Lat : 49.2835706, Lng : -123.1150207, Q1 : 0.999998569489, Q2 : 8.84423752723e-06, Q3 : 0.00115810649004, Q4 : -0.00122110766824}
2019-04-14 18:06:15.41: SIM {TimeUS : 49835058, Roll : 0.05, Pitch : 0.14, Yaw : 359.85, Alt : 41.6699981689, Lat : 49.2835706, Lng : -123.1150207, Q1 : 0.99999833107, Q2 : 0.000449465936981, Q3 : 0.00122325646225, Q4 : -0.00126014964189}
2019-04-14 18:06:15.51: SIM {TimeUS : 49935018, Roll : 0.09, Pitch : 0.11, Yaw : 359.85, Alt : 41.9099998474, Lat : 49.2835706, Lng : -123.1150208, Q1 : 0.99999833107, Q2 : 0.000809935096186, Q3 : 0.00101659947541, Q4 : -0.0012962135952}
2019-04-14 18:06:15.61: SIM {TimeUS : 50034978, Roll : 0.09, Pitch : 0.08, Yaw : 359.84, Alt : 42.1399993896, Lat : 49.2835706, Lng : -123.1150208, Q1 : 0.999998509884, Q2 : 0.000854499230627, Q3 : 0.00069704541238, Q4 : -0.0013276784448}
2019-04-14 18:06:15.71: SIM {TimeUS : 50134938, Roll : 0.06, Pitch : 0.05, Yaw : 359.84, Alt : 42.3699989319, Lat : 49.2835706, Lng : -123.1150208, Q1 : 0.999998807907, Q2 : 0.000526861345861, Q3 : 0.000505393720232, Q4 : -0.00134463538416}
2019-04-14 18:06:15.81: SIM {TimeUS : 50234898, Roll : 0.0, Pitch : 0.05, Yaw : 359.84, Alt : 42.6100006104, Lat : 49.2835706, Lng : -123.1150208, Q1 : 0.999998986721, Q2 : 3.76216848963e-05, Q3 : 0.000486516597448, Q4 : -0.00135845178738}
2019-04-14 18:06:15.91: SIM {TimeUS : 50334858, Roll : -0.03, Pitch : 0.07, Yaw : 359.84, Alt : 42.8400001526, Lat : 49.2835706, Lng : -123.1150207, Q1 : 0.999998807907, Q2 : -0.000310321309371, Q3 : 0.000664733350277, Q4 : -0.00136908260174}
2019-04-14 18:06:16.01: SIM {TimeUS : 50434818, Roll : -0.05, Pitch : 0.08, Yaw : 359.84, Alt : 43.0800018311, Lat : 49.2835704, Lng : -123.1150207, Q1 : 0.999998629093, Q2 : -0.000475923181511, Q3 : 0.000769481994212, Q4 : -0.00137701071799}
2019-04-14 18:06:16.11: SIM {TimeUS : 50534778, Roll : -0.04, Pitch : 0.07, Yaw : 359.84, Alt : 43.3100013733, Lat : 49.2835704, Lng : -123.1150207, Q1 : 0.999998748302, Q2 : -0.00043050761451, Q3 : 0.000680590572301, Q4 : -0.00138259853702}
2019-04-14 18:06:16.21: SIM {TimeUS : 50634738, Roll : -0.05, Pitch : 0.06, Yaw : 359.84, Alt : 43.5499992371, Lat : 49.2835704, Lng : -123.1150207, Q1 : 0.999998807907, Q2 : -0.000437890936155, Q3 : 0.000533466401976, Q4 : -0.00139082130045}
2019-04-14 18:06:16.31: SIM {TimeUS : 50734698, Roll : -0.04, Pitch : 0.04, Yaw : 359.83, Alt : 43.7799987793, Lat : 49.2835704, Lng : -123.1150207, Q1 : 0.999998867512, Q2 : -0.000398534117267, Q3 : 0.000385588762583, Q4 : -0.00140269158874}
2019-04-14 18:06:16.41: SIM {TimeUS : 50834658, Roll : -0.02, Pitch : 0.03, Yaw : 359.83, Alt : 44.0200004578, Lat : 49.2835704, Lng : -123.1150207, Q1 : 0.999998927116, Q2 : -0.000238615073613, Q3 : 0.000331351009663, Q4 : -0.00141999695916}
2019-04-14 18:06:16.51: SIM {TimeUS : 50934618, Roll : -0.01, Pitch : 0.03, Yaw : 359.83, Alt : 44.2599983215, Lat : 49.2835704, Lng : -123.1150207, Q1 : 0.999998927116, Q2 : -0.000125163249322, Q3 : 0.00031460513128, Q4 : -0.00143888581078}
2019-04-14 18:06:16.61: SIM {TimeUS : 51034578, Roll : -0.01, Pitch : 0.01, Yaw : 359.83, Alt : 44.4900016785, Lat : 49.2835704, Lng : -123.1150207, Q1 : 0.999998927116, Q2 : -0.000167827616679, Q3 : 0.000159477538546, Q4 : -0.00146094581578}
2019-04-14 18:06:16.71: SIM {TimeUS : 51134538, Roll : -0.03, Pitch : -0.01, Yaw : 359.82, Alt : 44.7299995422, Lat : 49.2835704, Lng : -123.1150207, Q1 : 0.999998867512, Q2 : -0.000269878510153, Q3 : -0.000112194698886, Q4 : -0.00148389721289}
2019-04-14 18:06:16.81: SIM {TimeUS : 51235331, Roll : -0.03, Pitch : -0.03, Yaw : 359.82, Alt : 44.9700012207, Lat : 49.2835704, Lng : -123.1150207, Q1 : 0.999998748302, Q2 : -0.00032004021341, Q3 : -0.000293497083476, Q4 : -0.00151232304052}
2019-04-14 18:06:16.91: SIM {TimeUS : 51335291, Roll : -0.03, Pitch : -0.04, Yaw : 359.82, Alt : 45.2000007629, Lat : 49.2835703, Lng : -123.1150207, Q1 : 0.999998688698, Q2 : -0.000270928867394, Q3 : -0.000391651235987, Q4 : -0.00154371967074}
2019-04-14 18:06:17.01: SIM {TimeUS : 51435251, Roll : -0.03, Pitch : -0.04, Yaw : 359.81, Alt : 45.4399986267, Lat : 49.2835703, Lng : -123.1150207, Q1 : 0.999998629093, Q2 : -0.000320431630826, Q3 : -0.000420575845055, Q4 : -0.00157638371456}
2019-04-14 18:06:17.11: SIM {TimeUS : 51535211, Roll : -0.05, Pitch : -0.04, Yaw : 359.81, Alt : 45.6699981689, Lat : 49.2835703, Lng : -123.1150207, Q1 : 0.999998509884, Q2 : -0.000505065487232, Q3 : -0.000356807839125, Q4 : -0.00161279249005}
2019-04-14 18:06:17.21: SIM {TimeUS : 51635171, Roll : -0.08, Pitch : -0.03, Yaw : 359.81, Alt : 45.9099998474, Lat : 49.2835703, Lng : -123.1150207, Q1 : 0.999998271465, Q2 : -0.000768509111367, Q3 : -0.000319473649142, Q4 : -0.00165211956482}
2019-04-14 18:06:17.31: SIM {TimeUS : 51735131, Roll : -0.1, Pitch : -0.03, Yaw : 359.8, Alt : 46.1399993896, Lat : 49.2835703, Lng : -123.1150207, Q1 : 0.999998092651, Q2 : -0.000946129730437, Q3 : -0.00027343997499, Q4 : -0.00169010204263}
2019-04-14 18:06:17.41: SIM {TimeUS : 51835091, Roll : -0.11, Pitch : -0.01, Yaw : 359.8, Alt : 46.3600006104, Lat : 49.2835703, Lng : -123.1150207, Q1 : 0.999998033047, Q2 : -0.000966659456026, Q3 : -0.000140200150781, Q4 : -0.0017259765882}
2019-04-14 18:06:17.51: SIM {TimeUS : 51935051, Roll : -0.09, Pitch : 0.0, Yaw : 359.79, Alt : 46.5900001526, Lat : 49.2835703, Lng : -123.1150207, Q1 : 0.999998092651, Q2 : -0.000825548253488, Q3 : 7.08887746441e-05, Q4 : -0.00176211143844}
2019-04-14 18:06:17.61: SIM {TimeUS : 52035011, Roll : -0.07, Pitch : 0.01, Yaw : 359.79, Alt : 46.7999992371, Lat : 49.2835703, Lng : -123.1150207, Q1 : 0.999998211861, Q2 : -0.000615479366388, Q3 : 0.00016185696586, Q4 : -0.00179490679875}
2019-04-14 18:06:17.71: SIM {TimeUS : 52134971, Roll : -0.05, Pitch : 0.01, Yaw : 359.79, Alt : 47.0099983215, Lat : 49.2835703, Lng : -123.1150207, Q1 : 0.999998211861, Q2 : -0.000449229206424, Q3 : 0.000107241983642, Q4 : -0.00182855827734}
2019-04-14 18:06:17.81: SIM {TimeUS : 52234931, Roll : -0.04, Pitch : 0.0, Yaw : 359.78, Alt : 47.2200012207, Lat : 49.2835703, Lng : -123.1150207, Q1 : 0.999998211861, Q2 : -0.000357185665052, Q3 : -6.53104725643e-05, Q4 : -0.00186281709466}
2019-04-14 18:06:17.91: SIM {TimeUS : 52334891, Roll : -0.02, Pitch : -0.03, Yaw : 359.78, Alt : 47.4099998474, Lat : 49.2835703, Lng : -123.1150207, Q1 : 0.999998152256, Q2 : -0.000218655535718, Q3 : -0.000325616536429, Q4 : -0.00189134769607}
2019-04-14 18:06:18.01: SIM {TimeUS : 52434851, Roll : 0.0, Pitch : -0.06, Yaw : 359.78, Alt : 47.5999984741, Lat : 49.2835703, Lng : -123.1150207, Q1 : 0.999998033047, Q2 : -4.95088461321e-05, Q3 : -0.000559652864467, Q4 : -0.00191477127373}
2019-04-14 18:06:18.11: SIM {TimeUS : 52534811, Roll : 0.0, Pitch : -0.1, Yaw : 359.77, Alt : 47.7700004578, Lat : 49.2835703, Lng : -123.1150207, Q1 : 0.999997675419, Q2 : -4.55945810245e-05, Q3 : -0.000949153851252, Q4 : -0.00193207513075}
2019-04-14 18:06:18.21: SIM {TimeUS : 52634771, Roll : -0.01, Pitch : -0.14, Yaw : 359.77, Alt : 47.9399986267, Lat : 49.2835703, Lng : -123.1150207, Q1 : 0.999997317791, Q2 : -0.000123881589388, Q3 : -0.0012643764494, Q4 : -0.00194597057998}
2019-04-14 18:06:18.31: SIM {TimeUS : 52734731, Roll : 0.01, Pitch : -0.14, Yaw : 359.77, Alt : 48.0900001526, Lat : 49.2835703, Lng : -123.1150207, Q1 : 0.999997258186, Q2 : 9.32019465836e-05, Q3 : -0.00130351015832, Q4 : -0.00195962726139}
2019-04-14 18:06:18.41: SIM {TimeUS : 52834691, Roll : 0.04, Pitch : -0.12, Yaw : 359.77, Alt : 48.2299995422, Lat : 49.2835703, Lng : -123.1150207, Q1 : 0.999997317791, Q2 : 0.000399956043111, Q3 : -0.00113470980432, Q4 : -0.00196720566601}
2019-04-14 18:06:18.51: SIM {TimeUS : 52934651, Roll : 0.07, Pitch : -0.09, Yaw : 359.77, Alt : 48.3600006104, Lat : 49.2835703, Lng : -123.1150207, Q1 : 0.999997496605, Q2 : 0.000651852693409, Q3 : -0.000860705215018, Q4 : -0.00197565392591}
2019-04-14 18:06:18.61: SIM {TimeUS : 53034611, Roll : 0.08, Pitch : -0.06, Yaw : 359.77, Alt : 48.4799995422, Lat : 49.2835703, Lng : -123.1150207, Q1 : 0.999997615814, Q2 : 0.000726662110537, Q3 : -0.000559783482458, Q4 : -0.00199356582016}
2019-04-14 18:06:18.71: SIM {TimeUS : 53134571, Roll : 0.08, Pitch : -0.04, Yaw : 359.76, Alt : 48.5800018311, Lat : 49.2835703, Lng : -123.1150207, Q1 : 0.99999755621, Q2 : 0.00077130360296, Q3 : -0.000387905311072, Q4 : -0.00201772502623}
2019-04-14 18:06:18.82: SIM {TimeUS : 53235364, Roll : 0.07, Pitch : -0.05, Yaw : 359.76, Alt : 48.6699981689, Lat : 49.2835703, Lng : -123.1150207, Q1 : 0.99999755621, Q2 : 0.000644884945359, Q3 : -0.000452528765891, Q4 : -0.00205525010824}
2019-04-14 18:06:18.91: SIM {TimeUS : 53335324, Roll : 0.04, Pitch : -0.04, Yaw : 359.75, Alt : 48.75, Lat : 49.2835704, Lng : -123.1150207, Q1 : 0.999997615814, Q2 : 0.000385069753975, Q3 : -0.000422187586082, Q4 : -0.0020951658953}
2019-04-14 18:06:19.01: SIM {TimeUS : 53435284, Roll : 0.02, Pitch : -0.03, Yaw : 359.75, Alt : 48.8199996948, Lat : 49.2835704, Lng : -123.1150207, Q1 : 0.999997675419, Q2 : 0.000189084064914, Q3 : -0.000284922280116, Q4 : -0.00213160552084}
2019-04-14 18:06:19.11: SIM {TimeUS : 53535244, Roll : 0.02, Pitch : -0.04, Yaw : 359.75, Alt : 48.8800010681, Lat : 49.2835704, Lng : -123.1150207, Q1 : 0.99999755621, Q2 : 0.000257806619629, Q3 : -0.000356109492714, Q4 : -0.00216639623977}
2019-04-14 18:06:19.21: SIM {TimeUS : 53635204, Roll : 0.16, Pitch : -0.14, Yaw : 359.74, Alt : 48.9399986267, Lat : 49.2835704, Lng : -123.1150207, Q1 : 0.999995648861, Q2 : 0.00145084387623, Q3 : -0.00130136869848, Q4 : -0.00220419163816}
2019-04-14 18:06:19.31: SIM {TimeUS : 53735164, Roll : 0.51, Pitch : -0.42, Yaw : 359.74, Alt : 48.9799995422, Lat : 49.2835704, Lng : -123.1150207, Q1 : 0.999980330467, Q2 : 0.00450597330928, Q3 : -0.00373874045908, Q4 : -0.00223854067735}
2019-04-14 18:06:19.41: SIM {TimeUS : 53835124, Roll : 1.07, Pitch : -0.9, Yaw : 359.73, Alt : 49.0200004578, Lat : 49.2835704, Lng : -123.1150207, Q1 : 0.99992287159, Q2 : 0.00931892544031, Q3 : -0.00789950508624, Q4 : -0.00225653825328}
2019-04-14 18:06:19.51: SIM {TimeUS : 53935084, Roll : 1.77, Pitch : -1.55, Yaw : 359.71, Alt : 49.0499992371, Lat : 49.2835704, Lng : -123.1150207, Q1 : 0.999785602093, Q2 : 0.0154183423147, Q3 : -0.0136393662542, Q4 : -0.00225056800991}
2019-04-14 18:06:19.61: SIM {TimeUS : 54035044, Roll : 2.52, Pitch : -2.29, Yaw : 359.69, Alt : 49.0800018311, Lat : 49.2835706, Lng : -123.1150206, Q1 : 0.999554097652, Q2 : 0.0220079217106, Q3 : -0.020062237978, Q4 : -0.00219950964674}
2019-04-14 18:06:19.71: SIM {TimeUS : 54135004, Roll : 3.23, Pitch : -3.0, Yaw : 359.67, Alt : 49.0999984741, Lat : 49.2835707, Lng : -123.1150205, Q1 : 0.999257028103, Q2 : 0.0281205493957, Q3 : -0.0262727290392, Q4 : -0.00208158581518}
2019-04-14 18:06:19.81: SIM {TimeUS : 54234964, Roll : 3.8, Pitch : -3.58, Yaw : 359.66, Alt : 49.1199989319, Lat : 49.2835708, Lng : -123.1150203, Q1 : 0.998957872391, Q2 : 0.0331231504679, Q3 : -0.0313458777964, Q4 : -0.00188698503189}
2019-04-14 18:06:19.91: SIM {TimeUS : 54334924, Roll : 4.23, Pitch : -3.98, Yaw : 359.66, Alt : 49.1399993896, Lat : 49.2835709, Lng : -123.11502, Q1 : 0.998709917068, Q2 : 0.0368603505194, Q3 : -0.0348885878921, Q4 : -0.00162312749308}
2019-04-14 18:06:20.01: SIM {TimeUS : 54434884, Roll : 4.55, Pitch : -4.27, Yaw : 359.67, Alt : 49.1599998474, Lat : 49.2835712, Lng : -123.1150198, Q1 : 0.998515605927, Q2 : 0.0395933538675, Q3 : -0.0373801998794, Q4 : -0.00133387802634}
2019-04-14 18:06:20.11: SIM {TimeUS : 54534844, Roll : 4.8, Pitch : -4.5, Yaw : 359.69, Alt : 49.1699981689, Lat : 49.2835714, Lng : -123.1150194, Q1 : 0.9983497262, Q2 : 0.041793294251, Q3 : -0.0393714867532, Q4 : -0.00103748659603}
2019-04-14 18:06:20.21: SIM {TimeUS : 54634804, Roll : 5.05, Pitch : -4.73, Yaw : 359.7, Alt : 49.1800003052, Lat : 49.2835716, Lng : -123.1150189, Q1 : 0.998176515102, Q2 : 0.0439447537065, Q3 : -0.0413764081895, Q4 : -0.000746583333239}
2019-04-14 18:06:20.31: SIM {TimeUS : 54734764, Roll : 5.31, Pitch : -5.0, Yaw : 359.71, Alt : 49.1899986267, Lat : 49.2835721, Lng : -123.1150183, Q1 : 0.997973322868, Q2 : 0.0462187156081, Q3 : -0.0437372773886, Q4 : -0.000468403974082}
2019-04-14 18:06:20.41: SIM {TimeUS : 54834724, Roll : 5.59, Pitch : -5.28, Yaw : 359.71, Alt : 49.2000007629, Lat : 49.2835725, Lng : -123.1150175, Q1 : 0.997747600079, Q2 : 0.0486388802528, Q3 : -0.0461948141456, Q4 : -0.000195244749193}
2019-04-14 18:06:20.51: SIM {TimeUS : 54934684, Roll : 5.84, Pitch : -5.52, Yaw : 359.72, Alt : 49.2099990845, Lat : 49.2835729, Lng : -123.1150169, Q1 : 0.997542262077, Q2 : 0.0508173517883, Q3 : -0.0482394210994, Q4 : 7.05420097802e-05}
2019-04-14 18:06:20.61: SIM {TimeUS : 55034644, Roll : 6.02, Pitch : -5.68, Yaw : 359.73, Alt : 49.2200012207, Lat : 49.2835734, Lng : -123.115016, Q1 : 0.997395455837, Q2 : 0.0523479618132, Q3 : -0.0496181808412, Q4 : 0.000300693965983}
2019-04-14 18:06:20.71: SIM {TimeUS : 55134604, Roll : 6.14, Pitch : -5.78, Yaw : 359.74, Alt : 49.2299995422, Lat : 49.283574, Lng : -123.1150151, Q1 : 0.997296988964, Q2 : 0.0533750653267, Q3 : -0.0504938550293, Q4 : 0.00046920045861}
2019-04-14 18:06:20.81: SIM {TimeUS : 55234564, Roll : 6.21, Pitch : -5.86, Yaw : 359.74, Alt : 49.2299995422, Lat : 49.2835746, Lng : -123.1150141, Q1 : 0.997228503227, Q2 : 0.0539946295321, Q3 : -0.0511820465326, Q4 : 0.000567207171116}
2019-04-14 18:06:20.92: SIM {TimeUS : 55335357, Roll : 6.29, Pitch : -5.93, Yaw : 359.74, Alt : 49.2400016785, Lat : 49.2835752, Lng : -123.115013, Q1 : 0.997152984142, Q2 : 0.0547564551234, Q3 : -0.0518389083445, Q4 : 0.000620944134425}
2019-04-14 18:06:21.01: SIM {TimeUS : 55435317, Roll : 6.5, Pitch : -5.96, Yaw : 359.78, Alt : 49.2400016785, Lat : 49.2835761, Lng : -123.1150118, Q1 : 0.997041940689, Q2 : 0.0565178021789, Q3 : -0.0520769283175, Q4 : 0.00105935079046}
2019-04-14 18:06:21.11: SIM {TimeUS : 55535277, Roll : 6.95, Pitch : -5.87, Yaw : 0.23, Alt : 49.25, Lat : 49.2835768, Lng : -123.1150106, Q1 : 0.996838450432, Q2 : 0.0606553964317, Q3 : -0.0510602407157, Q4 : 0.0051816846244}
2019-04-14 18:06:21.21: SIM {TimeUS : 55635237, Roll : 7.59, Pitch : -5.78, Yaw : 1.78, Alt : 49.25, Lat : 49.2835776, Lng : -123.1150092, Q1 : 0.996358275414, Q2 : 0.0669249817729, Q3 : -0.0493392050266, Q4 : 0.0188911352307}
2019-04-14 18:06:21.31: SIM {TimeUS : 55735197, Roll : 8.13, Pitch : -6.01, Yaw : 4.88, Alt : 49.25, Lat : 49.2835785, Lng : -123.1150078, Q1 : 0.995044291019, Q2 : 0.0729814693332, Q3 : -0.0492561534047, Q4 : 0.0461999587715}
2019-04-14 18:06:21.41: SIM {TimeUS : 55835157, Roll : 8.27, Pitch : -6.68, Yaw : 9.54, Alt : 49.2599983215, Lat : 49.2835793, Lng : -123.1150063, Q1 : 0.991887509823, Q2 : 0.0766496136785, Q3 : -0.0519849918783, Q4 : 0.0870722532272}
2019-04-14 18:06:21.51: SIM {TimeUS : 55935117, Roll : 7.82, Pitch : -7.76, Yaw : 15.57, Alt : 49.2599983215, Lat : 49.2835801, Lng : -123.1150046, Q1 : 0.985570192337, Q2 : 0.0766397640109, Q3 : -0.0577365867794, Q4 : 0.139442428946}
2019-04-14 18:06:21.61: SIM {TimeUS : 56035077, Roll : 6.71, Pitch : -9.1, Yaw : 22.7, Alt : 49.2599983215, Lat : 49.2835811, Lng : -123.1150029, Q1 : 0.97474783659, Q2 : 0.0728029310703, Q3 : -0.0661566406488, Q4 : 0.200473845005}
2019-04-14 18:06:21.71: SIM {TimeUS : 56135037, Roll : 4.92, Pitch : -10.49, Yaw : 30.68, Alt : 49.2599983215, Lat : 49.2835819, Lng : -123.115001, Q1 : 0.958403766155, Q2 : 0.0653890520334, Q3 : -0.0767720416188, Q4 : 0.26700681448}
2019-04-14 18:06:21.81: SIM {TimeUS : 56234997, Roll : 2.31, Pitch : -11.71, Yaw : 39.04, Alt : 49.2599983215, Lat : 49.283583, Lng : -123.114999, Q1 : 0.936727285385, Q2 : 0.0530051440001, Q3 : -0.0894236415625, Q4 : 0.334269225597}
2019-04-14 18:06:21.91: SIM {TimeUS : 56334957, Roll : -0.87, Pitch : -12.5, Yaw : 46.96, Alt : 49.2700004578, Lat : 49.283584, Lng : -123.1149969, Q1 : 0.912024140358, Q2 : 0.036409612745, Q3 : -0.102883577347, Q4 : 0.39534959197}
2019-04-14 18:06:22.01: SIM {TimeUS : 56434917, Roll : -3.99, Pitch : -12.78, Yaw : 53.61, Alt : 49.2700004578, Lat : 49.283585, Lng : -123.1149948, Q1 : 0.888195097446, Q2 : 0.0192664191127, Q3 : -0.114916272461, Q4 : 0.444446355104}
2019-04-14 18:06:22.11: SIM {TimeUS : 56534877, Roll : -6.37, Pitch : -12.72, Yaw : 58.39, Alt : 49.2700004578, Lat : 49.2835862, Lng : -123.1149926, Q1 : 0.869224607944, Q2 : 0.00572545500472, Q3 : -0.123578816652, Q4 : 0.478689998388}
2019-04-14 18:06:22.21: SIM {TimeUS : 56634837, Roll : -7.7, Pitch : -12.57, Yaw : 61.16, Alt : 49.2700004578, Lat : 49.2835876, Lng : -123.1149904, Q1 : 0.857546925545, Q2 : -0.00187945493963, Q3 : -0.128022819757, Q4 : 0.498216748238}
2019-04-14 18:06:22.31: SIM {TimeUS : 56734797, Roll : -7.94, Pitch : -12.54, Yaw : 62.09, Alt : 49.2700004578, Lat : 49.2835891, Lng : -123.1149882, Q1 : 0.853460848331, Q2 : -0.00282356352545, Q3 : -0.12890663743, Q4 : 0.504955232143}
2019-04-14 18:06:22.41: SIM {TimeUS : 56834757, Roll : -7.32, Pitch : -12.76, Yaw : 61.53, Alt : 49.2700004578, Lat : 49.2835905, Lng : -123.1149859, Q1 : 0.855795800686, Q2 : 0.00219555967487, Q3 : -0.127796784043, Q4 : 0.501275062561}
2019-04-14 18:06:22.51: SIM {TimeUS : 56934717, Roll : -6.09, Pitch : -13.22, Yaw : 59.84, Alt : 49.2700004578, Lat : 49.2835922, Lng : -123.1149835, Q1 : 0.862778782845, Q2 : 0.0116174854338, Q3 : -0.125994205475, Q4 : 0.489492863417}
2019-04-14 18:06:22.61: SIM {TimeUS : 57034677, Roll : -4.47, Pitch : -13.84, Yaw : 57.34, Alt : 49.2700004578, Lat : 49.2835939, Lng : -123.1149812, Q1 : 0.872562348843, Q2 : 0.0238266140223, Q3 : -0.124277748168, Q4 : 0.471828699112}
2019-04-14 18:06:22.71: SIM {TimeUS : 57134637, Roll : -2.67, Pitch : -14.52, Yaw : 54.36, Alt : 49.2700004578, Lat : 49.2835957, Lng : -123.1149788, Q1 : 0.883518874645, Q2 : 0.0371575988829, Q3 : -0.122969843447, Q4 : 0.450435519218}
2019-04-14 18:06:22.81: SIM {TimeUS : 57234597, Roll : -0.87, Pitch : -15.1, Yaw : 51.21, Alt : 49.2700004578, Lat : 49.2835975, Lng : -123.1149763, Q1 : 0.894354581833, Q2 : 0.0499687194824, Q3 : -0.121817402542, Q4 : 0.427543610334}
2019-04-14 18:06:22.91: SIM {TimeUS : 57334557, Roll : 0.75, Pitch : -15.51, Yaw : 48.22, Alt : 49.2799987793, Lat : 49.2835993, Lng : -123.1149737, Q1 : 0.90402328968, Q2 : 0.0610634274781, Q3 : -0.12051178515, Q4 : 0.405573785305}
2019-04-14 18:06:23.02: SIM {TimeUS : 57435350, Roll : 2.07, Pitch : -15.72, Yaw : 45.66, Alt : 49.2799987793, Lat : 49.2836012, Lng : -123.1149709, Q1 : 0.91185605526, Q2 : 0.0695934668183, Q3 : -0.119101330638, Q4 : 0.386639535427}
2019-04-14 18:06:23.11: SIM {TimeUS : 57535310, Roll : 2.96, Pitch : -15.77, Yaw : 43.8, Alt : 49.2799987793, Lat : 49.2836031, Lng : -123.1149681, Q1 : 0.917398095131, Q2 : 0.0749778151512, Q3 : -0.117707334459, Q4 : 0.372698307037}
2019-04-14 18:06:23.21: SIM {TimeUS : 57635270, Roll : 3.41, Pitch : -15.73, Yaw : 42.71, Alt : 49.2799987793, Lat : 49.2836049, Lng : -123.1149651, Q1 : 0.920674443245, Q2 : 0.0772897601128, Q3 : -0.116724520922, Q4 : 0.364362776279}
2019-04-14 18:06:23.31: SIM {TimeUS : 57735230, Roll : 3.41, Pitch : -15.69, Yaw : 42.36, Alt : 49.2799987793, Lat : 49.2836069, Lng : -123.114962, Q1 : 0.921813666821, Q2 : 0.0768481045961, Q3 : -0.116575174034, Q4 : 0.361613303423}
2019-04-14 18:06:23.41: SIM {TimeUS : 57835190, Roll : 3.06, Pitch : -15.69, Yaw : 42.68, Alt : 49.2799987793, Lat : 49.283609, Lng : -123.1149587, Q1 : 0.921046495438, Q2 : 0.0743222683668, Q3 : -0.117539249361, Q4 : 0.363777458668}
2019-04-14 18:06:23.51: SIM {TimeUS : 57935150, Roll : 2.43, Pitch : -15.78, Yaw : 43.5, Alt : 49.2799987793, Lat : 49.2836109, Lng : -123.1149554, Q1 : 0.918702065945, Q2 : 0.0704226642847, Q3 : -0.119730167091, Q4 : 0.36971873045}
2019-04-14 18:06:23.61: SIM {TimeUS : 58035110, Roll : 1.64, Pitch : -15.93, Yaw : 44.66, Alt : 49.2799987793, Lat : 49.2836129, Lng : -123.114952, Q1 : 0.9152302742, Q2 : 0.065776951611, Q3 : -0.122794680297, Q4 : 0.378085315228}
2019-04-14 18:06:23.71: SIM {TimeUS : 58135070, Roll : 0.78, Pitch : -16.1, Yaw : 45.96, Alt : 49.2799987793, Lat : 49.283615, Lng : -123.1149485, Q1 : 0.911142110825, Q2 : 0.0609417594969, Q3 : -0.126286670566, Q4 : 0.387502104044}
2019-04-14 18:06:23.81: SIM {TimeUS : 58235030, Roll : -0.01, Pitch : -16.23, Yaw : 47.25, Alt : 49.2799987793, Lat : 49.2836171, Lng : -123.114945, Q1 : 0.906991541386, Q2 : 0.0564466416836, Q3 : -0.129430323839, Q4 : 0.396771907806}
2019-04-14 18:06:23.91: SIM {TimeUS : 58334990, Roll : -0.67, Pitch : -16.31, Yaw : 48.39, Alt : 49.2799987793, Lat : 49.2836191, Lng : -123.1149414, Q1 : 0.90325075388, Q2 : 0.0528680421412, Q3 : -0.131802082062, Q4 : 0.404933661222}
2019-04-14 18:06:24.01: SIM {TimeUS : 58434950, Roll : -1.14, Pitch : -16.35, Yaw : 49.26, Alt : 49.2799987793, Lat : 49.2836213, Lng : -123.1149378, Q1 : 0.900294482708, Q2 : 0.0502720847726, Q3 : -0.133448675275, Q4 : 0.41125908494}
2019-04-14 18:06:24.11: SIM {TimeUS : 58534910, Roll : -1.4, Pitch : -16.38, Yaw : 49.83, Alt : 49.2799987793, Lat : 49.2836235, Lng : -123.1149341, Q1 : 0.898321986198, Q2 : 0.0490024313331, Q3 : -0.134346842766, Q4 : 0.415412187576}
2019-04-14 18:06:24.21: SIM {TimeUS : 58634870, Roll : -1.44, Pitch : -16.39, Yaw : 50.09, Alt : 49.2799987793, Lat : 49.2836256, Lng : -123.1149303, Q1 : 0.897409200668, Q2 : 0.0490636788309, Q3 : -0.134400576353, Q4 : 0.417355895042}
2019-04-14 18:06:24.31: SIM {TimeUS : 58734830, Roll : -1.31, Pitch : -16.39, Yaw : 50.05, Alt : 49.2799987793, Lat : 49.283628, Lng : -123.1149266, Q1 : 0.897486925125, Q2 : 0.0500416271389, Q3 : -0.133939951658, Q4 : 0.417220801115}
2019-04-14 18:06:24.41: SIM {TimeUS : 58834790, Roll : -1.07, Pitch : -16.41, Yaw : 49.78, Alt : 49.2799987793, Lat : 49.2836303, Lng : -123.1149227, Q1 : 0.898342847824, Q2 : 0.0516413785517, Q3 : -0.133443802595, Q4 : 0.415338546038}
2019-04-14 18:06:24.51: SIM {TimeUS : 58934750, Roll : -0.78, Pitch : -16.48, Yaw : 49.34, Alt : 49.2799987793, Lat : 49.2836326, Lng : -123.1149189, Q1 : 0.89972037077, Q2 : 0.0536940991879, Q3 : -0.133051663637, Q4 : 0.412210404873}
2019-04-14 18:06:24.61: SIM {TimeUS : 59034710, Roll : -0.45, Pitch : -16.56, Yaw : 48.81, Alt : 49.2799987793, Lat : 49.2836349, Lng : -123.114915, Q1 : 0.901365339756, Q2 : 0.0559544861317, Q3 : -0.132802426815, Q4 : 0.408378690481}
2019-04-14 18:06:24.71: SIM {TimeUS : 59134670, Roll : -0.13, Pitch : -16.63, Yaw : 48.26, Alt : 49.2900009155, Lat : 49.2836373, Lng : -123.1149111, Q1 : 0.903074622154, Q2 : 0.0580718368292, Q3 : -0.132515370846, Q4 : 0.404380470514}
2019-04-14 18:06:24.81: SIM {TimeUS : 59234630, Roll : 0.15, Pitch : -16.69, Yaw : 47.75, Alt : 49.2900009155, Lat : 49.2836397, Lng : -123.1149072, Q1 : 0.904641032219, Q2 : 0.0599548667669, Q3 : -0.132208481431, Q4 : 0.400688141584}
2019-04-14 18:06:24.91: SIM {TimeUS : 59334590, Roll : 0.38, Pitch : -16.73, Yaw : 47.34, Alt : 49.2900009155, Lat : 49.2836421, Lng : -123.1149031, Q1 : 0.90592032671, Q2 : 0.0614667274058, Q3 : -0.131959334016, Q4 : 0.397639244795}
2019-04-14 18:06:25.01: SIM {TimeUS : 59434550, Roll : 0.54, Pitch : -16.76, Yaw : 47.03, Alt : 49.2900009155, Lat : 49.2836445, Lng : -123.1148991, Q1 : 0.90683978796, Q2 : 0.0624807104468, Q3 : -0.131801128387, Q4 : 0.395431667566}
2019-04-14 18:06:25.12: SIM {TimeUS : 59535343, Roll : 0.62, Pitch : -16.79, Yaw : 46.86, Alt : 49.2900009155, Lat : 49.283647, Lng : -123.114895, Q1 : 0.907360970974, Q2 : 0.0629867240787, Q3 : -0.131832405925, Q4 : 0.394143313169}
2019-04-14 18:06:25.21: SIM {TimeUS : 59635303, Roll : 0.62, Pitch : -16.81, Yaw : 46.81, Alt : 49.2900009155, Lat : 49.2836495, Lng : -123.1148909, Q1 : 0.90750181675, Q2 : 0.062996648252, Q3 : -0.132007732987, Q4 : 0.39375859499}
2019-04-14 18:06:25.31: SIM {TimeUS : 59735263, Roll : 0.55, Pitch : -16.82, Yaw : 46.87, Alt : 49.2900009155, Lat : 49.2836519, Lng : -123.1148867, Q1 : 0.907327353954, Q2 : 0.062587171793, Q3 : -0.132318168879, Q4 : 0.394121646881}
2019-04-14 18:06:25.41: SIM {TimeUS : 59835223, Roll : 0.44, Pitch : -16.84, Yaw : 47.01, Alt : 49.2900009155, Lat : 49.2836545, Lng : -123.1148825, Q1 : 0.906903624535, Q2 : 0.0619030632079, Q3 : -0.132786422968, Q4 : 0.39504635334}
2019-04-14 18:06:25.51: SIM {TimeUS : 59935183, Roll : 0.3, Pitch : -16.88, Yaw : 47.19, Alt : 49.2900009155, Lat : 49.283657, Lng : -123.1148783, Q1 : 0.906299173832, Q2 : 0.0611817836761, Q3 : -0.133469954133, Q4 : 0.396313518286}
2019-04-14 18:06:25.61: SIM {TimeUS : 60035143, Roll : 0.16, Pitch : -16.93, Yaw : 47.39, Alt : 49.2900009155, Lat : 49.2836596, Lng : -123.114874, Q1 : 0.90561580658, Q2 : 0.060458611697, Q3 : -0.134292826056, Q4 : 0.397706240416}
2019-04-14 18:06:25.71: SIM {TimeUS : 60135103, Roll : 0.0, Pitch : -16.98, Yaw : 47.58, Alt : 49.2900009155, Lat : 49.2836621, Lng : -123.1148697, Q1 : 0.904970049858, Q2 : 0.0596340037882, Q3 : -0.1351300776, Q4 : 0.399014860392}
2019-04-14 18:06:25.81: SIM {TimeUS : 60235063, Roll : -0.13, Pitch : -17.01, Yaw : 47.74, Alt : 49.2900009155, Lat : 49.2836645, Lng : -123.1148654, Q1 : 0.90444290638, Q2 : 0.0588084384799, Q3 : -0.135758563876, Q4 : 0.400117725134}
2019-04-14 18:06:25.91: SIM {TimeUS : 60335023, Roll : -0.24, Pitch : -17.04, Yaw : 47.86, Alt : 49.2999992371, Lat : 49.2836671, Lng : -123.1148611, Q1 : 0.904062211514, Q2 : 0.0581675581634, Q3 : -0.136295363307, Q4 : 0.400888621807}
2019-04-14 18:06:26.01: SIM {TimeUS : 60434983, Roll : -0.29, Pitch : -17.08, Yaw : 47.92, Alt : 49.2999992371, Lat : 49.2836698, Lng : -123.1148567, Q1 : 0.903815507889, Q2 : 0.0579860396683, Q3 : -0.136755779386, Q4 : 0.401314169168}
2019-04-14 18:06:26.11: SIM {TimeUS : 60534943, Roll : -0.28, Pitch : -17.12, Yaw : 47.94, Alt : 49.2999992371, Lat : 49.2836724, Lng : -123.1148523, Q1 : 0.903713107109, Q2 : 0.0582140423357, Q3 : -0.137085869908, Q4 : 0.401399046183}
2019-04-14 18:06:26.21: SIM {TimeUS : 60634903, Roll : -0.23, Pitch : -17.17, Yaw : 47.9, Alt : 49.2999992371, Lat : 49.2836749, Lng : -123.1148479, Q1 : 0.903754889965, Q2 : 0.0587251074612, Q3 : -0.137264370918, Q4 : 0.401169538498}
2019-04-14 18:06:26.31: SIM {TimeUS : 60734863, Roll : -0.16, Pitch : -17.21, Yaw : 47.83, Alt : 49.2999992371, Lat : 49.2836776, Lng : -123.1148435, Q1 : 0.903907299042, Q2 : 0.0594167299569, Q3 : -0.137390628457, Q4 : 0.400680840015}
2019-04-14 18:06:26.41: SIM {TimeUS : 60834823, Roll : -0.07, Pitch : -17.25, Yaw : 47.74, Alt : 49.2999992371, Lat : 49.2836802, Lng : -123.1148391, Q1 : 0.904154360294, Q2 : 0.0600775852799, Q3 : -0.137431696057, Q4 : 0.40001013875}
2019-04-14 18:06:26.51: SIM {TimeUS : 60934783, Roll : 0.0, Pitch : -17.26, Yaw : 47.63, Alt : 49.2999992371, Lat : 49.2836828, Lng : -123.1148347, Q1 : 0.904475867748, Q2 : 0.0605480633676, Q3 : -0.137359410524, Q4 : 0.399236440659}
2019-04-14 18:06:26.61: SIM {TimeUS : 61034743, Roll : 0.04, Pitch : -17.27, Yaw : 47.52, Alt : 49.2999992371, Lat : 49.2836855, Lng : -123.1148302, Q1 : 0.904816687107, Q2 : 0.0608695745468, Q3 : -0.137303203344, Q4 : 0.398433804512}
2019-04-14 18:06:26.71: SIM {TimeUS : 61134703, Roll : 0.1, Pitch : -17.27, Yaw : 47.42, Alt : 49.2999992371, Lat : 49.2836882, Lng : -123.1148257, Q1 : 0.905134618282, Q2 : 0.0612124837935, Q3 : -0.137158602476, Q4 : 0.397708266973}
2019-04-14 18:06:26.81: SIM {TimeUS : 61234663, Roll : 0.14, Pitch : -17.28, Yaw : 47.34, Alt : 49.2999992371, Lat : 49.2836908, Lng : -123.1148212, Q1 : 0.905388891697, Q2 : 0.0615249574184, Q3 : -0.137138530612, Q4 : 0.397087663412}
2019-04-14 18:06:26.91: SIM {TimeUS : 61334623, Roll : 0.19, Pitch : -17.32, Yaw : 47.27, Alt : 49.3100013733, Lat : 49.2836936, Lng : -123.1148167, Q1 : 0.905536472797, Q2 : 0.0619444213808, Q3 : -0.137334674597, Q4 : 0.396617889404}
2019-04-14 18:06:27.01: SIM {TimeUS : 61434583, Roll : 0.22, Pitch : -17.38, Yaw : 47.23, Alt : 49.3100013733, Lat : 49.2836962, Lng : -123.1148122, Q1 : 0.905597031116, Q2 : 0.0622976012528, Q3 : -0.137714505196, Q4 : 0.396292507648}
2019-04-14 18:06:27.11: SIM {TimeUS : 61534543, Roll : 0.22, Pitch : -17.41, Yaw : 47.21, Alt : 49.3100013733, Lat : 49.283699, Lng : -123.1148076, Q1 : 0.905624806881, Q2 : 0.0624312497675, Q3 : -0.137960240245, Q4 : 0.396122574806}
2019-04-14 18:06:27.22: SIM {TimeUS : 61635336, Roll : 0.21, Pitch : -17.41, Yaw : 47.21, Alt : 49.3100013733, Lat : 49.2837016, Lng : -123.114803, Q1 : 0.905637919903, Q2 : 0.0623522736132, Q3 : -0.138000532985, Q4 : 0.396090894938}
2019-04-14 18:06:27.31: SIM {TimeUS : 61735296, Roll : 0.19, Pitch : -17.41, Yaw : 47.22, Alt : 49.3100013733, Lat : 49.2837044, Lng : -123.1147984, Q1 : 0.905622541904, Q2 : 0.0621631219983, Q3 : -0.138068348169, Q4 : 0.396132200956}
2019-04-14 18:06:27.41: SIM {TimeUS : 61835256, Roll : 0.14, Pitch : -17.43, Yaw : 47.23, Alt : 49.3100013733, Lat : 49.2837071, Lng : -123.1147938, Q1 : 0.905567884445, Q2 : 0.0618884973228, Q3 : -0.138364300132, Q4 : 0.396196931601}
2019-04-14 18:06:27.51: SIM {TimeUS : 61935216, Roll : 0.11, Pitch : -17.45, Yaw : 47.25, Alt : 49.3100013733, Lat : 49.2837099, Lng : -123.1147892, Q1 : 0.905492782593, Q2 : 0.0617067664862, Q3 : -0.138656690717, Q4 : 0.396294683218}
2019-04-14 18:06:27.61: SIM {TimeUS : 62035176, Roll : 0.08, Pitch : -17.48, Yaw : 47.27, Alt : 49.3100013733, Lat : 49.2837126, Lng : -123.1147846, Q1 : 0.905407488346, Q2 : 0.0616296157241, Q3 : -0.138984516263, Q4 : 0.39638671279}
2019-04-14 18:06:27.71: SIM {TimeUS : 62135136, Roll : 0.07, Pitch : -17.51, Yaw : 47.28, Alt : 49.3100013733, Lat : 49.2837154, Lng : -123.11478, Q1 : 0.905345618725, Q2 : 0.0616173222661, Q3 : -0.139187544584, Q4 : 0.3964587152}
2019-04-14 18:06:27.81: SIM {TimeUS : 62235096, Roll : 0.07, Pitch : -17.53, Yaw : 47.29, Alt : 49.3100013733, Lat : 49.283718, Lng : -123.1147753, Q1 : 0.9052978158, Q2 : 0.0616881512105, Q3 : -0.139352053404, Q4 : 0.396498978138}
2019-04-14 18:06:27.91: SIM {TimeUS : 62335056, Roll : 0.08, Pitch : -17.54, Yaw : 47.29, Alt : 49.3100013733, Lat : 49.2837209, Lng : -123.1147707, Q1 : 0.905277907848, Q2 : 0.0618409439921, Q3 : -0.139370277524, Q4 : 0.396514296532}
2019-04-14 18:06:28.01: SIM {TimeUS : 62435016, Roll : 0.11, Pitch : -17.55, Yaw : 47.28, Alt : 49.3100013733, Lat : 49.2837236, Lng : -123.114766, Q1 : 0.905268132687, Q2 : 0.0621045269072, Q3 : -0.139405980706, Q4 : 0.396482825279}
2019-04-14 18:06:28.11: SIM {TimeUS : 62534976, Roll : 0.14, Pitch : -17.58, Yaw : 47.27, Alt : 49.3199996948, Lat : 49.2837265, Lng : -123.1147613, Q1 : 0.905272781849, Q2 : 0.0624055527151, Q3 : -0.139514878392, Q4 : 0.396386653185}
2019-04-14 18:06:28.21: SIM {TimeUS : 62634936, Roll : 0.14, Pitch : -17.62, Yaw : 47.24, Alt : 49.3199996948, Lat : 49.2837293, Lng : -123.1147567, Q1 : 0.905298829079, Q2 : 0.0625604316592, Q3 : -0.139805451035, Q4 : 0.396200269461}
2019-04-14 18:06:28.31: SIM {TimeUS : 62734896, Roll : 0.13, Pitch : -17.66, Yaw : 47.22, Alt : 49.3199996948, Lat : 49.283732, Lng : -123.114752, Q1 : 0.905339300632, Q2 : 0.0625666603446, Q3 : -0.140223830938, Q4 : 0.395958930254}
2019-04-14 18:06:28.41: SIM {TimeUS : 62834856, Roll : 0.12, Pitch : -17.71, Yaw : 47.19, Alt : 49.3199996948, Lat : 49.2837348, Lng : -123.1147473, Q1 : 0.905384898186, Q2 : 0.0625793635845, Q3 : -0.140651777387, Q4 : 0.395700782537}
2019-04-14 18:06:28.51: SIM {TimeUS : 62934816, Roll : 0.12, Pitch : -17.73, Yaw : 47.16, Alt : 49.3199996948, Lat : 49.2837376, Lng : -123.1147426, Q1 : 0.905443012714, Q2 : 0.0626939311624, Q3 : -0.140859127045, Q4 : 0.395475804806}
2019-04-14 18:06:28.61: SIM {TimeUS : 63034776, Roll : 0.13, Pitch : -17.73, Yaw : 47.14, Alt : 49.3199996948, Lat : 49.2837405, Lng : -123.1147378, Q1 : 0.9055300951, Q2 : 0.0627574399114, Q3 : -0.140846371651, Q4 : 0.395270854235}
2019-04-14 18:06:28.71: SIM {TimeUS : 63134736, Roll : 0.15, Pitch : -17.72, Yaw : 47.11, Alt : 49.3199996948, Lat : 49.2837433, Lng : -123.1147331, Q1 : 0.905632615089, Q2 : 0.0628048181534, Q3 : -0.140647530556, Q4 : 0.395099252462}
2019-04-14 18:06:28.81: SIM {TimeUS : 63234696, Roll : 0.16, Pitch : -17.7, Yaw : 47.09, Alt : 49.3199996948, Lat : 49.283746, Lng : -123.1147283, Q1 : 0.905724227428, Q2 : 0.062745988369, Q3 : -0.140519350767, Q4 : 0.394944190979}
2019-04-14 18:06:28.91: SIM {TimeUS : 63334656, Roll : 0.16, Pitch : -17.68, Yaw : 47.07, Alt : 49.3199996948, Lat : 49.2837489, Lng : -123.1147236, Q1 : 0.905805945396, Q2 : 0.0626920983195, Q3 : -0.140403091908, Q4 : 0.394806712866}
2019-04-14 18:06:29.01: SIM {TimeUS : 63434616, Roll : 0.16, Pitch : -17.67, Yaw : 47.06, Alt : 49.3199996948, Lat : 49.2837518, Lng : -123.1147188, Q1 : 0.90587079525, Q2 : 0.0626442432404, Q3 : -0.140316739678, Q4 : 0.394696176052}
2019-04-14 18:06:29.11: SIM {TimeUS : 63534576, Roll : 0.16, Pitch : -17.69, Yaw : 47.04, Alt : 49.3199996948, Lat : 49.2837545, Lng : -123.114714, Q1 : 0.905898213387, Q2 : 0.0626507624984, Q3 : -0.140435740352, Q4 : 0.394589841366}
2019-04-14 18:06:29.21: SIM {TimeUS : 63634536, Roll : 0.16, Pitch : -17.71, Yaw : 47.03, Alt : 49.3199996948, Lat : 49.2837575, Lng : -123.1147093, Q1 : 0.905901968479, Q2 : 0.0627263784409, Q3 : -0.140658080578, Q4 : 0.394490033388}
2019-04-14 18:06:29.31: SIM {TimeUS : 63735329, Roll : 0.15, Pitch : -17.77, Yaw : 47.02, Alt : 49.3199996948, Lat : 49.2837603, Lng : -123.1147044, Q1 : 0.90587157011, Q2 : 0.062818236649, Q3 : -0.141129881144, Q4 : 0.394376784563}
2019-04-14 18:06:29.41: SIM {TimeUS : 63835289, Roll : 0.14, Pitch : -17.82, Yaw : 47.02, Alt : 49.3199996948, Lat : 49.2837631, Lng : -123.1146996, Q1 : 0.905838727951, Q2 : 0.0629375055432, Q3 : -0.141577139497, Q4 : 0.39427280426}
2019-04-14 18:06:29.51: SIM {TimeUS : 63935249, Roll : 0.14, Pitch : -17.85, Yaw : 47.01, Alt : 49.3300018311, Lat : 49.283766, Lng : -123.1146948, Q1 : 0.905824363232, Q2 : 0.0630757808685, Q3 : -0.141817331314, Q4 : 0.39419734478}
2019-04-14 18:06:29.61: SIM {TimeUS : 64035209, Roll : 0.14, Pitch : -17.88, Yaw : 47.0, Alt : 49.3300018311, Lat : 49.2837689, Lng : -123.11469, Q1 : 0.905816197395, Q2 : 0.0631423294544, Q3 : -0.142082393169, Q4 : 0.394110023975}
2019-04-14 18:06:29.71: SIM {TimeUS : 64135169, Roll : 0.13, Pitch : -17.9, Yaw : 46.99, Alt : 49.3300018311, Lat : 49.2837717, Lng : -123.1146852, Q1 : 0.905830681324, Q2 : 0.0631167814136, Q3 : -0.142255410552, Q4 : 0.394018352032}
2019-04-14 18:06:29.81: SIM {TimeUS : 64235129, Roll : 0.14, Pitch : -17.89, Yaw : 46.98, Alt : 49.3300018311, Lat : 49.2837746, Lng : -123.1146804, Q1 : 0.905873954296, Q2 : 0.0631308704615, Q3 : -0.142145082355, Q4 : 0.393956452608}
2019-04-14 18:06:29.91: SIM {TimeUS : 64335089, Roll : 0.16, Pitch : -17.89, Yaw : 46.97, Alt : 49.3300018311, Lat : 49.2837775, Lng : -123.1146756, Q1 : 0.905902683735, Q2 : 0.0632954612374, Q3 : -0.142101883888, Q4 : 0.393879532814}
2019-04-14 18:06:30.01: SIM {TimeUS : 64435049, Roll : 0.17, Pitch : -17.91, Yaw : 46.95, Alt : 49.3300018311, Lat : 49.2837804, Lng : -123.1146708, Q1 : 0.905926585197, Q2 : 0.0633996576071, Q3 : -0.142190471292, Q4 : 0.393775761127}
2019-04-14 18:06:30.11: SIM {TimeUS : 64535009, Roll : 0.18, Pitch : -17.92, Yaw : 46.94, Alt : 49.3300018311, Lat : 49.2837832, Lng : -123.1146659, Q1 : 0.905953466892, Q2 : 0.0634932070971, Q3 : -0.142258197069, Q4 : 0.393674492836}
2019-04-14 18:06:30.21: SIM {TimeUS : 64634969, Roll : 0.19, Pitch : -17.92, Yaw : 46.93, Alt : 49.3300018311, Lat : 49.2837861, Lng : -123.1146611, Q1 : 0.905997514725, Q2 : 0.0635543614626, Q3 : -0.142211228609, Q4 : 0.393580049276}
2019-04-14 18:06:30.31: SIM {TimeUS : 64734929, Roll : 0.19, Pitch : -17.91, Yaw : 46.91, Alt : 49.3300018311, Lat : 49.2837891, Lng : -123.1146562, Q1 : 0.906044661999, Q2 : 0.0635718032718, Q3 : -0.142184138298, Q4 : 0.393478572369}
2019-04-14 18:06:30.41: SIM {TimeUS : 64834889, Roll : 0.18, Pitch : -17.93, Yaw : 46.9, Alt : 49.3300018311, Lat : 49.283792, Lng : -123.1146514, Q1 : 0.906076967716, Q2 : 0.0634944811463, Q3 : -0.142392814159, Q4 : 0.39334115386}
2019-04-14 18:06:30.51: SIM {TimeUS : 64934849, Roll : 0.15, Pitch : -17.97, Yaw : 46.89, Alt : 49.3300018311, Lat : 49.2837948, Lng : -123.1146465, Q1 : 0.906092345715, Q2 : 0.0633619204164, Q3 : -0.142810642719, Q4 : 0.393175661564}
2019-04-14 18:06:30.61: SIM {TimeUS : 65034809, Roll : 0.13, Pitch : -17.98, Yaw : 46.87, Alt : 49.3300018311, Lat : 49.2837977, Lng : -123.1146416, Q1 : 0.906132221222, Q2 : 0.0632509961724, Q3 : -0.142952039838, Q4 : 0.393050193787}
2019-04-14 18:06:30.71: SIM {TimeUS : 65134769, Roll : 0.14, Pitch : -17.97, Yaw : 46.86, Alt : 49.3300018311, Lat : 49.2838007, Lng : -123.1146368, Q1 : 0.906182467937, Q2 : 0.0632466748357, Q3 : -0.142866954207, Q4 : 0.392966002226}
2019-04-14 18:06:30.81: SIM {TimeUS : 65234729, Roll : 0.15, Pitch : -17.96, Yaw : 46.85, Alt : 49.3300018311, Lat : 49.2838036, Lng : -123.1146319, Q1 : 0.906227231026, Q2 : 0.0633398965001, Q3 : -0.142722561955, Q4 : 0.392900139093}
2019-04-14 18:06:30.91: SIM {TimeUS : 65334689, Roll : 0.17, Pitch : -17.97, Yaw : 46.84, Alt : 49.3300018311, Lat : 49.2838065, Lng : -123.114627, Q1 : 0.906246602535, Q2 : 0.0634921938181, Q3 : -0.142746374011, Q4 : 0.392822295427}
2019-04-14 18:06:31.01: SIM {TimeUS : 65434649, Roll : 0.17, Pitch : -17.99, Yaw : 46.83, Alt : 49.3400001526, Lat : 49.2838093, Lng : -123.1146221, Q1 : 0.906264424324, Q2 : 0.0635144487023, Q3 : -0.142893791199, Q4 : 0.392724007368}
2019-04-14 18:06:31.11: SIM {TimeUS : 65534609, Roll : 0.15, Pitch : -18.01, Yaw : 46.82, Alt : 49.3400001526, Lat : 49.2838123, Lng : -123.1146172, Q1 : 0.906285226345, Q2 : 0.0633920803666, Q3 : -0.143128991127, Q4 : 0.392610013485}
2019-04-14 18:06:31.21: SIM {TimeUS : 65634569, Roll : 0.13, Pitch : -18.03, Yaw : 46.81, Alt : 49.3400001526, Lat : 49.2838153, Lng : -123.1146123, Q1 : 0.906302392483, Q2 : 0.0633242502809, Q3 : -0.143333643675, Q4 : 0.392506688833}
2019-04-14 18:06:31.32: SIM {TimeUS : 65735362, Roll : 0.13, Pitch : -18.04, Yaw : 46.8, Alt : 49.3400001526, Lat : 49.2838182, Lng : -123.1146074, Q1 : 0.906314730644, Q2 : 0.0633779242635, Q3 : -0.143487229943, Q4 : 0.392413496971}
2019-04-14 18:06:31.41: SIM {TimeUS : 65835322, Roll : 0.14, Pitch : -18.06, Yaw : 46.79, Alt : 49.3400001526, Lat : 49.2838212, Lng : -123.1146025, Q1 : 0.906324148178, Q2 : 0.0634881854057, Q3 : -0.143587037921, Q4 : 0.392337322235}
2019-04-14 18:06:31.51: SIM {TimeUS : 65935282, Roll : 0.16, Pitch : -18.07, Yaw : 46.78, Alt : 49.3400001526, Lat : 49.283824, Lng : -123.1145976, Q1 : 0.906327724457, Q2 : 0.0637065991759, Q3 : -0.143596291542, Q4 : 0.392290264368}
2019-04-14 18:06:31.61: SIM {TimeUS : 66035242, Roll : 0.18, Pitch : -18.09, Yaw : 46.77, Alt : 49.3400001526, Lat : 49.2838269, Lng : -123.1145927, Q1 : 0.906321465969, Q2 : 0.0639106929302, Q3 : -0.143684014678, Q4 : 0.392239421606}
2019-04-14 18:06:31.71: SIM {TimeUS : 66135202, Roll : 0.2, Pitch : -18.11, Yaw : 46.76, Alt : 49.3400001526, Lat : 49.2838299, Lng : -123.1145878, Q1 : 0.906313657761, Q2 : 0.0641121789813, Q3 : -0.143782690167, Q4 : 0.392188370228}
2019-04-14 18:06:31.81: SIM {TimeUS : 66235162, Roll : 0.22, Pitch : -18.12, Yaw : 46.75, Alt : 49.3400001526, Lat : 49.2838329, Lng : -123.1145828, Q1 : 0.906309425831, Q2 : 0.0643005371094, Q3 : -0.143840432167, Q4 : 0.392146140337}
2019-04-14 18:06:31.91: SIM {TimeUS : 66335122, Roll : 0.25, Pitch : -18.13, Yaw : 46.75, Alt : 49.3400001526, Lat : 49.2838359, Lng : -123.114578, Q1 : 0.906307935715, Q2 : 0.0645138770342, Q3 : -0.143813848495, Q4 : 0.392124354839}
2019-04-14 18:06:32.01: SIM {TimeUS : 66435082, Roll : 0.27, Pitch : -18.14, Yaw : 46.74, Alt : 49.3400001526, Lat : 49.2838388, Lng : -123.114573, Q1 : 0.906300663948, Q2 : 0.0647527948022, Q3 : -0.143812686205, Q4 : 0.392102152109}
2019-04-14 18:06:32.11: SIM {TimeUS : 66535042, Roll : 0.26, Pitch : -18.14, Yaw : 46.74, Alt : 49.3400001526, Lat : 49.2838418, Lng : -123.1145681, Q1 : 0.906328618526, Q2 : 0.064649708569, Q3 : -0.143807694316, Q4 : 0.392056405544}
2019-04-14 18:06:32.21: SIM {TimeUS : 66635002, Roll : 0.23, Pitch : -18.14, Yaw : 46.73, Alt : 49.3499984741, Lat : 49.2838446, Lng : -123.1145632, Q1 : 0.906352043152, Q2 : 0.0644134730101, Q3 : -0.143969863653, Q4 : 0.391981571913}
