2019-04-14 15:42:52.20: SIM {TimeUS : 40216407, Roll : 0.0, Pitch : 0.0, Yaw : 0.0, Alt : 30.1000003815, Lat : 49.28357, Lng : -123.11502, Q1 : 1.0, Q2 : 0.0, Q3 : 0.0, Q4 : 0.0}
2019-04-14 15:42:52.31: SIM {TimeUS : 40335526, Roll : 0.0, Pitch : 0.0, Yaw : 0.0, Alt : 30.1000003815, Lat : 49.28357, Lng : -123.11502, Q1 : 1.0, Q2 : 0.0, Q3 : 0.0, Q4 : 0.0}
2019-04-14 15:42:52.41: SIM {TimeUS : 40435486, Roll : 0.0, Pitch : 0.0, Yaw : 0.0, Alt : 30.1000003815, Lat : 49.28357, Lng : -123.11502, Q1 : 1.0, Q2 : 0.0, Q3 : 0.0, Q4 : 0.0}
2019-04-14 15:42:52.51: SIM {TimeUS : 40535446, Roll : 0.0, Pitch : 0.0, Yaw : 0.0, Alt : 30.1000003815, Lat : 49.28357, Lng : -123.11502, Q1 : 1.0, Q2 : 0.0, Q3 : 0.0, Q4 : 0.0}
2019-04-14 15:42:52.61: SIM {TimeUS : 40635406, Roll : 0.0, Pitch : 0.0, Yaw : 0.0, Alt : 30.1000003815, Lat : 49.28357, Lng : -123.11502, Q1 : 1.0, Q2 : 0.0, Q3 : 0.0, Q4 : 0.0}
2019-04-14 15:42:52.71: SIM {TimeUS : 40735366, Roll : 0.0, Pitch : 0.0, Yaw : 0.0, Alt : 30.1000003815, Lat : 49.28357, Lng : -123.11502, Q1 : 1.0, Q2 : 0.0, Q3 : 0.0, Q4 : 0.0}
2019-04-14 15:42:52.81: SIM {TimeUS : 40835326, Roll : 0.0, Pitch : 0.0, Yaw : 0.0, Alt : 30.1000003815, Lat : 49.28357, Lng : -123.11502, Q1 : 1.0, Q2 : 0.0, Q3 : 0.0, Q4 : 0.0}
2019-04-14 15:42:52.91: SIM {TimeUS : 40935286, Roll : 0.0, Pitch : 0.0, Yaw : 0.0, Alt : 30.1000003815, Lat : 49.28357, Lng : -123.11502, Q1 : 1.0, Q2 : 0.0, Q3 : 0.0, Q4 : 0.0}
2019-04-14 15:42:53.01: SIM {TimeUS : 41035246, Roll : 0.0, Pitch : 0.0, Yaw : 0.0, Alt : 30.1000003815, Lat : 49.28357, Lng : -123.11502, Q1 : 1.0, Q2 : 0.0, Q3 : 0.0, Q4 : 0.0}
2019-04-14 15:42:53.11: SIM {TimeUS : 41135206, Roll : 0.0, Pitch : 0.0, Yaw : 0.0, Alt : 30.1000003815, Lat : 49.28357, Lng : -123.11502, Q1 : 1.0, Q2 : 0.0, Q3 : 0.0, Q4 : 0.0}
2019-04-14 15:42:53.21: SIM {TimeUS : 41235166, Roll : 0.0, Pitch : 0.0, Yaw : 0.0, Alt : 30.1000003815, Lat : 49.28357, Lng : -123.11502, Q1 : 1.0, Q2 : 0.0, Q3 : 0.0, Q4 : 0.0}
2019-04-14 15:42:53.31: SIM {TimeUS : 41335126, Roll : 0.0, Pitch : 0.0, Yaw : 0.0, Alt : 30.1000003815, Lat : 49.28357, Lng : -123.11502, Q1 : 1.0, Q2 : 0.0, Q3 : 0.0, Q4 : 0.0}
2019-04-14 15:42:53.41: SIM {TimeUS : 41435086, Roll : 0.0, Pitch : 0.0, Yaw : 0.0, Alt : 30.1000003815, Lat : 49.28357, Lng : -123.11502, Q1 : 1.0, Q2 : 0.0, Q3 : 0.0, Q4 : 0.0}
2019-04-14 15:42:53.51: SIM {TimeUS : 41535046, Roll : 0.0, Pitch : 0.0, Yaw : 0.0, Alt : 30.1000003815, Lat : 49.28357, Lng : -123.11502, Q1 : 1.0, Q2 : 0.0, Q3 : 0.0, Q4 : 0.0}
2019-04-14 15:42:53.61: SIM {TimeUS : 41635006, Roll : 0.0, Pitch : 0.0, Yaw : 0.0, Alt : 30.1000003815, Lat : 49.28357, Lng : -123.11502, Q1 : 1.0, Q2 : 0.0, Q3 : 0.0, Q4 : 0.0}
2019-04-14 15:42:53.71: SIM {TimeUS : 41734966, Roll : 0.0, Pitch : 0.0, Yaw : 0.0, Alt : 30.1000003815, Lat : 49.28357, Lng : -123.11502, Q1 : 1.0, Q2 : 0.0, Q3 : 0.0, Q4 : 0.0}
2019-04-14 15:42:53.81: SIM {TimeUS : 41834926, Roll : 0.0, Pitch : 0.0, Yaw : 0.0, Alt : 30.1000003815, Lat : 49.28357, Lng : -123.11502, Q1 : 1.0, Q2 : 0.0, Q3 : 0.0, Q4 : 0.0}
2019-04-14 15:42:53.91: SIM {TimeUS : 41934886, Roll : 0.0, Pitch : 0.0, Yaw : 0.0, Alt : 30.1000003815, Lat : 49.28357, Lng : -123.11502, Q1 : 1.0, Q2 : 0.0, Q3 : 0.0, Q4 : 0.0}
2019-04-14 15:42:54.01: SIM {TimeUS : 42034846, Roll : 0.0, Pitch : 0.0, Yaw : 0.0, Alt : 30.1000003815, Lat : 49.28357, Lng : -123.11502, Q1 : 1.0, Q2 : 0.0, Q3 : 0.0, Q4 : 0.0}
2019-04-14 15:42:54.11: SIM {TimeUS : 42134806, Roll : 0.0, Pitch : 0.0, Yaw : 0.0, Alt : 30.1000003815, Lat : 49.28357, Lng : -123.11502, Q1 : 1.0, Q2 : 0.0, Q3 : 0.0, Q4 : 0.0}
2019-04-14 15:42:54.21: SIM {TimeUS : 42234766, Roll : 0.0, Pitch : 0.0, Yaw : 0.0, Alt : 30.1000003815, Lat : 49.28357, Lng : -123.11502, Q1 : 1.0, Q2 : 0.0, Q3 : 0.0, Q4 : 0.0}
2019-04-14 15:42:54.31: SIM {TimeUS : 42335559, Roll : 0.0, Pitch : 0.0, Yaw : 0.0, Alt : 30.1000003815, Lat : 49.28357, Lng : -123.11502, Q1 : 1.0, Q2 : 0.0, Q3 : 0.0, Q4 : 0.0}
2019-04-14 15:42:54.41: SIM {TimeUS : 42435519, Roll : 0.0, Pitch : 0.0, Yaw : 0.0, Alt : 30.1000003815, Lat : 49.28357, Lng : -123.11502, Q1 : 1.0, Q2 : 0.0, Q3 : 0.0, Q4 : 0.0}
2019-04-14 15:42:54.51: SIM {TimeUS : 42535479, Roll : 0.0, Pitch : 0.0, Yaw : 360.0, Alt : 30.1000003815, Lat : 49.28357, Lng : -123.11502, Q1 : 1.0, Q2 : 0.0, Q3 : 0.0, Q4 : -1.1336584449e-11}
2019-04-14 15:42:54.61: SIM {TimeUS : 42635439, Roll : 0.0, Pitch : 0.0, Yaw : 360.0, Alt : 30.1000003815, Lat : 49.28357, Lng : -123.11502, Q1 : 1.0, Q2 : 0.0, Q3 : 0.0, Q4 : -1.61812430122e-08}
2019-04-14 15:42:54.71: SIM {TimeUS : 42735399, Roll : 0.0, Pitch : 0.0, Yaw : 359.99, Alt : 30.1000003815, Lat : 49.28357, Lng : -123.11502, Q1 : 1.0, Q2 : 0.0, Q3 : 0.0, Q4 : -2.08338590824e-07}
2019-04-14 15:42:54.81: SIM {TimeUS : 42835359, Roll : 0.0, Pitch : 0.0, Yaw : 359.99, Alt : 30.1000003815, Lat : 49.28357, Lng : -123.11502, Q1 : 1.0, Q2 : 0.0, Q3 : 0.0, Q4 : -3.84007080356e-07}
2019-04-14 15:42:54.91: SIM {TimeUS : 42935319, Roll : 0.0, Pitch : 0.0, Yaw : 359.99, Alt : 30.1000003815, Lat : 49.28357, Lng : -123.11502, Q1 : 1.0, Q2 : 0.0, Q3 : 0.0, Q4 : -5.70682516354e-07}
2019-04-14 15:42:55.01: SIM {TimeUS : 43035279, Roll : 0.0, Pitch : 0.0, Yaw : 359.99, Alt : 30.1000003815, Lat : 49.28357, Lng : -123.11502, Q1 : 1.0, Q2 : 0.0, Q3 : 0.0, Q4 : -7.83664859227e-07}
2019-04-14 15:42:55.11: SIM {TimeUS : 43135239, Roll : 0.0, Pitch : 0.0, Yaw : 359.99, Alt : 30.1000003815, Lat : 49.28357, Lng : -123.11502, Q1 : 1.0, Q2 : 0.0, Q3 : 0.0, Q4 : -9.84764028544e-07}
2019-04-14 15:42:55.21: SIM {TimeUS : 43235199, Roll : 0.0, Pitch : 0.0, Yaw : 359.99, Alt : 30.1000003815, Lat : 49.28357, Lng : -123.11502, Q1 : 1.0, Q2 : 0.0, Q3 : 0.0, Q4 : -1.15340776574e-06}
2019-04-14 15:42:55.31: SIM {TimeUS : 43335159, Roll : 0.0, Pitch : 0.0, Yaw : 359.99, Alt : 30.1000003815, Lat : 49.28357, Lng : -123.11502, Q1 : 1.0, Q2 : 0.0, Q3 : 0.0, Q4 : -1.36968719744e-06}
2019-04-14 15:42:55.41: SIM {TimeUS : 43435119, Roll : 0.0, Pitch : 0.0, Yaw : 359.99, Alt : 30.1200008392, Lat : 49.28357, Lng : -123.11502, Q1 : 1.0, Q2 : 0.0, Q3 : 0.0, Q4 : -1.59767876085e-06}
2019-04-14 15:42:55.51: SIM {TimeUS : 43535079, Roll : 0.0, Pitch : 0.0, Yaw : 359.99, Alt : 30.1399993896, Lat : 49.28357, Lng : -123.11502, Q1 : 1.0, Q2 : 0.0, Q3 : 0.0, Q4 : -1.87702926269e-06}
2019-04-14 15:42:55.61: SIM {TimeUS : 43635039, Roll : 0.0, Pitch : 0.0, Yaw : 359.99, Alt : 30.1800003052, Lat : 49.28357, Lng : -123.11502, Q1 : 1.0, Q2 : 0.0, Q3 : 0.0, Q4 : -2.07927701013e-06}
2019-04-14 15:42:55.71: SIM {TimeUS : 43734999, Roll : 0.0, Pitch : 0.0, Yaw : 359.99, Alt : 30.2099990845, Lat : 49.28357, Lng : -123.11502, Q1 : 1.0, Q2 : -5.85225370742e-06, Q3 : -5.64090623811e-06, Q4 : -2.28684484682e-06}
2019-04-14 15:42:55.81: SIM {TimeUS : 43834959, Roll : -0.18, Pitch : -0.15, Yaw : 359.99, Alt : 30.2700004578, Lat : 49.28357, Lng : -123.11502, Q1 : 0.999997735023, Q2 : -0.0016461731866, Q3 : -0.00137554632965, Q4 : -1.58336133609e-05}
2019-04-14 15:42:55.91: SIM {TimeUS : 43934919, Roll : -0.5, Pitch : -0.41, Yaw : 359.99, Alt : 30.3899993896, Lat : 49.28357, Lng : -123.11502, Q1 : 0.999983847141, Q2 : -0.00439720368013, Q3 : -0.00359446858056, Q4 : -5.55609985895e-05}
2019-04-14 15:42:56.01: SIM {TimeUS : 44034879, Roll : -0.74, Pitch : -0.62, Yaw : 359.99, Alt : 30.5400009155, Lat : 49.28357, Lng : -123.11502, Q1 : 0.99996393919, Q2 : -0.00651807384565, Q3 : -0.0054431585595, Q4 : -0.000119158168673}
2019-04-14 15:42:56.11: SIM {TimeUS : 44134839, Roll : -0.83, Pitch : -0.72, Yaw : 359.98, Alt : 30.7000007629, Lat : 49.28357, Lng : -123.11502, Q1 : 0.999953448772, Q2 : -0.00731139210984, Q3 : -0.00629107328132, Q4 : -0.00019876092847}
2019-04-14 15:42:56.21: SIM {TimeUS : 44234799, Roll : -0.78, Pitch : -0.68, Yaw : 359.97, Alt : 30.8500003815, Lat : 49.28357, Lng : -123.1150201, Q1 : 0.999958455563, Q2 : -0.00686428230256, Q3 : -0.0059943026863, Q4 : -0.000282489054371}
2019-04-14 15:42:56.31: SIM {TimeUS : 44334759, Roll : -0.62, Pitch : -0.55, Yaw : 359.96, Alt : 31.0100002289, Lat : 49.2835701, Lng : -123.1150201, Q1 : 0.999972999096, Q2 : -0.00549244275317, Q3 : -0.00486976467073, Q4 : -0.000365045882063}
2019-04-14 15:42:56.41: SIM {TimeUS : 44435552, Roll : -0.39, Pitch : -0.39, Yaw : 359.95, Alt : 31.1599998474, Lat : 49.2835701, Lng : -123.1150202, Q1 : 0.999988019466, Q2 : -0.00345741328783, Q3 : -0.00343856471591, Q4 : -0.000434118934209}
2019-04-14 15:42:56.51: SIM {TimeUS : 44535512, Roll : -0.17, Pitch : -0.21, Yaw : 359.94, Alt : 31.3299999237, Lat : 49.2835701, Lng : -123.1150203, Q1 : 0.999996900558, Q2 : -0.00153092632536, Q3 : -0.00191661098506, Q4 : -0.00048783357488}
2019-04-14 15:42:56.61: SIM {TimeUS : 44635472, Roll : -0.02, Pitch : -0.07, Yaw : 359.93, Alt : 31.5, Lat : 49.2835702, Lng : -123.1150204, Q1 : 0.999999642372, Q2 : -0.000258328887867, Q3 : -0.000628357578535, Q4 : -0.000530078075826}
2019-04-14 15:42:56.71: SIM {TimeUS : 44735432, Roll : 0.04, Pitch : 0.01, Yaw : 359.93, Alt : 31.6700000763, Lat : 49.2835702, Lng : -123.1150205, Q1 : 0.999999761581, Q2 : 0.000386579689803, Q3 : 0.000160402079928, Q4 : -0.000558669620659}
2019-04-14 15:42:56.81: SIM {TimeUS : 44835392, Roll : 0.05, Pitch : 0.05, Yaw : 359.93, Alt : 31.8500003815, Lat : 49.2835703, Lng : -123.1150205, Q1 : 0.999999582767, Q2 : 0.000517656386364, Q3 : 0.000477588648209, Q4 : -0.000579582294449}
2019-04-14 15:42:56.91: SIM {TimeUS : 44935352, Roll : 0.05, Pitch : 0.05, Yaw : 359.93, Alt : 32.0400009155, Lat : 49.2835703, Lng : -123.1150206, Q1 : 0.999999582767, Q2 : 0.000493855157401, Q3 : 0.000482750445371, Q4 : -0.000586810754612}
2019-04-14 15:42:57.01: SIM {TimeUS : 45035312, Roll : 0.05, Pitch : 0.04, Yaw : 359.93, Alt : 32.2200012207, Lat : 49.2835703, Lng : -123.1150207, Q1 : 0.999999642372, Q2 : 0.000517069653142, Q3 : 0.000350021524355, Q4 : -0.000586034031585}
2019-04-14 15:42:57.11: SIM {TimeUS : 45135272, Roll : 0.07, Pitch : 0.03, Yaw : 359.93, Alt : 32.4199981689, Lat : 49.2835703, Lng : -123.1150207, Q1 : 0.999999582767, Q2 : 0.000681313162204, Q3 : 0.000282720313407, Q4 : -0.000580063438974}
2019-04-14 15:42:57.21: SIM {TimeUS : 45235232, Roll : 0.09, Pitch : 0.05, Yaw : 359.93, Alt : 32.6100006104, Lat : 49.2835703, Lng : -123.1150208, Q1 : 0.999999344349, Q2 : 0.000852592696901, Q3 : 0.000488786259666, Q4 : -0.000565449008718}
2019-04-14 15:42:57.31: SIM {TimeUS : 45335192, Roll : 0.11, Pitch : 0.1, Yaw : 359.93, Alt : 32.8100013733, Lat : 49.2835704, Lng : -123.1150208, Q1 : 0.999998927116, Q2 : 0.00102484191302, Q3 : 0.000906994042452, Q4 : -0.000531321740709}
2019-04-14 15:42:57.41: SIM {TimeUS : 45435152, Roll : 0.13, Pitch : 0.14, Yaw : 359.94, Alt : 33.0099983215, Lat : 49.2835704, Lng : -123.1150208, Q1 : 0.999998390675, Q2 : 0.00115493219346, Q3 : 0.0013027129462, Q4 : -0.00049502204638}
2019-04-14 15:42:57.51: SIM {TimeUS : 45535112, Roll : 0.15, Pitch : 0.18, Yaw : 359.94, Alt : 33.2099990845, Lat : 49.2835704, Lng : -123.1150209, Q1 : 0.999997615814, Q2 : 0.0013689105399, Q3 : 0.00163934519514, Q4 : -0.000467483012471}
2019-04-14 15:42:57.61: SIM {TimeUS : 45635072, Roll : 0.18, Pitch : 0.2, Yaw : 359.94, Alt : 33.4099998474, Lat : 49.2835704, Lng : -123.1150209, Q1 : 0.999996900558, Q2 : 0.00162744929548, Q3 : 0.00181437563151, Q4 : -0.000455372151919}
2019-04-14 15:42:57.71: SIM {TimeUS : 45735032, Roll : 0.2, Pitch : 0.21, Yaw : 359.94, Alt : 33.6199989319, Lat : 49.2835704, Lng : -123.1150209, Q1 : 0.999996602535, Q2 : 0.00176288455259, Q3 : 0.00187300087418, Q4 : -0.000454286840977}
2019-04-14 15:42:57.81: SIM {TimeUS : 45834992, Roll : 0.18, Pitch : 0.2, Yaw : 359.94, Alt : 33.8300018311, Lat : 49.2835704, Lng : -123.1150209, Q1 : 0.999996960163, Q2 : 0.00162005075254, Q3 : 0.00182000966743, Q4 : -0.00046653917525}
2019-04-14 15:42:57.91: SIM {TimeUS : 45934952, Roll : 0.16, Pitch : 0.17, Yaw : 359.94, Alt : 34.0400009155, Lat : 49.2835704, Lng : -123.1150209, Q1 : 0.999997794628, Q2 : 0.00139961496461, Q3 : 0.00150342343841, Q4 : -0.000481893890537}
2019-04-14 15:42:58.01: SIM {TimeUS : 46034912, Roll : 0.13, Pitch : 0.11, Yaw : 359.94, Alt : 34.25, Lat : 49.2835706, Lng : -123.1150209, Q1 : 0.999998688698, Q2 : 0.00117296644021, Q3 : 0.00100044638384, Q4 : -0.000487479002913}
2019-04-14 15:42:58.11: SIM {TimeUS : 46134872, Roll : 0.1, Pitch : 0.07, Yaw : 359.94, Alt : 34.4599990845, Lat : 49.2835706, Lng : -123.1150209, Q1 : 0.99999922514, Q2 : 0.000952376809437, Q3 : 0.000633904477581, Q4 : -0.000502659531776}
2019-04-14 15:42:58.21: SIM {TimeUS : 46234832, Roll : 0.08, Pitch : 0.04, Yaw : 359.93, Alt : 34.6699981689, Lat : 49.2835706, Lng : -123.1150209, Q1 : 0.999999463558, Q2 : 0.000746031699236, Q3 : 0.000435554829892, Q4 : -0.000529862067197}
2019-04-14 15:42:58.31: SIM {TimeUS : 46334792, Roll : 0.07, Pitch : 0.05, Yaw : 359.93, Alt : 34.8899993896, Lat : 49.2835706, Lng : -123.1150209, Q1 : 0.999999523163, Q2 : 0.000682746409439, Q3 : 0.000439957395429, Q4 : -0.00056538899662}
2019-04-14 15:42:58.41: SIM {TimeUS : 46434752, Roll : 0.07, Pitch : 0.04, Yaw : 359.93, Alt : 35.0999984741, Lat : 49.2835704, Lng : -123.1150208, Q1 : 0.999999523163, Q2 : 0.000679489574395, Q3 : 0.000398173579015, Q4 : -0.000608158239629}
2019-04-14 15:42:58.51: SIM {TimeUS : 46535545, Roll : 0.07, Pitch : 0.04, Yaw : 359.92, Alt : 35.3199996948, Lat : 49.2835704, Lng : -123.1150208, Q1 : 0.999999523163, Q2 : 0.000614733726252, Q3 : 0.000401177880121, Q4 : -0.000654702831525}
2019-04-14 15:42:58.61: SIM {TimeUS : 46635505, Roll : 0.05, Pitch : 0.05, Yaw : 359.91, Alt : 35.5400009155, Lat : 49.2835704, Lng : -123.1150208, Q1 : 0.999999523163, Q2 : 0.000494878622703, Q3 : 0.000470663770102, Q4 : -0.000703145342413}
2019-04-14 15:42:58.71: SIM {TimeUS : 46735465, Roll : 0.04, Pitch : 0.06, Yaw : 359.91, Alt : 35.7599983215, Lat : 49.2835704, Lng : -123.1150208, Q1 : 0.999999523163, Q2 : 0.000350620510289, Q3 : 0.000571961747482, Q4 : -0.000744864810258}
2019-04-14 15:42:58.81: SIM {TimeUS : 46835425, Roll : 0.03, Pitch : 0.04, Yaw : 359.91, Alt : 35.9799995422, Lat : 49.2835704, Lng : -123.1150208, Q1 : 0.999999582767, Q2 : 0.00027460954152, Q3 : 0.000420185766416, Q4 : -0.000771692954004}
2019-04-14 15:42:58.91: SIM {TimeUS : 46935385, Roll : 0.02, Pitch : 0.02, Yaw : 359.9, Alt : 36.2000007629, Lat : 49.2835704, Lng : -123.1150207, Q1 : 0.999999642372, Q2 : 0.000179517650395, Q3 : 0.00025448211818, Q4 : -0.000792554696091}
2019-04-14 15:42:59.01: SIM {TimeUS : 47035345, Roll : 0.0, Pitch : 0.01, Yaw : 359.9, Alt : 36.4199981689, Lat : 49.2835704, Lng : -123.1150207, Q1 : 0.999999642372, Q2 : 3.03681626974e-05, Q3 : 0.000121572244097, Q4 : -0.000813075748738}
2019-04-14 15:42:59.11: SIM {TimeUS : 47135305, Roll : 0.0, Pitch : 0.0, Yaw : 359.9, Alt : 36.6399993896, Lat : 49.2835704, Lng : -123.1150207, Q1 : 0.999999642372, Q2 : -7.42751872167e-05, Q3 : 4.15215545218e-05, Q4 : -0.000832151446957}
2019-04-14 15:42:59.21: SIM {TimeUS : 47235265, Roll : 0.0, Pitch : 0.0, Yaw : 359.9, Alt : 36.8600006104, Lat : 49.2835704, Lng : -123.1150207, Q1 : 0.999999642372, Q2 : -2.15772197407e-05, Q3 : -6.85548511683e-05, Q4 : -0.000846356444526}
2019-04-14 15:42:59.31: SIM {TimeUS : 47335225, Roll : -0.01, Pitch : -0.02, Yaw : 359.9, Alt : 37.0900001526, Lat : 49.2835704, Lng : -123.1150207, Q1 : 0.999999582767, Q2 : -9.06549757929e-05, Q3 : -0.000235418541706, Q4 : -0.000856281607412}
2019-04-14 15:42:59.41: SIM {TimeUS : 47435185, Roll : -0.03, Pitch : -0.05, Yaw : 359.9, Alt : 37.3100013733, Lat : 49.2835704, Lng : -123.1150207, Q1 : 0.999999403954, Q2 : -0.000340642494848, Q3 : -0.000508867378812, Q4 : -0.000870137184393}
2019-04-14 15:42:59.51: SIM {TimeUS : 47535145, Roll : -0.08, Pitch : -0.08, Yaw : 359.89, Alt : 37.5400009155, Lat : 49.2835704, Lng : -123.1150207, Q1 : 0.99999910593, Q2 : -0.00070060492726, Q3 : -0.000729642866645, Q4 : -0.000890096998774}
2019-04-14 15:42:59.61: SIM {TimeUS : 47635105, Roll : -0.11, Pitch : -0.09, Yaw : 359.89, Alt : 37.7599983215, Lat : 49.2835704, Lng : -123.1150206, Q1 : 0.999998748302, Q2 : -0.0010084095411, Q3 : -0.000839074782562, Q4 : -0.000913761206903}
2019-04-14 15:42:59.71: SIM {TimeUS : 47735065, Roll : -0.13, Pitch : -0.09, Yaw : 359.89, Alt : 37.9900016785, Lat : 49.2835704, Lng : -123.1150206, Q1 : 0.999998509884, Q2 : -0.00117737671826, Q3 : -0.000859898747876, Q4 : -0.000939921708778}
2019-04-14 15:42:59.81: SIM {TimeUS : 47835025, Roll : -0.13, Pitch : -0.09, Yaw : 359.88, Alt : 38.2200012207, Lat : 49.2835704, Lng : -123.1150206, Q1 : 0.999998509884, Q2 : -0.0012038591085, Q3 : -0.000787170371041, Q4 : -0.00096774508711}
2019-04-14 15:42:59.91: SIM {TimeUS : 47934985, Roll : -0.11, Pitch : -0.06, Yaw : 359.88, Alt : 38.4500007629, Lat : 49.2835704, Lng : -123.1150206, Q1 : 0.999998867512, Q2 : -0.00103019573726, Q3 : -0.000546146417037, Q4 : -0.000989530002698}
2019-04-14 15:43:00.01: SIM {TimeUS : 48034945, Roll : -0.08, Pitch : -0.05, Yaw : 359.88, Alt : 38.6699981689, Lat : 49.2835704, Lng : -123.1150206, Q1 : 0.99999910593, Q2 : -0.00075429782737, Q3 : -0.000441026990302, Q4 : -0.00101289653685}
2019-04-14 15:43:00.11: SIM {TimeUS : 48134905, Roll : -0.06, Pitch : -0.05, Yaw : 359.88, Alt : 38.9000015259, Lat : 49.2835704, Lng : -123.1150206, Q1 : 0.99999922514, Q2 : -0.000577714294195, Q3 : -0.000442348071374, Q4 : -0.00104680389632}
2019-04-14 15:43:00.21: SIM {TimeUS : 48234865, Roll : -0.05, Pitch : -0.03, Yaw : 359.87, Alt : 39.1300010681, Lat : 49.2835704, Lng : -123.1150206, Q1 : 0.99999922514, Q2 : -0.000514006533194, Q3 : -0.000274341640761, Q4 : -0.00107518362347}
2019-04-14 15:43:00.31: SIM {TimeUS : 48334825, Roll : -0.07, Pitch : 0.0, Yaw : 359.87, Alt : 39.3600006104, Lat : 49.2835704, Lng : -123.1150206, Q1 : 0.999999165535, Q2 : -0.000648114539217, Q3 : -5.80071136937e-05, Q4 : -0.0011032295879}
2019-04-14 15:43:00.41: SIM {TimeUS : 48434785, Roll : -0.07, Pitch : 0.01, Yaw : 359.87, Alt : 39.5900001526, Lat : 49.2835704, Lng : -123.1150206, Q1 : 0.99999910593, Q2 : -0.000664418505039, Q3 : 0.000127887513372, Q4 : -0.00112672930118}
2019-04-14 15:43:00.51: SIM {TimeUS : 48534745, Roll : -0.06, Pitch : 0.04, Yaw : 359.86, Alt : 39.8199996948, Lat : 49.2835704, Lng : -123.1150206, Q1 : 0.99999910593, Q2 : -0.00056982022943, Q3 : 0.000382034777431, Q4 : -0.00114280625712}
2019-04-14 15:43:00.61: SIM {TimeUS : 48635538, Roll : -0.04, Pitch : 0.04, Yaw : 359.86, Alt : 40.0600013733, Lat : 49.2835706, Lng : -123.1150206, Q1 : 0.99999922514, Q2 : -0.000408941064961, Q3 : 0.000396534975152, Q4 : -0.00114852795377}
2019-04-14 15:43:00.71: SIM {TimeUS : 48735498, Roll : -0.01, Pitch : 0.03, Yaw : 359.86, Alt : 40.2900009155, Lat : 49.2835706, Lng : -123.1150207, Q1 : 0.999999284744, Q2 : -0.000161613803357, Q3 : 0.00034678922384, Q4 : -0.00115358328912}
2019-04-14 15:43:00.81: SIM {TimeUS : 48835458, Roll : 0.01, Pitch : 0.05, Yaw : 359.86, Alt : 40.5200004578, Lat : 49.2835706, Lng : -123.1150207, Q1 : 0.999999165535, Q2 : 0.000129654843477, Q3 : 0.000509556266479, Q4 : -0.00115906225983}
2019-04-14 15:43:00.91: SIM {TimeUS : 48935418, Roll : 0.06, Pitch : 0.09, Yaw : 359.86, Alt : 40.75, Lat : 49.2835706, Lng : -123.1150207, Q1 : 0.999998807907, Q2 : 0.000559341569897, Q3 : 0.000828922202345, Q4 : -0.00116715370677}
2019-04-14 15:43:01.01: SIM {TimeUS : 49035378, Roll : 0.09, Pitch : 0.12, Yaw : 359.86, Alt : 40.9799995422, Lat : 49.2835706, Lng : -123.1150207, Q1 : 0.999998271465, Q2 : 0.000849899777677, Q3 : 0.00112794956658, Q4 : -0.00118294241838}
2019-04-14 15:43:01.11: SIM {TimeUS : 49135338, Roll : 0.08, Pitch : 0.15, Yaw : 359.86, Alt : 41.2200012207, Lat : 49.2835706, Lng : -123.1150207, Q1 : 0.999998092651, Q2 : 0.000778025190812, Q3 : 0.00132270983886, Q4 : -0.00119506299961}
2019-04-14 15:43:01.21: SIM {TimeUS : 49235298, Roll : 0.04, Pitch : 0.16, Yaw : 359.86, Alt : 41.4500007629, Lat : 49.2835706, Lng : -123.1150207, Q1 : 0.999998152256, Q2 : 0.000370491790818, Q3 : 0.00144601182546, Q4 : -0.00121431797743}
2019-04-14 15:43:01.31: SIM {TimeUS : 49335258, Roll : 0.0, Pitch : 0.17, Yaw : 359.85, Alt : 41.6800003052, Lat : 49.2835706, Lng : -123.1150207, Q1 : 0.999998152256, Q2 : -1.83691263373e-05, Q3 : 0.00149653037079, Q4 : -0.0012367987074}
2019-04-14 15:43:01.41: SIM {TimeUS : 49435218, Roll : -0.02, Pitch : 0.15, Yaw : 359.85, Alt : 41.9199981689, Lat : 49.2835706, Lng : -123.1150207, Q1 : 0.999998271465, Q2 : -0.000196892011445, Q3 : 0.00131934671663, Q4 : -0.00126094743609}
2019-04-14 15:43:01.51: SIM {TimeUS : 49535178, Roll : -0.02, Pitch : 0.11, Yaw : 359.85, Alt : 42.1500015259, Lat : 49.2835706, Lng : -123.1150207, Q1 : 0.999998569489, Q2 : -0.000240290537477, Q3 : 0.00104550749529, Q4 : -0.0012896109838}
2019-04-14 15:43:01.61: SIM {TimeUS : 49635138, Roll : -0.01, Pitch : 0.11, Yaw : 359.84, Alt : 42.3800010681, Lat : 49.2835706, Lng : -123.1150207, Q1 : 0.999998569489, Q2 : -0.000143270837725, Q3 : 0.00101804512087, Q4 : -0.00132521276828}
2019-04-14 15:43:01.71: SIM {TimeUS : 49735098, Roll : 0.02, Pitch : 0.13, Yaw : 359.84, Alt : 42.6199989319, Lat : 49.2835706, Lng : -123.1150207, Q1 : 0.999998390675, Q2 : 0.000190109174582, Q3 : 0.00115426897537, Q4 : -0.00136554299388}
2019-04-14 15:43:01.81: SIM {TimeUS : 49835058, Roll : 0.07, Pitch : 0.14, Yaw : 359.83, Alt : 42.8499984741, Lat : 49.2835706, Lng : -123.1150207, Q1 : 0.999997973442, Q2 : 0.000668932741974, Q3 : 0.00127695780247, Q4 : -0.00140023091808}
2019-04-14 15:43:01.91: SIM {TimeUS : 49935018, Roll : 0.11, Pitch : 0.13, Yaw : 359.83, Alt : 43.0900001526, Lat : 49.2835706, Lng : -123.1150207, Q1 : 0.999997735023, Q2 : 0.00103055778891, Q3 : 0.00116625486407, Q4 : -0.00143790082075}
2019-04-14 15:43:02.01: SIM {TimeUS : 50034978, Roll : 0.12, Pitch : 0.1, Yaw : 359.83, Alt : 43.3199996948, Lat : 49.2835706, Lng : -123.1150207, Q1 : 0.999997913837, Q2 : 0.00105505320244, Q3 : 0.000954267161433, Q4 : -0.00146766845137}
2019-04-14 15:43:02.11: SIM {TimeUS : 50134938, Roll : 0.07, Pitch : 0.09, Yaw : 359.83, Alt : 43.5600013733, Lat : 49.2835704, Lng : -123.1150207, Q1 : 0.999998390675, Q2 : 0.000683841935825, Q3 : 0.000799210625701, Q4 : -0.00147543719504}
2019-04-14 15:43:02.21: SIM {TimeUS : 50234898, Roll : 0.02, Pitch : 0.08, Yaw : 359.83, Alt : 43.7900009155, Lat : 49.2835704, Lng : -123.1150207, Q1 : 0.999998629093, Q2 : 0.000179332142579, Q3 : 0.00072578858817, Q4 : -0.00147953652777}
2019-04-14 15:43:02.31: SIM {TimeUS : 50334858, Roll : -0.02, Pitch : 0.08, Yaw : 359.82, Alt : 44.0299987793, Lat : 49.2835704, Lng : -123.1150207, Q1 : 0.999998569489, Q2 : -0.000187208337593, Q3 : 0.000782186398283, Q4 : -0.00148630770855}
2019-04-14 15:43:02.41: SIM {TimeUS : 50434818, Roll : -0.04, Pitch : 0.08, Yaw : 359.82, Alt : 44.2700004578, Lat : 49.2835704, Lng : -123.1150207, Q1 : 0.999998509884, Q2 : -0.000358477875125, Q3 : 0.000769709702581, Q4 : -0.00149822828826}
2019-04-14 15:43:02.51: SIM {TimeUS : 50534778, Roll : -0.03, Pitch : 0.07, Yaw : 359.82, Alt : 44.5, Lat : 49.2835704, Lng : -123.1150206, Q1 : 0.999998569489, Q2 : -0.00034151255386, Q3 : 0.00065211346373, Q4 : -0.00151840609033}
2019-04-14 15:43:02.61: SIM {TimeUS : 50634738, Roll : -0.04, Pitch : 0.05, Yaw : 359.82, Alt : 44.7400016785, Lat : 49.2835704, Lng : -123.1150206, Q1 : 0.999998629093, Q2 : -0.000395333248889, Q3 : 0.000514901417773, Q4 : -0.00154723308515}
2019-04-14 15:43:02.71: SIM {TimeUS : 50735531, Roll : -0.04, Pitch : 0.04, Yaw : 359.81, Alt : 44.9799995422, Lat : 49.2835704, Lng : -123.1150206, Q1 : 0.999998629093, Q2 : -0.000385927967727, Q3 : 0.000353785173502, Q4 : -0.00157584482804}
2019-04-14 15:43:02.81: SIM {TimeUS : 50835491, Roll : -0.03, Pitch : 0.02, Yaw : 359.81, Alt : 45.2099990845, Lat : 49.2835704, Lng : -123.1150206, Q1 : 0.999998629093, Q2 : -0.000282001594314, Q3 : 0.000219296533032, Q4 : -0.00160921819042}
2019-04-14 15:43:02.91: SIM {TimeUS : 50935451, Roll : -0.02, Pitch : 0.01, Yaw : 359.81, Alt : 45.4500007629, Lat : 49.2835703, Lng : -123.1150206, Q1 : 0.999998569489, Q2 : -0.000223630224355, Q3 : 0.000124908227008, Q4 : -0.00164716364816}
2019-04-14 15:43:03.01: SIM {TimeUS : 51035411, Roll : -0.02, Pitch : 0.0, Yaw : 359.8, Alt : 45.6800003052, Lat : 49.2835703, Lng : -123.1150206, Q1 : 0.999998569489, Q2 : -0.000256364670349, Q3 : -6.10316819802e-05, Q4 : -0.0016874311259}
2019-04-14 15:43:03.11: SIM {TimeUS : 51135371, Roll : -0.03, Pitch : -0.03, Yaw : 359.8, Alt : 45.9099998474, Lat : 49.2835703, Lng : -123.1150206, Q1 : 0.999998450279, Q2 : -0.000280466134427, Q3 : -0.00030312204035, Q4 : -0.00172701093834}
2019-04-14 15:43:03.21: SIM {TimeUS : 51235331, Roll : -0.03, Pitch : -0.05, Yaw : 359.79, Alt : 46.1399993896, Lat : 49.2835703, Lng : -123.1150206, Q1 : 0.99999833107, Q2 : -0.000264809263172, Q3 : -0.000445387617219, Q4 : -0.00176195369568}
2019-04-14 15:43:03.31: SIM {TimeUS : 51335291, Roll : -0.02, Pitch : -0.05, Yaw : 359.79, Alt : 46.3699989319, Lat : 49.2835703, Lng : -123.1150206, Q1 : 0.999998271465, Q2 : -0.00021064998873, Q3 : -0.000511895690579, Q4 : -0.00179392832797}
2019-04-14 15:43:03.41: SIM {TimeUS : 51435251, Roll : -0.02, Pitch : -0.05, Yaw : 359.79, Alt : 46.5900001526, Lat : 49.2835703, Lng : -123.1150206, Q1 : 0.999998211861, Q2 : -0.000231414232985, Q3 : -0.000478797388496, Q4 : -0.00182285299525}
2019-04-14 15:43:03.51: SIM {TimeUS : 51535211, Roll : -0.04, Pitch : -0.04, Yaw : 359.78, Alt : 46.8100013733, Lat : 49.2835703, Lng : -123.1150206, Q1 : 0.999998152256, Q2 : -0.000408735388191, Q3 : -0.000392928282963, Q4 : -0.00184629985597}
2019-04-14 15:43:03.61: SIM {TimeUS : 51635171, Roll : -0.07, Pitch : -0.03, Yaw : 359.78, Alt : 47.0200004578, Lat : 49.2835703, Lng : -123.1150206, Q1 : 0.999997973442, Q2 : -0.00069375988096, Q3 : -0.000320889957948, Q4 : -0.0018691563746}
2019-04-14 15:43:03.71: SIM {TimeUS : 51735131, Roll : -0.1, Pitch : -0.03, Yaw : 359.78, Alt : 47.2200012207, Lat : 49.2835703, Lng : -123.1150205, Q1 : 0.999997794628, Q2 : -0.000880303385202, Q3 : -0.000297813938232, Q4 : -0.00189086701721}
2019-04-14 15:43:03.81: SIM {TimeUS : 51835091, Roll : -0.1, Pitch : -0.02, Yaw : 359.78, Alt : 47.4199981689, Lat : 49.2835703, Lng : -123.1150205, Q1 : 0.999997735023, Q2 : -0.000929966685362, Q3 : -0.000191344879568, Q4 : -0.00191225123126}
2019-04-14 15:43:03.91: SIM {TimeUS : 51935051, Roll : -0.1, Pitch : 0.0, Yaw : 359.77, Alt : 47.5999984741, Lat : 49.2835703, Lng : -123.1150205, Q1 : 0.999997735023, Q2 : -0.000875256489962, Q3 : -1.37367105708e-05, Q4 : -0.00193645525724}
2019-04-14 15:43:04.01: SIM {TimeUS : 52035011, Roll : -0.11, Pitch : -0.01, Yaw : 359.77, Alt : 47.7799987793, Lat : 49.2835703, Lng : -123.1150205, Q1 : 0.99999755621, Q2 : -0.00102264096495, Q3 : -9.41571342992e-05, Q4 : -0.00196280120872}
2019-04-14 15:43:04.11: SIM {TimeUS : 52134971, Roll : -0.12, Pitch : -0.02, Yaw : 359.77, Alt : 47.9399986267, Lat : 49.2835703, Lng : -123.1150205, Q1 : 0.999997377396, Q2 : -0.00111985520925, Q3 : -0.000220883608563, Q4 : -0.00199200422503}
2019-04-14 15:43:04.21: SIM {TimeUS : 52234931, Roll : -0.12, Pitch : -0.04, Yaw : 359.76, Alt : 48.0900001526, Lat : 49.2835703, Lng : -123.1150206, Q1 : 0.999997258186, Q2 : -0.0011147656478, Q3 : -0.000365623971447, Q4 : -0.00202349899337}
2019-04-14 15:43:04.31: SIM {TimeUS : 52334891, Roll : -0.1, Pitch : -0.06, Yaw : 359.76, Alt : 48.2400016785, Lat : 49.2835703, Lng : -123.1150206, Q1 : 0.999997317791, Q2 : -0.000923080078792, Q3 : -0.000535084225703, Q4 : -0.00205677747726}
2019-04-14 15:43:04.41: SIM {TimeUS : 52434851, Roll : -0.06, Pitch : -0.07, Yaw : 359.76, Alt : 48.3600006104, Lat : 49.2835703, Lng : -123.1150206, Q1 : 0.999997437, Q2 : -0.000612103380263, Q3 : -0.000667986518238, Q4 : -0.00208449992351}
2019-04-14 15:43:04.51: SIM {TimeUS : 52534811, Roll : -0.04, Pitch : -0.08, Yaw : 359.75, Alt : 48.4799995422, Lat : 49.2835703, Lng : -123.1150206, Q1 : 0.999997437, Q2 : -0.000399585085688, Q3 : -0.000748530321289, Q4 : -0.00210746168159}
2019-04-14 15:43:04.61: SIM {TimeUS : 52634771, Roll : -0.03, Pitch : -0.09, Yaw : 359.75, Alt : 48.5800018311, Lat : 49.2835703, Lng : -123.1150206, Q1 : 0.999997377396, Q2 : -0.000321665836964, Q3 : -0.000796822598204, Q4 : -0.00212916824967}
2019-04-14 15:43:04.71: SIM {TimeUS : 52735564, Roll : 0.0, Pitch : -0.08, Yaw : 359.75, Alt : 48.6800003052, Lat : 49.2835703, Lng : -123.1150206, Q1 : 0.999997437, Q2 : -8.30051067169e-05, Q3 : -0.000703078520019, Q4 : -0.00215712049976}
2019-04-14 15:43:04.81: SIM {TimeUS : 52835524, Roll : 0.02, Pitch : -0.06, Yaw : 359.74, Alt : 48.7599983215, Lat : 49.2835703, Lng : -123.1150206, Q1 : 0.999997437, Q2 : 0.000206365715712, Q3 : -0.000544244190678, Q4 : -0.00218219123781}
2019-04-14 15:43:04.91: SIM {TimeUS : 52935484, Roll : 0.05, Pitch : -0.03, Yaw : 359.74, Alt : 48.8300018311, Lat : 49.2835703, Lng : -123.1150206, Q1 : 0.999997377396, Q2 : 0.000438356306404, Q3 : -0.000346559041645, Q4 : -0.0022040407639}
2019-04-14 15:43:05.01: SIM {TimeUS : 53035444, Roll : 0.06, Pitch : -0.01, Yaw : 359.74, Alt : 48.8899993896, Lat : 49.2835703, Lng : -123.1150206, Q1 : 0.999997317791, Q2 : 0.000591976451688, Q3 : -0.000155321016791, Q4 : -0.00222393777221}
2019-04-14 15:43:05.11: SIM {TimeUS : 53135404, Roll : 0.07, Pitch : -0.01, Yaw : 359.74, Alt : 48.9399986267, Lat : 49.2835703, Lng : -123.1150207, Q1 : 0.999997258186, Q2 : 0.000679745629895, Q3 : -0.000102013582364, Q4 : -0.00224569579586}
2019-04-14 15:43:05.21: SIM {TimeUS : 53235364, Roll : 0.07, Pitch : -0.03, Yaw : 359.73, Alt : 48.9799995422, Lat : 49.2835703, Lng : -123.1150207, Q1 : 0.999997138977, Q2 : 0.000694210000802, Q3 : -0.000278482679278, Q4 : -0.00227496819571}
2019-04-14 15:43:05.31: SIM {TimeUS : 53335324, Roll : 0.13, Pitch : -0.11, Yaw : 359.73, Alt : 49.0200004578, Lat : 49.2835703, Lng : -123.1150207, Q1 : 0.999996066093, Q2 : 0.00121562124696, Q3 : -0.00103716424201, Q4 : -0.00230353022926}
2019-04-14 15:43:05.41: SIM {TimeUS : 53435284, Roll : 0.37, Pitch : -0.34, Yaw : 359.73, Alt : 49.0600013733, Lat : 49.2835703, Lng : -123.1150207, Q1 : 0.999987244606, Q2 : 0.00328806508332, Q3 : -0.00305972294882, Q4 : -0.00232922565192}
2019-04-14 15:43:05.51: SIM {TimeUS : 53535244, Roll : 0.82, Pitch : -0.76, Yaw : 359.72, Alt : 49.0800018311, Lat : 49.2835703, Lng : -123.1150207, Q1 : 0.999949038029, Q2 : 0.00714672449976, Q3 : -0.00673367781565, Q4 : -0.00234821345657}
2019-04-14 15:43:05.61: SIM {TimeUS : 53635204, Roll : 1.44, Pitch : -1.34, Yaw : 359.71, Alt : 49.1100006104, Lat : 49.2835704, Lng : -123.1150206, Q1 : 0.999848783016, Q2 : 0.0125915613025, Q3 : -0.0117621477693, Q4 : -0.00235204771161}
2019-04-14 15:43:05.71: SIM {TimeUS : 53735164, Roll : 2.2, Pitch : -2.01, Yaw : 359.69, Alt : 49.1300010681, Lat : 49.2835704, Lng : -123.1150206, Q1 : 0.999657571316, Q2 : 0.0192289724946, Q3 : -0.0175955947489, Q4 : -0.00231541530229}
2019-04-14 15:43:05.81: SIM {TimeUS : 53835124, Roll : 2.99, Pitch : -2.69, Yaw : 359.67, Alt : 49.1500015259, Lat : 49.2835706, Lng : -123.1150205, Q1 : 0.999381244183, Q2 : 0.0260177794844, Q3 : -0.023564491421, Q4 : -0.00222154846415}
2019-04-14 15:43:05.91: SIM {TimeUS : 53935084, Roll : 3.65, Pitch : -3.3, Yaw : 359.65, Alt : 49.1599998474, Lat : 49.2835707, Lng : -123.1150203, Q1 : 0.999074459076, Q2 : 0.0317709185183, Q3 : -0.0289232246578, Q4 : -0.00206244620495}
2019-04-14 15:43:06.01: SIM {TimeUS : 54035044, Roll : 4.13, Pitch : -3.78, Yaw : 359.65, Alt : 49.1800003052, Lat : 49.2835708, Lng : -123.1150201, Q1 : 0.998803555965, Q2 : 0.0359709449112, Q3 : -0.0330784246325, Q4 : -0.00184454955161}
2019-04-14 15:43:06.11: SIM {TimeUS : 54135004, Roll : 4.47, Pitch : -4.14, Yaw : 359.65, Alt : 49.1899986267, Lat : 49.2835709, Lng : -123.1150199, Q1 : 0.998582243919, Q2 : 0.0389159359038, Q3 : -0.0362833924592, Q4 : -0.00158795516472}
2019-04-14 15:43:06.21: SIM {TimeUS : 54234964, Roll : 4.72, Pitch : -4.44, Yaw : 359.66, Alt : 49.2000007629, Lat : 49.2835713, Lng : -123.1150195, Q1 : 0.99839925766, Q2 : 0.0410950928926, Q3 : -0.038838993758, Q4 : -0.00130402098875}
2019-04-14 15:43:06.31: SIM {TimeUS : 54334924, Roll : 4.96, Pitch : -4.69, Yaw : 359.68, Alt : 49.2099990845, Lat : 49.2835715, Lng : -123.115019, Q1 : 0.998224675655, Q2 : 0.0431470945477, Q3 : -0.0410465188324, Q4 : -0.000998698873445}
2019-04-14 15:43:06.41: SIM {TimeUS : 54434884, Roll : 5.22, Pitch : -4.94, Yaw : 359.69, Alt : 49.2099990845, Lat : 49.2835719, Lng : -123.1150185, Q1 : 0.998031497002, Q2 : 0.0454038605094, Q3 : -0.043256547302, Q4 : -0.000697481329553}
2019-04-14 15:43:06.51: SIM {TimeUS : 54534844, Roll : 5.5, Pitch : -5.2, Yaw : 359.7, Alt : 49.2200012207, Lat : 49.2835722, Lng : -123.1150178, Q1 : 0.997817158699, Q2 : 0.0478753782809, Q3 : -0.0454836376011, Q4 : -0.000400331977289}
2019-04-14 15:43:06.61: SIM {TimeUS : 54634804, Roll : 5.75, Pitch : -5.42, Yaw : 359.71, Alt : 49.2299995422, Lat : 49.2835727, Lng : -123.1150171, Q1 : 0.99762493372, Q2 : 0.0500128641725, Q3 : -0.0473621189594, Q4 : -0.000129372623633}
2019-04-14 15:43:06.71: SIM {TimeUS : 54734764, Roll : 5.94, Pitch : -5.59, Yaw : 359.72, Alt : 49.2299995422, Lat : 49.2835732, Lng : -123.1150163, Q1 : 0.997467935085, Q2 : 0.0516612827778, Q3 : -0.0488762669265, Q4 : 0.000100733828731}
2019-04-14 15:43:06.81: SIM {TimeUS : 54835557, Roll : 6.08, Pitch : -5.73, Yaw : 359.72, Alt : 49.2400016785, Lat : 49.2835738, Lng : -123.1150154, Q1 : 0.997342050076, Q2 : 0.0529343858361, Q3 : -0.0500675104558, Q4 : 0.000294153694995}
2019-04-14 15:43:06.91: SIM {TimeUS : 54935517, Roll : 6.2, Pitch : -5.82, Yaw : 359.73, Alt : 49.2400016785, Lat : 49.2835744, Lng : -123.1150144, Q1 : 0.997245013714, Q2 : 0.0539644770324, Q3 : -0.0508926399052, Q4 : 0.000445716199465}
2019-04-14 15:43:07.01: SIM {TimeUS : 55035477, Roll : 6.29, Pitch : -5.89, Yaw : 359.73, Alt : 49.25, Lat : 49.283575, Lng : -123.1150133, Q1 : 0.997174143791, Q2 : 0.0547232888639, Q3 : -0.0514674969018, Q4 : 0.00053560489323}
2019-04-14 15:43:07.11: SIM {TimeUS : 55135437, Roll : 6.44, Pitch : -5.96, Yaw : 359.74, Alt : 49.25, Lat : 49.2835757, Lng : -123.1150122, Q1 : 0.997072279453, Q2 : 0.056020192802, Q3 : -0.0520404018462, Q4 : 0.000689701468218}
2019-04-14 15:43:07.21: SIM {TimeUS : 55235397, Roll : 6.81, Pitch : -5.92, Yaw : 0.0, Alt : 49.2599983215, Lat : 49.2835764, Lng : -123.115011, Q1 : 0.996896862984, Q2 : 0.0593859106302, Q3 : -0.0515771433711, Q4 : 0.00313391699456}
2019-04-14 15:43:07.31: SIM {TimeUS : 55335357, Roll : 7.42, Pitch : -5.8, Yaw : 1.15, Alt : 49.2599983215, Lat : 49.2835773, Lng : -123.1150096, Q1 : 0.996534466743, Q2 : 0.0651973038912, Q3 : -0.0499060451984, Q4 : 0.0133336698636}
2019-04-14 15:43:07.41: SIM {TimeUS : 55435317, Roll : 8.0, Pitch : -5.91, Yaw : 3.77, Alt : 49.2599983215, Lat : 49.2835781, Lng : -123.1150083, Q1 : 0.995576739311, Q2 : 0.0713569074869, Q3 : -0.0491066724062, Q4 : 0.036383189261}
2019-04-14 15:43:07.51: SIM {TimeUS : 55535277, Roll : 8.24, Pitch : -6.44, Yaw : 7.97, Alt : 49.2599983215, Lat : 49.2835788, Lng : -123.1150068, Q1 : 0.993138432503, Q2 : 0.0755444169044, Q3 : -0.0509410090744, Q4 : 0.0733087435365}
2019-04-14 15:43:07.61: SIM {TimeUS : 55635237, Roll : 7.96, Pitch : -7.42, Yaw : 13.61, Alt : 49.2599983215, Lat : 49.2835798, Lng : -123.1150052, Q1 : 0.987936556339, Q2 : 0.0765118002892, Q3 : -0.0558856576681, Q4 : 0.122491270304}
2019-04-14 15:43:07.71: SIM {TimeUS : 55735197, Roll : 7.06, Pitch : -8.71, Yaw : 20.44, Alt : 49.2599983215, Lat : 49.2835806, Lng : -123.1150035, Q1 : 0.978581666946, Q2 : 0.0739470943809, Q3 : -0.0637025311589, Q4 : 0.181250661612}
2019-04-14 15:43:07.81: SIM {TimeUS : 55835157, Roll : 5.52, Pitch : -10.1, Yaw : 28.2, Alt : 49.2700004578, Lat : 49.2835816, Lng : -123.1150016, Q1 : 0.963938593864, Q2 : 0.067969083786, Q3 : -0.0736496448517, Q4 : 0.246532723308}
2019-04-14 15:43:07.91: SIM {TimeUS : 55935117, Roll : 3.18, Pitch : -11.37, Yaw : 36.52, Alt : 49.2700004578, Lat : 49.2835825, Lng : -123.1149997, Q1 : 0.94373190403, Q2 : 0.0572871752083, Q3 : -0.0854555293918, Q4 : 0.314301848412}
2019-04-14 15:43:08.01: SIM {TimeUS : 56035077, Roll : 0.12, Pitch : -12.26, Yaw : 44.67, Alt : 49.2700004578, Lat : 49.2835836, Lng : -123.1149976, Q1 : 0.919611990452, Q2 : 0.0416470058262, Q3 : -0.0984217748046, Q4 : 0.378011226654}
2019-04-14 15:43:08.11: SIM {TimeUS : 56135037, Roll : -3.06, Pitch : -12.66, Yaw : 51.78, Alt : 49.2700004578, Lat : 49.2835847, Lng : -123.1149955, Q1 : 0.895097494125, Q2 : 0.0242703836411, Q3 : -0.110814876854, Q4 : 0.431197762489}
2019-04-14 15:43:08.21: SIM {TimeUS : 56234997, Roll : -5.7, Pitch : -12.68, Yaw : 57.15, Alt : 49.2700004578, Lat : 49.2835858, Lng : -123.1149933, Q1 : 0.874324321747, Q2 : 0.00934903416783, Q3 : -0.120584160089, Q4 : 0.470030933619}
2019-04-14 15:43:08.31: SIM {TimeUS : 56334957, Roll : -7.38, Pitch : -12.56, Yaw : 60.52, Alt : 49.2700004578, Lat : 49.2835871, Lng : -123.1149911, Q1 : 0.860321223736, Q2 : -0.000262954912614, Q3 : -0.126547709107, Q4 : 0.493794471025}
2019-04-14 15:43:08.41: SIM {TimeUS : 56434917, Roll : -7.98, Pitch : -12.49, Yaw : 61.97, Alt : 49.2700004578, Lat : 49.2835885, Lng : -123.1149889, Q1 : 0.854019224644, Q2 : -0.00343795330264, Q3 : -0.128667145967, Q4 : 0.504067659378}
2019-04-14 15:43:08.51: SIM {TimeUS : 56534877, Roll : -7.61, Pitch : -12.64, Yaw : 61.82, Alt : 49.2700004578, Lat : 49.2835899, Lng : -123.1149867, Q1 : 0.854592502117, Q2 : -0.000209958088817, Q3 : -0.128192171454, Q4 : 0.503228008747}
2019-04-14 15:43:08.61: SIM {TimeUS : 56634837, Roll : -6.54, Pitch : -13.05, Yaw : 60.43, Alt : 49.2700004578, Lat : 49.2835916, Lng : -123.1149844, Q1 : 0.860372960567, Q2 : 0.00813574809581, Q3 : -0.126576393843, Q4 : 0.493630051613}
2019-04-14 15:43:08.71: SIM {TimeUS : 56734797, Roll : -4.98, Pitch : -13.66, Yaw : 58.14, Alt : 49.2700004578, Lat : 49.2835932, Lng : -123.114982, Q1 : 0.869478523731, Q2 : 0.019998723641, Q3 : -0.124885886908, Q4 : 0.477504640818}
2019-04-14 15:43:08.81: SIM {TimeUS : 56834757, Roll : -3.19, Pitch : -14.37, Yaw : 55.27, Alt : 49.2799987793, Lat : 49.283595, Lng : -123.1149796, Q1 : 0.880203187466, Q2 : 0.0334895588458, Q3 : -0.123616270721, Q4 : 0.456989943981}
2019-04-14 15:43:08.91: SIM {TimeUS : 56935550, Roll : -1.35, Pitch : -15.01, Yaw : 52.11, Alt : 49.2799987793, Lat : 49.2835968, Lng : -123.1149772, Q1 : 0.891268670559, Q2 : 0.0468493252993, Q3 : -0.122542493045, Q4 : 0.434083759785}
2019-04-14 15:43:09.01: SIM {TimeUS : 57035510, Roll : 0.34, Pitch : -15.46, Yaw : 49.03, Alt : 49.2799987793, Lat : 49.2835986, Lng : -123.1149746, Q1 : 0.90138053894, Q2 : 0.0585704818368, Q3 : -0.121202670038, Q4 : 0.41157335043}
2019-04-14 15:43:09.11: SIM {TimeUS : 57135470, Roll : 1.76, Pitch : -15.7, Yaw : 46.33, Alt : 49.2799987793, Lat : 49.2836005, Lng : -123.1149719, Q1 : 0.909787356853, Q2 : 0.0678113549948, Q3 : -0.119571492076, Q4 : 0.391651988029}
2019-04-14 15:43:09.21: SIM {TimeUS : 57235430, Roll : 2.79, Pitch : -15.76, Yaw : 44.26, Alt : 49.2799987793, Lat : 49.2836024, Lng : -123.1149691, Q1 : 0.916031837463, Q2 : 0.0740416049957, Q3 : -0.117913864553, Q4 : 0.376164644957}
2019-04-14 15:43:09.31: SIM {TimeUS : 57335390, Roll : 3.37, Pitch : -15.72, Yaw : 42.94, Alt : 49.2799987793, Lat : 49.2836043, Lng : -123.1149661, Q1 : 0.919989228249, Q2 : 0.0771616846323, Q3 : -0.116582751274, Q4 : 0.366161584854}
2019-04-14 15:43:09.41: SIM {TimeUS : 57435350, Roll : 3.48, Pitch : -15.67, Yaw : 42.38, Alt : 49.2799987793, Lat : 49.2836062, Lng : -123.114963, Q1 : 0.921738266945, Q2 : 0.0773463100195, Q3 : -0.116220548749, Q4 : 0.361813366413}
2019-04-14 15:43:09.51: SIM {TimeUS : 57535310, Roll : 3.2, Pitch : -15.67, Yaw : 42.52, Alt : 49.2799987793, Lat : 49.2836081, Lng : -123.1149598, Q1 : 0.921492695808, Q2 : 0.0752166137099, Q3 : -0.117028199136, Q4 : 0.362626671791}
2019-04-14 15:43:09.61: SIM {TimeUS : 57635270, Roll : 2.61, Pitch : -15.74, Yaw : 43.21, Alt : 49.2799987793, Lat : 49.2836102, Lng : -123.1149566, Q1 : 0.919574797153, Q2 : 0.0714231431484, Q3 : -0.118976764381, Q4 : 0.367594182491}
2019-04-14 15:43:09.71: SIM {TimeUS : 57735230, Roll : 1.83, Pitch : -15.85, Yaw : 44.29, Alt : 49.2799987793, Lat : 49.2836122, Lng : -123.1149531, Q1 : 0.916398227215, Q2 : 0.0666705295444, Q3 : -0.121794141829, Q4 : 0.375413745642}
2019-04-14 15:43:09.81: SIM {TimeUS : 57835190, Roll : 0.98, Pitch : -16.0, Yaw : 45.58, Alt : 49.2799987793, Lat : 49.2836141, Lng : -123.1149497, Q1 : 0.912438929081, Q2 : 0.0618059486151, Q3 : -0.125011458993, Q4 : 0.384717315435}
2019-04-14 15:43:09.91: SIM {TimeUS : 57935150, Roll : 0.18, Pitch : -16.15, Yaw : 46.89, Alt : 49.2799987793, Lat : 49.2836163, Lng : -123.1149462, Q1 : 0.908211767673, Q2 : 0.0574243441224, Q3 : -0.128277927637, Q4 : 0.394206315279}
2019-04-14 15:43:10.01: SIM {TimeUS : 58035110, Roll : -0.49, Pitch : -16.29, Yaw : 48.09, Alt : 49.2900009155, Lat : 49.2836183, Lng : -123.1149426, Q1 : 0.904244661331, Q2 : 0.0538086406887, Q3 : -0.131140604615, Q4 : 0.402800709009}
2019-04-14 15:43:10.11: SIM {TimeUS : 58135070, Roll : -1.02, Pitch : -16.39, Yaw : 49.05, Alt : 49.2900009155, Lat : 49.2836205, Lng : -123.114939, Q1 : 0.900966048241, Q2 : 0.0510912835598, Q3 : -0.133376002312, Q4 : 0.409708142281}
2019-04-14 15:43:10.21: SIM {TimeUS : 58235030, Roll : -1.36, Pitch : -16.43, Yaw : 49.71, Alt : 49.2900009155, Lat : 49.2836226, Lng : -123.1149353, Q1 : 0.898678481579, Q2 : 0.0493916012347, Q3 : -0.134644895792, Q4 : 0.4144975245}
2019-04-14 15:43:10.31: SIM {TimeUS : 58334990, Roll : -1.47, Pitch : -16.44, Yaw : 50.06, Alt : 49.2900009155, Lat : 49.2836249, Lng : -123.1149316, Q1 : 0.897470057011, Q2 : 0.0489308685064, Q3 : -0.134992867708, Q4 : 0.417049437761}
2019-04-14 15:43:10.41: SIM {TimeUS : 58434950, Roll : -1.42, Pitch : -16.44, Yaw : 50.1, Alt : 49.2900009155, Lat : 49.2836272, Lng : -123.1149278, Q1 : 0.897295951843, Q2 : 0.0494078472257, Q3 : -0.134769633412, Q4 : 0.417439848185}
2019-04-14 15:43:10.51: SIM {TimeUS : 58534910, Roll : -1.2, Pitch : -16.45, Yaw : 49.88, Alt : 49.2900009155, Lat : 49.2836293, Lng : -123.1149239, Q1 : 0.897965610027, Q2 : 0.0508928857744, Q3 : -0.134170919657, Q4 : 0.416011869907}
2019-04-14 15:43:10.61: SIM {TimeUS : 58634870, Roll : -0.87, Pitch : -16.46, Yaw : 49.48, Alt : 49.2900009155, Lat : 49.2836317, Lng : -123.1149202, Q1 : 0.899261116982, Q2 : 0.0530500002205, Q3 : -0.133256778121, Q4 : 0.41322851181}
2019-04-14 15:43:10.71: SIM {TimeUS : 58734830, Roll : -0.51, Pitch : -16.49, Yaw : 48.97, Alt : 49.2900009155, Lat : 49.2836341, Lng : -123.1149163, Q1 : 0.900912463665, Q2 : 0.055431406945, Q3 : -0.132359877229, Q4 : 0.409591168165}
2019-04-14 15:43:10.81: SIM {TimeUS : 58834790, Roll : -0.16, Pitch : -16.54, Yaw : 48.41, Alt : 49.2900009155, Lat : 49.2836365, Lng : -123.1149124, Q1 : 0.902657449245, Q2 : 0.0576751828194, Q3 : -0.131790012121, Q4 : 0.405603945255}
2019-04-14 15:43:10.91: SIM {TimeUS : 58934750, Roll : 0.12, Pitch : -16.61, Yaw : 47.89, Alt : 49.2900009155, Lat : 49.2836389, Lng : -123.1149085, Q1 : 0.90428185463, Q2 : 0.0596296787262, Q3 : -0.131570503116, Q4 : 0.4017560184}
2019-04-14 15:43:11.01: SIM {TimeUS : 59035543, Roll : 0.35, Pitch : -16.69, Yaw : 47.43, Alt : 49.2900009155, Lat : 49.2836413, Lng : -123.1149045, Q1 : 0.905644595623, Q2 : 0.0611873418093, Q3 : -0.131645530462, Q4 : 0.398413658142}
2019-04-14 15:43:11.11: SIM {TimeUS : 59135503, Roll : 0.5, Pitch : -16.73, Yaw : 47.1, Alt : 49.2900009155, Lat : 49.2836438, Lng : -123.1149004, Q1 : 0.906668007374, Q2 : 0.0621299929917, Q3 : -0.131705626845, Q4 : 0.395912408829}
2019-04-14 15:43:11.21: SIM {TimeUS : 59235463, Roll : 0.57, Pitch : -16.77, Yaw : 46.89, Alt : 49.2900009155, Lat : 49.2836462, Lng : -123.1148963, Q1 : 0.907293558121, Q2 : 0.0626050308347, Q3 : -0.131872057915, Q4 : 0.394346028566}
2019-04-14 15:43:11.31: SIM {TimeUS : 59335423, Roll : 0.59, Pitch : -16.81, Yaw : 46.81, Alt : 49.2900009155, Lat : 49.2836487, Lng : -123.1148922, Q1 : 0.907516717911, Q2 : 0.0627814233303, Q3 : -0.132160633802, Q4 : 0.3937073946}
2019-04-14 15:43:11.41: SIM {TimeUS : 59435383, Roll : 0.55, Pitch : -16.84, Yaw : 46.84, Alt : 49.2900009155, Lat : 49.2836511, Lng : -123.114888, Q1 : 0.9074010849, Q2 : 0.062614902854, Q3 : -0.132502481341, Q4 : 0.393885463476}
2019-04-14 15:43:11.51: SIM {TimeUS : 59535343, Roll : 0.46, Pitch : -16.86, Yaw : 46.96, Alt : 49.2900009155, Lat : 49.2836536, Lng : -123.1148839, Q1 : 0.907023608685, Q2 : 0.0621329471469, Q3 : -0.132913440466, Q4 : 0.394691944122}
2019-04-14 15:43:11.61: SIM {TimeUS : 59635303, Roll : 0.34, Pitch : -16.89, Yaw : 47.13, Alt : 49.2900009155, Lat : 49.283656, Lng : -123.1148797, Q1 : 0.906458795071, Q2 : 0.0614846870303, Q3 : -0.133444204926, Q4 : 0.395909994841}
2019-04-14 15:43:11.71: SIM {TimeUS : 59735263, Roll : 0.21, Pitch : -16.92, Yaw : 47.33, Alt : 49.2900009155, Lat : 49.2836585, Lng : -123.1148754, Q1 : 0.905805826187, Q2 : 0.0607438795269, Q3 : -0.134036064148, Q4 : 0.397316426039}
2019-04-14 15:43:11.81: SIM {TimeUS : 59835223, Roll : 0.07, Pitch : -16.95, Yaw : 47.53, Alt : 49.2900009155, Lat : 49.2836612, Lng : -123.114871, Q1 : 0.905141413212, Q2 : 0.0600206702948, Q3 : -0.13466411829, Q4 : 0.398725628853}
2019-04-14 15:43:11.91: SIM {TimeUS : 59935183, Roll : -0.04, Pitch : -16.99, Yaw : 47.71, Alt : 49.2999992371, Lat : 49.2836637, Lng : -123.1148668, Q1 : 0.904538393021, Q2 : 0.0594075284898, Q3 : -0.135319367051, Q4 : 0.399962157011}
2019-04-14 15:43:12.01: SIM {TimeUS : 60035143, Roll : -0.13, Pitch : -17.04, Yaw : 47.85, Alt : 49.2999992371, Lat : 49.2836663, Lng : -123.1148625, Q1 : 0.904060006142, Q2 : 0.0589866936207, Q3 : -0.13592338562, Q4 : 0.400900155306}
2019-04-14 15:43:12.11: SIM {TimeUS : 60135103, Roll : -0.21, Pitch : -17.07, Yaw : 47.93, Alt : 49.2999992371, Lat : 49.2836688, Lng : -123.1148582, Q1 : 0.903756797314, Q2 : 0.0586007460952, Q3 : -0.136448070407, Q4 : 0.401461750269}
2019-04-14 15:43:12.21: SIM {TimeUS : 60235063, Roll : -0.27, Pitch : -17.1, Yaw : 47.96, Alt : 49.2999992371, Lat : 49.2836713, Lng : -123.1148538, Q1 : 0.903648614883, Q2 : 0.0582994669676, Q3 : -0.136816203594, Q4 : 0.401623815298}
2019-04-14 15:43:12.31: SIM {TimeUS : 60335023, Roll : -0.29, Pitch : -17.12, Yaw : 47.94, Alt : 49.2999992371, Lat : 49.283674, Lng : -123.1148494, Q1 : 0.903705954552, Q2 : 0.0581728182733, Q3 : -0.137079447508, Q4 : 0.401423335075}
2019-04-14 15:43:12.41: SIM {TimeUS : 60434983, Roll : -0.25, Pitch : -17.15, Yaw : 47.88, Alt : 49.2999992371, Lat : 49.2836766, Lng : -123.114845, Q1 : 0.903866946697, Q2 : 0.0585094615817, Q3 : -0.137236475945, Q4 : 0.400958120823}
2019-04-14 15:43:12.51: SIM {TimeUS : 60534943, Roll : -0.18, Pitch : -17.19, Yaw : 47.79, Alt : 49.2999992371, Lat : 49.2836792, Lng : -123.1148406, Q1 : 0.904110848904, Q2 : 0.0591054745018, Q3 : -0.137308806181, Q4 : 0.400295376778}
2019-04-14 15:43:12.61: SIM {TimeUS : 60634903, Roll : -0.08, Pitch : -17.23, Yaw : 47.67, Alt : 49.2999992371, Lat : 49.2836819, Lng : -123.1148361, Q1 : 0.90439838171, Q2 : 0.0599076896906, Q3 : -0.137324184179, Q4 : 0.399520605803}
2019-04-14 15:43:12.71: SIM {TimeUS : 60734863, Roll : 0.02, Pitch : -17.26, Yaw : 47.56, Alt : 49.2999992371, Lat : 49.2836846, Lng : -123.1148317, Q1 : 0.904702305794, Q2 : 0.0607185736299, Q3 : -0.137308105826, Q4 : 0.398714870214}
2019-04-14 15:43:12.81: SIM {TimeUS : 60834823, Roll : 0.1, Pitch : -17.29, Yaw : 47.45, Alt : 49.3100013733, Lat : 49.2836871, Lng : -123.1148272, Q1 : 0.90499985218, Q2 : 0.0613293834031, Q3 : -0.137322887778, Q4 : 0.397940248251}
2019-04-14 15:43:12.91: SIM {TimeUS : 60934783, Roll : 0.14, Pitch : -17.31, Yaw : 47.36, Alt : 49.3100013733, Lat : 49.2836899, Lng : -123.1148227, Q1 : 0.905275583267, Q2 : 0.061622902751, Q3 : -0.137334108353, Q4 : 0.397263228893}
2019-04-14 15:43:13.01: SIM {TimeUS : 61034743, Roll : 0.16, Pitch : -17.33, Yaw : 47.29, Alt : 49.3100013733, Lat : 49.2836925, Lng : -123.1148181, Q1 : 0.905490875244, Q2 : 0.0617156922817, Q3 : -0.137452334166, Q4 : 0.396716982126}
2019-04-14 15:43:13.11: SIM {TimeUS : 61135536, Roll : 0.17, Pitch : -17.34, Yaw : 47.24, Alt : 49.3100013733, Lat : 49.2836953, Lng : -123.1148136, Q1 : 0.905639588833, Q2 : 0.0617628470063, Q3 : -0.137536197901, Q4 : 0.396340936422}
2019-04-14 15:43:13.21: SIM {TimeUS : 61235496, Roll : 0.17, Pitch : -17.34, Yaw : 47.21, Alt : 49.3100013733, Lat : 49.283698, Lng : -123.114809, Q1 : 0.905721843243, Q2 : 0.0617591962218, Q3 : -0.137604385614, Q4 : 0.396129816771}
2019-04-14 15:43:13.31: SIM {TimeUS : 61335456, Roll : 0.18, Pitch : -17.37, Yaw : 47.21, Alt : 49.3100013733, Lat : 49.2837007, Lng : -123.1148045, Q1 : 0.905705094337, Q2 : 0.0619432553649, Q3 : -0.137812376022, Q4 : 0.396067023277}
2019-04-14 15:43:13.41: SIM {TimeUS : 61435416, Roll : 0.18, Pitch : -17.43, Yaw : 47.21, Alt : 49.3100013733, Lat : 49.2837034, Lng : -123.1148, Q1 : 0.905616998672, Q2 : 0.0621787533164, Q3 : -0.138204723597, Q4 : 0.396094858646}
2019-04-14 15:43:13.51: SIM {TimeUS : 61535376, Roll : 0.18, Pitch : -17.46, Yaw : 47.23, Alt : 49.3100013733, Lat : 49.2837062, Lng : -123.1147954, Q1 : 0.905531227589, Q2 : 0.0622453689575, Q3 : -0.138453826308, Q4 : 0.396193504333}
2019-04-14 15:43:13.61: SIM {TimeUS : 61635336, Roll : 0.16, Pitch : -17.45, Yaw : 47.25, Alt : 49.3100013733, Lat : 49.2837089, Lng : -123.1147908, Q1 : 0.905477464199, Q2 : 0.0621132291853, Q3 : -0.138485237956, Q4 : 0.396326065063}
2019-04-14 15:43:13.71: SIM {TimeUS : 61735296, Roll : 0.13, Pitch : -17.46, Yaw : 47.27, Alt : 49.3100013733, Lat : 49.2837115, Lng : -123.1147862, Q1 : 0.905412495136, Q2 : 0.0619178600609, Q3 : -0.138644188643, Q4 : 0.396449446678}
2019-04-14 15:43:13.81: SIM {TimeUS : 61835256, Roll : 0.09, Pitch : -17.49, Yaw : 47.29, Alt : 49.3100013733, Lat : 49.2837144, Lng : -123.1147815, Q1 : 0.905342757702, Q2 : 0.0617218650877, Q3 : -0.138987034559, Q4 : 0.396519303322}
2019-04-14 15:43:13.91: SIM {TimeUS : 61935216, Roll : 0.07, Pitch : -17.52, Yaw : 47.3, Alt : 49.3100013733, Lat : 49.283717, Lng : -123.1147769, Q1 : 0.905281186104, Q2 : 0.0616749301553, Q3 : -0.13927911222, Q4 : 0.396564692259}
2019-04-14 15:43:14.01: SIM {TimeUS : 62035176, Roll : 0.05, Pitch : -17.55, Yaw : 47.3, Alt : 49.3199996948, Lat : 49.2837199, Lng : -123.1147722, Q1 : 0.905249118805, Q2 : 0.0616382285953, Q3 : -0.139563903213, Q4 : 0.396543413401}
2019-04-14 15:43:14.11: SIM {TimeUS : 62135136, Roll : 0.04, Pitch : -17.57, Yaw : 47.29, Alt : 49.3199996948, Lat : 49.2837227, Lng : -123.1147676, Q1 : 0.905255198479, Q2 : 0.0616406016052, Q3 : -0.13974557817, Q4 : 0.396465241909}
2019-04-14 15:43:14.21: SIM {TimeUS : 62235096, Roll : 0.05, Pitch : -17.59, Yaw : 47.27, Alt : 49.3199996948, Lat : 49.2837253, Lng : -123.1147629, Q1 : 0.905286371708, Q2 : 0.0617155730724, Q3 : -0.139903515577, Q4 : 0.396326720715}
2019-04-14 15:43:14.31: SIM {TimeUS : 62335056, Roll : 0.07, Pitch : -17.6, Yaw : 47.25, Alt : 49.3199996948, Lat : 49.2837282, Lng : -123.1147582, Q1 : 0.905339956284, Q2 : 0.0618924796581, Q3 : -0.139963626862, Q4 : 0.396155357361}
2019-04-14 15:43:14.41: SIM {TimeUS : 62435016, Roll : 0.1, Pitch : -17.62, Yaw : 47.22, Alt : 49.3199996948, Lat : 49.2837309, Lng : -123.1147535, Q1 : 0.905392885208, Q2 : 0.0621734783053, Q3 : -0.139990150928, Q4 : 0.395981043577}
2019-04-14 15:43:14.51: SIM {TimeUS : 62534976, Roll : 0.13, Pitch : -17.64, Yaw : 47.2, Alt : 49.3199996948, Lat : 49.2837338, Lng : -123.1147488, Q1 : 0.905440211296, Q2 : 0.0625165551901, Q3 : -0.140095055103, Q4 : 0.395781636238}
2019-04-14 15:43:14.61: SIM {TimeUS : 62634936, Roll : 0.15, Pitch : -17.68, Yaw : 47.16, Alt : 49.3199996948, Lat : 49.2837366, Lng : -123.1147441, Q1 : 0.905489385128, Q2 : 0.0627440884709, Q3 : -0.140367716551, Q4 : 0.395536452532}
2019-04-14 15:43:14.71: SIM {TimeUS : 62734896, Roll : 0.15, Pitch : -17.72, Yaw : 47.13, Alt : 49.3199996948, Lat : 49.2837393, Lng : -123.1147394, Q1 : 0.905541062355, Q2 : 0.0628588274121, Q3 : -0.140707060695, Q4 : 0.395279288292}
2019-04-14 15:43:14.81: SIM {TimeUS : 62834856, Roll : 0.15, Pitch : -17.76, Yaw : 47.11, Alt : 49.3199996948, Lat : 49.2837423, Lng : -123.1147347, Q1 : 0.905590832233, Q2 : 0.0629283487797, Q3 : -0.14105604589, Q4 : 0.395029753447}
2019-04-14 15:43:14.91: SIM {TimeUS : 62934816, Roll : 0.16, Pitch : -17.79, Yaw : 47.08, Alt : 49.3199996948, Lat : 49.2837451, Lng : -123.11473, Q1 : 0.905641555786, Q2 : 0.063060760498, Q3 : -0.141215652227, Q4 : 0.394835263491}
2019-04-14 15:43:15.01: SIM {TimeUS : 63034776, Roll : 0.18, Pitch : -17.79, Yaw : 47.06, Alt : 49.3199996948, Lat : 49.2837478, Lng : -123.1147252, Q1 : 0.905701100826, Q2 : 0.0632104724646, Q3 : -0.141175344586, Q4 : 0.394689142704}
2019-04-14 15:43:15.11: SIM {TimeUS : 63134736, Roll : 0.19, Pitch : -17.77, Yaw : 47.04, Alt : 49.3199996948, Lat : 49.2837507, Lng : -123.1147205, Q1 : 0.905767917633, Q2 : 0.0632500201464, Q3 : -0.141007035971, Q4 : 0.394589692354}
2019-04-14 15:43:15.21: SIM {TimeUS : 63235529, Roll : 0.19, Pitch : -17.75, Yaw : 47.03, Alt : 49.3199996948, Lat : 49.2837536, Lng : -123.1147156, Q1 : 0.905832231045, Q2 : 0.0631177723408, Q3 : -0.140850022435, Q4 : 0.394519150257}
2019-04-14 15:43:15.31: SIM {TimeUS : 63335489, Roll : 0.18, Pitch : -17.73, Yaw : 47.03, Alt : 49.3199996948, Lat : 49.2837564, Lng : -123.1147109, Q1 : 0.905889689922, Q2 : 0.062930546701, Q3 : -0.14070789516, Q4 : 0.394467949867}
2019-04-14 15:43:15.41: SIM {TimeUS : 63435449, Roll : 0.17, Pitch : -17.72, Yaw : 47.02, Alt : 49.3199996948, Lat : 49.2837593, Lng : -123.1147061, Q1 : 0.905919492245, Q2 : 0.0628071054816, Q3 : -0.140664577484, Q4 : 0.394434630871}
2019-04-14 15:43:15.51: SIM {TimeUS : 63535409, Roll : 0.15, Pitch : -17.73, Yaw : 47.02, Alt : 49.3300018311, Lat : 49.2837622, Lng : -123.1147013, Q1 : 0.905914664268, Q2 : 0.0627626180649, Q3 : -0.140837028623, Q4 : 0.394391208887}
2019-04-14 15:43:15.61: SIM {TimeUS : 63635369, Roll : 0.15, Pitch : -17.76, Yaw : 47.02, Alt : 49.3300018311, Lat : 49.2837649, Lng : -123.1146965, Q1 : 0.905897557735, Q2 : 0.0627989768982, Q3 : -0.141049057245, Q4 : 0.394348978996}
2019-04-14 15:43:15.71: SIM {TimeUS : 63735329, Roll : 0.14, Pitch : -17.8, Yaw : 47.02, Alt : 49.3300018311, Lat : 49.2837679, Lng : -123.1146917, Q1 : 0.905869066715, Q2 : 0.0628381669521, Q3 : -0.141411662102, Q4 : 0.39427831769}
2019-04-14 15:43:15.81: SIM {TimeUS : 63835289, Roll : 0.13, Pitch : -17.85, Yaw : 47.01, Alt : 49.3300018311, Lat : 49.2837707, Lng : -123.1146869, Q1 : 0.905834972858, Q2 : 0.0629545599222, Q3 : -0.141810208559, Q4 : 0.394194960594}
2019-04-14 15:43:15.91: SIM {TimeUS : 63935249, Roll : 0.14, Pitch : -17.88, Yaw : 47.0, Alt : 49.3300018311, Lat : 49.2837735, Lng : -123.1146819, Q1 : 0.905818879604, Q2 : 0.0631274431944, Q3 : -0.142075136304, Q4 : 0.394108831882}
2019-04-14 15:43:16.01: SIM {TimeUS : 64035209, Roll : 0.14, Pitch : -17.91, Yaw : 46.99, Alt : 49.3300018311, Lat : 49.2837764, Lng : -123.1146772, Q1 : 0.90582048893, Q2 : 0.0632223412395, Q3 : -0.142329245806, Q4 : 0.393998265266}
2019-04-14 15:43:16.11: SIM {TimeUS : 64135169, Roll : 0.14, Pitch : -17.94, Yaw : 46.97, Alt : 49.3300018311, Lat : 49.2837794, Lng : -123.1146724, Q1 : 0.905837714672, Q2 : 0.0632670894265, Q3 : -0.142525434494, Q4 : 0.393880516291}
2019-04-14 15:43:16.21: SIM {TimeUS : 64235129, Roll : 0.15, Pitch : -17.93, Yaw : 46.96, Alt : 49.3300018311, Lat : 49.2837823, Lng : -123.1146676, Q1 : 0.905881524086, Q2 : 0.0633753016591, Q3 : -0.142429798841, Q4 : 0.393796890974}
2019-04-14 15:43:16.31: SIM {TimeUS : 64335089, Roll : 0.18, Pitch : -17.94, Yaw : 46.94, Alt : 49.3300018311, Lat : 49.283785, Lng : -123.1146627, Q1 : 0.905912876129, Q2 : 0.0635813996196, Q3 : -0.142404347658, Q4 : 0.393700808287}
2019-04-14 15:43:16.41: SIM {TimeUS : 64435049, Roll : 0.19, Pitch : -17.95, Yaw : 46.93, Alt : 49.3300018311, Lat : 49.283788, Lng : -123.1146579, Q1 : 0.9059445858, Q2 : 0.0636784508824, Q3 : -0.142504826188, Q4 : 0.393575787544}
2019-04-14 15:43:16.51: SIM {TimeUS : 64535009, Roll : 0.2, Pitch : -17.96, Yaw : 46.91, Alt : 49.3300018311, Lat : 49.2837909, Lng : -123.114653, Q1 : 0.905985355377, Q2 : 0.0637499317527, Q3 : -0.1425588727, Q4 : 0.393450707197}
2019-04-14 15:43:16.61: SIM {TimeUS : 64634969, Roll : 0.2, Pitch : -17.95, Yaw : 46.9, Alt : 49.3300018311, Lat : 49.2837938, Lng : -123.1146482, Q1 : 0.90604186058, Q2 : 0.0637772083282, Q3 : -0.142473831773, Q4 : 0.393346965313}
2019-04-14 15:43:16.71: SIM {TimeUS : 64734929, Roll : 0.21, Pitch : -17.95, Yaw : 46.88, Alt : 49.3300018311, Lat : 49.2837966, Lng : -123.1146433, Q1 : 0.906090676785, Q2 : 0.0637859553099, Q3 : -0.142434999347, Q4 : 0.393247187138}
2019-04-14 15:43:16.81: SIM {TimeUS : 64834889, Roll : 0.19, Pitch : -17.97, Yaw : 46.87, Alt : 49.3300018311, Lat : 49.2837995, Lng : -123.1146384, Q1 : 0.906116783619, Q2 : 0.0636950731277, Q3 : -0.142637059093, Q4 : 0.393128395081}
2019-04-14 15:43:16.91: SIM {TimeUS : 64934849, Roll : 0.16, Pitch : -18.0, Yaw : 46.86, Alt : 49.3400001526, Lat : 49.2838025, Lng : -123.1146335, Q1 : 0.906120181084, Q2 : 0.0635675340891, Q3 : -0.143033593893, Q4 : 0.392997205257}
2019-04-14 15:43:17.01: SIM {TimeUS : 65034809, Roll : 0.14, Pitch : -18.01, Yaw : 46.86, Alt : 49.3400001526, Lat : 49.2838055, Lng : -123.1146287, Q1 : 0.90614849329, Q2 : 0.0634258985519, Q3 : -0.143151700497, Q4 : 0.392911732197}
2019-04-14 15:43:17.11: SIM {TimeUS : 65134769, Roll : 0.15, Pitch : -17.99, Yaw : 46.85, Alt : 49.3400001526, Lat : 49.2838084, Lng : -123.1146238, Q1 : 0.906190395355, Q2 : 0.063411667943, Q3 : -0.14300763607, Q4 : 0.392869949341}
2019-04-14 15:43:17.21: SIM {TimeUS : 65235562, Roll : 0.17, Pitch : -17.98, Yaw : 46.84, Alt : 49.3400001526, Lat : 49.2838112, Lng : -123.1146188, Q1 : 0.906221389771, Q2 : 0.0634985715151, Q3 : -0.142856836319, Q4 : 0.392839282751}
2019-04-14 15:43:17.31: SIM {TimeUS : 65335522, Roll : 0.17, Pitch : -17.99, Yaw : 46.83, Alt : 49.3400001526, Lat : 49.2838142, Lng : -123.114614, Q1 : 0.906240582466, Q2 : 0.0635697990656, Q3 : -0.142879873514, Q4 : 0.392775058746}
2019-04-14 15:43:17.41: SIM {TimeUS : 65435482, Roll : 0.16, Pitch : -18.01, Yaw : 46.82, Alt : 49.3400001526, Lat : 49.2838171, Lng : -123.1146091, Q1 : 0.906257212162, Q2 : 0.0635228157043, Q3 : -0.143059015274, Q4 : 0.392678976059}
2019-04-14 15:43:17.51: SIM {TimeUS : 65535442, Roll : 0.13, Pitch : -18.03, Yaw : 46.81, Alt : 49.3400001526, Lat : 49.2838201, Lng : -123.1146041, Q1 : 0.906274735928, Q2 : 0.0633564516902, Q3 : -0.143349975348, Q4 : 0.392559379339}
2019-04-14 15:43:17.61: SIM {TimeUS : 65635402, Roll : 0.12, Pitch : -18.05, Yaw : 46.8, Alt : 49.3400001526, Lat : 49.283823, Lng : -123.1145992, Q1 : 0.906294584274, Q2 : 0.0633010864258, Q3 : -0.143563732505, Q4 : 0.392444372177}
2019-04-14 15:43:17.71: SIM {TimeUS : 65735362, Roll : 0.13, Pitch : -18.07, Yaw : 46.79, Alt : 49.3400001526, Lat : 49.283826, Lng : -123.1145943, Q1 : 0.906306087971, Q2 : 0.0634180530906, Q3 : -0.143707841635, Q4 : 0.392346203327}
2019-04-14 15:43:17.81: SIM {TimeUS : 65835322, Roll : 0.14, Pitch : -18.09, Yaw : 46.78, Alt : 49.3400001526, Lat : 49.2838288, Lng : -123.1145894, Q1 : 0.906316518784, Q2 : 0.0635835155845, Q3 : -0.143800705671, Q4 : 0.392261326313}
2019-04-14 15:43:17.91: SIM {TimeUS : 65935282, Roll : 0.17, Pitch : -18.1, Yaw : 46.77, Alt : 49.3400001526, Lat : 49.2838317, Lng : -123.1145845, Q1 : 0.906323969364, Q2 : 0.0638335943222, Q3 : -0.143820390105, Q4 : 0.392196208239}
2019-04-14 15:43:18.01: SIM {TimeUS : 66035242, Roll : 0.19, Pitch : -18.12, Yaw : 46.76, Alt : 49.3400001526, Lat : 49.2838348, Lng : -123.1145796, Q1 : 0.906329333782, Q2 : 0.0640217736363, Q3 : -0.143897086382, Q4 : 0.392124980688}
2019-04-14 15:43:18.11: SIM {TimeUS : 66135202, Roll : 0.2, Pitch : -18.13, Yaw : 46.75, Alt : 49.3400001526, Lat : 49.2838377, Lng : -123.1145747, Q1 : 0.906332790852, Q2 : 0.064198859036, Q3 : -0.143985703588, Q4 : 0.392055541277}
