2019-04-14 17:02:31.70: SIM {TimeUS : 40716207, Roll : 0.0, Pitch : 0.0, Yaw : 0.0, Alt : 30.1000003815, Lat : 49.28357, Lng : -123.11502, Q1 : 1.0, Q2 : 0.0, Q3 : 0.0, Q4 : 0.0}
2019-04-14 17:02:31.81: SIM {TimeUS : 40835326, Roll : 0.0, Pitch : 0.0, Yaw : 0.0, Alt : 30.1000003815, Lat : 49.28357, Lng : -123.11502, Q1 : 1.0, Q2 : 0.0, Q3 : 0.0, Q4 : 0.0}
2019-04-14 17:02:31.91: SIM {TimeUS : 40935286, Roll : 0.0, Pitch : 0.0, Yaw : 0.0, Alt : 30.1000003815, Lat : 49.28357, Lng : -123.11502, Q1 : 1.0, Q2 : 0.0, Q3 : 0.0, Q4 : 0.0}
2019-04-14 17:02:32.01: SIM {TimeUS : 41035246, Roll : 0.0, Pitch : 0.0, Yaw : 0.0, Alt : 30.1000003815, Lat : 49.28357, Lng : -123.11502, Q1 : 1.0, Q2 : 0.0, Q3 : 0.0, Q4 : 0.0}
2019-04-14 17:02:32.11: SIM {TimeUS : 41135206, Roll : 0.0, Pitch : 0.0, Yaw : 0.0, Alt : 30.1000003815, Lat : 49.28357, Lng : -123.11502, Q1 : 1.0, Q2 : 0.0, Q3 : 0.0, Q4 : 0.0}
2019-04-14 17:02:32.21: SIM {TimeUS : 41235166, Roll : 0.0, Pitch : 0.0, Yaw : 0.0, Alt : 30.1000003815, Lat : 49.28357, Lng : -123.11502, Q1 : 1.0, Q2 : 0.0, Q3 : 0.0, Q4 : 0.0}
2019-04-14 17:02:32.31: SIM {TimeUS : 41335126, Roll : 0.0, Pitch : 0.0, Yaw : 0.0, Alt : 30.1000003815, Lat : 49.28357, Lng : -123.11502, Q1 : 1.0, Q2 : 0.0, Q3 : 0.0, Q4 : 0.0}
2019-04-14 17:02:32.41: SIM {TimeUS : 41435086, Roll : 0.0, Pitch : 0.0, Yaw : 0.0, Alt : 30.1000003815, Lat : 49.28357, Lng : -123.11502, Q1 : 1.0, Q2 : 0.0, Q3 : 0.0, Q4 : 0.0}
2019-04-14 17:02:32.51: SIM {TimeUS : 41535046, Roll : 0.0, Pitch : 0.0, Yaw : 0.0, Alt : 30.1000003815, Lat : 49.28357, Lng : -123.11502, Q1 : 1.0, Q2 : 0.0, Q3 : 0.0, Q4 : 0.0}
2019-04-14 17:02:32.61: SIM {TimeUS : 41635006, Roll : 0.0, Pitch : 0.0, Yaw : 0.0, Alt : 30.1000003815, Lat : 49.28357, Lng : -123.11502, Q1 : 1.0, Q2 : 0.0, Q3 : 0.0, Q4 : 0.0}
2019-04-14 17:02:32.71: SIM {TimeUS : 41734966, Roll : 0.0, Pitch : 0.0, Yaw : 0.0, Alt : 30.1000003815, Lat : 49.28357, Lng : -123.11502, Q1 : 1.0, Q2 : 0.0, Q3 : 0.0, Q4 : 0.0}
2019-04-14 17:02:32.81: SIM {TimeUS : 41834926, Roll : 0.0, Pitch : 0.0, Yaw : 0.0, Alt : 30.1000003815, Lat : 49.28357, Lng : -123.11502, Q1 : 1.0, Q2 : 0.0, Q3 : 0.0, Q4 : 0.0}
2019-04-14 17:02:32.91: SIM {TimeUS : 41934886, Roll : 0.0, Pitch : 0.0, Yaw : 0.0, Alt : 30.1000003815, Lat : 49.28357, Lng : -123.11502, Q1 : 1.0, Q2 : 0.0, Q3 : 0.0, Q4 : 0.0}
2019-04-14 17:02:33.01: SIM {TimeUS : 42034846, Roll : 0.0, Pitch : 0.0, Yaw : 0.0, Alt : 30.1000003815, Lat : 49.28357, Lng : -123.11502, Q1 : 1.0, Q2 : 0.0, Q3 : 0.0, Q4 : 0.0}
2019-04-14 17:02:33.11: SIM {TimeUS : 42134806, Roll : 0.0, Pitch : 0.0, Yaw : 0.0, Alt : 30.1000003815, Lat : 49.28357, Lng : -123.11502, Q1 : 1.0, Q2 : 0.0, Q3 : 0.0, Q4 : 0.0}
2019-04-14 17:02:33.21: SIM {TimeUS : 42234766, Roll : 0.0, Pitch : 0.0, Yaw : 0.0, Alt : 30.1000003815, Lat : 49.28357, Lng : -123.11502, Q1 : 1.0, Q2 : 0.0, Q3 : 0.0, Q4 : 0.0}
2019-04-14 17:02:33.31: SIM {TimeUS : 42334726, Roll : 0.0, Pitch : 0.0, Yaw : 0.0, Alt : 30.1000003815, Lat : 49.28357, Lng : -123.11502, Q1 : 1.0, Q2 : 0.0, Q3 : 0.0, Q4 : 0.0}
2019-04-14 17:02:33.41: SIM {TimeUS : 42434686, Roll : 0.0, Pitch : 0.0, Yaw : 0.0, Alt : 30.1000003815, Lat : 49.28357, Lng : -123.11502, Q1 : 1.0, Q2 : 0.0, Q3 : 0.0, Q4 : 0.0}
2019-04-14 17:02:33.51: SIM {TimeUS : 42534646, Roll : 0.0, Pitch : 0.0, Yaw : 0.0, Alt : 30.1000003815, Lat : 49.28357, Lng : -123.11502, Q1 : 1.0, Q2 : 0.0, Q3 : 0.0, Q4 : 0.0}
2019-04-14 17:02:33.61: SIM {TimeUS : 42634606, Roll : 0.0, Pitch : 0.0, Yaw : 0.0, Alt : 30.1000003815, Lat : 49.28357, Lng : -123.11502, Q1 : 1.0, Q2 : 0.0, Q3 : 0.0, Q4 : 0.0}
2019-04-14 17:02:33.71: SIM {TimeUS : 42734566, Roll : 0.0, Pitch : 0.0, Yaw : 0.0, Alt : 30.1000003815, Lat : 49.28357, Lng : -123.11502, Q1 : 1.0, Q2 : 0.0, Q3 : 0.0, Q4 : 0.0}
2019-04-14 17:02:33.82: SIM {TimeUS : 42835359, Roll : 0.0, Pitch : 0.0, Yaw : 0.0, Alt : 30.1000003815, Lat : 49.28357, Lng : -123.11502, Q1 : 1.0, Q2 : 0.0, Q3 : 0.0, Q4 : 0.0}
2019-04-14 17:02:33.91: SIM {TimeUS : 42935319, Roll : 0.0, Pitch : 0.0, Yaw : 0.0, Alt : 30.1000003815, Lat : 49.28357, Lng : -123.11502, Q1 : 1.0, Q2 : 0.0, Q3 : 0.0, Q4 : 0.0}
2019-04-14 17:02:34.01: SIM {TimeUS : 43035279, Roll : 0.0, Pitch : 0.0, Yaw : 360.0, Alt : 30.1000003815, Lat : 49.28357, Lng : -123.11502, Q1 : 1.0, Q2 : 0.0, Q3 : 0.0, Q4 : -7.94657811776e-11}
2019-04-14 17:02:34.11: SIM {TimeUS : 43135239, Roll : 0.0, Pitch : 0.0, Yaw : 360.0, Alt : 30.1000003815, Lat : 49.28357, Lng : -123.11502, Q1 : 1.0, Q2 : 0.0, Q3 : 0.0, Q4 : -2.43134365974e-08}
2019-04-14 17:02:34.21: SIM {TimeUS : 43235199, Roll : 0.0, Pitch : 0.0, Yaw : 359.99, Alt : 30.1000003815, Lat : 49.28357, Lng : -123.11502, Q1 : 1.0, Q2 : 0.0, Q3 : 0.0, Q4 : -1.77324835704e-07}
2019-04-14 17:02:34.31: SIM {TimeUS : 43335159, Roll : 0.0, Pitch : 0.0, Yaw : 359.99, Alt : 30.1000003815, Lat : 49.28357, Lng : -123.11502, Q1 : 1.0, Q2 : 0.0, Q3 : 0.0, Q4 : -3.21791020497e-07}
2019-04-14 17:02:34.41: SIM {TimeUS : 43435119, Roll : 0.0, Pitch : 0.0, Yaw : 359.99, Alt : 30.1000003815, Lat : 49.28357, Lng : -123.11502, Q1 : 1.0, Q2 : 0.0, Q3 : 0.0, Q4 : -5.03919011408e-07}
2019-04-14 17:02:34.51: SIM {TimeUS : 43535079, Roll : 0.0, Pitch : 0.0, Yaw : 359.99, Alt : 30.1000003815, Lat : 49.28357, Lng : -123.11502, Q1 : 1.0, Q2 : 0.0, Q3 : 0.0, Q4 : -7.16915394605e-07}
2019-04-14 17:02:34.61: SIM {TimeUS : 43635039, Roll : 0.0, Pitch : 0.0, Yaw : 359.99, Alt : 30.1000003815, Lat : 49.28357, Lng : -123.11502, Q1 : 1.0, Q2 : 0.0, Q3 : 0.0, Q4 : -9.02877729914e-07}
2019-04-14 17:02:34.71: SIM {TimeUS : 43734999, Roll : 0.0, Pitch : 0.0, Yaw : 359.99, Alt : 30.1000003815, Lat : 49.28357, Lng : -123.11502, Q1 : 1.0, Q2 : 0.0, Q3 : 0.0, Q4 : -1.15568968795e-06}
2019-04-14 17:02:34.81: SIM {TimeUS : 43834959, Roll : 0.0, Pitch : 0.0, Yaw : 359.99, Alt : 30.1000003815, Lat : 49.28357, Lng : -123.11502, Q1 : 1.0, Q2 : 0.0, Q3 : 0.0, Q4 : -1.33984929107e-06}
2019-04-14 17:02:34.91: SIM {TimeUS : 43934919, Roll : 0.0, Pitch : 0.0, Yaw : 359.99, Alt : 30.1200008392, Lat : 49.28357, Lng : -123.11502, Q1 : 1.0, Q2 : 0.0, Q3 : 0.0, Q4 : -1.5400768234e-06}
2019-04-14 17:02:35.01: SIM {TimeUS : 44034879, Roll : 0.0, Pitch : 0.0, Yaw : 359.99, Alt : 30.1499996185, Lat : 49.28357, Lng : -123.11502, Q1 : 1.0, Q2 : 0.0, Q3 : 0.0, Q4 : -1.75638444944e-06}
2019-04-14 17:02:35.11: SIM {TimeUS : 44134839, Roll : 0.0, Pitch : 0.0, Yaw : 359.99, Alt : 30.1800003052, Lat : 49.28357, Lng : -123.11502, Q1 : 1.0, Q2 : 0.0, Q3 : 0.0, Q4 : -1.97041572392e-06}
2019-04-14 17:02:35.21: SIM {TimeUS : 44234799, Roll : 0.0, Pitch : 0.0, Yaw : 359.99, Alt : 30.2099990845, Lat : 49.28357, Lng : -123.11502, Q1 : 1.0, Q2 : -5.64826132177e-06, Q3 : -4.94225696457e-06, Q4 : -2.26604834097e-06}
2019-04-14 17:02:35.31: SIM {TimeUS : 44334759, Roll : -0.17, Pitch : -0.15, Yaw : 359.99, Alt : 30.2700004578, Lat : 49.28357, Lng : -123.11502, Q1 : 0.999997794628, Q2 : -0.00156723405235, Q3 : -0.00138915493153, Q4 : -1.87464047485e-05}
2019-04-14 17:02:35.41: SIM {TimeUS : 44434719, Roll : -0.46, Pitch : -0.45, Yaw : 359.99, Alt : 30.3899993896, Lat : 49.28357, Lng : -123.11502, Q1 : 0.999983966351, Q2 : -0.00403989059851, Q3 : -0.00396654801443, Q4 : -6.38887067907e-05}
2019-04-14 17:02:35.51: SIM {TimeUS : 44534679, Roll : -0.69, Pitch : -0.69, Yaw : 359.98, Alt : 30.5400009155, Lat : 49.28357, Lng : -123.11502, Q1 : 0.999963462353, Q2 : -0.00604204554111, Q3 : -0.00605393294245, Q4 : -0.000126953425934}
2019-04-14 17:02:35.61: SIM {TimeUS : 44634639, Roll : -0.8, Pitch : -0.78, Yaw : 359.98, Alt : 30.7000007629, Lat : 49.28357, Lng : -123.11502, Q1 : 0.999951779842, Q2 : -0.00703866640106, Q3 : -0.00684772757813, Q4 : -0.000209064761293}
2019-04-14 17:02:35.71: SIM {TimeUS : 44734599, Roll : -0.77, Pitch : -0.74, Yaw : 359.97, Alt : 30.8500003815, Lat : 49.28357, Lng : -123.1150201, Q1 : 0.999956130981, Q2 : -0.00677524274215, Q3 : -0.0064576594159, Q4 : -0.000297704013065}
2019-04-14 17:02:35.81: SIM {TimeUS : 44834559, Roll : -0.62, Pitch : -0.58, Yaw : 359.96, Alt : 31.0100002289, Lat : 49.28357, Lng : -123.1150201, Q1 : 0.999971807003, Q2 : -0.00546139711514, Q3 : -0.00513770664111, Q4 : -0.000376407784643}
2019-04-14 17:02:35.92: SIM {TimeUS : 44935352, Roll : -0.4, Pitch : -0.38, Yaw : 359.95, Alt : 31.1599998474, Lat : 49.2835701, Lng : -123.1150202, Q1 : 0.999987900257, Q2 : -0.0035781278275, Q3 : -0.00335077755153, Q4 : -0.000438228889834}
2019-04-14 17:02:36.01: SIM {TimeUS : 45035312, Roll : -0.18, Pitch : -0.19, Yaw : 359.94, Alt : 31.3199996948, Lat : 49.2835701, Lng : -123.1150203, Q1 : 0.999997138977, Q2 : -0.0016425952781, Q3 : -0.00168283295352, Q4 : -0.000484149291879}
2019-04-14 17:02:36.11: SIM {TimeUS : 45135272, Roll : -0.01, Pitch : -0.04, Yaw : 359.94, Alt : 31.4899997711, Lat : 49.2835702, Lng : -123.1150204, Q1 : 0.999999761581, Q2 : -0.000108717511466, Q3 : -0.000414719426772, Q4 : -0.000514512241352}
2019-04-14 17:02:36.21: SIM {TimeUS : 45235232, Roll : 0.08, Pitch : 0.04, Yaw : 359.93, Alt : 31.6700000763, Lat : 49.2835702, Lng : -123.1150204, Q1 : 0.999999523163, Q2 : 0.00072525156429, Q3 : 0.000413979316363, Q4 : -0.00052894797409}
2019-04-14 17:02:36.31: SIM {TimeUS : 45335192, Roll : 0.1, Pitch : 0.08, Yaw : 359.93, Alt : 31.8400001526, Lat : 49.2835703, Lng : -123.1150205, Q1 : 0.99999910593, Q2 : 0.000953731185291, Q3 : 0.000783141353168, Q4 : -0.000537665910088}
2019-04-14 17:02:36.41: SIM {TimeUS : 45435152, Roll : 0.08, Pitch : 0.09, Yaw : 359.93, Alt : 32.0299987793, Lat : 49.2835703, Lng : -123.1150206, Q1 : 0.99999922514, Q2 : 0.000754698994569, Q3 : 0.000844473775942, Q4 : -0.00054325198289}
2019-04-14 17:02:36.51: SIM {TimeUS : 45535112, Roll : 0.07, Pitch : 0.1, Yaw : 359.93, Alt : 32.2099990845, Lat : 49.2835703, Lng : -123.1150206, Q1 : 0.99999922514, Q2 : 0.000636143609881, Q3 : 0.000950898858719, Q4 : -0.000533820537385}
2019-04-14 17:02:36.61: SIM {TimeUS : 45635072, Roll : 0.07, Pitch : 0.12, Yaw : 359.94, Alt : 32.4000015259, Lat : 49.2835703, Lng : -123.1150207, Q1 : 0.99999910593, Q2 : 0.000696418515872, Q3 : 0.00105027714744, Q4 : -0.00051821564557}
2019-04-14 17:02:36.71: SIM {TimeUS : 45735032, Roll : 0.09, Pitch : 0.13, Yaw : 359.94, Alt : 32.5999984741, Lat : 49.2835703, Lng : -123.1150207, Q1 : 0.999998867512, Q2 : 0.000839891959913, Q3 : 0.00116971123498, Q4 : -0.000487084180349}
2019-04-14 17:02:36.81: SIM {TimeUS : 45834992, Roll : 0.1, Pitch : 0.15, Yaw : 359.94, Alt : 32.7900009155, Lat : 49.2835704, Lng : -123.1150207, Q1 : 0.999998629093, Q2 : 0.000933213508688, Q3 : 0.00131732935552, Q4 : -0.000453677057521}
2019-04-14 17:02:36.91: SIM {TimeUS : 45934952, Roll : 0.12, Pitch : 0.15, Yaw : 359.95, Alt : 32.9900016785, Lat : 49.2835704, Lng : -123.1150208, Q1 : 0.999998509884, Q2 : 0.00105524458922, Q3 : 0.00131831748877, Q4 : -0.000422990560764}
2019-04-14 17:02:37.01: SIM {TimeUS : 46034912, Roll : 0.13, Pitch : 0.14, Yaw : 359.95, Alt : 33.1899986267, Lat : 49.2835704, Lng : -123.1150208, Q1 : 0.999998509884, Q2 : 0.00114520720672, Q3 : 0.00124202435836, Q4 : -0.000397332303692}
2019-04-14 17:02:37.11: SIM {TimeUS : 46134872, Roll : 0.13, Pitch : 0.13, Yaw : 359.95, Alt : 33.4000015259, Lat : 49.2835704, Lng : -123.1150208, Q1 : 0.999998569489, Q2 : 0.00119570957031, Q3 : 0.00116178009193, Q4 : -0.000378204480512}
2019-04-14 17:02:37.21: SIM {TimeUS : 46234832, Roll : 0.13, Pitch : 0.12, Yaw : 359.95, Alt : 33.5999984741, Lat : 49.2835704, Lng : -123.1150208, Q1 : 0.999998569489, Q2 : 0.00120664539281, Q3 : 0.00112085626461, Q4 : -0.000363599159755}
2019-04-14 17:02:37.31: SIM {TimeUS : 46334792, Roll : 0.15, Pitch : 0.13, Yaw : 359.95, Alt : 33.8100013733, Lat : 49.2835704, Lng : -123.1150208, Q1 : 0.999998390675, Q2 : 0.00131418299861, Q3 : 0.0011542912107, Q4 : -0.000363130820915}
2019-04-14 17:02:37.41: SIM {TimeUS : 46434752, Roll : 0.15, Pitch : 0.13, Yaw : 359.95, Alt : 34.0200004578, Lat : 49.2835704, Lng : -123.1150208, Q1 : 0.99999833107, Q2 : 0.00136443879455, Q3 : 0.00114223523997, Q4 : -0.000369912188035}
2019-04-14 17:02:37.51: SIM {TimeUS : 46534712, Roll : 0.14, Pitch : 0.11, Yaw : 359.95, Alt : 34.2299995422, Lat : 49.2835704, Lng : -123.1150208, Q1 : 0.999998569489, Q2 : 0.00128049647901, Q3 : 0.00104477198329, Q4 : -0.000390033586882}
2019-04-14 17:02:37.61: SIM {TimeUS : 46634672, Roll : 0.12, Pitch : 0.11, Yaw : 359.95, Alt : 34.4399986267, Lat : 49.2835704, Lng : -123.1150208, Q1 : 0.999998807907, Q2 : 0.00113189115655, Q3 : 0.000979940639809, Q4 : -0.000418414390879}
2019-04-14 17:02:37.71: SIM {TimeUS : 46734632, Roll : 0.1, Pitch : 0.1, Yaw : 359.94, Alt : 34.6599998474, Lat : 49.2835704, Lng : -123.1150208, Q1 : 0.999999046326, Q2 : 0.000898670288734, Q3 : 0.000934142852202, Q4 : -0.000461240182631}
2019-04-14 17:02:37.81: SIM {TimeUS : 46834592, Roll : 0.08, Pitch : 0.07, Yaw : 359.94, Alt : 34.8699989319, Lat : 49.2835704, Lng : -123.1150208, Q1 : 0.999999403954, Q2 : 0.000724361336324, Q3 : 0.000653999566566, Q4 : -0.000513927720021}
2019-04-14 17:02:37.91: SIM {TimeUS : 46934552, Roll : 0.06, Pitch : 0.04, Yaw : 359.93, Alt : 35.0900001526, Lat : 49.2835704, Lng : -123.1150208, Q1 : 0.999999582767, Q2 : 0.000585030938964, Q3 : 0.000370755646145, Q4 : -0.000571559474338}
2019-04-14 17:02:38.02: SIM {TimeUS : 47035345, Roll : 0.03, Pitch : 0.02, Yaw : 359.92, Alt : 35.3100013733, Lat : 49.2835704, Lng : -123.1150208, Q1 : 0.999999761581, Q2 : 0.000329835951561, Q3 : 0.000212257247767, Q4 : -0.000625365588348}
2019-04-14 17:02:38.11: SIM {TimeUS : 47135305, Roll : 0.02, Pitch : 0.01, Yaw : 359.92, Alt : 35.5200004578, Lat : 49.2835704, Lng : -123.1150208, Q1 : 0.999999761581, Q2 : 0.000215533058508, Q3 : 0.000162643089425, Q4 : -0.000671853602398}
2019-04-14 17:02:38.21: SIM {TimeUS : 47235265, Roll : 0.02, Pitch : 0.01, Yaw : 359.91, Alt : 35.7400016785, Lat : 49.2835704, Lng : -123.1150207, Q1 : 0.999999701977, Q2 : 0.000231810787227, Q3 : 0.000131853521452, Q4 : -0.000714142981451}
2019-04-14 17:02:38.31: SIM {TimeUS : 47335225, Roll : 0.01, Pitch : -0.01, Yaw : 359.91, Alt : 35.9599990845, Lat : 49.2835704, Lng : -123.1150207, Q1 : 0.999999701977, Q2 : 8.93930409802e-05, Q3 : -0.000100677527371, Q4 : -0.00074698147364}
2019-04-14 17:02:38.41: SIM {TimeUS : 47435185, Roll : -0.02, Pitch : -0.05, Yaw : 359.91, Alt : 36.1800003052, Lat : 49.2835704, Lng : -123.1150207, Q1 : 0.999999582767, Q2 : -0.000206977376365, Q3 : -0.000452114851214, Q4 : -0.000771778053604}
2019-04-14 17:02:38.51: SIM {TimeUS : 47535145, Roll : -0.05, Pitch : -0.07, Yaw : 359.9, Alt : 36.4000015259, Lat : 49.2835704, Lng : -123.1150207, Q1 : 0.999999344349, Q2 : -0.000515140360221, Q3 : -0.000652766320854, Q4 : -0.000792529259343}
2019-04-14 17:02:38.61: SIM {TimeUS : 47635105, Roll : -0.09, Pitch : -0.09, Yaw : 359.9, Alt : 36.6300010681, Lat : 49.2835704, Lng : -123.1150207, Q1 : 0.999999046326, Q2 : -0.000805189891253, Q3 : -0.00079696328612, Q4 : -0.000811447564047}
2019-04-14 17:02:38.71: SIM {TimeUS : 47735065, Roll : -0.09, Pitch : -0.08, Yaw : 359.9, Alt : 36.8499984741, Lat : 49.2835704, Lng : -123.1150207, Q1 : 0.999998986721, Q2 : -0.000860967149492, Q3 : -0.000781088485382, Q4 : -0.000825269962661}
2019-04-14 17:02:38.81: SIM {TimeUS : 47835025, Roll : -0.08, Pitch : -0.07, Yaw : 359.9, Alt : 37.0699996948, Lat : 49.2835704, Lng : -123.1150207, Q1 : 0.99999910593, Q2 : -0.000777579494752, Q3 : -0.000665670610033, Q4 : -0.000838994979858}
2019-04-14 17:02:38.91: SIM {TimeUS : 47934985, Roll : -0.07, Pitch : -0.05, Yaw : 359.9, Alt : 37.2999992371, Lat : 49.2835704, Lng : -123.1150207, Q1 : 0.999999344349, Q2 : -0.00062055257149, Q3 : -0.000461468909634, Q4 : -0.000850913114846}
2019-04-14 17:02:39.01: SIM {TimeUS : 48034945, Roll : -0.05, Pitch : -0.03, Yaw : 359.9, Alt : 37.5200004578, Lat : 49.2835704, Lng : -123.1150207, Q1 : 0.999999463558, Q2 : -0.000468582235044, Q3 : -0.000324964814354, Q4 : -0.00085790688172}
2019-04-14 17:02:39.11: SIM {TimeUS : 48134905, Roll : -0.06, Pitch : -0.04, Yaw : 359.9, Alt : 37.75, Lat : 49.2835704, Lng : -123.1150206, Q1 : 0.999999403954, Q2 : -0.000538882391993, Q3 : -0.000349984475179, Q4 : -0.000862174259964}
2019-04-14 17:02:39.21: SIM {TimeUS : 48234865, Roll : -0.07, Pitch : -0.03, Yaw : 359.89, Alt : 37.9799995422, Lat : 49.2835704, Lng : -123.1150206, Q1 : 0.999999344349, Q2 : -0.00069647282362, Q3 : -0.000285907473881, Q4 : -0.000876221398357}
2019-04-14 17:02:39.31: SIM {TimeUS : 48334825, Roll : -0.1, Pitch : -0.01, Yaw : 359.89, Alt : 38.2000007629, Lat : 49.2835704, Lng : -123.1150206, Q1 : 0.999999165535, Q2 : -0.000905836292077, Q3 : -0.000162942276802, Q4 : -0.000896079174709}
2019-04-14 17:02:39.41: SIM {TimeUS : 48434785, Roll : -0.1, Pitch : 0.0, Yaw : 359.89, Alt : 38.4300003052, Lat : 49.2835704, Lng : -123.1150206, Q1 : 0.999999165535, Q2 : -0.000922103761695, Q3 : -3.77160031348e-05, Q4 : -0.000913964293431}
2019-04-14 17:02:39.51: SIM {TimeUS : 48534745, Roll : -0.08, Pitch : 0.02, Yaw : 359.89, Alt : 38.6599998474, Lat : 49.2835706, Lng : -123.1150206, Q1 : 0.999999284744, Q2 : -0.000700401084032, Q3 : 0.000195599073777, Q4 : -0.000934614043217}
2019-04-14 17:02:39.61: SIM {TimeUS : 48634705, Roll : -0.05, Pitch : 0.02, Yaw : 359.89, Alt : 38.8899993896, Lat : 49.2835706, Lng : -123.1150207, Q1 : 0.999999463558, Q2 : -0.000471064617159, Q3 : 0.000196248161956, Q4 : -0.000943325867411}
2019-04-14 17:02:39.71: SIM {TimeUS : 48734665, Roll : -0.02, Pitch : 0.01, Yaw : 359.89, Alt : 39.1199989319, Lat : 49.2835706, Lng : -123.1150207, Q1 : 0.999999523163, Q2 : -0.000217865439481, Q3 : 0.000159451970831, Q4 : -0.000948862289079}
2019-04-14 17:02:39.81: SIM {TimeUS : 48834625, Roll : 0.01, Pitch : 0.03, Yaw : 359.89, Alt : 39.3499984741, Lat : 49.2835706, Lng : -123.1150207, Q1 : 0.999999463558, Q2 : 9.91919732769e-05, Q3 : 0.000331251183525, Q4 : -0.000954595801886}
2019-04-14 17:02:39.91: SIM {TimeUS : 48934585, Roll : 0.05, Pitch : 0.07, Yaw : 359.88, Alt : 39.5800018311, Lat : 49.2835706, Lng : -123.1150207, Q1 : 0.99999922514, Q2 : 0.0004514567554, Q3 : 0.000627537956461, Q4 : -0.000969634391367}
2019-04-14 17:02:40.01: SIM {TimeUS : 49034545, Roll : 0.07, Pitch : 0.1, Yaw : 359.88, Alt : 39.8100013733, Lat : 49.2835706, Lng : -123.1150207, Q1 : 0.999998867512, Q2 : 0.000694723392371, Q3 : 0.000935899908654, Q4 : -0.00099350977689}
2019-04-14 17:02:40.12: SIM {TimeUS : 49135338, Roll : 0.06, Pitch : 0.13, Yaw : 359.88, Alt : 40.0400009155, Lat : 49.2835706, Lng : -123.1150207, Q1 : 0.999998569489, Q2 : 0.00061018258566, Q3 : 0.00119631027337, Q4 : -0.00101439538412}
2019-04-14 17:02:40.21: SIM {TimeUS : 49235298, Roll : 0.02, Pitch : 0.16, Yaw : 359.87, Alt : 40.2700004578, Lat : 49.2835706, Lng : -123.1150207, Q1 : 0.999998450279, Q2 : 0.000214700878132, Q3 : 0.00140402570833, Q4 : -0.00105478730984}
2019-04-14 17:02:40.31: SIM {TimeUS : 49335258, Roll : -0.01, Pitch : 0.16, Yaw : 359.87, Alt : 40.5099983215, Lat : 49.2835706, Lng : -123.1150207, Q1 : 0.99999833107, Q2 : -0.000132204339025, Q3 : 0.00148362817708, Q4 : -0.00108913565055}
2019-04-14 17:02:40.41: SIM {TimeUS : 49435218, Roll : -0.03, Pitch : 0.15, Yaw : 359.87, Alt : 40.7400016785, Lat : 49.2835706, Lng : -123.1150207, Q1 : 0.999998450279, Q2 : -0.00032458914211, Q3 : 0.00133384624496, Q4 : -0.00111041136552}
2019-04-14 17:02:40.51: SIM {TimeUS : 49535178, Roll : -0.04, Pitch : 0.12, Yaw : 359.86, Alt : 40.9700012207, Lat : 49.2835706, Lng : -123.1150207, Q1 : 0.999998629093, Q2 : -0.000353454466676, Q3 : 0.00112853839528, Q4 : -0.00113666674588}
2019-04-14 17:02:40.61: SIM {TimeUS : 49635138, Roll : -0.02, Pitch : 0.12, Yaw : 359.86, Alt : 41.2000007629, Lat : 49.2835706, Lng : -123.1150207, Q1 : 0.999998688698, Q2 : -0.000221749767661, Q3 : 0.00110553298146, Q4 : -0.00116455589887}
2019-04-14 17:02:40.71: SIM {TimeUS : 49735098, Roll : 0.01, Pitch : 0.14, Yaw : 359.86, Alt : 41.4399986267, Lat : 49.2835706, Lng : -123.1150207, Q1 : 0.999998509884, Q2 : 0.000136685266625, Q3 : 0.00123159878422, Q4 : -0.00119815708604}
2019-04-14 17:02:40.81: SIM {TimeUS : 49835058, Roll : 0.06, Pitch : 0.14, Yaw : 359.85, Alt : 41.6699981689, Lat : 49.2835706, Lng : -123.1150207, Q1 : 0.999998271465, Q2 : 0.000582487264182, Q3 : 0.00128671142738, Q4 : -0.00123301986605}
2019-04-14 17:02:40.91: SIM {TimeUS : 49935018, Roll : 0.1, Pitch : 0.12, Yaw : 359.85, Alt : 41.9099998474, Lat : 49.2835706, Lng : -123.1150207, Q1 : 0.999998211861, Q2 : 0.000895249540918, Q3 : 0.00106168910861, Q4 : -0.00126992398873}
2019-04-14 17:02:41.01: SIM {TimeUS : 50034978, Roll : 0.1, Pitch : 0.08, Yaw : 359.85, Alt : 42.1399993896, Lat : 49.2835706, Lng : -123.1150207, Q1 : 0.999998450279, Q2 : 0.000897601537872, Q3 : 0.000747202779166, Q4 : -0.00130787550006}
2019-04-14 17:02:41.11: SIM {TimeUS : 50134938, Roll : 0.06, Pitch : 0.06, Yaw : 359.84, Alt : 42.3699989319, Lat : 49.2835706, Lng : -123.1150207, Q1 : 0.999998807907, Q2 : 0.000562029774301, Q3 : 0.00052360619884, Q4 : -0.00133193447255}
2019-04-14 17:02:41.21: SIM {TimeUS : 50234898, Roll : 0.0, Pitch : 0.05, Yaw : 359.84, Alt : 42.6100006104, Lat : 49.2835706, Lng : -123.1150207, Q1 : 0.999998986721, Q2 : 8.23350637802e-05, Q3 : 0.000453376502264, Q4 : -0.00134735112078}
2019-04-14 17:02:41.31: SIM {TimeUS : 50334858, Roll : -0.02, Pitch : 0.07, Yaw : 359.84, Alt : 42.8400001526, Lat : 49.2835706, Lng : -123.1150207, Q1 : 0.999998867512, Q2 : -0.000256169878412, Q3 : 0.000612660951447, Q4 : -0.00135632127058}
2019-04-14 17:02:41.41: SIM {TimeUS : 50434818, Roll : -0.05, Pitch : 0.08, Yaw : 359.84, Alt : 43.0800018311, Lat : 49.2835704, Lng : -123.1150207, Q1 : 0.999998748302, Q2 : -0.00043685833225, Q3 : 0.000716061505955, Q4 : -0.00136340339668}
2019-04-14 17:02:41.51: SIM {TimeUS : 50534778, Roll : -0.05, Pitch : 0.07, Yaw : 359.84, Alt : 43.3100013733, Lat : 49.2835704, Lng : -123.1150207, Q1 : 0.999998748302, Q2 : -0.000450658408226, Q3 : 0.000649564201012, Q4 : -0.00136998237576}
2019-04-14 17:02:41.61: SIM {TimeUS : 50634738, Roll : -0.05, Pitch : 0.05, Yaw : 359.84, Alt : 43.5499992371, Lat : 49.2835704, Lng : -123.1150207, Q1 : 0.999998807907, Q2 : -0.00051639409503, Q3 : 0.00051938497927, Q4 : -0.00138135976158}
2019-04-14 17:02:41.71: SIM {TimeUS : 50734698, Roll : -0.05, Pitch : 0.04, Yaw : 359.84, Alt : 43.7799987793, Lat : 49.2835704, Lng : -123.1150207, Q1 : 0.999998807907, Q2 : -0.000487724668346, Q3 : 0.000376692303689, Q4 : -0.0013956099283}
2019-04-14 17:02:41.81: SIM {TimeUS : 50834658, Roll : -0.03, Pitch : 0.03, Yaw : 359.83, Alt : 44.0200004578, Lat : 49.2835704, Lng : -123.1150207, Q1 : 0.999998867512, Q2 : -0.000320574908983, Q3 : 0.000303513603285, Q4 : -0.00142002501525}
2019-04-14 17:02:41.91: SIM {TimeUS : 50934618, Roll : -0.02, Pitch : 0.03, Yaw : 359.83, Alt : 44.2599983215, Lat : 49.2835704, Lng : -123.1150206, Q1 : 0.999998927116, Q2 : -0.000176698507858, Q3 : 0.000282310240436, Q4 : -0.00144863605965}
2019-04-14 17:02:42.01: SIM {TimeUS : 51034578, Roll : -0.02, Pitch : 0.01, Yaw : 359.83, Alt : 44.4900016785, Lat : 49.2835704, Lng : -123.1150206, Q1 : 0.999998867512, Q2 : -0.00020404838142, Q3 : 0.000140960110002, Q4 : -0.00147811230272}
2019-04-14 17:02:42.11: SIM {TimeUS : 51134538, Roll : -0.02, Pitch : -0.01, Yaw : 359.82, Alt : 44.7299995422, Lat : 49.2835704, Lng : -123.1150206, Q1 : 0.999998807907, Q2 : -0.000258124229731, Q3 : -0.000121834709716, Q4 : -0.00150660739746}
2019-04-14 17:02:42.21: SIM {TimeUS : 51235331, Roll : -0.02, Pitch : -0.03, Yaw : 359.82, Alt : 44.9700012207, Lat : 49.2835704, Lng : -123.1150206, Q1 : 0.999998748302, Q2 : -0.000248253549216, Q3 : -0.000331793271471, Q4 : -0.00153844233137}
2019-04-14 17:02:42.31: SIM {TimeUS : 51335291, Roll : -0.01, Pitch : -0.05, Yaw : 359.82, Alt : 45.2000007629, Lat : 49.2835703, Lng : -123.1150206, Q1 : 0.999998629093, Q2 : -0.000163185948622, Q3 : -0.000440225674538, Q4 : -0.00157046772074}
2019-04-14 17:02:42.41: SIM {TimeUS : 51435251, Roll : -0.02, Pitch : -0.05, Yaw : 359.81, Alt : 45.4399986267, Lat : 49.2835703, Lng : -123.1150206, Q1 : 0.999998569489, Q2 : -0.000194354375708, Q3 : -0.000447947357316, Q4 : -0.00160434353165}
2019-04-14 17:02:42.51: SIM {TimeUS : 51535211, Roll : -0.04, Pitch : -0.04, Yaw : 359.81, Alt : 45.6699981689, Lat : 49.2835703, Lng : -123.1150206, Q1 : 0.999998509884, Q2 : -0.000421118136728, Q3 : -0.000384698621929, Q4 : -0.00163967593107}
2019-04-14 17:02:42.61: SIM {TimeUS : 51635171, Roll : -0.08, Pitch : -0.03, Yaw : 359.8, Alt : 45.9099998474, Lat : 49.2835703, Lng : -123.1150206, Q1 : 0.999998271465, Q2 : -0.000752520398237, Q3 : -0.000310970179271, Q4 : -0.00167345593218}
2019-04-14 17:02:42.71: SIM {TimeUS : 51735131, Roll : -0.11, Pitch : -0.02, Yaw : 359.8, Alt : 46.1399993896, Lat : 49.2835703, Lng : -123.1150206, Q1 : 0.999998033047, Q2 : -0.00099450792186, Q3 : -0.000234738661675, Q4 : -0.00170802732464}
2019-04-14 17:02:42.81: SIM {TimeUS : 51835091, Roll : -0.12, Pitch : -0.01, Yaw : 359.8, Alt : 46.3600006104, Lat : 49.2835703, Lng : -123.1150206, Q1 : 0.999997913837, Q2 : -0.00104795966763, Q3 : -0.000114545538963, Q4 : -0.00174192863051}
2019-04-14 17:02:42.91: SIM {TimeUS : 51935051, Roll : -0.1, Pitch : 0.0, Yaw : 359.79, Alt : 46.5800018311, Lat : 49.2835703, Lng : -123.1150206, Q1 : 0.999997973442, Q2 : -0.000943926803302, Q3 : 7.28776358301e-05, Q4 : -0.00177335110493}
2019-04-14 17:02:43.01: SIM {TimeUS : 52035011, Roll : -0.08, Pitch : 0.01, Yaw : 359.79, Alt : 46.7999992371, Lat : 49.2835703, Lng : -123.1150206, Q1 : 0.999998092651, Q2 : -0.000719377247151, Q3 : 0.000148466890096, Q4 : -0.00180121546146}
2019-04-14 17:02:43.11: SIM {TimeUS : 52134971, Roll : -0.06, Pitch : 0.0, Yaw : 359.79, Alt : 47.0099983215, Lat : 49.2835703, Lng : -123.1150206, Q1 : 0.999998211861, Q2 : -0.000536345760338, Q3 : 8.32697551232e-05, Q4 : -0.00182498968206}
2019-04-14 17:02:43.21: SIM {TimeUS : 52234931, Roll : -0.05, Pitch : 0.0, Yaw : 359.78, Alt : 47.2200012207, Lat : 49.2835703, Lng : -123.1150206, Q1 : 0.999998152256, Q2 : -0.000465069548227, Q3 : -5.95478195464e-05, Q4 : -0.00184717250522}
2019-04-14 17:02:43.31: SIM {TimeUS : 52334891, Roll : -0.03, Pitch : -0.03, Yaw : 359.78, Alt : 47.4099998474, Lat : 49.2835703, Lng : -123.1150206, Q1 : 0.999998152256, Q2 : -0.000314055621857, Q3 : -0.000292328331852, Q4 : -0.00186645588838}
2019-04-14 17:02:43.41: SIM {TimeUS : 52434851, Roll : -0.01, Pitch : -0.06, Yaw : 359.78, Alt : 47.5999984741, Lat : 49.2835703, Lng : -123.1150206, Q1 : 0.999998092651, Q2 : -0.000108544991235, Q3 : -0.000527350232005, Q4 : -0.00188230234198}
2019-04-14 17:02:43.51: SIM {TimeUS : 52534811, Roll : -0.01, Pitch : -0.1, Yaw : 359.78, Alt : 47.7700004578, Lat : 49.2835703, Lng : -123.1150206, Q1 : 0.999997794628, Q2 : -9.05217966647e-05, Q3 : -0.00091587897623, Q4 : -0.00189843820408}
2019-04-14 17:02:43.61: SIM {TimeUS : 52634771, Roll : -0.02, Pitch : -0.14, Yaw : 359.78, Alt : 47.9399986267, Lat : 49.2835703, Lng : -123.1150207, Q1 : 0.999997377396, Q2 : -0.000178719346877, Q3 : -0.00124334532302, Q4 : -0.0019172008615}
2019-04-14 17:02:43.71: SIM {TimeUS : 52734731, Roll : 0.0, Pitch : -0.15, Yaw : 359.77, Alt : 48.0900001526, Lat : 49.2835703, Lng : -123.1150207, Q1 : 0.999997258186, Q2 : -4.22357288699e-06, Q3 : -0.00131078308914, Q4 : -0.00193728855811}
2019-04-14 17:02:43.81: SIM {TimeUS : 52834691, Roll : 0.03, Pitch : -0.13, Yaw : 359.77, Alt : 48.2299995422, Lat : 49.2835703, Lng : -123.1150207, Q1 : 0.999997377396, Q2 : 0.000293641351163, Q3 : -0.0011623299215, Q4 : -0.00196061795577}
2019-04-14 17:02:43.91: SIM {TimeUS : 52934651, Roll : 0.06, Pitch : -0.1, Yaw : 359.77, Alt : 48.3600006104, Lat : 49.2835703, Lng : -123.1150207, Q1 : 0.999997437, Q2 : 0.000535736966413, Q3 : -0.000909624854103, Q4 : -0.00198606587946}
2019-04-14 17:02:44.01: SIM {TimeUS : 53034611, Roll : 0.07, Pitch : -0.07, Yaw : 359.76, Alt : 48.4799995422, Lat : 49.2835703, Lng : -123.1150207, Q1 : 0.999997615814, Q2 : 0.000620678765699, Q3 : -0.000612460076809, Q4 : -0.00201315921731}
2019-04-14 17:02:44.11: SIM {TimeUS : 53134571, Roll : 0.07, Pitch : -0.04, Yaw : 359.76, Alt : 48.5800018311, Lat : 49.2835704, Lng : -123.1150207, Q1 : 0.99999755621, Q2 : 0.000679482182022, Q3 : -0.000418283219915, Q4 : -0.00204519252293}
2019-04-14 17:02:44.22: SIM {TimeUS : 53235364, Roll : 0.06, Pitch : -0.05, Yaw : 359.76, Alt : 48.6699981689, Lat : 49.2835704, Lng : -123.1150207, Q1 : 0.99999755621, Q2 : 0.000568766670767, Q3 : -0.000478952424601, Q4 : -0.00208397745155}
2019-04-14 17:02:44.31: SIM {TimeUS : 53335324, Roll : 0.04, Pitch : -0.05, Yaw : 359.75, Alt : 48.75, Lat : 49.2835704, Lng : -123.1150207, Q1 : 0.999997615814, Q2 : 0.000366372521967, Q3 : -0.000465560762677, Q4 : -0.00212159217335}
2019-04-14 17:02:44.41: SIM {TimeUS : 53435284, Roll : 0.02, Pitch : -0.04, Yaw : 359.75, Alt : 48.8199996948, Lat : 49.2835704, Lng : -123.1150207, Q1 : 0.99999755621, Q2 : 0.000237808693782, Q3 : -0.00037298630923, Q4 : -0.00215576589108}
2019-04-14 17:02:44.51: SIM {TimeUS : 53535244, Roll : 0.01, Pitch : -0.03, Yaw : 359.74, Alt : 48.8800010681, Lat : 49.2835704, Lng : -123.1150207, Q1 : 0.99999755621, Q2 : 0.000114214934001, Q3 : -0.000274727906799, Q4 : -0.00218774494715}
2019-04-14 17:02:44.61: SIM {TimeUS : 53635204, Roll : 0.0, Pitch : 0.0, Yaw : 359.74, Alt : 48.9399986267, Lat : 49.2835704, Lng : -123.1150207, Q1 : 0.99999755621, Q2 : 7.1804432082e-05, Q3 : -7.98267356004e-05, Q4 : -0.00221232580952}
2019-04-14 17:02:44.71: SIM {TimeUS : 53735164, Roll : 0.03, Pitch : 0.01, Yaw : 359.74, Alt : 48.9799995422, Lat : 49.2835704, Lng : -123.1150207, Q1 : 0.999997437, Q2 : 0.00029894974432, Q3 : 0.00012894118845, Q4 : -0.00223324913532}
2019-04-14 17:02:44.81: SIM {TimeUS : 53835124, Roll : 0.15, Pitch : -0.04, Yaw : 359.74, Alt : 49.0200004578, Lat : 49.2835704, Lng : -123.1150207, Q1 : 0.999996423721, Q2 : 0.00136789376847, Q3 : -0.000414388516219, Q4 : -0.00225376640446}
2019-04-14 17:02:44.91: SIM {TimeUS : 53935084, Roll : 0.44, Pitch : -0.29, Yaw : 359.73, Alt : 49.0499992371, Lat : 49.2835704, Lng : -123.1150207, Q1 : 0.99998664856, Q2 : 0.00383454328403, Q3 : -0.00262211170048, Q4 : -0.00226554763503}
2019-04-14 17:02:45.01: SIM {TimeUS : 54035044, Roll : 0.89, Pitch : -0.74, Yaw : 359.73, Alt : 49.0800018311, Lat : 49.2835704, Lng : -123.1150207, Q1 : 0.999945402145, Q2 : 0.00782747473568, Q3 : -0.00653376197442, Q4 : -0.00227480242029}
2019-04-14 17:02:45.11: SIM {TimeUS : 54135004, Roll : 1.51, Pitch : -1.36, Yaw : 359.72, Alt : 49.1100006104, Lat : 49.2835706, Lng : -123.1150207, Q1 : 0.999839127064, Q2 : 0.0131501825526, Q3 : -0.0119845783338, Q4 : -0.00226700818166}
2019-04-14 17:02:45.21: SIM {TimeUS : 54234964, Roll : 2.23, Pitch : -2.09, Yaw : 359.7, Alt : 49.1300010681, Lat : 49.2835706, Lng : -123.1150206, Q1 : 0.999639749527, Q2 : 0.0194801073521, Q3 : -0.0183309521526, Q4 : -0.00221922458149}
2019-04-14 17:02:45.31: SIM {TimeUS : 54334924, Roll : 2.97, Pitch : -2.79, Yaw : 359.68, Alt : 49.1399993896, Lat : 49.2835707, Lng : -123.1150205, Q1 : 0.999362587929, Q2 : 0.0258934479207, Q3 : -0.0244863331318, Q4 : -0.00211454113014}
2019-04-14 17:02:45.41: SIM {TimeUS : 54434884, Roll : 3.61, Pitch : -3.4, Yaw : 359.66, Alt : 49.1599998474, Lat : 49.2835708, Lng : -123.1150203, Q1 : 0.999061822891, Q2 : 0.0313992723823, Q3 : -0.0297631118447, Q4 : -0.00194861041382}
2019-04-14 17:02:45.51: SIM {TimeUS : 54534844, Roll : 4.09, Pitch : -3.85, Yaw : 359.66, Alt : 49.1699981689, Lat : 49.2835709, Lng : -123.1150201, Q1 : 0.998796701431, Q2 : 0.0355763919652, Q3 : -0.033711951226, Q4 : -0.00172086979728}
2019-04-14 17:02:45.61: SIM {TimeUS : 54634804, Roll : 4.43, Pitch : -4.17, Yaw : 359.67, Alt : 49.1800003052, Lat : 49.283571, Lng : -123.1150199, Q1 : 0.99858880043, Q2 : 0.0385543033481, Q3 : -0.036495231092, Q4 : -0.00144560553599}
2019-04-14 17:02:45.71: SIM {TimeUS : 54734764, Roll : 4.69, Pitch : -4.43, Yaw : 359.68, Alt : 49.2000007629, Lat : 49.2835714, Lng : -123.1150195, Q1 : 0.998412311077, Q2 : 0.040843334049, Q3 : -0.0387729667127, Q4 : -0.00115040619858}
2019-04-14 17:02:45.81: SIM {TimeUS : 54834724, Roll : 4.95, Pitch : -4.68, Yaw : 359.69, Alt : 49.2000007629, Lat : 49.2835716, Lng : -123.115019, Q1 : 0.998233139515, Q2 : 0.0430630668998, Q3 : -0.0409330204129, Q4 : -0.000848992203828}
2019-04-14 17:02:45.91: SIM {TimeUS : 54934684, Roll : 5.23, Pitch : -4.93, Yaw : 359.71, Alt : 49.2099990845, Lat : 49.283572, Lng : -123.1150184, Q1 : 0.998030424118, Q2 : 0.0455229505897, Q3 : -0.0431584045291, Q4 : -0.000553920574021}
2019-04-14 17:02:46.01: SIM {TimeUS : 55034644, Roll : 5.51, Pitch : -5.18, Yaw : 359.71, Alt : 49.2200012207, Lat : 49.2835724, Lng : -123.1150178, Q1 : 0.99782115221, Q2 : 0.0479651764035, Q3 : -0.0453022234142, Q4 : -0.000281457178062}
2019-04-14 17:02:46.11: SIM {TimeUS : 55134604, Roll : 5.75, Pitch : -5.4, Yaw : 359.72, Alt : 49.2299995422, Lat : 49.2835727, Lng : -123.1150171, Q1 : 0.997630596161, Q2 : 0.0500691086054, Q3 : -0.047183573246, Q4 : -3.49278416252e-05}
2019-04-14 17:02:46.21: SIM {TimeUS : 55234564, Roll : 5.93, Pitch : -5.58, Yaw : 359.72, Alt : 49.2299995422, Lat : 49.2835733, Lng : -123.1150162, Q1 : 0.997477948666, Q2 : 0.0515804588795, Q3 : -0.0487564317882, Q4 : 0.000162354583154}
2019-04-14 17:02:46.32: SIM {TimeUS : 55335357, Roll : 6.06, Pitch : -5.71, Yaw : 359.73, Alt : 49.2400016785, Lat : 49.2835739, Lng : -123.1150153, Q1 : 0.997364759445, Q2 : 0.0526897013187, Q3 : -0.0498731508851, Q4 : 0.000310500705382}
2019-04-14 17:02:46.41: SIM {TimeUS : 55435317, Roll : 6.15, Pitch : -5.79, Yaw : 359.73, Alt : 49.2400016785, Lat : 49.2835745, Lng : -123.1150143, Q1 : 0.997285723686, Q2 : 0.0534701123834, Q3 : -0.0506156347692, Q4 : 0.000426200102083}
2019-04-14 17:02:46.51: SIM {TimeUS : 55535277, Roll : 6.23, Pitch : -5.87, Yaw : 359.73, Alt : 49.25, Lat : 49.2835751, Lng : -123.1150133, Q1 : 0.997213184834, Q2 : 0.0541592799127, Q3 : -0.051306579262, Q4 : 0.00050638592802}
2019-04-14 17:02:46.61: SIM {TimeUS : 55635237, Roll : 6.38, Pitch : -5.95, Yaw : 359.74, Alt : 49.25, Lat : 49.2835758, Lng : -123.1150121, Q1 : 0.997101128101, Q2 : 0.0555318780243, Q3 : -0.0520111583173, Q4 : 0.000679086777382}
2019-04-14 17:02:46.71: SIM {TimeUS : 55735197, Roll : 6.79, Pitch : -5.92, Yaw : 0.01, Alt : 49.2599983215, Lat : 49.2835765, Lng : -123.1150109, Q1 : 0.996908068657, Q2 : 0.0592029765248, Q3 : -0.0515688546002, Q4 : 0.00315735698678}
2019-04-14 17:02:46.81: SIM {TimeUS : 55835157, Roll : 7.43, Pitch : -5.8, Yaw : 1.16, Alt : 49.2599983215, Lat : 49.2835774, Lng : -123.1150096, Q1 : 0.996529996395, Q2 : 0.0652895718813, Q3 : -0.049860611558, Q4 : 0.0133861387148}
2019-04-14 17:02:46.91: SIM {TimeUS : 55935117, Roll : 8.03, Pitch : -5.89, Yaw : 3.78, Alt : 49.2599983215, Lat : 49.2835782, Lng : -123.1150082, Q1 : 0.995560884476, Q2 : 0.0716429427266, Q3 : -0.0489498898387, Q4 : 0.0364656299353}
2019-04-14 17:02:47.01: SIM {TimeUS : 56035077, Roll : 8.3, Pitch : -6.41, Yaw : 7.99, Alt : 49.2599983215, Lat : 49.2835791, Lng : -123.1150067, Q1 : 0.993112683296, Q2 : 0.0759820193052, Q3 : -0.0506196767092, Q4 : 0.0734273791313}
2019-04-14 17:02:47.11: SIM {TimeUS : 56135037, Roll : 8.02, Pitch : -7.39, Yaw : 13.63, Alt : 49.2599983215, Lat : 49.2835799, Lng : -123.1150051, Q1 : 0.987907588482, Q2 : 0.0769288539886, Q3 : -0.0555713772774, Q4 : 0.12260632962}
2019-04-14 17:02:47.21: SIM {TimeUS : 56234997, Roll : 7.09, Pitch : -8.7, Yaw : 20.45, Alt : 49.2700004578, Lat : 49.2835807, Lng : -123.1150034, Q1 : 0.978554546833, Q2 : 0.0741900280118, Q3 : -0.0636117681861, Q4 : 0.181329518557}
2019-04-14 17:02:47.31: SIM {TimeUS : 56334957, Roll : 5.51, Pitch : -10.13, Yaw : 28.2, Alt : 49.2700004578, Lat : 49.2835818, Lng : -123.1150015, Q1 : 0.963905572891, Q2 : 0.0679863467813, Q3 : -0.0739242658019, Q4 : 0.24657484889}
2019-04-14 17:02:47.41: SIM {TimeUS : 56434917, Roll : 3.15, Pitch : -11.44, Yaw : 36.52, Alt : 49.2700004578, Lat : 49.2835826, Lng : -123.1149996, Q1 : 0.943669497967, Q2 : 0.0572429560125, Q3 : -0.0860396698117, Q4 : 0.314337879419}
2019-04-14 17:02:47.51: SIM {TimeUS : 56534877, Roll : 0.1, Pitch : -12.36, Yaw : 44.69, Alt : 49.2700004578, Lat : 49.2835837, Lng : -123.1149976, Q1 : 0.919491231441, Q2 : 0.0417804270983, Q3 : -0.0993042364717, Q4 : 0.378059446812}
2019-04-14 17:02:47.61: SIM {TimeUS : 56634837, Roll : -3.07, Pitch : -12.77, Yaw : 51.8, Alt : 49.2700004578, Lat : 49.2835848, Lng : -123.1149954, Q1 : 0.894933700562, Q2 : 0.0245651826262, Q3 : -0.111720301211, Q4 : 0.431287407875}
2019-04-14 17:02:47.71: SIM {TimeUS : 56734797, Roll : -5.71, Pitch : -12.77, Yaw : 57.18, Alt : 49.2700004578, Lat : 49.283586, Lng : -123.1149933, Q1 : 0.874146103859, Q2 : 0.00971198175102, Q3 : -0.121296860278, Q4 : 0.470171630383}
2019-04-14 17:02:47.81: SIM {TimeUS : 56834757, Roll : -7.36, Pitch : -12.62, Yaw : 60.55, Alt : 49.2700004578, Lat : 49.2835873, Lng : -123.1149911, Q1 : 0.86014688015, Q2 : 0.000171160849277, Q3 : -0.126949667931, Q4 : 0.493995040655}
2019-04-14 17:02:47.91: SIM {TimeUS : 56934717, Roll : -7.95, Pitch : -12.52, Yaw : 62.01, Alt : 49.2700004578, Lat : 49.2835885, Lng : -123.1149888, Q1 : 0.853844761848, Q2 : -0.00303223961964, Q3 : -0.128775373101, Q4 : 0.504338026047}
2019-04-14 17:02:48.01: SIM {TimeUS : 57034677, Roll : -7.59, Pitch : -12.63, Yaw : 61.86, Alt : 49.2700004578, Lat : 49.2835901, Lng : -123.1149866, Q1 : 0.854421794415, Q2 : -5.45045259059e-05, Q3 : -0.128024041653, Q4 : 0.50356054306}
2019-04-14 17:02:48.11: SIM {TimeUS : 57134637, Roll : -6.54, Pitch : -13.0, Yaw : 60.48, Alt : 49.2700004578, Lat : 49.2835916, Lng : -123.1149843, Q1 : 0.860205173492, Q2 : 0.0079708583653, Q3 : -0.126227766275, Q4 : 0.494014292955}
2019-04-14 17:02:48.21: SIM {TimeUS : 57234597, Roll : -5.02, Pitch : -13.58, Yaw : 58.19, Alt : 49.2700004578, Lat : 49.2835934, Lng : -123.1149819, Q1 : 0.869330644608, Q2 : 0.0193997751921, Q3 : -0.124447353184, Q4 : 0.477912902832}
2019-04-14 17:02:48.31: SIM {TimeUS : 57334557, Roll : -3.27, Pitch : -14.26, Yaw : 55.33, Alt : 49.2799987793, Lat : 49.2835951, Lng : -123.1149795, Q1 : 0.880095601082, Q2 : 0.0325000584126, Q3 : -0.123107925057, Q4 : 0.457405626774}
2019-04-14 17:02:48.42: SIM {TimeUS : 57435350, Roll : -1.46, Pitch : -14.92, Yaw : 52.17, Alt : 49.2799987793, Lat : 49.2835969, Lng : -123.114977, Q1 : 0.891182661057, Q2 : 0.0457195155323, Q3 : -0.12219478935, Q4 : 0.434478551149}
2019-04-14 17:02:48.51: SIM {TimeUS : 57535310, Roll : 0.23, Pitch : -15.41, Yaw : 49.09, Alt : 49.2799987793, Lat : 49.2835988, Lng : -123.1149744, Q1 : 0.901297807693, Q2 : 0.0575458556414, Q3 : -0.12118486315, Q4 : 0.411904156208}
2019-04-14 17:02:48.61: SIM {TimeUS : 57635270, Roll : 1.66, Pitch : -15.69, Yaw : 46.38, Alt : 49.2799987793, Lat : 49.2836007, Lng : -123.1149717, Q1 : 0.909715890884, Q2 : 0.066981524229, Q3 : -0.119841143489, Q4 : 0.391878277063}
2019-04-14 17:02:48.71: SIM {TimeUS : 57735230, Roll : 2.71, Pitch : -15.78, Yaw : 44.28, Alt : 49.2799987793, Lat : 49.2836025, Lng : -123.1149689, Q1 : 0.915985584259, Q2 : 0.0734494253993, Q3 : -0.11829662323, Q4 : 0.376273334026}
2019-04-14 17:02:48.81: SIM {TimeUS : 57835190, Roll : 3.33, Pitch : -15.75, Yaw : 42.94, Alt : 49.2799987793, Lat : 49.2836044, Lng : -123.114966, Q1 : 0.919965982437, Q2 : 0.0769237428904, Q3 : -0.116928130388, Q4 : 0.366160035133}
2019-04-14 17:02:48.91: SIM {TimeUS : 57935150, Roll : 3.5, Pitch : -15.71, Yaw : 42.36, Alt : 49.2799987793, Lat : 49.2836063, Lng : -123.1149629, Q1 : 0.921724140644, Q2 : 0.0776209011674, Q3 : -0.116451911628, Q4 : 0.361716210842}
2019-04-14 17:02:49.01: SIM {TimeUS : 58035110, Roll : 3.27, Pitch : -15.72, Yaw : 42.48, Alt : 49.2799987793, Lat : 49.2836084, Lng : -123.1149597, Q1 : 0.921491384506, Q2 : 0.0758971944451, Q3 : -0.117183066905, Q4 : 0.362438172102}
2019-04-14 17:02:49.11: SIM {TimeUS : 58135070, Roll : 2.7, Pitch : -15.8, Yaw : 43.17, Alt : 49.2799987793, Lat : 49.2836104, Lng : -123.1149564, Q1 : 0.91959387064, Q2 : 0.0722856149077, Q3 : -0.119188420475, Q4 : 0.367309123278}
2019-04-14 17:02:49.21: SIM {TimeUS : 58235030, Roll : 1.92, Pitch : -15.91, Yaw : 44.24, Alt : 49.2799987793, Lat : 49.2836123, Lng : -123.1149531, Q1 : 0.91645950079, Q2 : 0.0675276070833, Q3 : -0.121936053038, Q4 : 0.375064820051}
2019-04-14 17:02:49.31: SIM {TimeUS : 58334990, Roll : 1.07, Pitch : -16.03, Yaw : 45.52, Alt : 49.2799987793, Lat : 49.2836144, Lng : -123.1149496, Q1 : 0.912548303604, Q2 : 0.0625412166119, Q3 : -0.124983884394, Q4 : 0.384347826242}
2019-04-14 17:02:49.41: SIM {TimeUS : 58434950, Roll : 0.24, Pitch : -16.14, Yaw : 46.84, Alt : 49.2799987793, Lat : 49.2836164, Lng : -123.1149461, Q1 : 0.908382892609, Q2 : 0.0577650740743, Q3 : -0.128054723144, Q4 : 0.393834680319}
2019-04-14 17:02:49.51: SIM {TimeUS : 58534910, Roll : -0.46, Pitch : -16.24, Yaw : 48.04, Alt : 49.2799987793, Lat : 49.2836184, Lng : -123.1149425, Q1 : 0.904446542263, Q2 : 0.0538657046854, Q3 : -0.130722030997, Q4 : 0.402475744486}
2019-04-14 17:02:49.61: SIM {TimeUS : 58634870, Roll : -0.97, Pitch : -16.31, Yaw : 49.01, Alt : 49.2799987793, Lat : 49.2836207, Lng : -123.1149389, Q1 : 0.901171803474, Q2 : 0.0511659085751, Q3 : -0.132566541433, Q4 : 0.409508824348}
2019-04-14 17:02:49.71: SIM {TimeUS : 58734830, Roll : -1.29, Pitch : -16.33, Yaw : 49.69, Alt : 49.2799987793, Lat : 49.2836229, Lng : -123.1149352, Q1 : 0.898855745792, Q2 : 0.0495257005095, Q3 : -0.13363519311, Q4 : 0.414423942566}
2019-04-14 17:02:49.81: SIM {TimeUS : 58834790, Roll : -1.43, Pitch : -16.36, Yaw : 50.04, Alt : 49.2900009155, Lat : 49.283625, Lng : -123.1149315, Q1 : 0.897584021091, Q2 : 0.0490048266947, Q3 : -0.134212642908, Q4 : 0.417047291994}
2019-04-14 17:02:49.91: SIM {TimeUS : 58934750, Roll : -1.39, Pitch : -16.4, Yaw : 50.1, Alt : 49.2900009155, Lat : 49.2836273, Lng : -123.1149277, Q1 : 0.897326111794, Q2 : 0.0495329983532, Q3 : -0.134354650974, Q4 : 0.417493909597}
2019-04-14 17:02:50.01: SIM {TimeUS : 59034710, Roll : -1.21, Pitch : -16.46, Yaw : 49.89, Alt : 49.2900009155, Lat : 49.2836296, Lng : -123.1149239, Q1 : 0.89792406559, Q2 : 0.0508995763958, Q3 : -0.134234040976, Q4 : 0.416080325842}
2019-04-14 17:02:50.11: SIM {TimeUS : 59134670, Roll : -0.93, Pitch : -16.51, Yaw : 49.5, Alt : 49.2900009155, Lat : 49.2836318, Lng : -123.1149201, Q1 : 0.899165987968, Q2 : 0.0528162196279, Q3 : -0.133835151792, Q4 : 0.413278490305}
2019-04-14 17:02:50.21: SIM {TimeUS : 59234630, Roll : -0.59, Pitch : -16.57, Yaw : 48.99, Alt : 49.2900009155, Lat : 49.2836342, Lng : -123.1149162, Q1 : 0.90078574419, Q2 : 0.0550521090627, Q3 : -0.133277893066, Q4 : 0.40962344408}
2019-04-14 17:02:50.31: SIM {TimeUS : 59334590, Roll : -0.24, Pitch : -16.62, Yaw : 48.44, Alt : 49.2900009155, Lat : 49.2836366, Lng : -123.1149123, Q1 : 0.90252417326, Q2 : 0.0573672242463, Q3 : -0.132684081793, Q4 : 0.40565264225}
2019-04-14 17:02:50.41: SIM {TimeUS : 59434550, Roll : 0.07, Pitch : -16.66, Yaw : 47.91, Alt : 49.2900009155, Lat : 49.283639, Lng : -123.1149083, Q1 : 0.904174089432, Q2 : 0.0594511814415, Q3 : -0.132147759199, Q4 : 0.401835560799}
2019-04-14 17:02:50.52: SIM {TimeUS : 59535343, Roll : 0.34, Pitch : -16.69, Yaw : 47.45, Alt : 49.2900009155, Lat : 49.2836414, Lng : -123.1149043, Q1 : 0.905591011047, Q2 : 0.0611623041332, Q3 : -0.131684109569, Q4 : 0.398526638746}
2019-04-14 17:02:50.61: SIM {TimeUS : 59635303, Roll : 0.54, Pitch : -16.72, Yaw : 47.11, Alt : 49.2900009155, Lat : 49.2836439, Lng : -123.1149002, Q1 : 0.9066401124, Q2 : 0.0624029524624, Q3 : -0.131402507424, Q4 : 0.396034061909}
2019-04-14 17:02:50.71: SIM {TimeUS : 59735263, Roll : 0.64, Pitch : -16.74, Yaw : 46.89, Alt : 49.2900009155, Lat : 49.2836463, Lng : -123.1148962, Q1 : 0.907298088074, Q2 : 0.0630426481366, Q3 : -0.131369009614, Q4 : 0.394433796406}
2019-04-14 17:02:50.81: SIM {TimeUS : 59835223, Roll : 0.65, Pitch : -16.77, Yaw : 46.81, Alt : 49.2900009155, Lat : 49.2836487, Lng : -123.1148921, Q1 : 0.907555699348, Q2 : 0.0631344690919, Q3 : -0.13163228333, Q4 : 0.393737971783}
2019-04-14 17:02:50.91: SIM {TimeUS : 59935183, Roll : 0.58, Pitch : -16.81, Yaw : 46.83, Alt : 49.2900009155, Lat : 49.2836512, Lng : -123.114888, Q1 : 0.907458305359, Q2 : 0.0627367943525, Q3 : -0.132199242711, Q4 : 0.393836170435}
2019-04-14 17:02:51.01: SIM {TimeUS : 60035143, Roll : 0.46, Pitch : -16.87, Yaw : 46.94, Alt : 49.2900009155, Lat : 49.2836537, Lng : -123.1148838, Q1 : 0.907072782516, Q2 : 0.062086712569, Q3 : -0.132959261537, Q4 : 0.394570738077}
2019-04-14 17:02:51.11: SIM {TimeUS : 60135103, Roll : 0.3, Pitch : -16.91, Yaw : 47.12, Alt : 49.2900009155, Lat : 49.2836562, Lng : -123.1148795, Q1 : 0.906502842903, Q2 : 0.0612362213433, Q3 : -0.13377225399, Q4 : 0.395736902952}
2019-04-14 17:02:51.21: SIM {TimeUS : 60235063, Roll : 0.14, Pitch : -16.94, Yaw : 47.32, Alt : 49.2999992371, Lat : 49.2836588, Lng : -123.1148753, Q1 : 0.905857861042, Q2 : 0.0602736137807, Q3 : -0.134460121393, Q4 : 0.397126048803}
2019-04-14 17:02:51.31: SIM {TimeUS : 60335023, Roll : -0.01, Pitch : -16.97, Yaw : 47.52, Alt : 49.2999992371, Lat : 49.2836613, Lng : -123.114871, Q1 : 0.90520876646, Q2 : 0.0593268349767, Q3 : -0.135152295232, Q4 : 0.39851129055}
2019-04-14 17:02:51.41: SIM {TimeUS : 60434983, Roll : -0.13, Pitch : -17.01, Yaw : 47.7, Alt : 49.2999992371, Lat : 49.2836639, Lng : -123.1148667, Q1 : 0.904616236687, Q2 : 0.0587192364037, Q3 : -0.135752722621, Q4 : 0.399740815163}
2019-04-14 17:02:51.51: SIM {TimeUS : 60534943, Roll : -0.2, Pitch : -17.04, Yaw : 47.83, Alt : 49.2999992371, Lat : 49.2836664, Lng : -123.1148624, Q1 : 0.90414494276, Q2 : 0.0584523975849, Q3 : -0.136222079396, Q4 : 0.400685399771}
2019-04-14 17:02:51.61: SIM {TimeUS : 60634903, Roll : -0.23, Pitch : -17.08, Yaw : 47.91, Alt : 49.2999992371, Lat : 49.2836689, Lng : -123.114858, Q1 : 0.903826773167, Q2 : 0.0585042238235, Q3 : -0.136567980051, Q4 : 0.40127748251}
2019-04-14 17:02:51.71: SIM {TimeUS : 60734863, Roll : -0.21, Pitch : -17.13, Yaw : 47.94, Alt : 49.2999992371, Lat : 49.2836716, Lng : -123.1148537, Q1 : 0.90366756916, Q2 : 0.0588125921786, Q3 : -0.136867389083, Q4 : 0.401488929987}
2019-04-14 17:02:51.81: SIM {TimeUS : 60834823, Roll : -0.18, Pitch : -17.17, Yaw : 47.92, Alt : 49.2999992371, Lat : 49.2836742, Lng : -123.1148493, Q1 : 0.903673231602, Q2 : 0.0591823831201, Q3 : -0.137102752924, Q4 : 0.401341408491}
2019-04-14 17:02:51.91: SIM {TimeUS : 60934783, Roll : -0.14, Pitch : -17.2, Yaw : 47.86, Alt : 49.2999992371, Lat : 49.2836767, Lng : -123.1148449, Q1 : 0.903827726841, Q2 : 0.0595307014883, Q3 : -0.137244254351, Q4 : 0.400893390179}
2019-04-14 17:02:52.01: SIM {TimeUS : 61034743, Roll : -0.1, Pitch : -17.22, Yaw : 47.77, Alt : 49.2999992371, Lat : 49.2836793, Lng : -123.1148404, Q1 : 0.904101967812, Q2 : 0.0598240531981, Q3 : -0.137246236205, Q4 : 0.400230228901}
2019-04-14 17:02:52.11: SIM {TimeUS : 61134703, Roll : -0.04, Pitch : -17.22, Yaw : 47.66, Alt : 49.3100013733, Lat : 49.2836821, Lng : -123.114836, Q1 : 0.904438018799, Q2 : 0.0601779296994, Q3 : -0.137110099196, Q4 : 0.399463832378}
2019-04-14 17:02:52.21: SIM {TimeUS : 61234663, Roll : 0.02, Pitch : -17.22, Yaw : 47.55, Alt : 49.3100013733, Lat : 49.2836846, Lng : -123.1148315, Q1 : 0.904782354832, Q2 : 0.0605803467333, Q3 : -0.136954799294, Q4 : 0.398675680161}
2019-04-14 17:02:52.31: SIM {TimeUS : 61334623, Roll : 0.1, Pitch : -17.25, Yaw : 47.45, Alt : 49.3100013733, Lat : 49.2836874, Lng : -123.1148271, Q1 : 0.90507119894, Q2 : 0.0611443445086, Q3 : -0.136941105127, Q4 : 0.397938042879}
2019-04-14 17:02:52.41: SIM {TimeUS : 61434583, Roll : 0.17, Pitch : -17.3, Yaw : 47.36, Alt : 49.3100013733, Lat : 49.2836901, Lng : -123.1148226, Q1 : 0.905271351337, Q2 : 0.0617859177291, Q3 : -0.137171909213, Q4 : 0.39730361104}
2019-04-14 17:02:52.51: SIM {TimeUS : 61534543, Roll : 0.2, Pitch : -17.33, Yaw : 47.29, Alt : 49.3100013733, Lat : 49.2836928, Lng : -123.1148181, Q1 : 0.905442297459, Q2 : 0.0621153898537, Q3 : -0.137349203229, Q4 : 0.396801143885}
2019-04-14 17:02:52.62: SIM {TimeUS : 61635336, Roll : 0.22, Pitch : -17.34, Yaw : 47.25, Alt : 49.3100013733, Lat : 49.2836955, Lng : -123.1148135, Q1 : 0.905590355396, Q2 : 0.062173590064, Q3 : -0.137344390154, Q4 : 0.396455615759}
2019-04-14 17:02:52.71: SIM {TimeUS : 61735296, Roll : 0.21, Pitch : -17.34, Yaw : 47.22, Alt : 49.3100013733, Lat : 49.2836981, Lng : -123.114809, Q1 : 0.90566855669, Q2 : 0.062127225101, Q3 : -0.137438446283, Q4 : 0.396251708269}
2019-04-14 17:02:52.81: SIM {TimeUS : 61835256, Roll : 0.19, Pitch : -17.37, Yaw : 47.22, Alt : 49.3100013733, Lat : 49.2837009, Lng : -123.1148044, Q1 : 0.905669867992, Q2 : 0.0620204657316, Q3 : -0.137733444571, Q4 : 0.396162956953}
2019-04-14 17:02:52.91: SIM {TimeUS : 61935216, Roll : 0.16, Pitch : -17.4, Yaw : 47.22, Alt : 49.3100013733, Lat : 49.2837035, Lng : -123.1147998, Q1 : 0.905627906322, Q2 : 0.0619361028075, Q3 : -0.138028010726, Q4 : 0.396169543266}
2019-04-14 17:02:53.01: SIM {TimeUS : 62035176, Roll : 0.14, Pitch : -17.44, Yaw : 47.24, Alt : 49.3100013733, Lat : 49.2837063, Lng : -123.1147952, Q1 : 0.905538678169, Q2 : 0.0618867911398, Q3 : -0.138407811522, Q4 : 0.396248698235}
2019-04-14 17:02:53.11: SIM {TimeUS : 62135136, Roll : 0.12, Pitch : -17.47, Yaw : 47.26, Alt : 49.3100013733, Lat : 49.283709, Lng : -123.1147906, Q1 : 0.90543872118, Q2 : 0.0618519298732, Q3 : -0.138727083802, Q4 : 0.396370798349}
2019-04-14 17:02:53.21: SIM {TimeUS : 62235096, Roll : 0.1, Pitch : -17.5, Yaw : 47.28, Alt : 49.3100013733, Lat : 49.2837118, Lng : -123.114786, Q1 : 0.905340611935, Q2 : 0.0618235431612, Q3 : -0.139021411538, Q4 : 0.396496295929}
2019-04-14 17:02:53.31: SIM {TimeUS : 62335056, Roll : 0.09, Pitch : -17.52, Yaw : 47.3, Alt : 49.3199996948, Lat : 49.2837144, Lng : -123.1147814, Q1 : 0.905263721943, Q2 : 0.061838503927, Q3 : -0.139190971851, Q4 : 0.396610021591}
2019-04-14 17:02:53.41: SIM {TimeUS : 62435016, Roll : 0.09, Pitch : -17.54, Yaw : 47.31, Alt : 49.3199996948, Lat : 49.2837173, Lng : -123.1147768, Q1 : 0.905201792717, Q2 : 0.0619624406099, Q3 : -0.139326408505, Q4 : 0.396684408188}
2019-04-14 17:02:53.51: SIM {TimeUS : 62534976, Roll : 0.1, Pitch : -17.56, Yaw : 47.31, Alt : 49.3199996948, Lat : 49.28372, Lng : -123.1147721, Q1 : 0.905172348022, Q2 : 0.0621173977852, Q3 : -0.139439895749, Q4 : 0.396687477827}
2019-04-14 17:02:53.61: SIM {TimeUS : 62634936, Roll : 0.1, Pitch : -17.58, Yaw : 47.3, Alt : 49.3199996948, Lat : 49.2837228, Lng : -123.1147674, Q1 : 0.905175864697, Q2 : 0.0621843896806, Q3 : -0.139667823911, Q4 : 0.396588742733}
2019-04-14 17:02:53.71: SIM {TimeUS : 62734896, Roll : 0.08, Pitch : -17.63, Yaw : 47.28, Alt : 49.3199996948, Lat : 49.2837255, Lng : -123.1147628, Q1 : 0.905204534531, Q2 : 0.0621171891689, Q3 : -0.140101730824, Q4 : 0.39638081193}
2019-04-14 17:02:53.81: SIM {TimeUS : 62834856, Roll : 0.06, Pitch : -17.67, Yaw : 47.25, Alt : 49.3199996948, Lat : 49.2837284, Lng : -123.1147581, Q1 : 0.905243396759, Q2 : 0.0621357522905, Q3 : -0.140548601747, Q4 : 0.396130889654}
2019-04-14 17:02:53.91: SIM {TimeUS : 62934816, Roll : 0.08, Pitch : -17.71, Yaw : 47.22, Alt : 49.3199996948, Lat : 49.2837312, Lng : -123.1147534, Q1 : 0.905297279358, Q2 : 0.0623613782227, Q3 : -0.140791162848, Q4 : 0.395886063576}
2019-04-14 17:02:54.01: SIM {TimeUS : 63034776, Roll : 0.12, Pitch : -17.71, Yaw : 47.19, Alt : 49.3199996948, Lat : 49.2837339, Lng : -123.1147487, Q1 : 0.905393242836, Q2 : 0.0625998601317, Q3 : -0.140720322728, Q4 : 0.395654022694}
2019-04-14 17:02:54.11: SIM {TimeUS : 63134736, Roll : 0.15, Pitch : -17.7, Yaw : 47.15, Alt : 49.3199996948, Lat : 49.2837368, Lng : -123.1147439, Q1 : 0.905513823032, Q2 : 0.0627824366093, Q3 : -0.140467599034, Q4 : 0.39543902874}
2019-04-14 17:02:54.21: SIM {TimeUS : 63234696, Roll : 0.16, Pitch : -17.68, Yaw : 47.12, Alt : 49.3199996948, Lat : 49.2837395, Lng : -123.1147393, Q1 : 0.905638575554, Q2 : 0.0627155900002, Q3 : -0.140340641141, Q4 : 0.395208865404}
2019-04-14 17:02:54.31: SIM {TimeUS : 63334656, Roll : 0.16, Pitch : -17.66, Yaw : 47.09, Alt : 49.3199996948, Lat : 49.2837424, Lng : -123.1147345, Q1 : 0.905759215355, Q2 : 0.0626263022423, Q3 : -0.140225678682, Q4 : 0.394987255335}
2019-04-14 17:02:54.41: SIM {TimeUS : 63434616, Roll : 0.16, Pitch : -17.64, Yaw : 47.07, Alt : 49.3199996948, Lat : 49.2837453, Lng : -123.1147298, Q1 : 0.905871331692, Q2 : 0.0625301450491, Q3 : -0.14009475708, Q4 : 0.394791781902}
2019-04-14 17:02:54.51: SIM {TimeUS : 63534576, Roll : 0.16, Pitch : -17.66, Yaw : 47.04, Alt : 49.3199996948, Lat : 49.283748, Lng : -123.114725, Q1 : 0.905932784081, Q2 : 0.0625418797135, Q3 : -0.140206381679, Q4 : 0.394609183073}
2019-04-14 17:02:54.61: SIM {TimeUS : 63634536, Roll : 0.16, Pitch : -17.68, Yaw : 47.03, Alt : 49.3199996948, Lat : 49.2837509, Lng : -123.1147202, Q1 : 0.905960142612, Q2 : 0.0626393556595, Q3 : -0.140419304371, Q4 : 0.394455224276}
2019-04-14 17:02:54.71: SIM {TimeUS : 63735329, Roll : 0.15, Pitch : -17.73, Yaw : 47.01, Alt : 49.3199996948, Lat : 49.2837538, Lng : -123.1147154, Q1 : 0.905951023102, Q2 : 0.0627409517765, Q3 : -0.140818029642, Q4 : 0.394317895174}
2019-04-14 17:02:54.81: SIM {TimeUS : 63835289, Roll : 0.15, Pitch : -17.79, Yaw : 47.0, Alt : 49.3300018311, Lat : 49.2837565, Lng : -123.1147107, Q1 : 0.905915975571, Q2 : 0.0628844201565, Q3 : -0.141275241971, Q4 : 0.39421209693}
2019-04-14 17:02:54.91: SIM {TimeUS : 63935249, Roll : 0.15, Pitch : -17.81, Yaw : 47.0, Alt : 49.3300018311, Lat : 49.2837594, Lng : -123.1147059, Q1 : 0.905895709991, Q2 : 0.0630146861076, Q3 : -0.141481429338, Q4 : 0.39416384697}
2019-04-14 17:02:55.01: SIM {TimeUS : 64035209, Roll : 0.15, Pitch : -17.84, Yaw : 46.99, Alt : 49.3300018311, Lat : 49.2837623, Lng : -123.1147011, Q1 : 0.905882835388, Q2 : 0.063059411943, Q3 : -0.141681417823, Q4 : 0.394114434719}
2019-04-14 17:02:55.11: SIM {TimeUS : 64135169, Roll : 0.14, Pitch : -17.85, Yaw : 46.99, Alt : 49.3300018311, Lat : 49.2837652, Lng : -123.1146963, Q1 : 0.905883967876, Q2 : 0.0630499497056, Q3 : -0.141803264618, Q4 : 0.394069552422}
2019-04-14 17:02:55.21: SIM {TimeUS : 64235129, Roll : 0.15, Pitch : -17.84, Yaw : 46.99, Alt : 49.3300018311, Lat : 49.283768, Lng : -123.1146915, Q1 : 0.905901253223, Q2 : 0.0630892887712, Q3 : -0.141719534993, Q4 : 0.394053578377}
2019-04-14 17:02:55.31: SIM {TimeUS : 64335089, Roll : 0.17, Pitch : -17.85, Yaw : 46.98, Alt : 49.3300018311, Lat : 49.2837709, Lng : -123.1146867, Q1 : 0.905897080898, Q2 : 0.0632374212146, Q3 : -0.141745135188, Q4 : 0.394030272961}
2019-04-14 17:02:55.41: SIM {TimeUS : 64435049, Roll : 0.17, Pitch : -17.88, Yaw : 46.98, Alt : 49.3300018311, Lat : 49.2837738, Lng : -123.1146818, Q1 : 0.905883252621, Q2 : 0.0633646398783, Q3 : -0.141909196973, Q4 : 0.393982589245}
2019-04-14 17:02:55.51: SIM {TimeUS : 64535009, Roll : 0.18, Pitch : -17.9, Yaw : 46.97, Alt : 49.3300018311, Lat : 49.2837767, Lng : -123.114677, Q1 : 0.905878603458, Q2 : 0.0634372681379, Q3 : -0.142066240311, Q4 : 0.393924951553}
2019-04-14 17:02:55.61: SIM {TimeUS : 64634969, Roll : 0.18, Pitch : -17.9, Yaw : 46.96, Alt : 49.3300018311, Lat : 49.2837795, Lng : -123.1146722, Q1 : 0.905905246735, Q2 : 0.0634819343686, Q3 : -0.142052337527, Q4 : 0.393861532211}
2019-04-14 17:02:55.71: SIM {TimeUS : 64734929, Roll : 0.18, Pitch : -17.9, Yaw : 46.95, Alt : 49.3300018311, Lat : 49.2837824, Lng : -123.1146673, Q1 : 0.90594047308, Q2 : 0.0634678900242, Q3 : -0.142075330019, Q4 : 0.393774390221}
2019-04-14 17:02:55.81: SIM {TimeUS : 64834889, Roll : 0.17, Pitch : -17.92, Yaw : 46.94, Alt : 49.3300018311, Lat : 49.2837853, Lng : -123.1146625, Q1 : 0.905966699123, Q2 : 0.0634112134576, Q3 : -0.142268791795, Q4 : 0.393653422594}
2019-04-14 17:02:55.91: SIM {TimeUS : 64934849, Roll : 0.15, Pitch : -17.95, Yaw : 46.92, Alt : 49.3300018311, Lat : 49.2837881, Lng : -123.1146577, Q1 : 0.905986368656, Q2 : 0.0633192062378, Q3 : -0.142618402839, Q4 : 0.393496364355}
2019-04-14 17:02:56.01: SIM {TimeUS : 65034809, Roll : 0.14, Pitch : -17.95, Yaw : 46.91, Alt : 49.3300018311, Lat : 49.283791, Lng : -123.1146527, Q1 : 0.906037449837, Q2 : 0.0632517114282, Q3 : -0.142683312297, Q4 : 0.393366038799}
2019-04-14 17:02:56.11: SIM {TimeUS : 65134769, Roll : 0.15, Pitch : -17.94, Yaw : 46.89, Alt : 49.3300018311, Lat : 49.283794, Lng : -123.1146479, Q1 : 0.9060998559, Q2 : 0.063265517354, Q3 : -0.142558768392, Q4 : 0.393265277147}
2019-04-14 17:02:56.21: SIM {TimeUS : 65234729, Roll : 0.17, Pitch : -17.93, Yaw : 46.88, Alt : 49.3300018311, Lat : 49.2837969, Lng : -123.1146431, Q1 : 0.906151473522, Q2 : 0.0633797347546, Q3 : -0.142416879535, Q4 : 0.393179357052}
2019-04-14 17:02:56.31: SIM {TimeUS : 65334689, Roll : 0.18, Pitch : -17.94, Yaw : 46.86, Alt : 49.3400001526, Lat : 49.2837998, Lng : -123.1146381, Q1 : 0.906181275845, Q2 : 0.0635170862079, Q3 : -0.142458766699, Q4 : 0.39307320118}
2019-04-14 17:02:56.41: SIM {TimeUS : 65434649, Roll : 0.18, Pitch : -17.96, Yaw : 46.85, Alt : 49.3400001526, Lat : 49.2838026, Lng : -123.1146333, Q1 : 0.906206548214, Q2 : 0.063510119915, Q3 : -0.142655879259, Q4 : 0.392944723368}
2019-04-14 17:02:56.51: SIM {TimeUS : 65534609, Roll : 0.15, Pitch : -17.98, Yaw : 46.84, Alt : 49.3400001526, Lat : 49.2838056, Lng : -123.1146284, Q1 : 0.906235218048, Q2 : 0.0633630752563, Q3 : -0.142926543951, Q4 : 0.392803937197}
2019-04-14 17:02:56.61: SIM {TimeUS : 65634569, Roll : 0.13, Pitch : -18.0, Yaw : 46.83, Alt : 49.3400001526, Lat : 49.2838086, Lng : -123.1146235, Q1 : 0.906259298325, Q2 : 0.0632831975818, Q3 : -0.143143609166, Q4 : 0.392682164907}
2019-04-14 17:02:56.72: SIM {TimeUS : 65735362, Roll : 0.14, Pitch : -18.02, Yaw : 46.82, Alt : 49.3400001526, Lat : 49.2838115, Lng : -123.1146186, Q1 : 0.906275629997, Q2 : 0.0633560195565, Q3 : -0.143285751343, Q4 : 0.392580837011}
2019-04-14 17:02:56.81: SIM {TimeUS : 65835322, Roll : 0.15, Pitch : -18.04, Yaw : 46.8, Alt : 49.3400001526, Lat : 49.2838144, Lng : -123.1146137, Q1 : 0.906290233135, Q2 : 0.0634798333049, Q3 : -0.143360093236, Q4 : 0.392499923706}
2019-04-14 17:02:56.91: SIM {TimeUS : 65935282, Roll : 0.17, Pitch : -18.04, Yaw : 46.8, Alt : 49.3400001526, Lat : 49.2838173, Lng : -123.1146088, Q1 : 0.906290471554, Q2 : 0.0637082532048, Q3 : -0.14334204793, Q4 : 0.392469108105}
2019-04-14 17:02:57.01: SIM {TimeUS : 66035242, Roll : 0.19, Pitch : -18.06, Yaw : 46.79, Alt : 49.3400001526, Lat : 49.2838202, Lng : -123.1146039, Q1 : 0.906278789043, Q2 : 0.0638857409358, Q3 : -0.14339800179, Q4 : 0.392446666956}
2019-04-14 17:02:57.11: SIM {TimeUS : 66135202, Roll : 0.21, Pitch : -18.07, Yaw : 46.79, Alt : 49.3400001526, Lat : 49.2838232, Lng : -123.114599, Q1 : 0.906264424324, Q2 : 0.0640609934926, Q3 : -0.143466129899, Q4 : 0.392426401377}
2019-04-14 17:02:57.21: SIM {TimeUS : 66235162, Roll : 0.22, Pitch : -18.09, Yaw : 46.78, Alt : 49.3400001526, Lat : 49.2838262, Lng : -123.1145941, Q1 : 0.906251430511, Q2 : 0.0642178952694, Q3 : -0.143540978432, Q4 : 0.392403364182}
2019-04-14 17:02:57.31: SIM {TimeUS : 66335122, Roll : 0.24, Pitch : -18.1, Yaw : 46.78, Alt : 49.3400001526, Lat : 49.2838291, Lng : -123.1145892, Q1 : 0.906237185001, Q2 : 0.0644146203995, Q3 : -0.143576562405, Q4 : 0.392390966415}
2019-04-14 17:02:57.41: SIM {TimeUS : 66435082, Roll : 0.26, Pitch : -18.12, Yaw : 46.78, Alt : 49.3400001526, Lat : 49.2838319, Lng : -123.1145843, Q1 : 0.906220018864, Q2 : 0.0646374300122, Q3 : -0.14363193512, Q4 : 0.392373800278}
2019-04-14 17:02:57.51: SIM {TimeUS : 66535042, Roll : 0.26, Pitch : -18.12, Yaw : 46.77, Alt : 49.3400001526, Lat : 49.2838349, Lng : -123.1145794, Q1 : 0.906239032745, Q2 : 0.0645695626736, Q3 : -0.143648639321, Q4 : 0.392334938049}
2019-04-14 17:02:57.61: SIM {TimeUS : 66635002, Roll : 0.22, Pitch : -18.12, Yaw : 46.77, Alt : 49.3499984741, Lat : 49.2838378, Lng : -123.1145745, Q1 : 0.906262099743, Q2 : 0.0643435418606, Q3 : -0.143823206425, Q4 : 0.392254769802}
