2019-04-14 16:28:54.10: SIM {TimeUS : 39915694, Roll : 0.0, Pitch : 0.0, Yaw : 0.0, Alt : 30.1000003815, Lat : 49.28357, Lng : -123.11502, Q1 : 1.0, Q2 : 0.0, Q3 : 0.0, Q4 : 0.0}
2019-04-14 16:28:54.21: SIM {TimeUS : 40034813, Roll : 0.0, Pitch : 0.0, Yaw : 0.0, Alt : 30.1000003815, Lat : 49.28357, Lng : -123.11502, Q1 : 1.0, Q2 : 0.0, Q3 : 0.0, Q4 : 0.0}
2019-04-14 16:28:54.31: SIM {TimeUS : 40134773, Roll : 0.0, Pitch : 0.0, Yaw : 0.0, Alt : 30.1000003815, Lat : 49.28357, Lng : -123.11502, Q1 : 1.0, Q2 : 0.0, Q3 : 0.0, Q4 : 0.0}
2019-04-14 16:28:54.41: SIM {TimeUS : 40234733, Roll : 0.0, Pitch : 0.0, Yaw : 0.0, Alt : 30.1000003815, Lat : 49.28357, Lng : -123.11502, Q1 : 1.0, Q2 : 0.0, Q3 : 0.0, Q4 : 0.0}
2019-04-14 16:28:54.51: SIM {TimeUS : 40334693, Roll : 0.0, Pitch : 0.0, Yaw : 0.0, Alt : 30.1000003815, Lat : 49.28357, Lng : -123.11502, Q1 : 1.0, Q2 : 0.0, Q3 : 0.0, Q4 : 0.0}
2019-04-14 16:28:54.61: SIM {TimeUS : 40434653, Roll : 0.0, Pitch : 0.0, Yaw : 0.0, Alt : 30.1000003815, Lat : 49.28357, Lng : -123.11502, Q1 : 1.0, Q2 : 0.0, Q3 : 0.0, Q4 : 0.0}
2019-04-14 16:28:54.71: SIM {TimeUS : 40534613, Roll : 0.0, Pitch : 0.0, Yaw : 0.0, Alt : 30.1000003815, Lat : 49.28357, Lng : -123.11502, Q1 : 1.0, Q2 : 0.0, Q3 : 0.0, Q4 : 0.0}
2019-04-14 16:28:54.81: SIM {TimeUS : 40634573, Roll : 0.0, Pitch : 0.0, Yaw : 0.0, Alt : 30.1000003815, Lat : 49.28357, Lng : -123.11502, Q1 : 1.0, Q2 : 0.0, Q3 : 0.0, Q4 : 0.0}
2019-04-14 16:28:54.91: SIM {TimeUS : 40734533, Roll : 0.0, Pitch : 0.0, Yaw : 0.0, Alt : 30.1000003815, Lat : 49.28357, Lng : -123.11502, Q1 : 1.0, Q2 : 0.0, Q3 : 0.0, Q4 : 0.0}
2019-04-14 16:28:55.01: SIM {TimeUS : 40834493, Roll : 0.0, Pitch : 0.0, Yaw : 0.0, Alt : 30.1000003815, Lat : 49.28357, Lng : -123.11502, Q1 : 1.0, Q2 : 0.0, Q3 : 0.0, Q4 : 0.0}
2019-04-14 16:28:55.11: SIM {TimeUS : 40934453, Roll : 0.0, Pitch : 0.0, Yaw : 0.0, Alt : 30.1000003815, Lat : 49.28357, Lng : -123.11502, Q1 : 1.0, Q2 : 0.0, Q3 : 0.0, Q4 : 0.0}
2019-04-14 16:28:55.21: SIM {TimeUS : 41034413, Roll : 0.0, Pitch : 0.0, Yaw : 0.0, Alt : 30.1000003815, Lat : 49.28357, Lng : -123.11502, Q1 : 1.0, Q2 : 0.0, Q3 : 0.0, Q4 : 0.0}
2019-04-14 16:28:55.31: SIM {TimeUS : 41134373, Roll : 0.0, Pitch : 0.0, Yaw : 0.0, Alt : 30.1000003815, Lat : 49.28357, Lng : -123.11502, Q1 : 1.0, Q2 : 0.0, Q3 : 0.0, Q4 : 0.0}
2019-04-14 16:28:55.41: SIM {TimeUS : 41234333, Roll : 0.0, Pitch : 0.0, Yaw : 0.0, Alt : 30.1000003815, Lat : 49.28357, Lng : -123.11502, Q1 : 1.0, Q2 : 0.0, Q3 : 0.0, Q4 : 0.0}
2019-04-14 16:28:55.51: SIM {TimeUS : 41334293, Roll : 0.0, Pitch : 0.0, Yaw : 0.0, Alt : 30.1000003815, Lat : 49.28357, Lng : -123.11502, Q1 : 1.0, Q2 : 0.0, Q3 : 0.0, Q4 : 0.0}
2019-04-14 16:28:55.61: SIM {TimeUS : 41434253, Roll : 0.0, Pitch : 0.0, Yaw : 0.0, Alt : 30.1000003815, Lat : 49.28357, Lng : -123.11502, Q1 : 1.0, Q2 : 0.0, Q3 : 0.0, Q4 : 0.0}
2019-04-14 16:28:55.71: SIM {TimeUS : 41534213, Roll : 0.0, Pitch : 0.0, Yaw : 0.0, Alt : 30.1000003815, Lat : 49.28357, Lng : -123.11502, Q1 : 1.0, Q2 : 0.0, Q3 : 0.0, Q4 : 0.0}
2019-04-14 16:28:55.81: SIM {TimeUS : 41634173, Roll : 0.0, Pitch : 0.0, Yaw : 0.0, Alt : 30.1000003815, Lat : 49.28357, Lng : -123.11502, Q1 : 1.0, Q2 : 0.0, Q3 : 0.0, Q4 : 0.0}
2019-04-14 16:28:55.91: SIM {TimeUS : 41734133, Roll : 0.0, Pitch : 0.0, Yaw : 0.0, Alt : 30.1000003815, Lat : 49.28357, Lng : -123.11502, Q1 : 1.0, Q2 : 0.0, Q3 : 0.0, Q4 : 0.0}
2019-04-14 16:28:56.01: SIM {TimeUS : 41834093, Roll : 0.0, Pitch : 0.0, Yaw : 0.0, Alt : 30.1000003815, Lat : 49.28357, Lng : -123.11502, Q1 : 1.0, Q2 : 0.0, Q3 : 0.0, Q4 : 0.0}
2019-04-14 16:28:56.11: SIM {TimeUS : 41934053, Roll : 0.0, Pitch : 0.0, Yaw : 0.0, Alt : 30.1000003815, Lat : 49.28357, Lng : -123.11502, Q1 : 1.0, Q2 : 0.0, Q3 : 0.0, Q4 : 0.0}
2019-04-14 16:28:56.22: SIM {TimeUS : 42034846, Roll : 0.0, Pitch : 0.0, Yaw : 0.0, Alt : 30.1000003815, Lat : 49.28357, Lng : -123.11502, Q1 : 1.0, Q2 : 0.0, Q3 : 0.0, Q4 : 0.0}
2019-04-14 16:28:56.31: SIM {TimeUS : 42134806, Roll : 0.0, Pitch : 0.0, Yaw : 0.0, Alt : 30.1000003815, Lat : 49.28357, Lng : -123.11502, Q1 : 1.0, Q2 : 0.0, Q3 : 0.0, Q4 : 0.0}
2019-04-14 16:28:56.41: SIM {TimeUS : 42234766, Roll : 0.0, Pitch : 0.0, Yaw : 360.0, Alt : 30.1000003815, Lat : 49.28357, Lng : -123.11502, Q1 : 1.0, Q2 : 0.0, Q3 : 0.0, Q4 : -2.28186089815e-12}
2019-04-14 16:28:56.51: SIM {TimeUS : 42334726, Roll : 0.0, Pitch : 0.0, Yaw : 0.0, Alt : 30.1000003815, Lat : 49.28357, Lng : -123.11502, Q1 : 1.0, Q2 : 0.0, Q3 : 0.0, Q4 : 3.4573906238e-14}
2019-04-14 16:28:56.61: SIM {TimeUS : 42434686, Roll : 0.0, Pitch : 0.0, Yaw : 359.99, Alt : 30.1000003815, Lat : 49.28357, Lng : -123.11502, Q1 : 1.0, Q2 : 0.0, Q3 : 0.0, Q4 : -1.76553456299e-07}
2019-04-14 16:28:56.71: SIM {TimeUS : 42534646, Roll : 0.0, Pitch : 0.0, Yaw : 359.99, Alt : 30.1000003815, Lat : 49.28357, Lng : -123.11502, Q1 : 1.0, Q2 : 0.0, Q3 : 0.0, Q4 : -3.60575370451e-07}
2019-04-14 16:28:56.81: SIM {TimeUS : 42634606, Roll : 0.0, Pitch : 0.0, Yaw : 359.99, Alt : 30.1000003815, Lat : 49.28357, Lng : -123.11502, Q1 : 1.0, Q2 : 0.0, Q3 : 0.0, Q4 : -5.62150205496e-07}
2019-04-14 16:28:56.91: SIM {TimeUS : 42734566, Roll : 0.0, Pitch : 0.0, Yaw : 359.99, Alt : 30.1000003815, Lat : 49.28357, Lng : -123.11502, Q1 : 1.0, Q2 : 0.0, Q3 : 0.0, Q4 : -7.62047591252e-07}
2019-04-14 16:28:57.01: SIM {TimeUS : 42834526, Roll : 0.0, Pitch : 0.0, Yaw : 359.99, Alt : 30.1000003815, Lat : 49.28357, Lng : -123.11502, Q1 : 1.0, Q2 : 0.0, Q3 : 0.0, Q4 : -9.44406679082e-07}
2019-04-14 16:28:57.11: SIM {TimeUS : 42934486, Roll : 0.0, Pitch : 0.0, Yaw : 359.99, Alt : 30.1000003815, Lat : 49.28357, Lng : -123.11502, Q1 : 1.0, Q2 : 0.0, Q3 : 0.0, Q4 : -1.16418277685e-06}
2019-04-14 16:28:57.21: SIM {TimeUS : 43034446, Roll : 0.0, Pitch : 0.0, Yaw : 359.99, Alt : 30.1000003815, Lat : 49.28357, Lng : -123.11502, Q1 : 1.0, Q2 : 0.0, Q3 : 0.0, Q4 : -1.38666530347e-06}
2019-04-14 16:28:57.31: SIM {TimeUS : 43134406, Roll : 0.0, Pitch : 0.0, Yaw : 359.99, Alt : 30.1100006104, Lat : 49.28357, Lng : -123.11502, Q1 : 1.0, Q2 : 0.0, Q3 : 0.0, Q4 : -1.60302954555e-06}
2019-04-14 16:28:57.41: SIM {TimeUS : 43234366, Roll : 0.0, Pitch : 0.0, Yaw : 359.99, Alt : 30.1399993896, Lat : 49.28357, Lng : -123.11502, Q1 : 1.0, Q2 : 0.0, Q3 : 0.0, Q4 : -1.78752702595e-06}
2019-04-14 16:28:57.51: SIM {TimeUS : 43334326, Roll : 0.0, Pitch : 0.0, Yaw : 359.99, Alt : 30.1599998474, Lat : 49.28357, Lng : -123.11502, Q1 : 1.0, Q2 : 0.0, Q3 : 0.0, Q4 : -1.98857833311e-06}
2019-04-14 16:28:57.61: SIM {TimeUS : 43434286, Roll : 0.0, Pitch : 0.0, Yaw : 359.99, Alt : 30.2000007629, Lat : 49.28357, Lng : -123.11502, Q1 : 1.0, Q2 : 0.0, Q3 : 0.0, Q4 : -2.24748623623e-06}
2019-04-14 16:28:57.71: SIM {TimeUS : 43534246, Roll : -0.08, Pitch : -0.08, Yaw : 359.99, Alt : 30.25, Lat : 49.28357, Lng : -123.11502, Q1 : 0.999999403954, Q2 : -0.000769546837546, Q3 : -0.000748424907215, Q4 : -8.05359832157e-06}
2019-04-14 16:28:57.81: SIM {TimeUS : 43634206, Roll : -0.35, Pitch : -0.35, Yaw : 359.99, Alt : 30.3400001526, Lat : 49.28357, Lng : -123.11502, Q1 : 0.999990344048, Q2 : -0.00307620270178, Q3 : -0.00313488626853, Q4 : -3.97880721721e-05}
2019-04-14 16:28:57.91: SIM {TimeUS : 43734166, Roll : -0.62, Pitch : -0.66, Yaw : 359.99, Alt : 30.4899997711, Lat : 49.28357, Lng : -123.11502, Q1 : 0.999968409538, Q2 : -0.00544034643099, Q3 : -0.00579566136003, Q4 : -9.62225458352e-05}
2019-04-14 16:28:58.01: SIM {TimeUS : 43834126, Roll : -0.78, Pitch : -0.82, Yaw : 359.98, Alt : 30.6499996185, Lat : 49.28357, Lng : -123.11502, Q1 : 0.999950587749, Q2 : -0.00685337046161, Q3 : -0.00719637889415, Q4 : -0.000174100263393}
2019-04-14 16:28:58.11: SIM {TimeUS : 43934086, Roll : -0.79, Pitch : -0.78, Yaw : 359.97, Alt : 30.7999992371, Lat : 49.28357, Lng : -123.11502, Q1 : 0.999952495098, Q2 : -0.00694002117962, Q3 : -0.00684068910778, Q4 : -0.000263158755843}
2019-04-14 16:28:58.21: SIM {TimeUS : 44034046, Roll : -0.67, Pitch : -0.6, Yaw : 359.96, Alt : 30.9599990845, Lat : 49.28357, Lng : -123.1150201, Q1 : 0.999968647957, Q2 : -0.00588246248662, Q3 : -0.00528405373916, Q4 : -0.000355344411219}
2019-04-14 16:28:58.32: SIM {TimeUS : 44134839, Roll : -0.47, Pitch : -0.37, Yaw : 359.95, Alt : 31.1100006104, Lat : 49.2835701, Lng : -123.1150202, Q1 : 0.999985873699, Q2 : -0.00417457008734, Q3 : -0.00326171889901, Q4 : -0.000440709118266}
2019-04-14 16:28:58.41: SIM {TimeUS : 44234799, Roll : -0.27, Pitch : -0.16, Yaw : 359.94, Alt : 31.2700004578, Lat : 49.2835701, Lng : -123.1150203, Q1 : 0.99999588728, Q2 : -0.0024222440552, Q3 : -0.00144299480598, Q4 : -0.000514381681569}
2019-04-14 16:28:58.51: SIM {TimeUS : 44334759, Roll : -0.11, Pitch : -0.02, Yaw : 359.93, Alt : 31.4400005341, Lat : 49.2835702, Lng : -123.1150204, Q1 : 0.999999344349, Q2 : -0.000992941320874, Q3 : -0.000188436431927, Q4 : -0.000570821517613}
2019-04-14 16:28:58.61: SIM {TimeUS : 44434719, Roll : 0.0, Pitch : 0.02, Yaw : 359.93, Alt : 31.6100006104, Lat : 49.2835702, Lng : -123.1150204, Q1 : 0.999999761581, Q2 : 8.34322636365e-05, Q3 : 0.000250580720603, Q4 : -0.000610472343396}
2019-04-14 16:28:58.71: SIM {TimeUS : 44534679, Roll : 0.07, Pitch : 0.02, Yaw : 359.92, Alt : 31.7900009155, Lat : 49.2835703, Lng : -123.1150205, Q1 : 0.999999523163, Q2 : 0.000669484899845, Q3 : 0.000240678025875, Q4 : -0.000629528716672}
2019-04-14 16:28:58.81: SIM {TimeUS : 44634639, Roll : 0.07, Pitch : 0.01, Yaw : 359.92, Alt : 31.9699993134, Lat : 49.2835703, Lng : -123.1150206, Q1 : 0.999999582767, Q2 : 0.000692318135407, Q3 : 0.000116001807328, Q4 : -0.00062648113817}
2019-04-14 16:28:58.91: SIM {TimeUS : 44734599, Roll : 0.06, Pitch : 0.0, Yaw : 359.93, Alt : 32.1599998474, Lat : 49.2835703, Lng : -123.1150206, Q1 : 0.999999642372, Q2 : 0.000540029082913, Q3 : -1.46693600982e-05, Q4 : -0.000594861689024}
2019-04-14 16:28:59.01: SIM {TimeUS : 44834559, Roll : 0.05, Pitch : 0.0, Yaw : 359.93, Alt : 32.3400001526, Lat : 49.2835703, Lng : -123.1150207, Q1 : 0.999999701977, Q2 : 0.000468158890726, Q3 : -8.24418839329e-06, Q4 : -0.000554363941774}
2019-04-14 16:28:59.11: SIM {TimeUS : 44934519, Roll : 0.05, Pitch : 0.01, Yaw : 359.94, Alt : 32.5400009155, Lat : 49.2835703, Lng : -123.1150207, Q1 : 0.999999701977, Q2 : 0.000514557003044, Q3 : 0.000157611386385, Q4 : -0.000513781560585}
2019-04-14 16:28:59.21: SIM {TimeUS : 45034479, Roll : 0.09, Pitch : 0.04, Yaw : 359.94, Alt : 32.7299995422, Lat : 49.2835703, Lng : -123.1150208, Q1 : 0.999999523163, Q2 : 0.000796909851488, Q3 : 0.000364878389519, Q4 : -0.000481743656565}
2019-04-14 16:28:59.31: SIM {TimeUS : 45134439, Roll : 0.13, Pitch : 0.06, Yaw : 359.94, Alt : 32.9300003052, Lat : 49.2835704, Lng : -123.1150208, Q1 : 0.999999046326, Q2 : 0.00118413940072, Q3 : 0.00057234877022, Q4 : -0.00046194094466}
2019-04-14 16:28:59.41: SIM {TimeUS : 45234399, Roll : 0.16, Pitch : 0.1, Yaw : 359.94, Alt : 33.1300010681, Lat : 49.2835704, Lng : -123.1150209, Q1 : 0.999998450279, Q2 : 0.00146460125688, Q3 : 0.000904543674551, Q4 : -0.00045766698895}
2019-04-14 16:28:59.51: SIM {TimeUS : 45334359, Roll : 0.17, Pitch : 0.13, Yaw : 359.94, Alt : 33.3400001526, Lat : 49.2835704, Lng : -123.1150209, Q1 : 0.999998033047, Q2 : 0.00151720037684, Q3 : 0.00120007479563, Q4 : -0.000465818971861}
2019-04-14 16:28:59.61: SIM {TimeUS : 45434319, Roll : 0.16, Pitch : 0.15, Yaw : 359.94, Alt : 33.5400009155, Lat : 49.2835704, Lng : -123.1150209, Q1 : 0.999997854233, Q2 : 0.00145265145693, Q3 : 0.00138757494278, Q4 : -0.000479102483951}
2019-04-14 16:28:59.71: SIM {TimeUS : 45534279, Roll : 0.16, Pitch : 0.17, Yaw : 359.94, Alt : 33.75, Lat : 49.2835704, Lng : -123.1150209, Q1 : 0.999997735023, Q2 : 0.00139780563768, Q3 : 0.00153670308646, Q4 : -0.000496048596688}
2019-04-14 16:28:59.81: SIM {TimeUS : 45634239, Roll : 0.16, Pitch : 0.17, Yaw : 359.94, Alt : 33.9599990845, Lat : 49.2835704, Lng : -123.1150209, Q1 : 0.999997735023, Q2 : 0.00140277610626, Q3 : 0.00152245885693, Q4 : -0.00051462900592}
2019-04-14 16:28:59.91: SIM {TimeUS : 45734199, Roll : 0.15, Pitch : 0.16, Yaw : 359.93, Alt : 34.1699981689, Lat : 49.2835706, Lng : -123.1150209, Q1 : 0.999997854233, Q2 : 0.00136371131521, Q3 : 0.00144703069236, Q4 : -0.000540568027645}
2019-04-14 16:29:00.01: SIM {TimeUS : 45834159, Roll : 0.13, Pitch : 0.15, Yaw : 359.93, Alt : 34.3800010681, Lat : 49.2835706, Lng : -123.1150209, Q1 : 0.999998271465, Q2 : 0.00116085459013, Q3 : 0.00136665266473, Q4 : -0.000567903683987}
2019-04-14 16:29:00.11: SIM {TimeUS : 45934119, Roll : 0.11, Pitch : 0.11, Yaw : 359.93, Alt : 34.5900001526, Lat : 49.2835706, Lng : -123.1150209, Q1 : 0.999998807907, Q2 : 0.00096068251878, Q3 : 0.00104135030415, Q4 : -0.000582659326028}
2019-04-14 16:29:00.21: SIM {TimeUS : 46034079, Roll : 0.09, Pitch : 0.06, Yaw : 359.93, Alt : 34.8100013733, Lat : 49.2835706, Lng : -123.1150209, Q1 : 0.999999344349, Q2 : 0.00079573126277, Q3 : 0.000581337197218, Q4 : -0.000589846575167}
2019-04-14 16:29:00.31: SIM {TimeUS : 46134039, Roll : 0.06, Pitch : 0.03, Yaw : 359.93, Alt : 35.0200004578, Lat : 49.2835706, Lng : -123.1150209, Q1 : 0.999999582767, Q2 : 0.000605975161307, Q3 : 0.000310679373797, Q4 : -0.000609123846516}
2019-04-14 16:29:00.42: SIM {TimeUS : 46234832, Roll : 0.05, Pitch : 0.02, Yaw : 359.92, Alt : 35.2400016785, Lat : 49.2835706, Lng : -123.1150208, Q1 : 0.999999642372, Q2 : 0.000493937637657, Q3 : 0.000241060944973, Q4 : -0.000649104360491}
2019-04-14 16:29:00.51: SIM {TimeUS : 46334792, Roll : 0.05, Pitch : 0.03, Yaw : 359.91, Alt : 35.4599990845, Lat : 49.2835706, Lng : -123.1150208, Q1 : 0.999999582767, Q2 : 0.000489520200063, Q3 : 0.000316693476634, Q4 : -0.000704665493686}
2019-04-14 16:29:00.61: SIM {TimeUS : 46434752, Roll : 0.04, Pitch : 0.03, Yaw : 359.91, Alt : 35.6699981689, Lat : 49.2835706, Lng : -123.1150208, Q1 : 0.999999582767, Q2 : 0.000418762938352, Q3 : 0.000320272200042, Q4 : -0.000755168846808}
2019-04-14 16:29:00.71: SIM {TimeUS : 46534712, Roll : 0.02, Pitch : 0.03, Yaw : 359.9, Alt : 35.8899993896, Lat : 49.2835706, Lng : -123.1150208, Q1 : 0.999999642372, Q2 : 0.000216896602069, Q3 : 0.000280601787381, Q4 : -0.000795699190348}
2019-04-14 16:29:00.81: SIM {TimeUS : 46634672, Roll : 0.0, Pitch : 0.03, Yaw : 359.9, Alt : 36.1100006104, Lat : 49.2835706, Lng : -123.1150208, Q1 : 0.999999642372, Q2 : 2.17542783503e-05, Q3 : 0.000276496139122, Q4 : -0.000829786935356}
2019-04-14 16:29:00.91: SIM {TimeUS : 46734632, Roll : 0.0, Pitch : 0.04, Yaw : 359.9, Alt : 36.3400001526, Lat : 49.2835704, Lng : -123.1150208, Q1 : 0.999999523163, Q2 : -7.93309081928e-05, Q3 : 0.000425515783718, Q4 : -0.000863541557919}
2019-04-14 16:29:01.01: SIM {TimeUS : 46834592, Roll : -0.02, Pitch : 0.05, Yaw : 359.89, Alt : 36.5600013733, Lat : 49.2835704, Lng : -123.1150207, Q1 : 0.999999463558, Q2 : -0.000176146160811, Q3 : 0.000444660283392, Q4 : -0.000898985716049}
2019-04-14 16:29:01.11: SIM {TimeUS : 46934552, Roll : -0.02, Pitch : 0.04, Yaw : 359.89, Alt : 36.7799987793, Lat : 49.2835704, Lng : -123.1150207, Q1 : 0.999999463558, Q2 : -0.000235983228777, Q3 : 0.000377303542336, Q4 : -0.000936702417675}
2019-04-14 16:29:01.21: SIM {TimeUS : 47034512, Roll : -0.03, Pitch : 0.03, Yaw : 359.88, Alt : 37.0, Lat : 49.2835704, Lng : -123.1150207, Q1 : 0.999999463558, Q2 : -0.000281250540866, Q3 : 0.00030909338966, Q4 : -0.000968198059127}
2019-04-14 16:29:01.31: SIM {TimeUS : 47134472, Roll : -0.03, Pitch : 0.03, Yaw : 359.88, Alt : 37.2299995422, Lat : 49.2835704, Lng : -123.1150207, Q1 : 0.999999463558, Q2 : -0.000268340314506, Q3 : 0.000268596486421, Q4 : -0.000987631850876}
2019-04-14 16:29:01.41: SIM {TimeUS : 47234432, Roll : -0.01, Pitch : 0.02, Yaw : 359.88, Alt : 37.4500007629, Lat : 49.2835704, Lng : -123.1150207, Q1 : 0.999999463558, Q2 : -0.000123993348097, Q3 : 0.000177045774763, Q4 : -0.00099584448617}
2019-04-14 16:29:01.51: SIM {TimeUS : 47334392, Roll : -0.01, Pitch : 0.0, Yaw : 359.88, Alt : 37.6800003052, Lat : 49.2835704, Lng : -123.1150207, Q1 : 0.999999523163, Q2 : -0.000127159815747, Q3 : -4.24987592851e-05, Q4 : -0.000996767776087}
2019-04-14 16:29:01.61: SIM {TimeUS : 47434352, Roll : -0.03, Pitch : -0.04, Yaw : 359.88, Alt : 37.9099998474, Lat : 49.2835704, Lng : -123.1150207, Q1 : 0.999999403954, Q2 : -0.000292008277029, Q3 : -0.000375607167371, Q4 : -0.000994098372757}
2019-04-14 16:29:01.71: SIM {TimeUS : 47534312, Roll : -0.06, Pitch : -0.07, Yaw : 359.88, Alt : 38.1300010681, Lat : 49.2835704, Lng : -123.1150207, Q1 : 0.999999165535, Q2 : -0.000529119744897, Q3 : -0.000644507235847, Q4 : -0.000992803485133}
2019-04-14 16:29:01.81: SIM {TimeUS : 47634272, Roll : -0.09, Pitch : -0.08, Yaw : 359.88, Alt : 38.3600006104, Lat : 49.2835704, Lng : -123.1150207, Q1 : 0.999998927116, Q2 : -0.00079911533976, Q3 : -0.000734012224711, Q4 : -0.00100143102463}
2019-04-14 16:29:01.91: SIM {TimeUS : 47734232, Roll : -0.11, Pitch : -0.08, Yaw : 359.88, Alt : 38.5900001526, Lat : 49.2835704, Lng : -123.1150206, Q1 : 0.999998748302, Q2 : -0.000981469755061, Q3 : -0.000756199588068, Q4 : -0.00101239793003}
2019-04-14 16:29:02.01: SIM {TimeUS : 47834192, Roll : -0.11, Pitch : -0.08, Yaw : 359.88, Alt : 38.8199996948, Lat : 49.2835704, Lng : -123.1150206, Q1 : 0.999998748302, Q2 : -0.00100445037242, Q3 : -0.000703989353497, Q4 : -0.00101854267996}
2019-04-14 16:29:02.11: SIM {TimeUS : 47934152, Roll : -0.09, Pitch : -0.05, Yaw : 359.88, Alt : 39.0499992371, Lat : 49.2835704, Lng : -123.1150206, Q1 : 0.999998986721, Q2 : -0.000852767436299, Q3 : -0.000512917118613, Q4 : -0.00102943379898}
2019-04-14 16:29:02.21: SIM {TimeUS : 48034112, Roll : -0.07, Pitch : -0.05, Yaw : 359.88, Alt : 39.2799987793, Lat : 49.2835704, Lng : -123.1150206, Q1 : 0.999999165535, Q2 : -0.000629455666058, Q3 : -0.000454159191577, Q4 : -0.00104461435694}
2019-04-14 16:29:02.31: SIM {TimeUS : 48134072, Roll : -0.05, Pitch : -0.05, Yaw : 359.87, Alt : 39.5099983215, Lat : 49.2835704, Lng : -123.1150206, Q1 : 0.99999922514, Q2 : -0.000495800632052, Q3 : -0.000441929500084, Q4 : -0.00107095472049}
2019-04-14 16:29:02.41: SIM {TimeUS : 48234032, Roll : -0.04, Pitch : -0.03, Yaw : 359.87, Alt : 39.7400016785, Lat : 49.2835704, Lng : -123.1150206, Q1 : 0.99999922514, Q2 : -0.000435755180661, Q3 : -0.000317478581565, Q4 : -0.0010940778302}
2019-04-14 16:29:02.52: SIM {TimeUS : 48334825, Roll : -0.06, Pitch : 0.0, Yaw : 359.87, Alt : 39.9700012207, Lat : 49.2835704, Lng : -123.1150206, Q1 : 0.99999922514, Q2 : -0.000568435119931, Q3 : -6.60324731143e-05, Q4 : -0.00111897534225}
2019-04-14 16:29:02.61: SIM {TimeUS : 48434785, Roll : -0.06, Pitch : 0.02, Yaw : 359.86, Alt : 40.2000007629, Lat : 49.2835704, Lng : -123.1150206, Q1 : 0.999999165535, Q2 : -0.000593420991208, Q3 : 0.000175420835149, Q4 : -0.00114585412666}
2019-04-14 16:29:02.71: SIM {TimeUS : 48534745, Roll : -0.05, Pitch : 0.05, Yaw : 359.86, Alt : 40.4300003052, Lat : 49.2835704, Lng : -123.1150207, Q1 : 0.99999910593, Q2 : -0.000450392573839, Q3 : 0.000490412232466, Q4 : -0.00118166033644}
2019-04-14 16:29:02.81: SIM {TimeUS : 48634705, Roll : -0.03, Pitch : 0.06, Yaw : 359.86, Alt : 40.6699981689, Lat : 49.2835704, Lng : -123.1150207, Q1 : 0.999999046326, Q2 : -0.000279165804386, Q3 : 0.000584026274737, Q4 : -0.00120873679407}
2019-04-14 16:29:02.91: SIM {TimeUS : 48734665, Roll : 0.0, Pitch : 0.06, Yaw : 359.85, Alt : 40.9000015259, Lat : 49.2835704, Lng : -123.1150207, Q1 : 0.999999046326, Q2 : -1.59735427587e-05, Q3 : 0.000592043157667, Q4 : -0.00122998154256}
2019-04-14 16:29:03.01: SIM {TimeUS : 48834625, Roll : 0.03, Pitch : 0.08, Yaw : 359.85, Alt : 41.1300010681, Lat : 49.2835706, Lng : -123.1150207, Q1 : 0.999998867512, Q2 : 0.000327342975652, Q3 : 0.000725325953681, Q4 : -0.00124903570395}
2019-04-14 16:29:03.11: SIM {TimeUS : 48934585, Roll : 0.08, Pitch : 0.1, Yaw : 359.85, Alt : 41.3600006104, Lat : 49.2835706, Lng : -123.1150207, Q1 : 0.999998450279, Q2 : 0.000734482659027, Q3 : 0.000951048510615, Q4 : -0.00127553765196}
2019-04-14 16:29:03.21: SIM {TimeUS : 49034545, Roll : 0.11, Pitch : 0.13, Yaw : 359.85, Alt : 41.5999984741, Lat : 49.2835706, Lng : -123.1150207, Q1 : 0.999997973442, Q2 : 0.000985113787465, Q3 : 0.00115891208407, Q4 : -0.00129763723817}
2019-04-14 16:29:03.31: SIM {TimeUS : 49134505, Roll : 0.09, Pitch : 0.14, Yaw : 359.85, Alt : 41.8300018311, Lat : 49.2835706, Lng : -123.1150207, Q1 : 0.999997973442, Q2 : 0.000873471144587, Q3 : 0.00128492107615, Q4 : -0.00130573904607}
2019-04-14 16:29:03.41: SIM {TimeUS : 49234465, Roll : 0.05, Pitch : 0.15, Yaw : 359.84, Alt : 42.0600013733, Lat : 49.2835706, Lng : -123.1150207, Q1 : 0.999998092651, Q2 : 0.000471119157737, Q3 : 0.00137915613595, Q4 : -0.00131505308673}
2019-04-14 16:29:03.51: SIM {TimeUS : 49334425, Roll : 0.0, Pitch : 0.16, Yaw : 359.84, Alt : 42.2999992371, Lat : 49.2835706, Lng : -123.1150207, Q1 : 0.999998033047, Q2 : 5.69828662265e-05, Q3 : 0.00145810074173, Q4 : -0.00133005809039}
2019-04-14 16:29:03.61: SIM {TimeUS : 49434385, Roll : -0.01, Pitch : 0.14, Yaw : 359.84, Alt : 42.5299987793, Lat : 49.2835706, Lng : -123.1150207, Q1 : 0.999998271465, Q2 : -0.000113772701297, Q3 : 0.00127971766051, Q4 : -0.00134848244488}
2019-04-14 16:29:03.71: SIM {TimeUS : 49534345, Roll : -0.01, Pitch : 0.11, Yaw : 359.84, Alt : 42.7700004578, Lat : 49.2835706, Lng : -123.1150207, Q1 : 0.999998569489, Q2 : -0.000119277763588, Q3 : 0.000989727093838, Q4 : -0.00137193931732}
2019-04-14 16:29:03.81: SIM {TimeUS : 49634305, Roll : 0.0, Pitch : 0.11, Yaw : 359.83, Alt : 43.0, Lat : 49.2835706, Lng : -123.1150207, Q1 : 0.999998509884, Q2 : -3.67193060811e-05, Q3 : 0.000978185446002, Q4 : -0.00140502443537}
2019-04-14 16:29:03.91: SIM {TimeUS : 49734265, Roll : 0.02, Pitch : 0.13, Yaw : 359.83, Alt : 43.2400016785, Lat : 49.2835706, Lng : -123.1150207, Q1 : 0.999998271465, Q2 : 0.000247897958616, Q3 : 0.00113826815505, Q4 : -0.00145423866343}
2019-04-14 16:29:04.01: SIM {TimeUS : 49834225, Roll : 0.08, Pitch : 0.14, Yaw : 359.82, Alt : 43.4700012207, Lat : 49.2835704, Lng : -123.1150207, Q1 : 0.999997794628, Q2 : 0.000715595146175, Q3 : 0.00130730995443, Q4 : -0.0014963290887}
2019-04-14 16:29:04.11: SIM {TimeUS : 49934185, Roll : 0.12, Pitch : 0.14, Yaw : 359.82, Alt : 43.7099990845, Lat : 49.2835704, Lng : -123.1150207, Q1 : 0.999997437, Q2 : 0.00107596802991, Q3 : 0.00125311291777, Q4 : -0.00153805199079}
2019-04-14 16:29:04.21: SIM {TimeUS : 50034145, Roll : 0.12, Pitch : 0.12, Yaw : 359.82, Alt : 43.9500007629, Lat : 49.2835704, Lng : -123.1150207, Q1 : 0.99999755621, Q2 : 0.0010952813318, Q3 : 0.00109504407737, Q4 : -0.00157080776989}
2019-04-14 16:29:04.31: SIM {TimeUS : 50134105, Roll : 0.08, Pitch : 0.1, Yaw : 359.81, Alt : 44.1800003052, Lat : 49.2835704, Lng : -123.1150207, Q1 : 0.999998092651, Q2 : 0.000722815748304, Q3 : 0.000938712677453, Q4 : -0.00158081995323}
2019-04-14 16:29:04.41: SIM {TimeUS : 50234065, Roll : 0.02, Pitch : 0.09, Yaw : 359.81, Alt : 44.4199981689, Lat : 49.2835704, Lng : -123.1150207, Q1 : 0.999998390675, Q2 : 0.000202114431886, Q3 : 0.000826367584523, Q4 : -0.00158177595586}
2019-04-14 16:29:04.51: SIM {TimeUS : 50334025, Roll : -0.02, Pitch : 0.09, Yaw : 359.81, Alt : 44.6500015259, Lat : 49.2835704, Lng : -123.1150206, Q1 : 0.999998390675, Q2 : -0.000195075481315, Q3 : 0.000787882134318, Q4 : -0.00158563861623}
2019-04-14 16:29:04.61: SIM {TimeUS : 50434818, Roll : -0.05, Pitch : 0.07, Yaw : 359.81, Alt : 44.8899993896, Lat : 49.2835704, Lng : -123.1150206, Q1 : 0.999998390675, Q2 : -0.000442069926066, Q3 : 0.000670956855174, Q4 : -0.00158970919438}
2019-04-14 16:29:04.71: SIM {TimeUS : 50534778, Roll : -0.06, Pitch : 0.05, Yaw : 359.81, Alt : 45.1300010681, Lat : 49.2835704, Lng : -123.1150206, Q1 : 0.999998450279, Q2 : -0.00054861366516, Q3 : 0.00048553434317, Q4 : -0.00159012037329}
2019-04-14 16:29:04.81: SIM {TimeUS : 50634738, Roll : -0.06, Pitch : 0.02, Yaw : 359.81, Alt : 45.3600006104, Lat : 49.2835703, Lng : -123.1150206, Q1 : 0.999998509884, Q2 : -0.000554237980396, Q3 : 0.00025566961267, Q4 : -0.00160017376766}
2019-04-14 16:29:04.91: SIM {TimeUS : 50734698, Roll : -0.04, Pitch : 0.0, Yaw : 359.81, Alt : 45.5999984741, Lat : 49.2835703, Lng : -123.1150206, Q1 : 0.999998629093, Q2 : -0.000394125730963, Q3 : 3.39241123584e-05, Q4 : -0.00162499363068}
2019-04-14 16:29:05.01: SIM {TimeUS : 50834658, Roll : -0.01, Pitch : 0.0, Yaw : 359.8, Alt : 45.8300018311, Lat : 49.2835703, Lng : -123.1150206, Q1 : 0.999998629093, Q2 : -0.000132092100102, Q3 : -8.3915394498e-05, Q4 : -0.00166094047017}
2019-04-14 16:29:05.11: SIM {TimeUS : 50934618, Roll : 0.0, Pitch : -0.01, Yaw : 359.8, Alt : 46.0600013733, Lat : 49.2835703, Lng : -123.1150206, Q1 : 0.999998509884, Q2 : -3.25939327013e-05, Q3 : -8.87949863682e-05, Q4 : -0.00170554243959}
2019-04-14 16:29:05.21: SIM {TimeUS : 51034578, Roll : 0.0, Pitch : -0.01, Yaw : 359.79, Alt : 46.2900009155, Lat : 49.2835703, Lng : -123.1150205, Q1 : 0.999998450279, Q2 : -6.65728293825e-05, Q3 : -0.000136880713399, Q4 : -0.00175750476774}
2019-04-14 16:29:05.31: SIM {TimeUS : 51134538, Roll : -0.01, Pitch : -0.03, Yaw : 359.79, Alt : 46.5099983215, Lat : 49.2835703, Lng : -123.1150205, Q1 : 0.99999833107, Q2 : -0.000142652745126, Q3 : -0.000292447890388, Q4 : -0.00181455304846}
2019-04-14 16:29:05.41: SIM {TimeUS : 51234498, Roll : -0.02, Pitch : -0.04, Yaw : 359.78, Alt : 46.7299995422, Lat : 49.2835703, Lng : -123.1150205, Q1 : 0.999998152256, Q2 : -0.000225175943342, Q3 : -0.000375718140276, Q4 : -0.00186508195475}
2019-04-14 16:29:05.51: SIM {TimeUS : 51334458, Roll : -0.02, Pitch : -0.04, Yaw : 359.78, Alt : 46.9399986267, Lat : 49.2835703, Lng : -123.1150205, Q1 : 0.999998033047, Q2 : -0.000206248339964, Q3 : -0.000415873655584, Q4 : -0.00190960476175}
2019-04-14 16:29:05.61: SIM {TimeUS : 51434418, Roll : -0.02, Pitch : -0.04, Yaw : 359.77, Alt : 47.1500015259, Lat : 49.2835703, Lng : -123.1150205, Q1 : 0.999997973442, Q2 : -0.000260352389887, Q3 : -0.000419164134655, Q4 : -0.00195006700233}
2019-04-14 16:29:05.71: SIM {TimeUS : 51534378, Roll : -0.05, Pitch : -0.04, Yaw : 359.77, Alt : 47.3499984741, Lat : 49.2835703, Lng : -123.1150205, Q1 : 0.999997854233, Q2 : -0.000440784700913, Q3 : -0.000404524384066, Q4 : -0.00198576902039}
2019-04-14 16:29:05.81: SIM {TimeUS : 51634338, Roll : -0.08, Pitch : -0.04, Yaw : 359.76, Alt : 47.5400009155, Lat : 49.2835703, Lng : -123.1150205, Q1 : 0.999997615814, Q2 : -0.000719677365851, Q3 : -0.000404396530939, Q4 : -0.0020133338403}
2019-04-14 16:29:05.91: SIM {TimeUS : 51734298, Roll : -0.12, Pitch : -0.06, Yaw : 359.76, Alt : 47.7200012207, Lat : 49.2835703, Lng : -123.1150205, Q1 : 0.999997198582, Q2 : -0.00106434628833, Q3 : -0.000573768164031, Q4 : -0.00203403132036}
2019-04-14 16:29:06.01: SIM {TimeUS : 51834258, Roll : -0.15, Pitch : -0.07, Yaw : 359.76, Alt : 47.8800010681, Lat : 49.2835703, Lng : -123.1150205, Q1 : 0.999996781349, Q2 : -0.00134573981632, Q3 : -0.000675705086906, Q4 : -0.00204681744799}
2019-04-14 16:29:06.11: SIM {TimeUS : 51934218, Roll : -0.16, Pitch : -0.06, Yaw : 359.76, Alt : 48.0400009155, Lat : 49.2835703, Lng : -123.1150205, Q1 : 0.99999666214, Q2 : -0.00142559921369, Q3 : -0.000602404994424, Q4 : -0.00205638003536}
2019-04-14 16:29:06.21: SIM {TimeUS : 52034178, Roll : -0.15, Pitch : -0.05, Yaw : 359.76, Alt : 48.1800003052, Lat : 49.2835703, Lng : -123.1150205, Q1 : 0.999996900558, Q2 : -0.00131931272335, Q3 : -0.000469499849714, Q4 : -0.00206829281524}
2019-04-14 16:29:06.31: SIM {TimeUS : 52134138, Roll : -0.12, Pitch : -0.04, Yaw : 359.76, Alt : 48.3199996948, Lat : 49.2835703, Lng : -123.1150205, Q1 : 0.999997138977, Q2 : -0.00111829210073, Q3 : -0.000358344463166, Q4 : -0.00208369689062}
2019-04-14 16:29:06.41: SIM {TimeUS : 52234098, Roll : -0.1, Pitch : -0.03, Yaw : 359.75, Alt : 48.4399986267, Lat : 49.2835703, Lng : -123.1150205, Q1 : 0.999997317791, Q2 : -0.000938186247367, Q3 : -0.000305805617245, Q4 : -0.00210238504224}
2019-04-14 16:29:06.51: SIM {TimeUS : 52334058, Roll : -0.07, Pitch : -0.04, Yaw : 359.75, Alt : 48.5499992371, Lat : 49.2835703, Lng : -123.1150205, Q1 : 0.999997437, Q2 : -0.000669595436193, Q3 : -0.000379184260964, Q4 : -0.00213049119338}
2019-04-14 16:29:06.62: SIM {TimeUS : 52434851, Roll : -0.04, Pitch : -0.05, Yaw : 359.75, Alt : 48.6399993896, Lat : 49.2835703, Lng : -123.1150205, Q1 : 0.999997496605, Q2 : -0.000422227894887, Q3 : -0.000442518678028, Q4 : -0.00216128956527}
2019-04-14 16:29:06.71: SIM {TimeUS : 52534811, Roll : -0.03, Pitch : -0.06, Yaw : 359.74, Alt : 48.7299995422, Lat : 49.2835703, Lng : -123.1150205, Q1 : 0.999997437, Q2 : -0.000319435319398, Q3 : -0.000533665239345, Q4 : -0.00219132611528}
2019-04-14 16:29:06.81: SIM {TimeUS : 52634771, Roll : -0.03, Pitch : -0.07, Yaw : 359.74, Alt : 48.7999992371, Lat : 49.2835703, Lng : -123.1150205, Q1 : 0.999997258186, Q2 : -0.000335988414008, Q3 : -0.000631050090306, Q4 : -0.00222045159899}
2019-04-14 16:29:06.91: SIM {TimeUS : 52734731, Roll : -0.02, Pitch : -0.07, Yaw : 359.74, Alt : 48.8600006104, Lat : 49.2835703, Lng : -123.1150205, Q1 : 0.999997258186, Q2 : -0.000189578306163, Q3 : -0.000624444510322, Q4 : -0.00225290260278}
2019-04-14 16:29:07.01: SIM {TimeUS : 52834691, Roll : 0.0, Pitch : -0.05, Yaw : 359.73, Alt : 48.9199981689, Lat : 49.2835703, Lng : -123.1150206, Q1 : 0.999997258186, Q2 : 6.15229291725e-05, Q3 : -0.000521251640748, Q4 : -0.00228526908904}
2019-04-14 16:29:07.11: SIM {TimeUS : 52934651, Roll : 0.03, Pitch : -0.04, Yaw : 359.73, Alt : 48.9700012207, Lat : 49.2835703, Lng : -123.1150206, Q1 : 0.999997198582, Q2 : 0.000301751686493, Q3 : -0.00036314749741, Q4 : -0.00231816805899}
2019-04-14 16:29:07.21: SIM {TimeUS : 53034611, Roll : 0.07, Pitch : -0.04, Yaw : 359.73, Alt : 49.0099983215, Lat : 49.2835703, Lng : -123.1150206, Q1 : 0.999996960163, Q2 : 0.000619225320406, Q3 : -0.000394504080759, Q4 : -0.00235314015299}
2019-04-14 16:29:07.31: SIM {TimeUS : 53134571, Roll : 0.21, Pitch : -0.15, Yaw : 359.72, Alt : 49.0400009155, Lat : 49.2835703, Lng : -123.1150206, Q1 : 0.999994456768, Q2 : 0.00188524101395, Q3 : -0.00137678324245, Q4 : -0.0023815270979}
2019-04-14 16:29:07.41: SIM {TimeUS : 53234531, Roll : 0.53, Pitch : -0.46, Yaw : 359.72, Alt : 49.0699996948, Lat : 49.2835703, Lng : -123.1150206, Q1 : 0.999978005886, Q2 : 0.00466480385512, Q3 : -0.00406473781914, Q4 : -0.00239863642491}
2019-04-14 16:29:07.51: SIM {TimeUS : 53334491, Roll : 1.03, Pitch : -0.95, Yaw : 359.71, Alt : 49.0999984741, Lat : 49.2835703, Lng : -123.1150206, Q1 : 0.999921798706, Q2 : 0.00902497209609, Q3 : -0.00831914599985, Q4 : -0.00240333145484}
2019-04-14 16:29:07.61: SIM {TimeUS : 53434451, Roll : 1.7, Pitch : -1.57, Yaw : 359.7, Alt : 49.1199989319, Lat : 49.2835704, Lng : -123.1150206, Q1 : 0.999793231487, Q2 : 0.0147991050035, Q3 : -0.0137420101091, Q4 : -0.00238245422952}
2019-04-14 16:29:07.71: SIM {TimeUS : 53534411, Roll : 2.45, Pitch : -2.26, Yaw : 359.68, Alt : 49.1399993896, Lat : 49.2835704, Lng : -123.1150205, Q1 : 0.999572336674, Q2 : 0.0213378835469, Q3 : -0.0198608711362, Q4 : -0.0023235254921}
2019-04-14 16:29:07.81: SIM {TimeUS : 53634371, Roll : 3.17, Pitch : -2.92, Yaw : 359.66, Alt : 49.1599998474, Lat : 49.2835706, Lng : -123.1150204, Q1 : 0.999288797379, Q2 : 0.0276010874659, Q3 : -0.0255980920047, Q4 : -0.00220408337191}
2019-04-14 16:29:07.91: SIM {TimeUS : 53734331, Roll : 3.78, Pitch : -3.45, Yaw : 359.65, Alt : 49.1699981689, Lat : 49.2835707, Lng : -123.1150202, Q1 : 0.998997747898, Q2 : 0.0329542681575, Q3 : -0.0302243363112, Q4 : -0.00201582838781}
2019-04-14 16:29:08.01: SIM {TimeUS : 53834291, Roll : 4.25, Pitch : -3.84, Yaw : 359.65, Alt : 49.1800003052, Lat : 49.2835709, Lng : -123.11502, Q1 : 0.99874651432, Q2 : 0.0370002128184, Q3 : -0.0336642488837, Q4 : -0.00177706661634}
2019-04-14 16:29:08.11: SIM {TimeUS : 53934251, Roll : 4.59, Pitch : -4.16, Yaw : 359.65, Alt : 49.1899986267, Lat : 49.283571, Lng : -123.1150197, Q1 : 0.998535871506, Q2 : 0.0399546436965, Q3 : -0.0364352986217, Q4 : -0.00151749211363}
2019-04-14 16:29:08.21: SIM {TimeUS : 54034211, Roll : 4.84, Pitch : -4.43, Yaw : 359.67, Alt : 49.2000007629, Lat : 49.2835713, Lng : -123.1150193, Q1 : 0.998358726501, Q2 : 0.0421050004661, Q3 : -0.0388009510934, Q4 : -0.0012377332896}
2019-04-14 16:29:08.31: SIM {TimeUS : 54134171, Roll : 5.06, Pitch : -4.7, Yaw : 359.68, Alt : 49.2099990845, Lat : 49.2835715, Lng : -123.1150188, Q1 : 0.99817943573, Q2 : 0.0440709888935, Q3 : -0.0411657318473, Q4 : -0.000959698634688}
2019-04-14 16:29:08.41: SIM {TimeUS : 54234131, Roll : 5.32, Pitch : -4.98, Yaw : 359.69, Alt : 49.2200012207, Lat : 49.283572, Lng : -123.1150182, Q1 : 0.997975707054, Q2 : 0.0462864711881, Q3 : -0.0436077788472, Q4 : -0.000670147244819}
2019-04-14 16:29:08.51: SIM {TimeUS : 54334091, Roll : 5.58, Pitch : -5.23, Yaw : 359.7, Alt : 49.2299995422, Lat : 49.2835724, Lng : -123.1150175, Q1 : 0.997769236565, Q2 : 0.0485898032784, Q3 : -0.0457761958241, Q4 : -0.000373752845917}
2019-04-14 16:29:08.61: SIM {TimeUS : 54434051, Roll : 5.81, Pitch : -5.45, Yaw : 359.7, Alt : 49.2299995422, Lat : 49.2835728, Lng : -123.1150168, Q1 : 0.997584223747, Q2 : 0.0505740344524, Q3 : -0.0476239174604, Q4 : -0.000112162495498}
2019-04-14 16:29:08.72: SIM {TimeUS : 54534844, Roll : 5.99, Pitch : -5.61, Yaw : 359.71, Alt : 49.2400016785, Lat : 49.2835733, Lng : -123.115016, Q1 : 0.997432649136, Q2 : 0.0521528571844, Q3 : -0.0490745715797, Q4 : 0.000126057188027}
2019-04-14 16:29:08.81: SIM {TimeUS : 54634804, Roll : 6.12, Pitch : -5.74, Yaw : 359.72, Alt : 49.2400016785, Lat : 49.2835739, Lng : -123.115015, Q1 : 0.997323453426, Q2 : 0.053209669888, Q3 : -0.0501455552876, Q4 : 0.000319053127896}
2019-04-14 16:29:08.91: SIM {TimeUS : 54734764, Roll : 6.21, Pitch : -5.84, Yaw : 359.73, Alt : 49.25, Lat : 49.2835745, Lng : -123.1150139, Q1 : 0.997235238552, Q2 : 0.0539988651872, Q3 : -0.0510466992855, Q4 : 0.000442092685262}
2019-04-14 16:29:09.01: SIM {TimeUS : 54834724, Roll : 6.3, Pitch : -5.95, Yaw : 359.73, Alt : 49.25, Lat : 49.2835751, Lng : -123.115013, Q1 : 0.997140467167, Q2 : 0.0548393577337, Q3 : -0.0519923828542, Q4 : 0.000510897429194}
2019-04-14 16:29:09.11: SIM {TimeUS : 54934684, Roll : 6.53, Pitch : -6.01, Yaw : 359.76, Alt : 49.25, Lat : 49.2835758, Lng : -123.1150118, Q1 : 0.997004926205, Q2 : 0.0567770749331, Q3 : -0.0525038875639, Q4 : 0.000971159490291}
2019-04-14 16:29:09.21: SIM {TimeUS : 55034644, Roll : 6.99, Pitch : -5.92, Yaw : 0.22, Alt : 49.2599983215, Lat : 49.2835767, Lng : -123.1150106, Q1 : 0.996793925762, Q2 : 0.0610286965966, Q3 : -0.0514897555113, Q4 : 0.00512041011825}
2019-04-14 16:29:09.31: SIM {TimeUS : 55134604, Roll : 7.63, Pitch : -5.82, Yaw : 1.77, Alt : 49.2599983215, Lat : 49.2835775, Lng : -123.1150092, Q1 : 0.996320664883, Q2 : 0.0672533288598, Q3 : -0.0496761463583, Q4 : 0.0188261307776}
2019-04-14 16:29:09.41: SIM {TimeUS : 55234564, Roll : 8.13, Pitch : -6.04, Yaw : 4.87, Alt : 49.2599983215, Lat : 49.2835782, Lng : -123.1150078, Q1 : 0.99503827095, Q2 : 0.0729708895087, Q3 : -0.0494991540909, Q4 : 0.0460853688419}
2019-04-14 16:29:09.51: SIM {TimeUS : 55334524, Roll : 8.24, Pitch : -6.7, Yaw : 9.52, Alt : 49.2599983215, Lat : 49.2835792, Lng : -123.1150063, Q1 : 0.991920769215, Q2 : 0.0763224065304, Q3 : -0.0521280393004, Q4 : 0.086894877255}
2019-04-14 16:29:09.61: SIM {TimeUS : 55434484, Roll : 7.77, Pitch : -7.76, Yaw : 15.54, Alt : 49.2599983215, Lat : 49.28358, Lng : -123.1150046, Q1 : 0.985639333725, Q2 : 0.0761380270123, Q3 : -0.0578166097403, Q4 : 0.139195606112}
2019-04-14 16:29:09.71: SIM {TimeUS : 55534444, Roll : 6.65, Pitch : -9.1, Yaw : 22.67, Alt : 49.2599983215, Lat : 49.2835808, Lng : -123.1150029, Q1 : 0.974841117859, Q2 : 0.072267845273, Q3 : -0.066321708262, Q4 : 0.200159162283}
2019-04-14 16:29:09.81: SIM {TimeUS : 55634404, Roll : 4.87, Pitch : -10.48, Yaw : 30.64, Alt : 49.2700004578, Lat : 49.2835818, Lng : -123.115001, Q1 : 0.958513021469, Q2 : 0.0649714171886, Q3 : -0.0768906697631, Q4 : 0.266682237387}
2019-04-14 16:29:09.91: SIM {TimeUS : 55734364, Roll : 2.3, Pitch : -11.68, Yaw : 39.0, Alt : 49.2700004578, Lat : 49.2835829, Lng : -123.114999, Q1 : 0.93684732914, Q2 : 0.052808791399, Q3 : -0.0892714858055, Q4 : 0.334004372358}
2019-04-14 16:29:10.01: SIM {TimeUS : 55834324, Roll : -0.84, Pitch : -12.44, Yaw : 46.94, Alt : 49.2700004578, Lat : 49.2835838, Lng : -123.114997, Q1 : 0.912149429321, Q2 : 0.0364643074572, Q3 : -0.102323852479, Q4 : 0.395200759172}
2019-04-14 16:29:10.11: SIM {TimeUS : 55934284, Roll : -3.93, Pitch : -12.69, Yaw : 53.59, Alt : 49.2700004578, Lat : 49.2835849, Lng : -123.1149948, Q1 : 0.888322472572, Q2 : 0.0194022655487, Q3 : -0.114023096859, Q4 : 0.444415926933}
2019-04-14 16:29:10.21: SIM {TimeUS : 56034244, Roll : -6.31, Pitch : -12.6, Yaw : 58.38, Alt : 49.2700004578, Lat : 49.2835861, Lng : -123.1149926, Q1 : 0.869356095791, Q2 : 0.00564802950248, Q3 : -0.122446358204, Q4 : 0.478743046522}
2019-04-14 16:29:10.31: SIM {TimeUS : 56134204, Roll : -7.65, Pitch : -12.44, Yaw : 61.15, Alt : 49.2700004578, Lat : 49.2835874, Lng : -123.1149904, Q1 : 0.857649743557, Q2 : -0.00212057330646, Q3 : -0.126903563738, Q4 : 0.498325139284}
2019-04-14 16:29:10.41: SIM {TimeUS : 56234164, Roll : -7.93, Pitch : -12.43, Yaw : 62.09, Alt : 49.2700004578, Lat : 49.2835889, Lng : -123.1149882, Q1 : 0.853515207767, Q2 : -0.00318644125946, Q3 : -0.127991050482, Q4 : 0.505094051361}
2019-04-14 16:29:10.51: SIM {TimeUS : 56334124, Roll : -7.33, Pitch : -12.67, Yaw : 61.54, Alt : 49.2700004578, Lat : 49.2835903, Lng : -123.1149859, Q1 : 0.855806589127, Q2 : 0.00170155824162, Q3 : -0.127182379365, Q4 : 0.501414835453}
2019-04-14 16:29:10.61: SIM {TimeUS : 56434084, Roll : -6.12, Pitch : -13.16, Yaw : 59.85, Alt : 49.2700004578, Lat : 49.283592, Lng : -123.1149835, Q1 : 0.862758338451, Q2 : 0.0111279143021, Q3 : -0.12570206821, Q4 : 0.489615380764}
2019-04-14 16:29:10.71: SIM {TimeUS : 56534044, Roll : -4.5, Pitch : -13.84, Yaw : 57.36, Alt : 49.2700004578, Lat : 49.2835937, Lng : -123.1149813, Q1 : 0.872507512569, Q2 : 0.0235681049526, Q3 : -0.124344721437, Q4 : 0.47192543745}
2019-04-14 16:29:10.82: SIM {TimeUS : 56634837, Roll : -2.67, Pitch : -14.55, Yaw : 54.35, Alt : 49.2799987793, Lat : 49.2835954, Lng : -123.1149789, Q1 : 0.883534729481, Q2 : 0.0372761078179, Q3 : -0.12325938791, Q4 : 0.450315505266}
2019-04-14 16:29:10.91: SIM {TimeUS : 56734797, Roll : -0.84, Pitch : -15.17, Yaw : 51.19, Alt : 49.2799987793, Lat : 49.2835972, Lng : -123.1149764, Q1 : 0.894349873066, Q2 : 0.0504457503557, Q3 : -0.122206628323, Q4 : 0.427386403084}
2019-04-14 16:29:11.01: SIM {TimeUS : 56834757, Roll : 0.81, Pitch : -15.59, Yaw : 48.19, Alt : 49.2799987793, Lat : 49.283599, Lng : -123.1149738, Q1 : 0.903995990753, Q2 : 0.0618536509573, Q3 : -0.120950773358, Q4 : 0.405384153128}
2019-04-14 16:29:11.11: SIM {TimeUS : 56934717, Roll : 2.15, Pitch : -15.78, Yaw : 45.65, Alt : 49.2799987793, Lat : 49.283601, Lng : -123.114971, Q1 : 0.911783993244, Q2 : 0.0704354271293, Q3 : -0.11933208257, Q4 : 0.386585861444}
2019-04-14 16:29:11.21: SIM {TimeUS : 57034677, Roll : 3.06, Pitch : -15.8, Yaw : 43.78, Alt : 49.2799987793, Lat : 49.2836029, Lng : -123.1149682, Q1 : 0.917365670204, Q2 : 0.0758344307542, Q3 : -0.117643691599, Q4 : 0.372624903917}
2019-04-14 16:29:11.31: SIM {TimeUS : 57134637, Roll : 3.5, Pitch : -15.73, Yaw : 42.68, Alt : 49.2799987793, Lat : 49.2836048, Lng : -123.1149652, Q1 : 0.920679748058, Q2 : 0.0780451893806, Q3 : -0.116417594254, Q4 : 0.364286512136}
2019-04-14 16:29:11.41: SIM {TimeUS : 57234597, Roll : 3.49, Pitch : -15.67, Yaw : 42.34, Alt : 49.2799987793, Lat : 49.2836068, Lng : -123.1149621, Q1 : 0.921849012375, Q2 : 0.077378898859, Q3 : -0.116222813725, Q4 : 0.361523360014}
2019-04-14 16:29:11.51: SIM {TimeUS : 57334557, Roll : 3.09, Pitch : -15.67, Yaw : 42.66, Alt : 49.2799987793, Lat : 49.2836087, Lng : -123.1149589, Q1 : 0.921112596989, Q2 : 0.074503198266, Q3 : -0.1172272861, Q4 : 0.363673835993}
2019-04-14 16:29:11.61: SIM {TimeUS : 57434517, Roll : 2.41, Pitch : -15.75, Yaw : 43.49, Alt : 49.2799987793, Lat : 49.2836106, Lng : -123.1149555, Q1 : 0.918801188469, Q2 : 0.0701538696885, Q3 : -0.119495660067, Q4 : 0.369599193335}
2019-04-14 16:29:11.71: SIM {TimeUS : 57534477, Roll : 1.58, Pitch : -15.88, Yaw : 44.65, Alt : 49.2900009155, Lat : 49.2836127, Lng : -123.1149522, Q1 : 0.915349602699, Q2 : 0.0651533156633, Q3 : -0.12257887423, Q4 : 0.377974361181}
2019-04-14 16:29:11.81: SIM {TimeUS : 57634437, Roll : 0.71, Pitch : -16.03, Yaw : 45.96, Alt : 49.2900009155, Lat : 49.2836147, Lng : -123.1149487, Q1 : 0.911258876324, Q2 : 0.0601719692349, Q3 : -0.126023381948, Q4 : 0.387433558702}
2019-04-14 16:29:11.91: SIM {TimeUS : 57734397, Roll : -0.08, Pitch : -16.18, Yaw : 47.26, Alt : 49.2900009155, Lat : 49.2836168, Lng : -123.1149451, Q1 : 0.907074809074, Q2 : 0.0557333305478, Q3 : -0.129226952791, Q4 : 0.396748691797}
2019-04-14 16:29:12.01: SIM {TimeUS : 57834357, Roll : -0.72, Pitch : -16.28, Yaw : 48.39, Alt : 49.2900009155, Lat : 49.2836189, Lng : -123.1149415, Q1 : 0.903287470341, Q2 : 0.052311129868, Q3 : -0.131747066975, Q4 : 0.404942035675}
2019-04-14 16:29:12.11: SIM {TimeUS : 57934317, Roll : -1.17, Pitch : -16.36, Yaw : 49.27, Alt : 49.2900009155, Lat : 49.2836211, Lng : -123.1149379, Q1 : 0.900264561176, Q2 : 0.0501016154885, Q3 : -0.133573070168, Q4 : 0.411304980516}
2019-04-14 16:29:12.21: SIM {TimeUS : 58034277, Roll : -1.41, Pitch : -16.42, Yaw : 49.84, Alt : 49.2900009155, Lat : 49.2836232, Lng : -123.1149342, Q1 : 0.898245036602, Q2 : 0.0490727797151, Q3 : -0.134687080979, Q4 : 0.415460169315}
2019-04-14 16:29:12.31: SIM {TimeUS : 58134237, Roll : -1.48, Pitch : -16.47, Yaw : 50.1, Alt : 49.2900009155, Lat : 49.2836255, Lng : -123.1149305, Q1 : 0.897299468517, Q2 : 0.0490534752607, Q3 : -0.135198697448, Q4 : 0.417335301638}
2019-04-14 16:29:12.41: SIM {TimeUS : 58234197, Roll : -1.38, Pitch : -16.49, Yaw : 50.06, Alt : 49.2900009155, Lat : 49.2836278, Lng : -123.1149267, Q1 : 0.897371351719, Q2 : 0.0498977303505, Q3 : -0.135043755174, Q4 : 0.417130738497}
2019-04-14 16:29:12.51: SIM {TimeUS : 58334157, Roll : -1.13, Pitch : -16.5, Yaw : 49.78, Alt : 49.2900009155, Lat : 49.28363, Lng : -123.1149229, Q1 : 0.898265957832, Q2 : 0.0515136793256, Q3 : -0.13432341814, Q4 : 0.415237098932}
2019-04-14 16:29:12.61: SIM {TimeUS : 58434117, Roll : -0.81, Pitch : -16.51, Yaw : 49.33, Alt : 49.2900009155, Lat : 49.2836323, Lng : -123.1149191, Q1 : 0.899714589119, Q2 : 0.0535169169307, Q3 : -0.133484914899, Q4 : 0.412106007338}
2019-04-14 16:29:12.71: SIM {TimeUS : 58534077, Roll : -0.45, Pitch : -16.54, Yaw : 48.8, Alt : 49.2900009155, Lat : 49.2836347, Lng : -123.1149152, Q1 : 0.901426672935, Q2 : 0.0558442920446, Q3 : -0.132660195231, Q4 : 0.40830463171}
2019-04-14 16:29:12.81: SIM {TimeUS : 58634037, Roll : -0.08, Pitch : -16.57, Yaw : 48.24, Alt : 49.2900009155, Lat : 49.2836371, Lng : -123.1149113, Q1 : 0.903170347214, Q2 : 0.0582687072456, Q3 : -0.131811916828, Q4 : 0.404368370771}
2019-04-14 16:29:12.92: SIM {TimeUS : 58734830, Roll : 0.24, Pitch : -16.59, Yaw : 47.73, Alt : 49.2900009155, Lat : 49.2836396, Lng : -123.1149073, Q1 : 0.904774606228, Q2 : 0.0603440776467, Q3 : -0.131147950888, Q4 : 0.400676637888}
2019-04-14 16:29:13.01: SIM {TimeUS : 58834790, Roll : 0.47, Pitch : -16.64, Yaw : 47.31, Alt : 49.2900009155, Lat : 49.283642, Lng : -123.1149033, Q1 : 0.906062781811, Q2 : 0.0618353672326, Q3 : -0.130902171135, Q4 : 0.397606879473}
2019-04-14 16:29:13.11: SIM {TimeUS : 58934750, Roll : 0.6, Pitch : -16.69, Yaw : 47.01, Alt : 49.2900009155, Lat : 49.2836444, Lng : -123.1148992, Q1 : 0.906963527203, Q2 : 0.0626990571618, Q3 : -0.131060034037, Q4 : 0.395359665155}
2019-04-14 16:29:13.21: SIM {TimeUS : 59034710, Roll : 0.64, Pitch : -16.76, Yaw : 46.84, Alt : 49.2900009155, Lat : 49.2836469, Lng : -123.1148952, Q1 : 0.907445430756, Q2 : 0.0630370005965, Q3 : -0.131564930081, Q4 : 0.394030123949}
2019-04-14 16:29:13.31: SIM {TimeUS : 59134670, Roll : 0.6, Pitch : -16.81, Yaw : 46.8, Alt : 49.2900009155, Lat : 49.2836493, Lng : -123.114891, Q1 : 0.907560408115, Q2 : 0.0628571286798, Q3 : -0.132141649723, Q4 : 0.393601030111}
2019-04-14 16:29:13.41: SIM {TimeUS : 59234630, Roll : 0.51, Pitch : -16.86, Yaw : 46.86, Alt : 49.2900009155, Lat : 49.2836518, Lng : -123.1148868, Q1 : 0.907350003719, Q2 : 0.0623549371958, Q3 : -0.132770195603, Q4 : 0.393954217434}
2019-04-14 16:29:13.51: SIM {TimeUS : 59334590, Roll : 0.38, Pitch : -16.9, Yaw : 47.0, Alt : 49.2900009155, Lat : 49.2836542, Lng : -123.1148827, Q1 : 0.906888604164, Q2 : 0.0616824887693, Q3 : -0.133450374007, Q4 : 0.39489158988}
2019-04-14 16:29:13.61: SIM {TimeUS : 59434550, Roll : 0.25, Pitch : -16.93, Yaw : 47.18, Alt : 49.2900009155, Lat : 49.2836567, Lng : -123.1148784, Q1 : 0.906276762486, Q2 : 0.0609429515898, Q3 : -0.134092971683, Q4 : 0.396191239357}
2019-04-14 16:29:13.71: SIM {TimeUS : 59534510, Roll : 0.11, Pitch : -16.96, Yaw : 47.39, Alt : 49.2900009155, Lat : 49.2836592, Lng : -123.1148742, Q1 : 0.905616641045, Q2 : 0.0602050609887, Q3 : -0.134659230709, Q4 : 0.397618830204}
2019-04-14 16:29:13.81: SIM {TimeUS : 59634470, Roll : 0.0, Pitch : -16.99, Yaw : 47.58, Alt : 49.2999992371, Lat : 49.2836618, Lng : -123.1148698, Q1 : 0.904976189137, Q2 : 0.0595884509385, Q3 : -0.135194674134, Q4 : 0.398985892534}
2019-04-14 16:29:13.91: SIM {TimeUS : 59734430, Roll : -0.09, Pitch : -17.02, Yaw : 47.74, Alt : 49.2999992371, Lat : 49.2836644, Lng : -123.1148655, Q1 : 0.904420852661, Q2 : 0.0591466575861, Q3 : -0.13566878438, Q4 : 0.400148183107}
2019-04-14 16:29:14.01: SIM {TimeUS : 59834390, Roll : -0.15, Pitch : -17.04, Yaw : 47.86, Alt : 49.2999992371, Lat : 49.2836669, Lng : -123.1148612, Q1 : 0.904007434845, Q2 : 0.0589282624424, Q3 : -0.136030048132, Q4 : 0.400991082191}
2019-04-14 16:29:14.11: SIM {TimeUS : 59934350, Roll : -0.18, Pitch : -17.08, Yaw : 47.92, Alt : 49.2999992371, Lat : 49.2836694, Lng : -123.1148569, Q1 : 0.903763413429, Q2 : 0.0588892623782, Q3 : -0.136342450976, Q4 : 0.401440531015}
2019-04-14 16:29:14.21: SIM {TimeUS : 60034310, Roll : -0.19, Pitch : -17.12, Yaw : 47.93, Alt : 49.2999992371, Lat : 49.283672, Lng : -123.1148525, Q1 : 0.90368616581, Q2 : 0.0589589327574, Q3 : -0.136680826545, Q4 : 0.401489168406}
2019-04-14 16:29:14.31: SIM {TimeUS : 60134270, Roll : -0.19, Pitch : -17.15, Yaw : 47.9, Alt : 49.2999992371, Lat : 49.2836747, Lng : -123.1148481, Q1 : 0.903766870499, Q2 : 0.0590202584863, Q3 : -0.136996507645, Q4 : 0.401190817356}
2019-04-14 16:29:14.41: SIM {TimeUS : 60234230, Roll : -0.18, Pitch : -17.17, Yaw : 47.83, Alt : 49.2999992371, Lat : 49.2836773, Lng : -123.1148437, Q1 : 0.903987586498, Q2 : 0.0591157153249, Q3 : -0.137143164873, Q4 : 0.400629013777}
2019-04-14 16:29:14.51: SIM {TimeUS : 60334190, Roll : -0.15, Pitch : -17.18, Yaw : 47.73, Alt : 49.2999992371, Lat : 49.2836799, Lng : -123.1148393, Q1 : 0.904295146465, Q2 : 0.0592695884407, Q3 : -0.137194499373, Q4 : 0.399893820286}
2019-04-14 16:29:14.61: SIM {TimeUS : 60434150, Roll : -0.09, Pitch : -17.21, Yaw : 47.62, Alt : 49.2999992371, Lat : 49.2836826, Lng : -123.1148348, Q1 : 0.904614508152, Q2 : 0.05966039747, Q3 : -0.137263387442, Q4 : 0.39908900857}
2019-04-14 16:29:14.71: SIM {TimeUS : 60534110, Roll : -0.03, Pitch : -17.24, Yaw : 47.51, Alt : 49.2999992371, Lat : 49.2836852, Lng : -123.1148304, Q1 : 0.904923260212, Q2 : 0.060158059001, Q3 : -0.137324303389, Q4 : 0.398292571306}
2019-04-14 16:29:14.81: SIM {TimeUS : 60634070, Roll : 0.04, Pitch : -17.28, Yaw : 47.41, Alt : 49.3100013733, Lat : 49.2836878, Lng : -123.1148259, Q1 : 0.905185937881, Q2 : 0.0607913397253, Q3 : -0.13738116622, Q4 : 0.397579222918}
2019-04-14 16:29:14.91: SIM {TimeUS : 60734030, Roll : 0.13, Pitch : -17.32, Yaw : 47.33, Alt : 49.3100013733, Lat : 49.2836906, Lng : -123.1148214, Q1 : 0.905381500721, Q2 : 0.0615155398846, Q3 : -0.137477144599, Q4 : 0.396988928318}
2019-04-14 16:29:15.02: SIM {TimeUS : 60834823, Roll : 0.19, Pitch : -17.36, Yaw : 47.26, Alt : 49.3100013733, Lat : 49.2836932, Lng : -123.1148168, Q1 : 0.905527412891, Q2 : 0.0620206221938, Q3 : -0.13760510087, Q4 : 0.396533042192}
2019-04-14 16:29:15.11: SIM {TimeUS : 60934783, Roll : 0.19, Pitch : -17.38, Yaw : 47.22, Alt : 49.3100013733, Lat : 49.283696, Lng : -123.1148123, Q1 : 0.905640304089, Q2 : 0.0620904415846, Q3 : -0.137751013041, Q4 : 0.396213471889}
2019-04-14 16:29:15.21: SIM {TimeUS : 61034743, Roll : 0.16, Pitch : -17.38, Yaw : 47.2, Alt : 49.3100013733, Lat : 49.2836986, Lng : -123.1148077, Q1 : 0.905711770058, Q2 : 0.061866350472, Q3 : -0.137933880091, Q4 : 0.396021485329}
2019-04-14 16:29:15.31: SIM {TimeUS : 61134703, Roll : 0.15, Pitch : -17.38, Yaw : 47.2, Alt : 49.3100013733, Lat : 49.2837014, Lng : -123.1148032, Q1 : 0.905734777451, Q2 : 0.061722651124, Q3 : -0.137973129749, Q4 : 0.395977586508}
2019-04-14 16:29:15.41: SIM {TimeUS : 61234663, Roll : 0.13, Pitch : -17.39, Yaw : 47.21, Alt : 49.3100013733, Lat : 49.2837041, Lng : -123.1147986, Q1 : 0.905707657337, Q2 : 0.0616212747991, Q3 : -0.138058438897, Q4 : 0.396025687456}
2019-04-14 16:29:15.51: SIM {TimeUS : 61334623, Roll : 0.13, Pitch : -17.42, Yaw : 47.23, Alt : 49.3100013733, Lat : 49.2837069, Lng : -123.114794, Q1 : 0.905613303185, Q2 : 0.0617159903049, Q3 : -0.138341784477, Q4 : 0.396127790213}
2019-04-14 16:29:15.61: SIM {TimeUS : 61434583, Roll : 0.13, Pitch : -17.48, Yaw : 47.24, Alt : 49.3100013733, Lat : 49.2837095, Lng : -123.1147894, Q1 : 0.905467092991, Q2 : 0.0619889423251, Q3 : -0.138818815351, Q4 : 0.396252572536}
2019-04-14 16:29:15.71: SIM {TimeUS : 61534543, Roll : 0.13, Pitch : -17.52, Yaw : 47.26, Alt : 49.3100013733, Lat : 49.2837124, Lng : -123.1147848, Q1 : 0.905358910561, Q2 : 0.062138736248, Q3 : -0.139126181602, Q4 : 0.396368473768}
2019-04-14 16:29:15.81: SIM {TimeUS : 61634503, Roll : 0.13, Pitch : -17.53, Yaw : 47.28, Alt : 49.3199996948, Lat : 49.283715, Lng : -123.1147802, Q1 : 0.905307888985, Q2 : 0.062150914222, Q3 : -0.139172390103, Q4 : 0.396466881037}
2019-04-14 16:29:15.91: SIM {TimeUS : 61734463, Roll : 0.11, Pitch : -17.54, Yaw : 47.28, Alt : 49.3199996948, Lat : 49.2837179, Lng : -123.1147755, Q1 : 0.905288100243, Q2 : 0.0620419755578, Q3 : -0.139287233353, Q4 : 0.396488815546}
2019-04-14 16:29:16.01: SIM {TimeUS : 61834423, Roll : 0.08, Pitch : -17.56, Yaw : 47.28, Alt : 49.3199996948, Lat : 49.2837206, Lng : -123.1147709, Q1 : 0.905282139778, Q2 : 0.0619199946523, Q3 : -0.139550477266, Q4 : 0.396428883076}
2019-04-14 16:29:16.11: SIM {TimeUS : 61934383, Roll : 0.07, Pitch : -17.58, Yaw : 47.27, Alt : 49.3199996948, Lat : 49.2837234, Lng : -123.1147662, Q1 : 0.905296802521, Q2 : 0.0619071833789, Q3 : -0.139730200171, Q4 : 0.396334022284}
2019-04-14 16:29:16.21: SIM {TimeUS : 62034343, Roll : 0.07, Pitch : -17.6, Yaw : 47.25, Alt : 49.3199996948, Lat : 49.2837261, Lng : -123.1147615, Q1 : 0.905328214169, Q2 : 0.0619461499155, Q3 : -0.139902085066, Q4 : 0.396195590496}
2019-04-14 16:29:16.31: SIM {TimeUS : 62134303, Roll : 0.08, Pitch : -17.61, Yaw : 47.23, Alt : 49.3199996948, Lat : 49.283729, Lng : -123.1147569, Q1 : 0.905383825302, Q2 : 0.0620021633804, Q3 : -0.139966502786, Q4 : 0.396036982536}
2019-04-14 16:29:16.41: SIM {TimeUS : 62234263, Roll : 0.1, Pitch : -17.62, Yaw : 47.21, Alt : 49.3199996948, Lat : 49.2837318, Lng : -123.1147522, Q1 : 0.905444025993, Q2 : 0.0621749535203, Q3 : -0.140039548278, Q4 : 0.395846307278}
2019-04-14 16:29:16.51: SIM {TimeUS : 62334223, Roll : 0.12, Pitch : -17.63, Yaw : 47.18, Alt : 49.3199996948, Lat : 49.2837345, Lng : -123.1147475, Q1 : 0.905520796776, Q2 : 0.0623242072761, Q3 : -0.140068754554, Q4 : 0.395636856556}
2019-04-14 16:29:16.61: SIM {TimeUS : 62434183, Roll : 0.14, Pitch : -17.64, Yaw : 47.15, Alt : 49.3199996948, Lat : 49.2837374, Lng : -123.1147427, Q1 : 0.905591368675, Q2 : 0.0625050142407, Q3 : -0.14009052515, Q4 : 0.395439058542}
2019-04-14 16:29:16.71: SIM {TimeUS : 62534143, Roll : 0.16, Pitch : -17.66, Yaw : 47.12, Alt : 49.3199996948, Lat : 49.2837401, Lng : -123.114738, Q1 : 0.90564340353, Q2 : 0.0627336502075, Q3 : -0.14018009603, Q4 : 0.395251899958}
2019-04-14 16:29:16.81: SIM {TimeUS : 62634103, Roll : 0.17, Pitch : -17.7, Yaw : 47.1, Alt : 49.3199996948, Lat : 49.283743, Lng : -123.1147333, Q1 : 0.905673623085, Q2 : 0.0628909766674, Q3 : -0.140463292599, Q4 : 0.395057052374}
2019-04-14 16:29:16.91: SIM {TimeUS : 62734063, Roll : 0.16, Pitch : -17.74, Yaw : 47.08, Alt : 49.3199996948, Lat : 49.2837459, Lng : -123.1147286, Q1 : 0.90569883585, Q2 : 0.0629047453403, Q3 : -0.140856236219, Q4 : 0.394857168198}
2019-04-14 16:29:17.01: SIM {TimeUS : 62834023, Roll : 0.14, Pitch : -17.79, Yaw : 47.06, Alt : 49.3199996948, Lat : 49.2837486, Lng : -123.1147238, Q1 : 0.905712366104, Q2 : 0.0629222020507, Q3 : -0.141271620989, Q4 : 0.394674956799}
2019-04-14 16:29:17.11: SIM {TimeUS : 62934816, Roll : 0.15, Pitch : -17.82, Yaw : 47.05, Alt : 49.3199996948, Lat : 49.2837515, Lng : -123.114719, Q1 : 0.905723035336, Q2 : 0.0630521848798, Q3 : -0.141494482756, Q4 : 0.394549757242}
2019-04-14 16:29:17.21: SIM {TimeUS : 63034776, Roll : 0.17, Pitch : -17.82, Yaw : 47.03, Alt : 49.3199996948, Lat : 49.2837544, Lng : -123.1147143, Q1 : 0.905752778053, Q2 : 0.0632362961769, Q3 : -0.141457512975, Q4 : 0.394465327263}
2019-04-14 16:29:17.31: SIM {TimeUS : 63134736, Roll : 0.19, Pitch : -17.8, Yaw : 47.02, Alt : 49.3300018311, Lat : 49.2837571, Lng : -123.1147095, Q1 : 0.905814945698, Q2 : 0.0632577314973, Q3 : -0.141208395362, Q4 : 0.394408404827}
2019-04-14 16:29:17.41: SIM {TimeUS : 63234696, Roll : 0.18, Pitch : -17.78, Yaw : 47.02, Alt : 49.3300018311, Lat : 49.28376, Lng : -123.1147047, Q1 : 0.905868589878, Q2 : 0.063135959208, Q3 : -0.141077056527, Q4 : 0.394351661205}
2019-04-14 16:29:17.51: SIM {TimeUS : 63334656, Roll : 0.17, Pitch : -17.76, Yaw : 47.01, Alt : 49.3300018311, Lat : 49.2837629, Lng : -123.1146999, Q1 : 0.905913352966, Q2 : 0.062973998487, Q3 : -0.141029089689, Q4 : 0.394291967154}
2019-04-14 16:29:17.61: SIM {TimeUS : 63434616, Roll : 0.16, Pitch : -17.76, Yaw : 47.0, Alt : 49.3300018311, Lat : 49.2837658, Lng : -123.1146951, Q1 : 0.905949652195, Q2 : 0.0628552734852, Q3 : -0.141009151936, Q4 : 0.394234567881}
2019-04-14 16:29:17.71: SIM {TimeUS : 63534576, Roll : 0.15, Pitch : -17.77, Yaw : 47.0, Alt : 49.3300018311, Lat : 49.2837686, Lng : -123.1146903, Q1 : 0.905965030193, Q2 : 0.062813423574, Q3 : -0.141132056713, Q4 : 0.394161850214}
2019-04-14 16:29:17.81: SIM {TimeUS : 63634536, Roll : 0.15, Pitch : -17.79, Yaw : 46.99, Alt : 49.3300018311, Lat : 49.2837715, Lng : -123.1146855, Q1 : 0.905968427658, Q2 : 0.0628697425127, Q3 : -0.141289323568, Q4 : 0.39408877492}
2019-04-14 16:29:17.91: SIM {TimeUS : 63734496, Roll : 0.14, Pitch : -17.83, Yaw : 46.98, Alt : 49.3300018311, Lat : 49.2837744, Lng : -123.1146807, Q1 : 0.905951619148, Q2 : 0.062958419323, Q3 : -0.141622543335, Q4 : 0.393993586302}
2019-04-14 16:29:18.01: SIM {TimeUS : 63834456, Roll : 0.14, Pitch : -17.88, Yaw : 46.97, Alt : 49.3300018311, Lat : 49.2837772, Lng : -123.1146758, Q1 : 0.905921757221, Q2 : 0.0631054788828, Q3 : -0.142042174935, Q4 : 0.393887758255}
2019-04-14 16:29:18.11: SIM {TimeUS : 63934416, Roll : 0.15, Pitch : -17.92, Yaw : 46.96, Alt : 49.3300018311, Lat : 49.2837801, Lng : -123.114671, Q1 : 0.905901134014, Q2 : 0.0633061230183, Q3 : -0.142363220453, Q4 : 0.393786907196}
2019-04-14 16:29:18.21: SIM {TimeUS : 64034376, Roll : 0.15, Pitch : -17.95, Yaw : 46.95, Alt : 49.3300018311, Lat : 49.283783, Lng : -123.1146661, Q1 : 0.905903398991, Q2 : 0.0633681938052, Q3 : -0.142653122544, Q4 : 0.393666833639}
2019-04-14 16:29:18.31: SIM {TimeUS : 64134336, Roll : 0.14, Pitch : -17.98, Yaw : 46.93, Alt : 49.3300018311, Lat : 49.2837859, Lng : -123.1146613, Q1 : 0.905926942825, Q2 : 0.0633729174733, Q3 : -0.142844945192, Q4 : 0.393542349339}
2019-04-14 16:29:18.41: SIM {TimeUS : 64234296, Roll : 0.15, Pitch : -17.97, Yaw : 46.92, Alt : 49.3300018311, Lat : 49.2837887, Lng : -123.1146565, Q1 : 0.905977666378, Q2 : 0.0634354650974, Q3 : -0.142750814557, Q4 : 0.393449634314}
2019-04-14 16:29:18.51: SIM {TimeUS : 64334256, Roll : 0.18, Pitch : -17.97, Yaw : 46.9, Alt : 49.3300018311, Lat : 49.2837916, Lng : -123.1146515, Q1 : 0.906020402908, Q2 : 0.0636097565293, Q3 : -0.142670437694, Q4 : 0.393352150917}
2019-04-14 16:29:18.61: SIM {TimeUS : 64434216, Roll : 0.19, Pitch : -17.98, Yaw : 46.89, Alt : 49.3300018311, Lat : 49.2837946, Lng : -123.1146468, Q1 : 0.906056523323, Q2 : 0.0637297779322, Q3 : -0.142707198858, Q4 : 0.39323630929}
2019-04-14 16:29:18.71: SIM {TimeUS : 64534176, Roll : 0.2, Pitch : -17.98, Yaw : 46.87, Alt : 49.3400001526, Lat : 49.2837975, Lng : -123.1146419, Q1 : 0.90609484911, Q2 : 0.0638005882502, Q3 : -0.142747879028, Q4 : 0.393121629953}
2019-04-14 16:29:18.81: SIM {TimeUS : 64634136, Roll : 0.21, Pitch : -17.98, Yaw : 46.86, Alt : 49.3400001526, Lat : 49.2838003, Lng : -123.1146369, Q1 : 0.906144976616, Q2 : 0.0638336464763, Q3 : -0.142680555582, Q4 : 0.393025189638}
2019-04-14 16:29:18.91: SIM {TimeUS : 64734096, Roll : 0.21, Pitch : -17.97, Yaw : 46.84, Alt : 49.3400001526, Lat : 49.2838032, Lng : -123.1146322, Q1 : 0.906196773052, Q2 : 0.0637984797359, Q3 : -0.142627194524, Q4 : 0.392930924892}
2019-04-14 16:29:19.01: SIM {TimeUS : 64834056, Roll : 0.19, Pitch : -17.99, Yaw : 46.83, Alt : 49.3400001526, Lat : 49.2838062, Lng : -123.1146273, Q1 : 0.906223237514, Q2 : 0.0636750310659, Q3 : -0.142843723297, Q4 : 0.392811179161}
2019-04-14 16:29:19.12: SIM {TimeUS : 64934849, Roll : 0.16, Pitch : -18.03, Yaw : 46.83, Alt : 49.3400001526, Lat : 49.2838092, Lng : -123.1146223, Q1 : 0.906219661236, Q2 : 0.0635801702738, Q3 : -0.143243327737, Q4 : 0.39268925786}
2019-04-14 16:29:19.21: SIM {TimeUS : 65034809, Roll : 0.14, Pitch : -18.03, Yaw : 46.82, Alt : 49.3400001526, Lat : 49.2838121, Lng : -123.1146175, Q1 : 0.906243920326, Q2 : 0.0634696781635, Q3 : -0.143348678946, Q4 : 0.392612695694}
2019-04-14 16:29:19.31: SIM {TimeUS : 65134769, Roll : 0.16, Pitch : -18.02, Yaw : 46.81, Alt : 49.3400001526, Lat : 49.283815, Lng : -123.1146126, Q1 : 0.906280398369, Q2 : 0.0635001882911, Q3 : -0.143165171146, Q4 : 0.392590612173}
2019-04-14 16:29:19.41: SIM {TimeUS : 65234729, Roll : 0.18, Pitch : -18.0, Yaw : 46.81, Alt : 49.3400001526, Lat : 49.2838179, Lng : -123.1146077, Q1 : 0.906309843063, Q2 : 0.0635979250073, Q3 : -0.14296528697, Q4 : 0.392579525709}
2019-04-14 16:29:19.51: SIM {TimeUS : 65334689, Roll : 0.19, Pitch : -18.01, Yaw : 46.8, Alt : 49.3400001526, Lat : 49.2838208, Lng : -123.1146028, Q1 : 0.906319320202, Q2 : 0.0636951103806, Q3 : -0.142996236682, Q4 : 0.3925306499}
2019-04-14 16:29:19.61: SIM {TimeUS : 65434649, Roll : 0.18, Pitch : -18.03, Yaw : 46.79, Alt : 49.3400001526, Lat : 49.2838238, Lng : -123.1145979, Q1 : 0.906324267387, Q2 : 0.0636744052172, Q3 : -0.143198147416, Q4 : 0.392449021339}
2019-04-14 16:29:19.71: SIM {TimeUS : 65534609, Roll : 0.15, Pitch : -18.05, Yaw : 46.79, Alt : 49.3400001526, Lat : 49.2838268, Lng : -123.1145929, Q1 : 0.90633136034, Q2 : 0.0635476335883, Q3 : -0.143490403891, Q4 : 0.392346441746}
2019-04-14 16:29:19.81: SIM {TimeUS : 65634569, Roll : 0.14, Pitch : -18.07, Yaw : 46.78, Alt : 49.3400001526, Lat : 49.2838297, Lng : -123.114588, Q1 : 0.906342744827, Q2 : 0.0634813457727, Q3 : -0.143713817, Q4 : 0.392249077559}
2019-04-14 16:29:19.91: SIM {TimeUS : 65734529, Roll : 0.14, Pitch : -18.09, Yaw : 46.77, Alt : 49.3400001526, Lat : 49.2838327, Lng : -123.1145831, Q1 : 0.906348705292, Q2 : 0.0635607615113, Q3 : -0.14386805892, Q4 : 0.39216580987}
2019-04-14 16:29:20.01: SIM {TimeUS : 65834489, Roll : 0.15, Pitch : -18.11, Yaw : 46.76, Alt : 49.3400001526, Lat : 49.2838355, Lng : -123.1145782, Q1 : 0.906352579594, Q2 : 0.0636997446418, Q3 : -0.143961787224, Q4 : 0.39209985733}
