2019-04-14 18:01:16.60: SIM {TimeUS : 40416327, Roll : 0.0, Pitch : 0.0, Yaw : 0.0, Alt : 30.1000003815, Lat : 49.28357, Lng : -123.11502, Q1 : 1.0, Q2 : 0.0, Q3 : 0.0, Q4 : 0.0}
2019-04-14 18:01:16.71: SIM {TimeUS : 40535446, Roll : 0.0, Pitch : 0.0, Yaw : 0.0, Alt : 30.1000003815, Lat : 49.28357, Lng : -123.11502, Q1 : 1.0, Q2 : 0.0, Q3 : 0.0, Q4 : 0.0}
2019-04-14 18:01:16.81: SIM {TimeUS : 40635406, Roll : 0.0, Pitch : 0.0, Yaw : 0.0, Alt : 30.1000003815, Lat : 49.28357, Lng : -123.11502, Q1 : 1.0, Q2 : 0.0, Q3 : 0.0, Q4 : 0.0}
2019-04-14 18:01:16.91: SIM {TimeUS : 40735366, Roll : 0.0, Pitch : 0.0, Yaw : 0.0, Alt : 30.1000003815, Lat : 49.28357, Lng : -123.11502, Q1 : 1.0, Q2 : 0.0, Q3 : 0.0, Q4 : 0.0}
2019-04-14 18:01:17.01: SIM {TimeUS : 40835326, Roll : 0.0, Pitch : 0.0, Yaw : 0.0, Alt : 30.1000003815, Lat : 49.28357, Lng : -123.11502, Q1 : 1.0, Q2 : 0.0, Q3 : 0.0, Q4 : 0.0}
2019-04-14 18:01:17.11: SIM {TimeUS : 40935286, Roll : 0.0, Pitch : 0.0, Yaw : 0.0, Alt : 30.1000003815, Lat : 49.28357, Lng : -123.11502, Q1 : 1.0, Q2 : 0.0, Q3 : 0.0, Q4 : 0.0}
2019-04-14 18:01:17.21: SIM {TimeUS : 41035246, Roll : 0.0, Pitch : 0.0, Yaw : 0.0, Alt : 30.1000003815, Lat : 49.28357, Lng : -123.11502, Q1 : 1.0, Q2 : 0.0, Q3 : 0.0, Q4 : 0.0}
2019-04-14 18:01:17.31: SIM {TimeUS : 41135206, Roll : 0.0, Pitch : 0.0, Yaw : 0.0, Alt : 30.1000003815, Lat : 49.28357, Lng : -123.11502, Q1 : 1.0, Q2 : 0.0, Q3 : 0.0, Q4 : 0.0}
2019-04-14 18:01:17.41: SIM {TimeUS : 41235166, Roll : 0.0, Pitch : 0.0, Yaw : 0.0, Alt : 30.1000003815, Lat : 49.28357, Lng : -123.11502, Q1 : 1.0, Q2 : 0.0, Q3 : 0.0, Q4 : 0.0}
2019-04-14 18:01:17.51: SIM {TimeUS : 41335126, Roll : 0.0, Pitch : 0.0, Yaw : 0.0, Alt : 30.1000003815, Lat : 49.28357, Lng : -123.11502, Q1 : 1.0, Q2 : 0.0, Q3 : 0.0, Q4 : 0.0}
2019-04-14 18:01:17.61: SIM {TimeUS : 41435086, Roll : 0.0, Pitch : 0.0, Yaw : 0.0, Alt : 30.1000003815, Lat : 49.28357, Lng : -123.11502, Q1 : 1.0, Q2 : 0.0, Q3 : 0.0, Q4 : 0.0}
2019-04-14 18:01:17.71: SIM {TimeUS : 41535046, Roll : 0.0, Pitch : 0.0, Yaw : 0.0, Alt : 30.1000003815, Lat : 49.28357, Lng : -123.11502, Q1 : 1.0, Q2 : 0.0, Q3 : 0.0, Q4 : 0.0}
2019-04-14 18:01:17.81: SIM {TimeUS : 41635006, Roll : 0.0, Pitch : 0.0, Yaw : 0.0, Alt : 30.1000003815, Lat : 49.28357, Lng : -123.11502, Q1 : 1.0, Q2 : 0.0, Q3 : 0.0, Q4 : 0.0}
2019-04-14 18:01:17.91: SIM {TimeUS : 41734966, Roll : 0.0, Pitch : 0.0, Yaw : 0.0, Alt : 30.1000003815, Lat : 49.28357, Lng : -123.11502, Q1 : 1.0, Q2 : 0.0, Q3 : 0.0, Q4 : 0.0}
2019-04-14 18:01:18.01: SIM {TimeUS : 41834926, Roll : 0.0, Pitch : 0.0, Yaw : 0.0, Alt : 30.1000003815, Lat : 49.28357, Lng : -123.11502, Q1 : 1.0, Q2 : 0.0, Q3 : 0.0, Q4 : 0.0}
2019-04-14 18:01:18.11: SIM {TimeUS : 41934886, Roll : 0.0, Pitch : 0.0, Yaw : 0.0, Alt : 30.1000003815, Lat : 49.28357, Lng : -123.11502, Q1 : 1.0, Q2 : 0.0, Q3 : 0.0, Q4 : 0.0}
2019-04-14 18:01:18.21: SIM {TimeUS : 42034846, Roll : 0.0, Pitch : 0.0, Yaw : 0.0, Alt : 30.1000003815, Lat : 49.28357, Lng : -123.11502, Q1 : 1.0, Q2 : 0.0, Q3 : 0.0, Q4 : 0.0}
2019-04-14 18:01:18.31: SIM {TimeUS : 42134806, Roll : 0.0, Pitch : 0.0, Yaw : 0.0, Alt : 30.1000003815, Lat : 49.28357, Lng : -123.11502, Q1 : 1.0, Q2 : 0.0, Q3 : 0.0, Q4 : 0.0}
2019-04-14 18:01:18.41: SIM {TimeUS : 42234766, Roll : 0.0, Pitch : 0.0, Yaw : 0.0, Alt : 30.1000003815, Lat : 49.28357, Lng : -123.11502, Q1 : 1.0, Q2 : 0.0, Q3 : 0.0, Q4 : 0.0}
2019-04-14 18:01:18.51: SIM {TimeUS : 42334726, Roll : 0.0, Pitch : 0.0, Yaw : 0.0, Alt : 30.1000003815, Lat : 49.28357, Lng : -123.11502, Q1 : 1.0, Q2 : 0.0, Q3 : 0.0, Q4 : 0.0}
2019-04-14 18:01:18.61: SIM {TimeUS : 42434686, Roll : 0.0, Pitch : 0.0, Yaw : 0.0, Alt : 30.1000003815, Lat : 49.28357, Lng : -123.11502, Q1 : 1.0, Q2 : 0.0, Q3 : 0.0, Q4 : 0.0}
2019-04-14 18:01:18.71: SIM {TimeUS : 42535479, Roll : 0.0, Pitch : 0.0, Yaw : 0.0, Alt : 30.1000003815, Lat : 49.28357, Lng : -123.11502, Q1 : 1.0, Q2 : 0.0, Q3 : 0.0, Q4 : 0.0}
2019-04-14 18:01:18.81: SIM {TimeUS : 42635439, Roll : 0.0, Pitch : 0.0, Yaw : 0.0, Alt : 30.1000003815, Lat : 49.28357, Lng : -123.11502, Q1 : 1.0, Q2 : 0.0, Q3 : 0.0, Q4 : 0.0}
2019-04-14 18:01:18.91: SIM {TimeUS : 42735399, Roll : 0.0, Pitch : 0.0, Yaw : 0.0, Alt : 30.1000003815, Lat : 49.28357, Lng : -123.11502, Q1 : 1.0, Q2 : 0.0, Q3 : 0.0, Q4 : 7.39073472561e-12}
2019-04-14 18:01:19.01: SIM {TimeUS : 42835359, Roll : 0.0, Pitch : 0.0, Yaw : 0.0, Alt : 30.1000003815, Lat : 49.28357, Lng : -123.11502, Q1 : 1.0, Q2 : 0.0, Q3 : 0.0, Q4 : 1.15506416931e-10}
2019-04-14 18:01:19.11: SIM {TimeUS : 42935319, Roll : 0.0, Pitch : 0.0, Yaw : 360.0, Alt : 30.1000003815, Lat : 49.28357, Lng : -123.11502, Q1 : 1.0, Q2 : 0.0, Q3 : 0.0, Q4 : -1.05012851748e-07}
2019-04-14 18:01:19.21: SIM {TimeUS : 43035279, Roll : 0.0, Pitch : 0.0, Yaw : 359.99, Alt : 30.1000003815, Lat : 49.28357, Lng : -123.11502, Q1 : 1.0, Q2 : 0.0, Q3 : 0.0, Q4 : -2.76464362514e-07}
2019-04-14 18:01:19.31: SIM {TimeUS : 43135239, Roll : 0.0, Pitch : 0.0, Yaw : 359.99, Alt : 30.1000003815, Lat : 49.28357, Lng : -123.11502, Q1 : 1.0, Q2 : 0.0, Q3 : 0.0, Q4 : -4.53608379303e-07}
2019-04-14 18:01:19.41: SIM {TimeUS : 43235199, Roll : 0.0, Pitch : 0.0, Yaw : 359.99, Alt : 30.1000003815, Lat : 49.28357, Lng : -123.11502, Q1 : 1.0, Q2 : 0.0, Q3 : 0.0, Q4 : -6.54826862956e-07}
2019-04-14 18:01:19.51: SIM {TimeUS : 43335159, Roll : 0.0, Pitch : 0.0, Yaw : 359.99, Alt : 30.1000003815, Lat : 49.28357, Lng : -123.11502, Q1 : 1.0, Q2 : 0.0, Q3 : 0.0, Q4 : -8.23092591418e-07}
2019-04-14 18:01:19.61: SIM {TimeUS : 43435119, Roll : 0.0, Pitch : 0.0, Yaw : 359.99, Alt : 30.1000003815, Lat : 49.28357, Lng : -123.11502, Q1 : 1.0, Q2 : 0.0, Q3 : 0.0, Q4 : -1.02801573121e-06}
2019-04-14 18:01:19.71: SIM {TimeUS : 43535079, Roll : 0.0, Pitch : 0.0, Yaw : 359.99, Alt : 30.1000003815, Lat : 49.28357, Lng : -123.11502, Q1 : 1.0, Q2 : 0.0, Q3 : 0.0, Q4 : -1.22589403873e-06}
2019-04-14 18:01:19.81: SIM {TimeUS : 43635039, Roll : 0.0, Pitch : 0.0, Yaw : 359.99, Alt : 30.1100006104, Lat : 49.28357, Lng : -123.11502, Q1 : 1.0, Q2 : 0.0, Q3 : 0.0, Q4 : -1.420006015e-06}
2019-04-14 18:01:19.91: SIM {TimeUS : 43734999, Roll : 0.0, Pitch : 0.0, Yaw : 359.99, Alt : 30.1299991608, Lat : 49.28357, Lng : -123.11502, Q1 : 1.0, Q2 : 0.0, Q3 : 0.0, Q4 : -1.66384984368e-06}
2019-04-14 18:01:20.01: SIM {TimeUS : 43834959, Roll : 0.0, Pitch : 0.0, Yaw : 359.99, Alt : 30.1599998474, Lat : 49.28357, Lng : -123.11502, Q1 : 1.0, Q2 : 0.0, Q3 : 0.0, Q4 : -1.89620118363e-06}
2019-04-14 18:01:20.11: SIM {TimeUS : 43934919, Roll : 0.0, Pitch : 0.0, Yaw : 359.99, Alt : 30.1900005341, Lat : 49.28357, Lng : -123.11502, Q1 : 1.0, Q2 : 0.0, Q3 : 0.0, Q4 : -2.11915289583e-06}
2019-04-14 18:01:20.21: SIM {TimeUS : 44034879, Roll : -0.03, Pitch : -0.03, Yaw : 359.99, Alt : 30.2299995422, Lat : 49.28357, Lng : -123.11502, Q1 : 0.999999940395, Q2 : -0.000322392123053, Q3 : -0.000284631707473, Q4 : -4.89993681185e-06}
2019-04-14 18:01:20.31: SIM {TimeUS : 44134839, Roll : -0.3, Pitch : -0.26, Yaw : 359.99, Alt : 30.3099994659, Lat : 49.28357, Lng : -123.11502, Q1 : 0.999993741512, Q2 : -0.00264267204329, Q3 : -0.00234834849834, Q4 : -2.93469056487e-05}
2019-04-14 18:01:20.41: SIM {TimeUS : 44234799, Roll : -0.63, Pitch : -0.55, Yaw : 359.99, Alt : 30.4400005341, Lat : 49.28357, Lng : -123.11502, Q1 : 0.999972701073, Q2 : -0.00556956790388, Q3 : -0.00486149685457, Q4 : -8.0730416812e-05}
2019-04-14 18:01:20.51: SIM {TimeUS : 44334759, Roll : -0.85, Pitch : -0.74, Yaw : 359.98, Alt : 30.5900001526, Lat : 49.28357, Lng : -123.11502, Q1 : 0.999950706959, Q2 : -0.00750259356573, Q3 : -0.00650757877156, Q4 : -0.000154968714924}
2019-04-14 18:01:20.61: SIM {TimeUS : 44434719, Roll : -0.88, Pitch : -0.79, Yaw : 359.97, Alt : 30.75, Lat : 49.28357, Lng : -123.11502, Q1 : 0.999946296215, Q2 : -0.00773223210126, Q3 : -0.00689290510491, Q4 : -0.000244497496169}
2019-04-14 18:01:20.71: SIM {TimeUS : 44534679, Roll : -0.75, Pitch : -0.68, Yaw : 359.96, Alt : 30.9099998474, Lat : 49.28357, Lng : -123.1150201, Q1 : 0.999960064888, Q2 : -0.00662625581026, Q3 : -0.00599285773933, Q4 : -0.000338699348504}
2019-04-14 18:01:20.81: SIM {TimeUS : 44635472, Roll : -0.55, Pitch : -0.49, Yaw : 359.95, Alt : 31.0599994659, Lat : 49.2835701, Lng : -123.1150201, Q1 : 0.999978899956, Q2 : -0.00484424736351, Q3 : -0.00430657947436, Q4 : -0.000419832183979}
2019-04-14 18:01:20.91: SIM {TimeUS : 44735432, Roll : -0.32, Pitch : -0.28, Yaw : 359.94, Alt : 31.2199993134, Lat : 49.2835701, Lng : -123.1150202, Q1 : 0.999992728233, Q2 : -0.00285154185258, Q3 : -0.00249123666435, Q4 : -0.000481237453641}
2019-04-14 18:01:21.01: SIM {TimeUS : 44835392, Roll : -0.12, Pitch : -0.11, Yaw : 359.93, Alt : 31.3899993896, Lat : 49.2835702, Lng : -123.1150203, Q1 : 0.999998748302, Q2 : -0.00110969180241, Q3 : -0.000989389722236, Q4 : -0.000526451331098}
2019-04-14 18:01:21.11: SIM {TimeUS : 44935352, Roll : 0.0, Pitch : 0.0, Yaw : 359.93, Alt : 31.5599994659, Lat : 49.2835702, Lng : -123.1150204, Q1 : 0.999999880791, Q2 : 7.95804444351e-05, Q3 : -1.19829237519e-05, Q4 : -0.000552211364266}
2019-04-14 18:01:21.21: SIM {TimeUS : 45035312, Roll : 0.08, Pitch : 0.04, Yaw : 359.93, Alt : 31.7299995422, Lat : 49.2835702, Lng : -123.1150205, Q1 : 0.999999523163, Q2 : 0.000720798969269, Q3 : 0.000373075512471, Q4 : -0.000559169158805}
2019-04-14 18:01:21.31: SIM {TimeUS : 45135272, Roll : 0.1, Pitch : 0.04, Yaw : 359.93, Alt : 31.9099998474, Lat : 49.2835703, Lng : -123.1150205, Q1 : 0.999999403954, Q2 : 0.00092329189647, Q3 : 0.000361843005521, Q4 : -0.000542372232303}
2019-04-14 18:01:21.41: SIM {TimeUS : 45235232, Roll : 0.1, Pitch : 0.03, Yaw : 359.93, Alt : 32.0999984741, Lat : 49.2835703, Lng : -123.1150206, Q1 : 0.999999463558, Q2 : 0.000887383590452, Q3 : 0.000293534336379, Q4 : -0.000524318485986}
2019-04-14 18:01:21.51: SIM {TimeUS : 45335192, Roll : 0.08, Pitch : 0.03, Yaw : 359.94, Alt : 32.2900009155, Lat : 49.2835703, Lng : -123.1150207, Q1 : 0.999999523163, Q2 : 0.000756814726628, Q3 : 0.000307631882606, Q4 : -0.000507212826051}
2019-04-14 18:01:21.61: SIM {TimeUS : 45435152, Roll : 0.06, Pitch : 0.06, Yaw : 359.94, Alt : 32.4799995422, Lat : 49.2835703, Lng : -123.1150207, Q1 : 0.999999582767, Q2 : 0.000577141181566, Q3 : 0.000526442483533, Q4 : -0.000500324647874}
2019-04-14 18:01:21.71: SIM {TimeUS : 45535112, Roll : 0.07, Pitch : 0.1, Yaw : 359.94, Alt : 32.6800003052, Lat : 49.2835703, Lng : -123.1150207, Q1 : 0.99999922514, Q2 : 0.000647193461191, Q3 : 0.000932254944928, Q4 : -0.000486911187181}
2019-04-14 18:01:21.81: SIM {TimeUS : 45635072, Roll : 0.1, Pitch : 0.14, Yaw : 359.94, Alt : 32.8699989319, Lat : 49.2835704, Lng : -123.1150208, Q1 : 0.999998688698, Q2 : 0.000916211574804, Q3 : 0.00123953446746, Q4 : -0.000469983468065}
2019-04-14 18:01:21.91: SIM {TimeUS : 45735032, Roll : 0.13, Pitch : 0.17, Yaw : 359.94, Alt : 33.0699996948, Lat : 49.2835704, Lng : -123.1150208, Q1 : 0.999998033047, Q2 : 0.0011808401905, Q3 : 0.00154076272156, Q4 : -0.000454288412584}
2019-04-14 18:01:22.01: SIM {TimeUS : 45834992, Roll : 0.15, Pitch : 0.2, Yaw : 359.94, Alt : 33.2799987793, Lat : 49.2835704, Lng : -123.1150208, Q1 : 0.999997496605, Q2 : 0.00131484982558, Q3 : 0.00176120898686, Q4 : -0.000448272010544}
2019-04-14 18:01:22.11: SIM {TimeUS : 45934952, Roll : 0.16, Pitch : 0.18, Yaw : 359.94, Alt : 33.4799995422, Lat : 49.2835704, Lng : -123.1150208, Q1 : 0.999997675419, Q2 : 0.00139880890492, Q3 : 0.00158650183585, Q4 : -0.000452863954706}
2019-04-14 18:01:22.21: SIM {TimeUS : 46034912, Roll : 0.16, Pitch : 0.14, Yaw : 359.94, Alt : 33.6899986267, Lat : 49.2835704, Lng : -123.1150209, Q1 : 0.999998152256, Q2 : 0.00142385635991, Q3 : 0.00122384168208, Q4 : -0.000472485204227}
2019-04-14 18:01:22.31: SIM {TimeUS : 46134872, Roll : 0.15, Pitch : 0.11, Yaw : 359.94, Alt : 33.9000015259, Lat : 49.2835704, Lng : -123.1150209, Q1 : 0.999998450279, Q2 : 0.00137139100116, Q3 : 0.000984636251815, Q4 : -0.000496429915074}
2019-04-14 18:01:22.41: SIM {TimeUS : 46234832, Roll : 0.15, Pitch : 0.09, Yaw : 359.93, Alt : 34.1100006104, Lat : 49.2835704, Lng : -123.1150209, Q1 : 0.999998629093, Q2 : 0.00132444757037, Q3 : 0.000867907307111, Q4 : -0.000528870732524}
2019-04-14 18:01:22.51: SIM {TimeUS : 46334792, Roll : 0.15, Pitch : 0.09, Yaw : 359.93, Alt : 34.3199996948, Lat : 49.2835704, Lng : -123.1150209, Q1 : 0.999998569489, Q2 : 0.00132311636116, Q3 : 0.000855801219586, Q4 : -0.000564764719456}
2019-04-14 18:01:22.61: SIM {TimeUS : 46434752, Roll : 0.14, Pitch : 0.08, Yaw : 359.93, Alt : 34.5299987793, Lat : 49.2835704, Lng : -123.1150209, Q1 : 0.999998807907, Q2 : 0.00123480928596, Q3 : 0.000747834856156, Q4 : -0.000592653348576}
2019-04-14 18:01:22.71: SIM {TimeUS : 46534712, Roll : 0.12, Pitch : 0.07, Yaw : 359.92, Alt : 34.7400016785, Lat : 49.2835704, Lng : -123.1150208, Q1 : 0.999999046326, Q2 : 0.00105271593202, Q3 : 0.000653564406093, Q4 : -0.000616943347268}
2019-04-14 18:01:22.81: SIM {TimeUS : 46634672, Roll : 0.09, Pitch : 0.06, Yaw : 359.92, Alt : 34.9599990845, Lat : 49.2835704, Lng : -123.1150208, Q1 : 0.999999284744, Q2 : 0.000836668536067, Q3 : 0.000599264225457, Q4 : -0.000640356331132}
2019-04-14 18:01:22.91: SIM {TimeUS : 46735465, Roll : 0.06, Pitch : 0.06, Yaw : 359.92, Alt : 35.1800003052, Lat : 49.2835704, Lng : -123.1150208, Q1 : 0.999999463558, Q2 : 0.000598271435592, Q3 : 0.000551234290469, Q4 : -0.000662341481075}
2019-04-14 18:01:23.01: SIM {TimeUS : 46835425, Roll : 0.05, Pitch : 0.02, Yaw : 359.92, Alt : 35.3899993896, Lat : 49.2835704, Lng : -123.1150208, Q1 : 0.999999642372, Q2 : 0.000455863366369, Q3 : 0.000261490204139, Q4 : -0.000674863229506}
2019-04-14 18:01:23.11: SIM {TimeUS : 46935385, Roll : 0.04, Pitch : 0.0, Yaw : 359.92, Alt : 35.6100006104, Lat : 49.2835704, Lng : -123.1150208, Q1 : 0.999999701977, Q2 : 0.000367203028873, Q3 : 2.34788712987e-05, Q4 : -0.000690030166879}
2019-04-14 18:01:23.21: SIM {TimeUS : 47035345, Roll : 0.01, Pitch : 0.0, Yaw : 359.91, Alt : 35.8300018311, Lat : 49.2835704, Lng : -123.1150208, Q1 : 0.999999761581, Q2 : 0.000170537401573, Q3 : -4.64739969175e-05, Q4 : -0.00071042845957}
2019-04-14 18:01:23.31: SIM {TimeUS : 47135305, Roll : 0.01, Pitch : 0.0, Yaw : 359.91, Alt : 36.0499992371, Lat : 49.2835704, Lng : -123.1150207, Q1 : 0.999999761581, Q2 : 0.000122533878312, Q3 : -2.77222752629e-05, Q4 : -0.000724714773241}
2019-04-14 18:01:23.41: SIM {TimeUS : 47235265, Roll : 0.02, Pitch : 0.0, Yaw : 359.91, Alt : 36.2700004578, Lat : 49.2835704, Lng : -123.1150207, Q1 : 0.999999701977, Q2 : 0.000178459769813, Q3 : -1.18359821499e-05, Q4 : -0.000740081304684}
2019-04-14 18:01:23.51: SIM {TimeUS : 47335225, Roll : 0.0, Pitch : -0.01, Yaw : 359.91, Alt : 36.4900016785, Lat : 49.2835704, Lng : -123.1150207, Q1 : 0.999999701977, Q2 : 5.73527831875e-05, Q3 : -0.000155724323122, Q4 : -0.000754847074859}
2019-04-14 18:01:23.61: SIM {TimeUS : 47435185, Roll : -0.02, Pitch : -0.05, Yaw : 359.91, Alt : 36.7200012207, Lat : 49.2835704, Lng : -123.1150207, Q1 : 0.999999582767, Q2 : -0.000242928843363, Q3 : -0.000454704131698, Q4 : -0.000778031477239}
2019-04-14 18:01:23.71: SIM {TimeUS : 47535145, Roll : -0.06, Pitch : -0.08, Yaw : 359.9, Alt : 36.9399986267, Lat : 49.2835704, Lng : -123.1150207, Q1 : 0.999999284744, Q2 : -0.000607441703323, Q3 : -0.000700596079696, Q4 : -0.000807861913927}
2019-04-14 18:01:23.81: SIM {TimeUS : 47635105, Roll : -0.11, Pitch : -0.1, Yaw : 359.9, Alt : 37.1699981689, Lat : 49.2835704, Lng : -123.1150207, Q1 : 0.999998748302, Q2 : -0.000965482264291, Q3 : -0.000899952487089, Q4 : -0.000840148306452}
2019-04-14 18:01:23.91: SIM {TimeUS : 47735065, Roll : -0.12, Pitch : -0.1, Yaw : 359.89, Alt : 37.3899993896, Lat : 49.2835704, Lng : -123.1150207, Q1 : 0.999998569489, Q2 : -0.00110320793465, Q3 : -0.000934147567023, Q4 : -0.000878536491655}
2019-04-14 18:01:24.01: SIM {TimeUS : 47835025, Roll : -0.12, Pitch : -0.08, Yaw : 359.89, Alt : 37.6199989319, Lat : 49.2835704, Lng : -123.1150206, Q1 : 0.999998748302, Q2 : -0.00105102232192, Q3 : -0.000782791699748, Q4 : -0.000916153541766}
2019-04-14 18:01:24.11: SIM {TimeUS : 47934985, Roll : -0.09, Pitch : -0.05, Yaw : 359.89, Alt : 37.8400001526, Lat : 49.2835704, Lng : -123.1150206, Q1 : 0.99999910593, Q2 : -0.000858249375597, Q3 : -0.000482020404888, Q4 : -0.000946407846641}
2019-04-14 18:01:24.21: SIM {TimeUS : 48034945, Roll : -0.07, Pitch : -0.03, Yaw : 359.88, Alt : 38.0699996948, Lat : 49.2835704, Lng : -123.1150206, Q1 : 0.999999284744, Q2 : -0.000649291730952, Q3 : -0.000281091866782, Q4 : -0.000975545146503}
2019-04-14 18:01:24.31: SIM {TimeUS : 48134905, Roll : -0.06, Pitch : -0.03, Yaw : 359.88, Alt : 38.2999992371, Lat : 49.2835706, Lng : -123.1150206, Q1 : 0.999999284744, Q2 : -0.000584042456467, Q3 : -0.000271230965154, Q4 : -0.0010038560722}
2019-04-14 18:01:24.41: SIM {TimeUS : 48234865, Roll : -0.07, Pitch : -0.01, Yaw : 359.88, Alt : 38.5200004578, Lat : 49.2835706, Lng : -123.1150206, Q1 : 0.999999284744, Q2 : -0.000641054590233, Q3 : -0.000164501092513, Q4 : -0.00101701379754}
2019-04-14 18:01:24.51: SIM {TimeUS : 48334825, Roll : -0.09, Pitch : 0.0, Yaw : 359.88, Alt : 38.75, Lat : 49.2835706, Lng : -123.1150206, Q1 : 0.999999165535, Q2 : -0.000810876314063, Q3 : -3.15621764457e-05, Q4 : -0.00102345703635}
2019-04-14 18:01:24.61: SIM {TimeUS : 48434785, Roll : -0.09, Pitch : 0.01, Yaw : 359.88, Alt : 38.9799995422, Lat : 49.2835706, Lng : -123.1150206, Q1 : 0.99999910593, Q2 : -0.000825723109301, Q3 : 9.23452389543e-05, Q4 : -0.0010272054933}
2019-04-14 18:01:24.71: SIM {TimeUS : 48534745, Roll : -0.07, Pitch : 0.03, Yaw : 359.88, Alt : 39.2099990845, Lat : 49.2835706, Lng : -123.1150206, Q1 : 0.99999922514, Q2 : -0.000672331196256, Q3 : 0.000304279819829, Q4 : -0.00102873158175}
2019-04-14 18:01:24.81: SIM {TimeUS : 48634705, Roll : -0.05, Pitch : 0.04, Yaw : 359.88, Alt : 39.4399986267, Lat : 49.2835706, Lng : -123.1150206, Q1 : 0.999999284744, Q2 : -0.000476535526104, Q3 : 0.00036617970909, Q4 : -0.00102549954318}
2019-04-14 18:01:24.91: SIM {TimeUS : 48734665, Roll : -0.02, Pitch : 0.04, Yaw : 359.88, Alt : 39.6699981689, Lat : 49.2835706, Lng : -123.1150207, Q1 : 0.999999344349, Q2 : -0.000220611065743, Q3 : 0.000414908252424, Q4 : -0.00102370907553}
2019-04-14 18:01:25.01: SIM {TimeUS : 48835458, Roll : 0.01, Pitch : 0.07, Yaw : 359.88, Alt : 39.9000015259, Lat : 49.2835706, Lng : -123.1150207, Q1 : 0.99999922514, Q2 : 0.00013803326874, Q3 : 0.00068870279938, Q4 : -0.00102127098944}
2019-04-14 18:01:25.11: SIM {TimeUS : 48935418, Roll : 0.05, Pitch : 0.12, Yaw : 359.88, Alt : 40.1399993896, Lat : 49.2835706, Lng : -123.1150207, Q1 : 0.999998807907, Q2 : 0.000504805357195, Q3 : 0.00105433294084, Q4 : -0.00102689641062}
2019-04-14 18:01:25.21: SIM {TimeUS : 49035378, Roll : 0.08, Pitch : 0.15, Yaw : 359.88, Alt : 40.3699989319, Lat : 49.2835706, Lng : -123.1150207, Q1 : 0.999998211861, Q2 : 0.000774540589191, Q3 : 0.00138343009166, Q4 : -0.0010432866402}
2019-04-14 18:01:25.31: SIM {TimeUS : 49135338, Roll : 0.08, Pitch : 0.18, Yaw : 359.87, Alt : 40.5999984741, Lat : 49.2835706, Lng : -123.1150207, Q1 : 0.999997854233, Q2 : 0.000701663666405, Q3 : 0.0016547027044, Q4 : -0.00105292256922}
2019-04-14 18:01:25.41: SIM {TimeUS : 49235298, Roll : 0.03, Pitch : 0.2, Yaw : 359.87, Alt : 40.8300018311, Lat : 49.2835706, Lng : -123.1150207, Q1 : 0.999997735023, Q2 : 0.000282980501652, Q3 : 0.00180948653724, Q4 : -0.00107911799569}
2019-04-14 18:01:25.51: SIM {TimeUS : 49335258, Roll : -0.01, Pitch : 0.2, Yaw : 359.87, Alt : 41.0600013733, Lat : 49.2835706, Lng : -123.1150207, Q1 : 0.999997735023, Q2 : -0.000106708459498, Q3 : 0.00181567261461, Q4 : -0.00110840098932}
2019-04-14 18:01:25.61: SIM {TimeUS : 49435218, Roll : -0.03, Pitch : 0.17, Yaw : 359.86, Alt : 41.2999992371, Lat : 49.2835706, Lng : -123.1150207, Q1 : 0.999998092651, Q2 : -0.000305537017994, Q3 : 0.00154884031508, Q4 : -0.001139015425}
2019-04-14 18:01:25.71: SIM {TimeUS : 49535178, Roll : -0.04, Pitch : 0.13, Yaw : 359.86, Alt : 41.5299987793, Lat : 49.2835706, Lng : -123.1150207, Q1 : 0.999998509884, Q2 : -0.000350385438651, Q3 : 0.00119239592459, Q4 : -0.00117864774074}
2019-04-14 18:01:25.81: SIM {TimeUS : 49635138, Roll : -0.02, Pitch : 0.12, Yaw : 359.85, Alt : 41.7599983215, Lat : 49.2835706, Lng : -123.1150207, Q1 : 0.999998629093, Q2 : -0.000205735588679, Q3 : 0.00109053088818, Q4 : -0.00122262758669}
2019-04-14 18:01:25.91: SIM {TimeUS : 49735098, Roll : 0.01, Pitch : 0.13, Yaw : 359.85, Alt : 42.0, Lat : 49.2835706, Lng : -123.1150207, Q1 : 0.999998509884, Q2 : 0.000159400020493, Q3 : 0.00116531539243, Q4 : -0.00126934458967}
2019-04-14 18:01:26.01: SIM {TimeUS : 49835058, Roll : 0.07, Pitch : 0.13, Yaw : 359.84, Alt : 42.2299995422, Lat : 49.2835706, Lng : -123.1150207, Q1 : 0.999998211861, Q2 : 0.000618476013187, Q3 : 0.00120557891205, Q4 : -0.00131502747536}
2019-04-14 18:01:26.11: SIM {TimeUS : 49935018, Roll : 0.1, Pitch : 0.11, Yaw : 359.84, Alt : 42.4700012207, Lat : 49.2835706, Lng : -123.1150207, Q1 : 0.999998152256, Q2 : 0.000944039144088, Q3 : 0.00100516481325, Q4 : -0.00136176496744}
2019-04-14 18:01:26.21: SIM {TimeUS : 50034978, Roll : 0.11, Pitch : 0.08, Yaw : 359.83, Alt : 42.7000007629, Lat : 49.2835706, Lng : -123.1150207, Q1 : 0.999998271465, Q2 : 0.000965354323853, Q3 : 0.000714162888471, Q4 : -0.00140703900252}
2019-04-14 18:01:26.31: SIM {TimeUS : 50134938, Roll : 0.07, Pitch : 0.05, Yaw : 359.83, Alt : 42.9399986267, Lat : 49.2835706, Lng : -123.1150207, Q1 : 0.999998629093, Q2 : 0.000646481232252, Q3 : 0.000510316283908, Q4 : -0.00143907906022}
2019-04-14 18:01:26.41: SIM {TimeUS : 50234898, Roll : 0.01, Pitch : 0.05, Yaw : 359.83, Alt : 43.1699981689, Lat : 49.2835704, Lng : -123.1150207, Q1 : 0.999998807907, Q2 : 0.000172219995875, Q3 : 0.000473794993013, Q4 : -0.00146451371256}
2019-04-14 18:01:26.51: SIM {TimeUS : 50334858, Roll : -0.02, Pitch : 0.07, Yaw : 359.83, Alt : 43.4099998474, Lat : 49.2835704, Lng : -123.1150207, Q1 : 0.999998688698, Q2 : -0.000183330164873, Q3 : 0.000649619672913, Q4 : -0.0014834565809}
2019-04-14 18:01:26.61: SIM {TimeUS : 50434818, Roll : -0.04, Pitch : 0.08, Yaw : 359.82, Alt : 43.6399993896, Lat : 49.2835704, Lng : -123.1150207, Q1 : 0.999998509884, Q2 : -0.000360144709703, Q3 : 0.000738318369258, Q4 : -0.00150074041449}
2019-04-14 18:01:26.71: SIM {TimeUS : 50534778, Roll : -0.04, Pitch : 0.06, Yaw : 359.82, Alt : 43.8800010681, Lat : 49.2835704, Lng : -123.1150207, Q1 : 0.999998569489, Q2 : -0.000357515440555, Q3 : 0.000606356363278, Q4 : -0.00151991599705}
2019-04-14 18:01:26.81: SIM {TimeUS : 50634738, Roll : -0.05, Pitch : 0.04, Yaw : 359.82, Alt : 44.1100006104, Lat : 49.2835704, Lng : -123.1150207, Q1 : 0.999998629093, Q2 : -0.000436564878328, Q3 : 0.000422348792199, Q4 : -0.00154359336011}
2019-04-14 18:01:26.91: SIM {TimeUS : 50734698, Roll : -0.04, Pitch : 0.02, Yaw : 359.82, Alt : 44.3499984741, Lat : 49.2835704, Lng : -123.1150206, Q1 : 0.999998688698, Q2 : -0.000427790917456, Q3 : 0.000240917463088, Q4 : -0.00156548433006}
2019-04-14 18:01:27.01: SIM {TimeUS : 50834658, Roll : -0.03, Pitch : 0.02, Yaw : 359.81, Alt : 44.5800018311, Lat : 49.2835704, Lng : -123.1150206, Q1 : 0.999998688698, Q2 : -0.00029638959677, Q3 : 0.000189587110071, Q4 : -0.00159013911616}
2019-04-14 18:01:27.11: SIM {TimeUS : 50935451, Roll : -0.02, Pitch : 0.02, Yaw : 359.81, Alt : 44.8199996948, Lat : 49.2835704, Lng : -123.1150206, Q1 : 0.999998629093, Q2 : -0.000184757780517, Q3 : 0.000219327674131, Q4 : -0.00161523534916}
2019-04-14 18:01:27.21: SIM {TimeUS : 51035411, Roll : -0.01, Pitch : 0.02, Yaw : 359.81, Alt : 45.0600013733, Lat : 49.2835703, Lng : -123.1150206, Q1 : 0.999998629093, Q2 : -0.000121720433526, Q3 : 0.000178023576154, Q4 : -0.00164000096265}
2019-04-14 18:01:27.31: SIM {TimeUS : 51135371, Roll : -0.01, Pitch : 0.0, Yaw : 359.8, Alt : 45.2900009155, Lat : 49.2835703, Lng : -123.1150206, Q1 : 0.999998629093, Q2 : -0.000136857575853, Q3 : -7.33344932087e-05, Q4 : -0.0016603555996}
2019-04-14 18:01:27.41: SIM {TimeUS : 51235331, Roll : -0.02, Pitch : -0.03, Yaw : 359.8, Alt : 45.5299987793, Lat : 49.2835703, Lng : -123.1150206, Q1 : 0.999998509884, Q2 : -0.000186869510799, Q3 : -0.00032716957503, Q4 : -0.00167829927523}
2019-04-14 18:01:27.51: SIM {TimeUS : 51335291, Roll : -0.02, Pitch : -0.05, Yaw : 359.8, Alt : 45.7599983215, Lat : 49.2835703, Lng : -123.1150206, Q1 : 0.999998450279, Q2 : -0.000197601446416, Q3 : -0.000479050329886, Q4 : -0.00169676239602}
2019-04-14 18:01:27.61: SIM {TimeUS : 51435251, Roll : -0.03, Pitch : -0.05, Yaw : 359.8, Alt : 46.0, Lat : 49.2835703, Lng : -123.1150206, Q1 : 0.99999833107, Q2 : -0.000282526976662, Q3 : -0.000511078338604, Q4 : -0.00171237345785}
2019-04-14 18:01:27.71: SIM {TimeUS : 51535211, Roll : -0.05, Pitch : -0.04, Yaw : 359.8, Alt : 46.2200012207, Lat : 49.2835703, Lng : -123.1150206, Q1 : 0.999998271465, Q2 : -0.000503500399645, Q3 : -0.000430956366472, Q4 : -0.00172921270132}
2019-04-14 18:01:27.81: SIM {TimeUS : 51635171, Roll : -0.09, Pitch : -0.04, Yaw : 359.79, Alt : 46.4500007629, Lat : 49.2835703, Lng : -123.1150206, Q1 : 0.999998092651, Q2 : -0.000822539033834, Q3 : -0.000351578608388, Q4 : -0.00174717034679}
2019-04-14 18:01:27.91: SIM {TimeUS : 51735131, Roll : -0.11, Pitch : -0.03, Yaw : 359.79, Alt : 46.6699981689, Lat : 49.2835703, Lng : -123.1150206, Q1 : 0.999997854233, Q2 : -0.00102502817754, Q3 : -0.000303808890749, Q4 : -0.00176685431506}
2019-04-14 18:01:28.01: SIM {TimeUS : 51835091, Roll : -0.12, Pitch : -0.02, Yaw : 359.79, Alt : 46.8800010681, Lat : 49.2835703, Lng : -123.1150206, Q1 : 0.999997794628, Q2 : -0.00107842055149, Q3 : -0.000183870462934, Q4 : -0.00178796518594}
2019-04-14 18:01:28.11: SIM {TimeUS : 51935051, Roll : -0.11, Pitch : 0.0, Yaw : 359.79, Alt : 47.0900001526, Lat : 49.2835703, Lng : -123.1150206, Q1 : 0.999997913837, Q2 : -0.000962392950896, Q3 : 1.39234034577e-05, Q4 : -0.00181087828241}
2019-04-14 18:01:28.21: SIM {TimeUS : 52035011, Roll : -0.08, Pitch : 0.01, Yaw : 359.78, Alt : 47.2900009155, Lat : 49.2835703, Lng : -123.1150206, Q1 : 0.999998033047, Q2 : -0.000729650259018, Q3 : 0.000102307873021, Q4 : -0.00184159202036}
2019-04-14 18:01:28.31: SIM {TimeUS : 52134971, Roll : -0.06, Pitch : 0.0, Yaw : 359.78, Alt : 47.4799995422, Lat : 49.2835703, Lng : -123.1150206, Q1 : 0.999998092651, Q2 : -0.000525375187863, Q3 : 4.92370345455e-05, Q4 : -0.00187775224913}
2019-04-14 18:01:28.41: SIM {TimeUS : 52234931, Roll : -0.05, Pitch : -0.01, Yaw : 359.78, Alt : 47.6699981689, Lat : 49.2835703, Lng : -123.1150206, Q1 : 0.999998033047, Q2 : -0.00048429419985, Q3 : -0.000112430585432, Q4 : -0.00191691284999}
2019-04-14 18:01:28.51: SIM {TimeUS : 52334891, Roll : -0.05, Pitch : -0.04, Yaw : 359.77, Alt : 47.8400001526, Lat : 49.2835703, Lng : -123.1150206, Q1 : 0.999997913837, Q2 : -0.000506454030983, Q3 : -0.000410477136029, Q4 : -0.00195185595658}
2019-04-14 18:01:28.61: SIM {TimeUS : 52434851, Roll : -0.04, Pitch : -0.07, Yaw : 359.77, Alt : 48.0, Lat : 49.2835703, Lng : -123.1150206, Q1 : 0.999997735023, Q2 : -0.000412574416259, Q3 : -0.000685352424625, Q4 : -0.00198412011378}
2019-04-14 18:01:28.71: SIM {TimeUS : 52534811, Roll : -0.03, Pitch : -0.1, Yaw : 359.76, Alt : 48.1399993896, Lat : 49.2835703, Lng : -123.1150206, Q1 : 0.999997496605, Q2 : -0.000303636887111, Q3 : -0.000918612582609, Q4 : -0.00201197923161}
2019-04-14 18:01:28.81: SIM {TimeUS : 52634771, Roll : -0.03, Pitch : -0.11, Yaw : 359.76, Alt : 48.2799987793, Lat : 49.2835703, Lng : -123.1150206, Q1 : 0.999997377396, Q2 : -0.000303644192172, Q3 : -0.00103376654442, Q4 : -0.00203510257415}
2019-04-14 18:01:28.91: SIM {TimeUS : 52734731, Roll : 0.0, Pitch : -0.1, Yaw : 359.76, Alt : 48.4099998474, Lat : 49.2835703, Lng : -123.1150206, Q1 : 0.999997437, Q2 : -6.74317998346e-05, Q3 : -0.000955198192969, Q4 : -0.00205736351199}
2019-04-14 18:01:29.01: SIM {TimeUS : 52834691, Roll : 0.02, Pitch : -0.08, Yaw : 359.76, Alt : 48.5200004578, Lat : 49.2835703, Lng : -123.1150206, Q1 : 0.99999755621, Q2 : 0.000258822168689, Q3 : -0.00074752495857, Q4 : -0.00207400228828}
2019-04-14 18:01:29.11: SIM {TimeUS : 52935484, Roll : 0.05, Pitch : -0.05, Yaw : 359.76, Alt : 48.6199989319, Lat : 49.2835703, Lng : -123.1150206, Q1 : 0.99999755621, Q2 : 0.000519516644999, Q3 : -0.000482676434331, Q4 : -0.00208920193836}
2019-04-14 18:01:29.21: SIM {TimeUS : 53035444, Roll : 0.07, Pitch : -0.02, Yaw : 359.75, Alt : 48.7099990845, Lat : 49.2835703, Lng : -123.1150206, Q1 : 0.99999755621, Q2 : 0.000620633247308, Q3 : -0.000251422752626, Q4 : -0.00210572755896}
2019-04-14 18:01:29.31: SIM {TimeUS : 53135404, Roll : 0.07, Pitch : -0.01, Yaw : 359.75, Alt : 48.7799987793, Lat : 49.2835703, Lng : -123.1150207, Q1 : 0.99999755621, Q2 : 0.000649115012493, Q3 : -0.000144173856825, Q4 : -0.00212311372161}
2019-04-14 18:01:29.41: SIM {TimeUS : 53235364, Roll : 0.06, Pitch : -0.02, Yaw : 359.75, Alt : 48.8499984741, Lat : 49.2835703, Lng : -123.1150207, Q1 : 0.999997496605, Q2 : 0.000585191242862, Q3 : -0.000256145489402, Q4 : -0.00215517007746}
2019-04-14 18:01:29.51: SIM {TimeUS : 53335324, Roll : 0.03, Pitch : -0.03, Yaw : 359.74, Alt : 48.9099998474, Lat : 49.2835703, Lng : -123.1150207, Q1 : 0.999997496605, Q2 : 0.000332196475938, Q3 : -0.000317036843626, Q4 : -0.002186964266}
2019-04-14 18:01:29.61: SIM {TimeUS : 53435284, Roll : 0.01, Pitch : -0.03, Yaw : 359.74, Alt : 48.9599990845, Lat : 49.2835703, Lng : -123.1150207, Q1 : 0.999997496605, Q2 : 0.000123891208204, Q3 : -0.000277622137219, Q4 : -0.00221673538908}
2019-04-14 18:01:29.71: SIM {TimeUS : 53535244, Roll : 0.02, Pitch : -0.04, Yaw : 359.74, Alt : 49.0, Lat : 49.2835703, Lng : -123.1150207, Q1 : 0.999997377396, Q2 : 0.000202276540222, Q3 : -0.000427509512519, Q4 : -0.00224847882055}
2019-04-14 18:01:29.81: SIM {TimeUS : 53635204, Roll : 0.15, Pitch : -0.16, Yaw : 359.73, Alt : 49.0299987793, Lat : 49.2835703, Lng : -123.1150207, Q1 : 0.999995470047, Q2 : 0.00135611079168, Q3 : -0.00142944417894, Q4 : -0.00227439077571}
2019-04-14 18:01:29.91: SIM {TimeUS : 53735164, Roll : 0.5, Pitch : -0.43, Yaw : 359.73, Alt : 49.0699996948, Lat : 49.2835703, Lng : -123.1150207, Q1 : 0.999980449677, Q2 : 0.00437012175098, Q3 : -0.00384227256291, Q4 : -0.00229322654195}
2019-04-14 18:01:30.01: SIM {TimeUS : 53835124, Roll : 1.05, Pitch : -0.9, Yaw : 359.72, Alt : 49.0900001526, Lat : 49.2835704, Lng : -123.1150207, Q1 : 0.999923765659, Q2 : 0.00918473023921, Q3 : -0.00792434904724, Q4 : -0.00230803340673}
2019-04-14 18:01:30.11: SIM {TimeUS : 53935084, Roll : 1.75, Pitch : -1.55, Yaw : 359.71, Alt : 49.1100006104, Lat : 49.2835704, Lng : -123.1150206, Q1 : 0.999788224697, Q2 : 0.0152870416641, Q3 : -0.0135835418478, Q4 : -0.00230315560475}
2019-04-14 18:01:30.21: SIM {TimeUS : 54035044, Roll : 2.51, Pitch : -2.28, Yaw : 359.69, Alt : 49.1300010681, Lat : 49.2835704, Lng : -123.1150206, Q1 : 0.999558210373, Q2 : 0.0218840334564, Q3 : -0.0199849959463, Q4 : -0.00226239743643}
2019-04-14 18:01:30.31: SIM {TimeUS : 54135004, Roll : 3.21, Pitch : -2.99, Yaw : 359.66, Alt : 49.1500015259, Lat : 49.2835706, Lng : -123.1150204, Q1 : 0.999261319637, Q2 : 0.0280037261546, Q3 : -0.0262275096029, Q4 : -0.00216656224802}
2019-04-14 18:01:30.41: SIM {TimeUS : 54234964, Roll : 3.79, Pitch : -3.57, Yaw : 359.65, Alt : 49.1699981689, Lat : 49.2835707, Lng : -123.1150203, Q1 : 0.998962640762, Q2 : 0.0330129042268, Q3 : -0.0313014015555, Q4 : -0.00199075671844}
2019-04-14 18:01:30.51: SIM {TimeUS : 54334924, Roll : 4.22, Pitch : -3.98, Yaw : 359.65, Alt : 49.1800003052, Lat : 49.2835709, Lng : -123.11502, Q1 : 0.998715341091, Q2 : 0.0367210917175, Q3 : -0.0348740518093, Q4 : -0.00174023467116}
2019-04-14 18:01:30.61: SIM {TimeUS : 54434884, Roll : 4.53, Pitch : -4.28, Yaw : 359.66, Alt : 49.1899986267, Lat : 49.283571, Lng : -123.1150198, Q1 : 0.998519301414, Q2 : 0.039429243654, Q3 : -0.0374506860971, Q4 : -0.00143418309744}
2019-04-14 18:01:30.71: SIM {TimeUS : 54534844, Roll : 4.79, Pitch : -4.52, Yaw : 359.68, Alt : 49.2000007629, Lat : 49.2835714, Lng : -123.1150193, Q1 : 0.998347997665, Q2 : 0.0416933633387, Q3 : -0.0395182929933, Q4 : -0.00112124858424}
2019-04-14 18:01:30.81: SIM {TimeUS : 54634804, Roll : 5.04, Pitch : -4.73, Yaw : 359.69, Alt : 49.2099990845, Lat : 49.2835716, Lng : -123.1150188, Q1 : 0.998179197311, Q2 : 0.0438350848854, Q3 : -0.0414260700345, Q4 : -0.000814789731521}
2019-04-14 18:01:30.91: SIM {TimeUS : 54734764, Roll : 5.3, Pitch : -5.0, Yaw : 359.7, Alt : 49.2200012207, Lat : 49.2835721, Lng : -123.1150182, Q1 : 0.997977495193, Q2 : 0.0461282655597, Q3 : -0.043736141175, Q4 : -0.000538864464033}
2019-04-14 18:01:31.01: SIM {TimeUS : 54834724, Roll : 5.58, Pitch : -5.28, Yaw : 359.71, Alt : 49.2200012207, Lat : 49.2835725, Lng : -123.1150175, Q1 : 0.997752547264, Q2 : 0.0485553964972, Q3 : -0.0461754910648, Q4 : -0.000272600766039}
2019-04-14 18:01:31.11: SIM {TimeUS : 54934684, Roll : 5.83, Pitch : -5.52, Yaw : 359.71, Alt : 49.2299995422, Lat : 49.2835728, Lng : -123.1150168, Q1 : 0.99754691124, Q2 : 0.0507480986416, Q3 : -0.048216983676, Q4 : -2.07730008697e-05}
2019-04-14 18:01:31.21: SIM {TimeUS : 55035477, Roll : 6.01, Pitch : -5.67, Yaw : 359.72, Alt : 49.2400016785, Lat : 49.2835734, Lng : -123.115016, Q1 : 0.99739998579, Q2 : 0.0523115992546, Q3 : -0.0495657622814, Q4 : 0.000203831630643}
2019-04-14 18:01:31.31: SIM {TimeUS : 55135437, Roll : 6.12, Pitch : -5.77, Yaw : 359.73, Alt : 49.2400016785, Lat : 49.2835739, Lng : -123.115015, Q1 : 0.997307837009, Q2 : 0.0532629266381, Q3 : -0.0503982566297, Q4 : 0.000385126128094}
2019-04-14 18:01:31.41: SIM {TimeUS : 55235397, Roll : 6.19, Pitch : -5.85, Yaw : 359.73, Alt : 49.25, Lat : 49.2835745, Lng : -123.1150139, Q1 : 0.997240185738, Q2 : 0.0538405403495, Q3 : -0.0511178970337, Q4 : 0.000494052481372}
2019-04-14 18:01:31.51: SIM {TimeUS : 55335357, Roll : 6.28, Pitch : -5.93, Yaw : 359.73, Alt : 49.25, Lat : 49.2835752, Lng : -123.1150129, Q1 : 0.99716091156, Q2 : 0.0546093136072, Q3 : -0.0518423393369, Q4 : 0.000563845736906}
2019-04-14 18:01:31.61: SIM {TimeUS : 55435317, Roll : 6.49, Pitch : -5.97, Yaw : 359.78, Alt : 49.25, Lat : 49.2835759, Lng : -123.1150118, Q1 : 0.997042953968, Q2 : 0.0564331114292, Q3 : -0.052150465548, Q4 : 0.00104349595495}
2019-04-14 18:01:31.71: SIM {TimeUS : 55535277, Roll : 6.95, Pitch : -5.89, Yaw : 0.25, Alt : 49.2599983215, Lat : 49.2835768, Lng : -123.1150105, Q1 : 0.996828496456, Q2 : 0.0607020258904, Q3 : -0.0511849112809, Q4 : 0.00533038610592}
2019-04-14 18:01:31.81: SIM {TimeUS : 55635237, Roll : 7.6, Pitch : -5.8, Yaw : 1.83, Alt : 49.2599983215, Lat : 49.2835776, Lng : -123.1150092, Q1 : 0.996333658695, Q2 : 0.0670568794012, Q3 : -0.0494822226465, Q4 : 0.0193433277309}
2019-04-14 18:01:31.91: SIM {TimeUS : 55735197, Roll : 8.14, Pitch : -6.03, Yaw : 4.97, Alt : 49.2599983215, Lat : 49.2835783, Lng : -123.1150078, Q1 : 0.994990408421, Q2 : 0.0731065794826, Q3 : -0.0494054853916, Q4 : 0.0469956807792}
2019-04-14 18:01:32.01: SIM {TimeUS : 55835157, Roll : 8.27, Pitch : -6.71, Yaw : 9.67, Alt : 49.2599983215, Lat : 49.2835793, Lng : -123.1150062, Q1 : 0.991775214672, Q2 : 0.0767353698611, Q3 : -0.052137196064, Q4 : 0.0881778672338}
2019-04-14 18:01:32.11: SIM {TimeUS : 55935117, Roll : 7.81, Pitch : -7.79, Yaw : 15.72, Alt : 49.2599983215, Lat : 49.2835801, Lng : -123.1150046, Q1 : 0.985369086266, Q2 : 0.0766530781984, Q3 : -0.0578709766269, Q4 : 0.1407943964}
2019-04-14 18:01:32.21: SIM {TimeUS : 56035077, Roll : 6.68, Pitch : -9.12, Yaw : 22.88, Alt : 49.2700004578, Lat : 49.2835811, Lng : -123.1150028, Q1 : 0.974431991577, Q2 : 0.0727250054479, Q3 : -0.0662647485733, Q4 : 0.201995894313}
2019-04-14 18:01:32.31: SIM {TimeUS : 56135037, Roll : 4.87, Pitch : -10.5, Yaw : 30.87, Alt : 49.2700004578, Lat : 49.2835819, Lng : -123.115001, Q1 : 0.957959115505, Q2 : 0.065198533237, Q3 : -0.0768823176622, Q4 : 0.268612295389}
2019-04-14 18:01:32.41: SIM {TimeUS : 56234997, Roll : 2.25, Pitch : -11.71, Yaw : 39.23, Alt : 49.2700004578, Lat : 49.283583, Lng : -123.114999, Q1 : 0.936178028584, Q2 : 0.0527027025819, Q3 : -0.0895544290543, Q4 : 0.335817158222}
2019-04-14 18:01:32.51: SIM {TimeUS : 56334957, Roll : -0.93, Pitch : -12.49, Yaw : 47.14, Alt : 49.2700004578, Lat : 49.283584, Lng : -123.1149969, Q1 : 0.91144245863, Q2 : 0.0360687300563, Q3 : -0.103002622724, Q4 : 0.396689087152}
2019-04-14 18:01:32.61: SIM {TimeUS : 56434917, Roll : -4.04, Pitch : -12.77, Yaw : 53.75, Alt : 49.2700004578, Lat : 49.283585, Lng : -123.1149948, Q1 : 0.887673377991, Q2 : 0.0189988743514, Q3 : -0.114977128804, Q4 : 0.445483237505}
2019-04-14 18:01:32.71: SIM {TimeUS : 56534877, Roll : -6.4, Pitch : -12.71, Yaw : 58.49, Alt : 49.2700004578, Lat : 49.2835862, Lng : -123.1149926, Q1 : 0.868837952614, Q2 : 0.00557877728716, Q3 : -0.123558603227, Q4 : 0.479398339987}
2019-04-14 18:01:32.81: SIM {TimeUS : 56634837, Roll : -7.7, Pitch : -12.55, Yaw : 61.21, Alt : 49.2700004578, Lat : 49.2835876, Lng : -123.1149904, Q1 : 0.857320666313, Q2 : -0.00188414845616, Q3 : -0.127921745181, Q4 : 0.498631894588}
2019-04-14 18:01:32.91: SIM {TimeUS : 56734797, Roll : -7.93, Pitch : -12.53, Yaw : 62.11, Alt : 49.2700004578, Lat : 49.283589, Lng : -123.1149881, Q1 : 0.853382647038, Q2 : -0.0027253755834, Q3 : -0.128765419126, Q4 : 0.505123853683}
2019-04-14 18:01:33.01: SIM {TimeUS : 56834757, Roll : -7.29, Pitch : -12.76, Yaw : 61.53, Alt : 49.2700004578, Lat : 49.2835905, Lng : -123.1149859, Q1 : 0.85583281517, Q2 : 0.00239466293715, Q3 : -0.127641305327, Q4 : 0.501250624657}
2019-04-14 18:01:33.11: SIM {TimeUS : 56934717, Roll : -6.05, Pitch : -13.23, Yaw : 59.81, Alt : 49.2700004578, Lat : 49.2835922, Lng : -123.1149835, Q1 : 0.8628911376, Q2 : 0.0118576679379, Q3 : -0.12589584291, Q4 : 0.489314317703}
2019-04-14 18:01:33.21: SIM {TimeUS : 57034677, Roll : -4.43, Pitch : -13.86, Yaw : 57.3, Alt : 49.2700004578, Lat : 49.2835939, Lng : -123.1149812, Q1 : 0.872714698315, Q2 : 0.0240748077631, Q3 : -0.124249592423, Q4 : 0.471541672945}
2019-04-14 18:01:33.31: SIM {TimeUS : 57135470, Roll : -2.62, Pitch : -14.54, Yaw : 54.29, Alt : 49.2799987793, Lat : 49.2835957, Lng : -123.1149788, Q1 : 0.883779168129, Q2 : 0.0374810136855, Q3 : -0.122969716787, Q4 : 0.449897795916}
2019-04-14 18:01:33.41: SIM {TimeUS : 57235430, Roll : -0.84, Pitch : -15.11, Yaw : 51.13, Alt : 49.2799987793, Lat : 49.2835975, Lng : -123.1149763, Q1 : 0.894613444805, Q2 : 0.0502133890986, Q3 : -0.121817782521, Q4 : 0.426972836256}
2019-04-14 18:01:33.51: SIM {TimeUS : 57335390, Roll : 0.77, Pitch : -15.51, Yaw : 48.15, Alt : 49.2799987793, Lat : 49.2835993, Lng : -123.1149736, Q1 : 0.904261291027, Q2 : 0.0612064749002, Q3 : -0.120494127274, Q4 : 0.405026525259}
2019-04-14 18:01:33.61: SIM {TimeUS : 57435350, Roll : 2.07, Pitch : -15.72, Yaw : 45.62, Alt : 49.2799987793, Lat : 49.2836012, Lng : -123.1149709, Q1 : 0.912001252174, Q2 : 0.0695859119296, Q3 : -0.119079276919, Q4 : 0.38630515337}
2019-04-14 18:01:33.71: SIM {TimeUS : 57535310, Roll : 2.97, Pitch : -15.77, Yaw : 43.77, Alt : 49.2799987793, Lat : 49.2836031, Lng : -123.114968, Q1 : 0.917506575584, Q2 : 0.0749585032463, Q3 : -0.11770452559, Q4 : 0.372435986996}
2019-04-14 18:01:33.81: SIM {TimeUS : 57635270, Roll : 3.41, Pitch : -15.73, Yaw : 42.69, Alt : 49.2799987793, Lat : 49.2836049, Lng : -123.114965, Q1 : 0.920742750168, Q2 : 0.077270463109, Q3 : -0.116734005511, Q4 : 0.364191263914}
2019-04-14 18:01:33.91: SIM {TimeUS : 57735230, Roll : 3.41, Pitch : -15.69, Yaw : 42.35, Alt : 49.2799987793, Lat : 49.2836069, Lng : -123.1149619, Q1 : 0.921845018864, Q2 : 0.076827660203, Q3 : -0.116584941745, Q4 : 0.361534506083}
2019-04-14 18:01:34.01: SIM {TimeUS : 57835190, Roll : 3.05, Pitch : -15.69, Yaw : 42.68, Alt : 49.2799987793, Lat : 49.2836089, Lng : -123.1149587, Q1 : 0.921047687531, Q2 : 0.0742836743593, Q3 : -0.117538176477, Q4 : 0.363782733679}
2019-04-14 18:01:34.11: SIM {TimeUS : 57935150, Roll : 2.42, Pitch : -15.78, Yaw : 43.51, Alt : 49.2799987793, Lat : 49.2836109, Lng : -123.1149554, Q1 : 0.91867852211, Q2 : 0.0703654661775, Q3 : -0.119740433991, Q4 : 0.369784742594}
2019-04-14 18:01:34.21: SIM {TimeUS : 58035110, Roll : 1.63, Pitch : -15.93, Yaw : 44.67, Alt : 49.2799987793, Lat : 49.2836128, Lng : -123.114952, Q1 : 0.915187180042, Q2 : 0.0657085329294, Q3 : -0.122837878764, Q4 : 0.378187417984}
2019-04-14 18:01:34.31: SIM {TimeUS : 58135070, Roll : 0.77, Pitch : -16.1, Yaw : 45.98, Alt : 49.2799987793, Lat : 49.283615, Lng : -123.1149485, Q1 : 0.911087095737, Q2 : 0.0608711801469, Q3 : -0.126355245709, Q4 : 0.38762024045}
2019-04-14 18:01:34.41: SIM {TimeUS : 58235030, Roll : -0.02, Pitch : -16.23, Yaw : 47.27, Alt : 49.2799987793, Lat : 49.283617, Lng : -123.114945, Q1 : 0.906934082508, Q2 : 0.056401848793, Q3 : -0.129492551088, Q4 : 0.39688923955}
2019-04-14 18:01:34.51: SIM {TimeUS : 58334990, Roll : -0.67, Pitch : -16.32, Yaw : 48.4, Alt : 49.2799987793, Lat : 49.2836191, Lng : -123.1149414, Q1 : 0.903199493885, Q2 : 0.0528437905014, Q3 : -0.131863474846, Q4 : 0.405031204224}
2019-04-14 18:01:34.61: SIM {TimeUS : 58434950, Roll : -1.15, Pitch : -16.36, Yaw : 49.27, Alt : 49.2799987793, Lat : 49.2836213, Lng : -123.1149377, Q1 : 0.900257050991, Q2 : 0.0502594783902, Q3 : -0.133498311043, Q4 : 0.411326497793}
2019-04-14 18:01:34.71: SIM {TimeUS : 58534910, Roll : -1.4, Pitch : -16.38, Yaw : 49.84, Alt : 49.2799987793, Lat : 49.2836235, Lng : -123.114934, Q1 : 0.898300647736, Q2 : 0.0490133464336, Q3 : -0.134368181229, Q4 : 0.415450245142}
2019-04-14 18:01:34.81: SIM {TimeUS : 58634870, Roll : -1.44, Pitch : -16.38, Yaw : 50.09, Alt : 49.2799987793, Lat : 49.2836256, Lng : -123.1149303, Q1 : 0.897407412529, Q2 : 0.0490693561733, Q3 : -0.134392812848, Q4 : 0.417361617088}
2019-04-14 18:01:34.91: SIM {TimeUS : 58734830, Roll : -1.3, Pitch : -16.38, Yaw : 50.04, Alt : 49.2900009155, Lat : 49.283628, Lng : -123.1149265, Q1 : 0.897505998611, Q2 : 0.0500386916101, Q3 : -0.133894756436, Q4 : 0.417194604874}
2019-04-14 18:01:35.01: SIM {TimeUS : 58834790, Roll : -1.07, Pitch : -16.41, Yaw : 49.77, Alt : 49.2900009155, Lat : 49.2836303, Lng : -123.1149227, Q1 : 0.898375451565, Q2 : 0.0516491308808, Q3 : -0.133369222283, Q4 : 0.415291011333}
2019-04-14 18:01:35.11: SIM {TimeUS : 58934750, Roll : -0.77, Pitch : -16.46, Yaw : 49.33, Alt : 49.2900009155, Lat : 49.2836326, Lng : -123.1149189, Q1 : 0.899762809277, Q2 : 0.0537200123072, Q3 : -0.132927775383, Q4 : 0.412154436111}
2019-04-14 18:01:35.21: SIM {TimeUS : 59034710, Roll : -0.44, Pitch : -16.55, Yaw : 48.8, Alt : 49.2900009155, Lat : 49.2836349, Lng : -123.114915, Q1 : 0.901411533356, Q2 : 0.0559891685843, Q3 : -0.132645279169, Q4 : 0.408323019743}
2019-04-14 18:01:35.31: SIM {TimeUS : 59134670, Roll : -0.12, Pitch : -16.62, Yaw : 48.25, Alt : 49.2900009155, Lat : 49.2836373, Lng : -123.1149111, Q1 : 0.903111159801, Q2 : 0.0581310801208, Q3 : -0.132363885641, Q4 : 0.404340058565}
2019-04-14 18:01:35.41: SIM {TimeUS : 59235463, Roll : 0.16, Pitch : -16.68, Yaw : 47.74, Alt : 49.2900009155, Lat : 49.2836397, Lng : -123.1149071, Q1 : 0.904672622681, Q2 : 0.060040447861, Q3 : -0.13209952414, Q4 : 0.400639951229}
2019-04-14 18:01:35.51: SIM {TimeUS : 59335423, Roll : 0.39, Pitch : -16.72, Yaw : 47.33, Alt : 49.2900009155, Lat : 49.2836421, Lng : -123.1149031, Q1 : 0.9059420228, Q2 : 0.0615038499236, Q3 : -0.131851285696, Q4 : 0.397619992495}
2019-04-14 18:01:35.61: SIM {TimeUS : 59435383, Roll : 0.54, Pitch : -16.75, Yaw : 47.03, Alt : 49.2900009155, Lat : 49.2836445, Lng : -123.114899, Q1 : 0.906855523586, Q2 : 0.0624415278435, Q3 : -0.131699606776, Q4 : 0.395435661077}
2019-04-14 18:01:35.71: SIM {TimeUS : 59535343, Roll : 0.62, Pitch : -16.77, Yaw : 46.87, Alt : 49.2900009155, Lat : 49.283647, Lng : -123.1148949, Q1 : 0.90736323595, Q2 : 0.0629481002688, Q3 : -0.131730109453, Q4 : 0.394178569317}
2019-04-14 18:01:35.81: SIM {TimeUS : 59635303, Roll : 0.62, Pitch : -16.8, Yaw : 46.82, Alt : 49.2900009155, Lat : 49.2836495, Lng : -123.1148908, Q1 : 0.907488226891, Q2 : 0.0630146488547, Q3 : -0.131935924292, Q4 : 0.393811196089}
2019-04-14 18:01:35.91: SIM {TimeUS : 59735263, Roll : 0.55, Pitch : -16.82, Yaw : 46.88, Alt : 49.2900009155, Lat : 49.2836519, Lng : -123.1148866, Q1 : 0.907302439213, Q2 : 0.0626030117273, Q3 : -0.132289379835, Q4 : 0.394186139107}
2019-04-14 18:01:36.01: SIM {TimeUS : 59835223, Roll : 0.43, Pitch : -16.84, Yaw : 47.01, Alt : 49.2900009155, Lat : 49.2836545, Lng : -123.1148825, Q1 : 0.906871438026, Q2 : 0.0619011223316, Q3 : -0.13281275332, Q4 : 0.395111739635}
2019-04-14 18:01:36.11: SIM {TimeUS : 59935183, Roll : 0.29, Pitch : -16.88, Yaw : 47.2, Alt : 49.2900009155, Lat : 49.283657, Lng : -123.1148782, Q1 : 0.906262159348, Q2 : 0.061165548861, Q3 : -0.13352817297, Q4 : 0.396380990744}
2019-04-14 18:01:36.21: SIM {TimeUS : 60035143, Roll : 0.15, Pitch : -16.94, Yaw : 47.4, Alt : 49.2900009155, Lat : 49.2836595, Lng : -123.114874, Q1 : 0.905575096607, Q2 : 0.0604381933808, Q3 : -0.134372487664, Q4 : 0.397775113583}
2019-04-14 18:01:36.31: SIM {TimeUS : 60135103, Roll : 0.0, Pitch : -16.99, Yaw : 47.59, Alt : 49.2999992371, Lat : 49.2836621, Lng : -123.1148697, Q1 : 0.904933094978, Q2 : 0.0596144236624, Q3 : -0.135168462992, Q4 : 0.399088591337}
2019-04-14 18:01:36.41: SIM {TimeUS : 60235063, Roll : -0.14, Pitch : -17.01, Yaw : 47.75, Alt : 49.2999992371, Lat : 49.2836645, Lng : -123.1148654, Q1 : 0.90441519022, Q2 : 0.0587746016681, Q3 : -0.135754525661, Q4 : 0.400186747313}
2019-04-14 18:01:36.51: SIM {TimeUS : 60335023, Roll : -0.25, Pitch : -17.03, Yaw : 47.87, Alt : 49.2999992371, Lat : 49.2836671, Lng : -123.114861, Q1 : 0.904043674469, Q2 : 0.0581123903394, Q3 : -0.136255502701, Q4 : 0.400951951742}
2019-04-14 18:01:36.61: SIM {TimeUS : 60434983, Roll : -0.3, Pitch : -17.07, Yaw : 47.93, Alt : 49.2999992371, Lat : 49.2836698, Lng : -123.1148567, Q1 : 0.903804957867, Q2 : 0.0579152852297, Q3 : -0.136688441038, Q4 : 0.401371032}
2019-04-14 18:01:36.71: SIM {TimeUS : 60534943, Roll : -0.29, Pitch : -17.11, Yaw : 47.94, Alt : 49.2999992371, Lat : 49.2836723, Lng : -123.1148523, Q1 : 0.903703391552, Q2 : 0.0581568963826, Q3 : -0.137034446001, Q4 : 0.401446759701}
2019-04-14 18:01:36.81: SIM {TimeUS : 60634903, Roll : -0.23, Pitch : -17.17, Yaw : 47.91, Alt : 49.2999992371, Lat : 49.2836749, Lng : -123.1148479, Q1 : 0.903739213943, Q2 : 0.0587254278362, Q3 : -0.137259081006, Q4 : 0.401206582785}
2019-04-14 18:01:36.91: SIM {TimeUS : 60734863, Roll : -0.15, Pitch : -17.21, Yaw : 47.84, Alt : 49.2999992371, Lat : 49.2836776, Lng : -123.1148435, Q1 : 0.903892338276, Q2 : 0.0594480708241, Q3 : -0.137382596731, Q4 : 0.4007127285}
2019-04-14 18:01:37.01: SIM {TimeUS : 60834823, Roll : -0.07, Pitch : -17.25, Yaw : 47.74, Alt : 49.2999992371, Lat : 49.2836802, Lng : -123.1148391, Q1 : 0.904143035412, Q2 : 0.0601092912257, Q3 : -0.137397930026, Q4 : 0.400042653084}
2019-04-14 18:01:37.11: SIM {TimeUS : 60934783, Roll : 0.0, Pitch : -17.26, Yaw : 47.63, Alt : 49.2999992371, Lat : 49.2836828, Lng : -123.1148346, Q1 : 0.904469490051, Q2 : 0.0605493374169, Q3 : -0.137296661735, Q4 : 0.399272292852}
2019-04-14 18:01:37.21: SIM {TimeUS : 61034743, Roll : 0.04, Pitch : -17.26, Yaw : 47.53, Alt : 49.3100013733, Lat : 49.2836855, Lng : -123.1148302, Q1 : 0.90480953455, Q2 : 0.0608441121876, Q3 : -0.137233823538, Q4 : 0.398477882147}
2019-04-14 18:01:37.31: SIM {TimeUS : 61134703, Roll : 0.1, Pitch : -17.27, Yaw : 47.43, Alt : 49.3100013733, Lat : 49.2836882, Lng : -123.1148257, Q1 : 0.905119717121, Q2 : 0.0611965954304, Q3 : -0.137129977345, Q4 : 0.397754520178}
2019-04-14 18:01:37.41: SIM {TimeUS : 61234663, Roll : 0.14, Pitch : -17.28, Yaw : 47.34, Alt : 49.3100013733, Lat : 49.2836908, Lng : -123.1148212, Q1 : 0.905367016792, Q2 : 0.0615324825048, Q3 : -0.137142032385, Q4 : 0.397135257721}
2019-04-14 18:01:37.51: SIM {TimeUS : 61335456, Roll : 0.19, Pitch : -17.32, Yaw : 47.28, Alt : 49.3100013733, Lat : 49.2836936, Lng : -123.1148166, Q1 : 0.905514895916, Q2 : 0.061955422163, Q3 : -0.137335598469, Q4 : 0.396665155888}
2019-04-14 18:01:37.61: SIM {TimeUS : 61435416, Roll : 0.22, Pitch : -17.38, Yaw : 47.24, Alt : 49.3100013733, Lat : 49.2836962, Lng : -123.1148121, Q1 : 0.90557706356, Q2 : 0.0623142980039, Q3 : -0.137657344341, Q4 : 0.396355479956}
2019-04-14 18:01:37.71: SIM {TimeUS : 61535376, Roll : 0.22, Pitch : -17.4, Yaw : 47.22, Alt : 49.3100013733, Lat : 49.283699, Lng : -123.1148075, Q1 : 0.905607402325, Q2 : 0.0624228343368, Q3 : -0.137871921062, Q4 : 0.396194338799}
2019-04-14 18:01:37.81: SIM {TimeUS : 61635336, Roll : 0.22, Pitch : -17.41, Yaw : 47.22, Alt : 49.3100013733, Lat : 49.2837016, Lng : -123.114803, Q1 : 0.905610144138, Q2 : 0.0623777285218, Q3 : -0.137919872999, Q4 : 0.396178513765}
2019-04-14 18:01:37.91: SIM {TimeUS : 61735296, Roll : 0.2, Pitch : -17.41, Yaw : 47.23, Alt : 49.3100013733, Lat : 49.2837044, Lng : -123.1147984, Q1 : 0.905578911304, Q2 : 0.0622534267604, Q3 : -0.1380186975, Q4 : 0.396235048771}
2019-04-14 18:01:38.01: SIM {TimeUS : 61835256, Roll : 0.15, Pitch : -17.43, Yaw : 47.25, Alt : 49.3100013733, Lat : 49.2837071, Lng : -123.1147938, Q1 : 0.905514359474, Q2 : 0.0619638860226, Q3 : -0.138367399573, Q4 : 0.396306276321}
2019-04-14 18:01:38.11: SIM {TimeUS : 61935216, Roll : 0.11, Pitch : -17.46, Yaw : 47.27, Alt : 49.3100013733, Lat : 49.2837099, Lng : -123.1147892, Q1 : 0.905431568623, Q2 : 0.0617912895977, Q3 : -0.138699263334, Q4 : 0.396406441927}
2019-04-14 18:01:38.21: SIM {TimeUS : 62035176, Roll : 0.08, Pitch : -17.5, Yaw : 47.28, Alt : 49.3100013733, Lat : 49.2837126, Lng : -123.1147846, Q1 : 0.905343413353, Q2 : 0.0617213323712, Q3 : -0.139067202806, Q4 : 0.396489739418}
2019-04-14 18:01:38.31: SIM {TimeUS : 62135136, Roll : 0.07, Pitch : -17.52, Yaw : 47.29, Alt : 49.3100013733, Lat : 49.2837154, Lng : -123.1147798, Q1 : 0.905286073685, Q2 : 0.0616747066379, Q3 : -0.139298573136, Q4 : 0.396546661854}
2019-04-14 18:01:38.41: SIM {TimeUS : 62235096, Roll : 0.06, Pitch : -17.54, Yaw : 47.3, Alt : 49.3199996948, Lat : 49.283718, Lng : -123.1147753, Q1 : 0.905251979828, Q2 : 0.0616965219378, Q3 : -0.139457821846, Q4 : 0.396565079689}
2019-04-14 18:01:38.51: SIM {TimeUS : 62335056, Roll : 0.07, Pitch : -17.54, Yaw : 47.3, Alt : 49.3199996948, Lat : 49.2837209, Lng : -123.1147707, Q1 : 0.905247986317, Q2 : 0.0618070960045, Q3 : -0.139457717538, Q4 : 0.396557092667}
2019-04-14 18:01:38.61: SIM {TimeUS : 62435016, Roll : 0.1, Pitch : -17.56, Yaw : 47.29, Alt : 49.3199996948, Lat : 49.2837236, Lng : -123.114766, Q1 : 0.905249297619, Q2 : 0.0620251074433, Q3 : -0.139508754015, Q4 : 0.396502047777}
2019-04-14 18:01:38.71: SIM {TimeUS : 62534976, Roll : 0.12, Pitch : -17.58, Yaw : 47.27, Alt : 49.3199996948, Lat : 49.2837264, Lng : -123.1147613, Q1 : 0.905264556408, Q2 : 0.0622831583023, Q3 : -0.139626726508, Q4 : 0.396385222673}
2019-04-14 18:01:38.81: SIM {TimeUS : 62634936, Roll : 0.13, Pitch : -17.62, Yaw : 47.25, Alt : 49.3199996948, Lat : 49.2837291, Lng : -123.1147566, Q1 : 0.905298054218, Q2 : 0.0624482892454, Q3 : -0.139895945787, Q4 : 0.396187841892}
2019-04-14 18:01:38.91: SIM {TimeUS : 62734896, Roll : 0.11, Pitch : -17.66, Yaw : 47.22, Alt : 49.3199996948, Lat : 49.283732, Lng : -123.1147518, Q1 : 0.905346393585, Q2 : 0.0624544620514, Q3 : -0.14031611383, Q4 : 0.39592769742}
2019-04-14 18:01:39.01: SIM {TimeUS : 62834856, Roll : 0.1, Pitch : -17.71, Yaw : 47.19, Alt : 49.3199996948, Lat : 49.2837348, Lng : -123.1147472, Q1 : 0.905396819115, Q2 : 0.0624926388264, Q3 : -0.140756726265, Q4 : 0.395649880171}
2019-04-14 18:01:39.11: SIM {TimeUS : 62934816, Roll : 0.11, Pitch : -17.75, Yaw : 47.16, Alt : 49.3199996948, Lat : 49.2837375, Lng : -123.1147425, Q1 : 0.905456662178, Q2 : 0.0626570135355, Q3 : -0.140994951129, Q4 : 0.395402014256}
2019-04-14 18:01:39.21: SIM {TimeUS : 63034776, Roll : 0.13, Pitch : -17.75, Yaw : 47.13, Alt : 49.3199996948, Lat : 49.2837404, Lng : -123.1147378, Q1 : 0.90554869175, Q2 : 0.0627425089478, Q3 : -0.14097365737, Q4 : 0.395185291767}
2019-04-14 18:01:39.31: SIM {TimeUS : 63134736, Roll : 0.15, Pitch : -17.73, Yaw : 47.1, Alt : 49.3199996948, Lat : 49.2837433, Lng : -123.1147331, Q1 : 0.905653476715, Q2 : 0.0627855062485, Q3 : -0.14077834785, Q4 : 0.395007938147}
2019-04-14 18:01:39.41: SIM {TimeUS : 63234696, Roll : 0.15, Pitch : -17.71, Yaw : 47.08, Alt : 49.3199996948, Lat : 49.283746, Lng : -123.1147283, Q1 : 0.905741989613, Q2 : 0.0627464950085, Q3 : -0.140630170703, Q4 : 0.394863903522}
2019-04-14 18:01:39.51: SIM {TimeUS : 63334656, Roll : 0.16, Pitch : -17.69, Yaw : 47.06, Alt : 49.3199996948, Lat : 49.2837489, Lng : -123.1147236, Q1 : 0.905819654465, Q2 : 0.0627293586731, Q3 : -0.140466168523, Q4 : 0.394746929407}
2019-04-14 18:01:39.61: SIM {TimeUS : 63435449, Roll : 0.16, Pitch : -17.68, Yaw : 47.05, Alt : 49.3199996948, Lat : 49.2837518, Lng : -123.1147187, Q1 : 0.905880212784, Q2 : 0.0626925006509, Q3 : -0.140329167247, Q4 : 0.394662499428}
2019-04-14 18:01:39.71: SIM {TimeUS : 63535409, Roll : 0.16, Pitch : -17.68, Yaw : 47.04, Alt : 49.3199996948, Lat : 49.2837545, Lng : -123.114714, Q1 : 0.905907392502, Q2 : 0.0626727491617, Q3 : -0.140401035547, Q4 : 0.394577562809}
2019-04-14 18:01:39.81: SIM {TimeUS : 63635369, Roll : 0.16, Pitch : -17.7, Yaw : 47.03, Alt : 49.3199996948, Lat : 49.2837575, Lng : -123.1147092, Q1 : 0.905911564827, Q2 : 0.0627249181271, Q3 : -0.140573367476, Q4 : 0.394498437643}
2019-04-14 18:01:39.91: SIM {TimeUS : 63735329, Roll : 0.14, Pitch : -17.76, Yaw : 47.03, Alt : 49.3300018311, Lat : 49.2837603, Lng : -123.1147044, Q1 : 0.905881941319, Q2 : 0.0627718344331, Q3 : -0.141035944223, Q4 : 0.394393891096}
2019-04-14 18:01:40.01: SIM {TimeUS : 63835289, Roll : 0.14, Pitch : -17.81, Yaw : 47.02, Alt : 49.3300018311, Lat : 49.2837631, Lng : -123.1146996, Q1 : 0.905844688416, Q2 : 0.0628852248192, Q3 : -0.141507714987, Q4 : 0.394292324781}
2019-04-14 18:01:40.11: SIM {TimeUS : 63935249, Roll : 0.14, Pitch : -17.85, Yaw : 47.01, Alt : 49.3300018311, Lat : 49.283766, Lng : -123.1146948, Q1 : 0.905825197697, Q2 : 0.0630479156971, Q3 : -0.141779601574, Q4 : 0.394213408232}
2019-04-14 18:01:40.21: SIM {TimeUS : 64035209, Roll : 0.14, Pitch : -17.88, Yaw : 47.0, Alt : 49.3300018311, Lat : 49.2837689, Lng : -123.11469, Q1 : 0.905814945698, Q2 : 0.0631187707186, Q3 : -0.14205737412, Q4 : 0.394125699997}
2019-04-14 18:01:40.31: SIM {TimeUS : 64135169, Roll : 0.13, Pitch : -17.9, Yaw : 46.99, Alt : 49.3300018311, Lat : 49.2837717, Lng : -123.1146852, Q1 : 0.905823230743, Q2 : 0.0631236359477, Q3 : -0.14224717021, Q4 : 0.394037395716}
2019-04-14 18:01:40.41: SIM {TimeUS : 64235129, Roll : 0.15, Pitch : -17.89, Yaw : 46.98, Alt : 49.3300018311, Lat : 49.2837746, Lng : -123.1146804, Q1 : 0.905855834484, Q2 : 0.0632131844759, Q3 : -0.142141759396, Q4 : 0.393986105919}
2019-04-14 18:01:40.51: SIM {TimeUS : 64335089, Roll : 0.17, Pitch : -17.9, Yaw : 46.97, Alt : 49.3300018311, Lat : 49.2837775, Lng : -123.1146755, Q1 : 0.905877888203, Q2 : 0.0634074211121, Q3 : -0.142094179988, Q4 : 0.39392131567}
2019-04-14 18:01:40.61: SIM {TimeUS : 64435049, Roll : 0.18, Pitch : -17.91, Yaw : 46.96, Alt : 49.3300018311, Lat : 49.2837804, Lng : -123.1146707, Q1 : 0.905897080898, Q2 : 0.0635326132178, Q3 : -0.142161846161, Q4 : 0.393832623959}
2019-04-14 18:01:40.71: SIM {TimeUS : 64535009, Roll : 0.19, Pitch : -17.92, Yaw : 46.95, Alt : 49.3300018311, Lat : 49.2837832, Lng : -123.1146659, Q1 : 0.905923902988, Q2 : 0.0636306777596, Q3 : -0.142193362117, Q4 : 0.393743664026}
2019-04-14 18:01:40.81: SIM {TimeUS : 64634969, Roll : 0.2, Pitch : -17.91, Yaw : 46.93, Alt : 49.3300018311, Lat : 49.2837861, Lng : -123.114661, Q1 : 0.905966818333, Q2 : 0.0636567473412, Q3 : -0.142144426703, Q4 : 0.393658429384}
2019-04-14 18:01:40.91: SIM {TimeUS : 64734929, Roll : 0.2, Pitch : -17.91, Yaw : 46.92, Alt : 49.3300018311, Lat : 49.2837891, Lng : -123.1146562, Q1 : 0.906009495258, Q2 : 0.0636219233274, Q3 : -0.142167493701, Q4 : 0.393557518721}
2019-04-14 18:01:41.01: SIM {TimeUS : 64834889, Roll : 0.18, Pitch : -17.93, Yaw : 46.91, Alt : 49.3300018311, Lat : 49.283792, Lng : -123.1146513, Q1 : 0.906039357185, Q2 : 0.0635048523545, Q3 : -0.142403736711, Q4 : 0.393422186375}
2019-04-14 18:01:41.11: SIM {TimeUS : 64934849, Roll : 0.14, Pitch : -17.97, Yaw : 46.9, Alt : 49.3300018311, Lat : 49.2837948, Lng : -123.1146465, Q1 : 0.906050562859, Q2 : 0.0633522719145, Q3 : -0.142836630344, Q4 : 0.39326402545}
2019-04-14 18:01:41.21: SIM {TimeUS : 65034809, Roll : 0.13, Pitch : -17.98, Yaw : 46.89, Alt : 49.3300018311, Lat : 49.2837977, Lng : -123.1146416, Q1 : 0.906085073948, Q2 : 0.0632547959685, Q3 : -0.142973989248, Q4 : 0.393150210381}
2019-04-14 18:01:41.31: SIM {TimeUS : 65134769, Roll : 0.14, Pitch : -17.98, Yaw : 46.88, Alt : 49.3300018311, Lat : 49.2838007, Lng : -123.1146367, Q1 : 0.906127512455, Q2 : 0.0632849857211, Q3 : -0.142888709903, Q4 : 0.393078625202}
2019-04-14 18:01:41.41: SIM {TimeUS : 65234729, Roll : 0.16, Pitch : -17.97, Yaw : 46.86, Alt : 49.3400001526, Lat : 49.2838036, Lng : -123.1146318, Q1 : 0.906165242195, Q2 : 0.0634007081389, Q3 : -0.142761066556, Q4 : 0.393019318581}
2019-04-14 18:01:41.51: SIM {TimeUS : 65334689, Roll : 0.17, Pitch : -17.97, Yaw : 46.85, Alt : 49.3400001526, Lat : 49.2838065, Lng : -123.114627, Q1 : 0.906189501286, Q2 : 0.063528932631, Q3 : -0.142765253782, Q4 : 0.392941206694}
2019-04-14 18:01:41.61: SIM {TimeUS : 65435482, Roll : 0.17, Pitch : -17.99, Yaw : 46.84, Alt : 49.3400001526, Lat : 49.2838093, Lng : -123.114622, Q1 : 0.906216323376, Q2 : 0.0635120421648, Q3 : -0.142890095711, Q4 : 0.392836660147}
2019-04-14 18:01:41.71: SIM {TimeUS : 65535442, Roll : 0.14, Pitch : -18.0, Yaw : 46.83, Alt : 49.3400001526, Lat : 49.2838123, Lng : -123.1146171, Q1 : 0.906243383884, Q2 : 0.063388094306, Q3 : -0.143110916018, Q4 : 0.392713844776}
2019-04-14 18:01:41.81: SIM {TimeUS : 65635402, Roll : 0.13, Pitch : -18.02, Yaw : 46.82, Alt : 49.3400001526, Lat : 49.2838153, Lng : -123.1146123, Q1 : 0.906266987324, Q2 : 0.0633157640696, Q3 : -0.143300309777, Q4 : 0.39260199666}
2019-04-14 18:01:41.91: SIM {TimeUS : 65735362, Roll : 0.14, Pitch : -18.04, Yaw : 46.81, Alt : 49.3400001526, Lat : 49.2838182, Lng : -123.1146074, Q1 : 0.906280100346, Q2 : 0.0634062215686, Q3 : -0.143439635634, Q4 : 0.392506182194}
2019-04-14 18:01:42.01: SIM {TimeUS : 65835322, Roll : 0.15, Pitch : -18.06, Yaw : 46.8, Alt : 49.3400001526, Lat : 49.2838211, Lng : -123.1146025, Q1 : 0.906291425228, Q2 : 0.0635433867574, Q3 : -0.143538430333, Q4 : 0.392421752214}
2019-04-14 18:01:42.11: SIM {TimeUS : 65935282, Roll : 0.17, Pitch : -18.07, Yaw : 46.79, Alt : 49.3400001526, Lat : 49.283824, Lng : -123.1145974, Q1 : 0.906291365623, Q2 : 0.0637693554163, Q3 : -0.143567785621, Q4 : 0.392374545336}
2019-04-14 18:01:42.21: SIM {TimeUS : 66035242, Roll : 0.18, Pitch : -18.09, Yaw : 46.78, Alt : 49.3400001526, Lat : 49.2838269, Lng : -123.1145926, Q1 : 0.906283915043, Q2 : 0.0639331638813, Q3 : -0.143691971898, Q4 : 0.392319560051}
2019-04-14 18:01:42.31: SIM {TimeUS : 66135202, Roll : 0.2, Pitch : -18.11, Yaw : 46.77, Alt : 49.3400001526, Lat : 49.2838299, Lng : -123.1145877, Q1 : 0.906274795532, Q2 : 0.0640994384885, Q3 : -0.143820315599, Q4 : 0.392266511917}
2019-04-14 18:01:42.41: SIM {TimeUS : 66235162, Roll : 0.21, Pitch : -18.13, Yaw : 46.77, Alt : 49.3400001526, Lat : 49.2838329, Lng : -123.1145828, Q1 : 0.906264722347, Q2 : 0.0642882362008, Q3 : -0.143907412887, Q4 : 0.392226964235}
2019-04-14 18:01:42.51: SIM {TimeUS : 66335122, Roll : 0.25, Pitch : -18.14, Yaw : 46.76, Alt : 49.3400001526, Lat : 49.2838358, Lng : -123.1145779, Q1 : 0.906261205673, Q2 : 0.0645473375916, Q3 : -0.143851742148, Q4 : 0.392212927341}
