2019-04-14 18:35:01.70: SIM {TimeUS : 40716207, Roll : 0.0, Pitch : 0.0, Yaw : 0.0, Alt : 30.1000003815, Lat : 49.28357, Lng : -123.11502, Q1 : 1.0, Q2 : 0.0, Q3 : 0.0, Q4 : 0.0}
2019-04-14 18:35:01.81: SIM {TimeUS : 40835326, Roll : 0.0, Pitch : 0.0, Yaw : 0.0, Alt : 30.1000003815, Lat : 49.28357, Lng : -123.11502, Q1 : 1.0, Q2 : 0.0, Q3 : 0.0, Q4 : 0.0}
2019-04-14 18:35:01.91: SIM {TimeUS : 40935286, Roll : 0.0, Pitch : 0.0, Yaw : 0.0, Alt : 30.1000003815, Lat : 49.28357, Lng : -123.11502, Q1 : 1.0, Q2 : 0.0, Q3 : 0.0, Q4 : 0.0}
2019-04-14 18:35:02.01: SIM {TimeUS : 41035246, Roll : 0.0, Pitch : 0.0, Yaw : 0.0, Alt : 30.1000003815, Lat : 49.28357, Lng : -123.11502, Q1 : 1.0, Q2 : 0.0, Q3 : 0.0, Q4 : 0.0}
2019-04-14 18:35:02.11: SIM {TimeUS : 41135206, Roll : 0.0, Pitch : 0.0, Yaw : 0.0, Alt : 30.1000003815, Lat : 49.28357, Lng : -123.11502, Q1 : 1.0, Q2 : 0.0, Q3 : 0.0, Q4 : 0.0}
2019-04-14 18:35:02.21: SIM {TimeUS : 41235166, Roll : 0.0, Pitch : 0.0, Yaw : 0.0, Alt : 30.1000003815, Lat : 49.28357, Lng : -123.11502, Q1 : 1.0, Q2 : 0.0, Q3 : 0.0, Q4 : 0.0}
2019-04-14 18:35:02.31: SIM {TimeUS : 41335126, Roll : 0.0, Pitch : 0.0, Yaw : 0.0, Alt : 30.1000003815, Lat : 49.28357, Lng : -123.11502, Q1 : 1.0, Q2 : 0.0, Q3 : 0.0, Q4 : 0.0}
2019-04-14 18:35:02.41: SIM {TimeUS : 41435086, Roll : 0.0, Pitch : 0.0, Yaw : 0.0, Alt : 30.1000003815, Lat : 49.28357, Lng : -123.11502, Q1 : 1.0, Q2 : 0.0, Q3 : 0.0, Q4 : 0.0}
2019-04-14 18:35:02.51: SIM {TimeUS : 41535046, Roll : 0.0, Pitch : 0.0, Yaw : 0.0, Alt : 30.1000003815, Lat : 49.28357, Lng : -123.11502, Q1 : 1.0, Q2 : 0.0, Q3 : 0.0, Q4 : 0.0}
2019-04-14 18:35:02.61: SIM {TimeUS : 41635006, Roll : 0.0, Pitch : 0.0, Yaw : 0.0, Alt : 30.1000003815, Lat : 49.28357, Lng : -123.11502, Q1 : 1.0, Q2 : 0.0, Q3 : 0.0, Q4 : 0.0}
2019-04-14 18:35:02.71: SIM {TimeUS : 41734966, Roll : 0.0, Pitch : 0.0, Yaw : 0.0, Alt : 30.1000003815, Lat : 49.28357, Lng : -123.11502, Q1 : 1.0, Q2 : 0.0, Q3 : 0.0, Q4 : 0.0}
2019-04-14 18:35:02.81: SIM {TimeUS : 41834926, Roll : 0.0, Pitch : 0.0, Yaw : 0.0, Alt : 30.1000003815, Lat : 49.28357, Lng : -123.11502, Q1 : 1.0, Q2 : 0.0, Q3 : 0.0, Q4 : 0.0}
2019-04-14 18:35:02.91: SIM {TimeUS : 41934886, Roll : 0.0, Pitch : 0.0, Yaw : 0.0, Alt : 30.1000003815, Lat : 49.28357, Lng : -123.11502, Q1 : 1.0, Q2 : 0.0, Q3 : 0.0, Q4 : 0.0}
2019-04-14 18:35:03.01: SIM {TimeUS : 42034846, Roll : 0.0, Pitch : 0.0, Yaw : 0.0, Alt : 30.1000003815, Lat : 49.28357, Lng : -123.11502, Q1 : 1.0, Q2 : 0.0, Q3 : 0.0, Q4 : 0.0}
2019-04-14 18:35:03.11: SIM {TimeUS : 42134806, Roll : 0.0, Pitch : 0.0, Yaw : 0.0, Alt : 30.1000003815, Lat : 49.28357, Lng : -123.11502, Q1 : 1.0, Q2 : 0.0, Q3 : 0.0, Q4 : 0.0}
2019-04-14 18:35:03.21: SIM {TimeUS : 42234766, Roll : 0.0, Pitch : 0.0, Yaw : 0.0, Alt : 30.1000003815, Lat : 49.28357, Lng : -123.11502, Q1 : 1.0, Q2 : 0.0, Q3 : 0.0, Q4 : 0.0}
2019-04-14 18:35:03.31: SIM {TimeUS : 42334726, Roll : 0.0, Pitch : 0.0, Yaw : 0.0, Alt : 30.1000003815, Lat : 49.28357, Lng : -123.11502, Q1 : 1.0, Q2 : 0.0, Q3 : 0.0, Q4 : 0.0}
2019-04-14 18:35:03.41: SIM {TimeUS : 42434686, Roll : 0.0, Pitch : 0.0, Yaw : 0.0, Alt : 30.1000003815, Lat : 49.28357, Lng : -123.11502, Q1 : 1.0, Q2 : 0.0, Q3 : 0.0, Q4 : 0.0}
2019-04-14 18:35:03.51: SIM {TimeUS : 42534646, Roll : 0.0, Pitch : 0.0, Yaw : 0.0, Alt : 30.1000003815, Lat : 49.28357, Lng : -123.11502, Q1 : 1.0, Q2 : 0.0, Q3 : 0.0, Q4 : 0.0}
2019-04-14 18:35:03.61: SIM {TimeUS : 42634606, Roll : 0.0, Pitch : 0.0, Yaw : 0.0, Alt : 30.1000003815, Lat : 49.28357, Lng : -123.11502, Q1 : 1.0, Q2 : 0.0, Q3 : 0.0, Q4 : 0.0}
2019-04-14 18:35:03.71: SIM {TimeUS : 42734566, Roll : 0.0, Pitch : 0.0, Yaw : 0.0, Alt : 30.1000003815, Lat : 49.28357, Lng : -123.11502, Q1 : 1.0, Q2 : 0.0, Q3 : 0.0, Q4 : 0.0}
2019-04-14 18:35:03.82: SIM {TimeUS : 42835359, Roll : 0.0, Pitch : 0.0, Yaw : 0.0, Alt : 30.1000003815, Lat : 49.28357, Lng : -123.11502, Q1 : 1.0, Q2 : 0.0, Q3 : 0.0, Q4 : 0.0}
2019-04-14 18:35:03.91: SIM {TimeUS : 42935319, Roll : 0.0, Pitch : 0.0, Yaw : 0.0, Alt : 30.1000003815, Lat : 49.28357, Lng : -123.11502, Q1 : 1.0, Q2 : 0.0, Q3 : 0.0, Q4 : 0.0}
2019-04-14 18:35:04.01: SIM {TimeUS : 43035279, Roll : 0.0, Pitch : 0.0, Yaw : 0.0, Alt : 30.1000003815, Lat : 49.28357, Lng : -123.11502, Q1 : 1.0, Q2 : 0.0, Q3 : 0.0, Q4 : 6.45378759115e-12}
2019-04-14 18:35:04.11: SIM {TimeUS : 43135239, Roll : 0.0, Pitch : 0.0, Yaw : 0.0, Alt : 30.1000003815, Lat : 49.28357, Lng : -123.11502, Q1 : 1.0, Q2 : 0.0, Q3 : 0.0, Q4 : 1.04344363011e-11}
2019-04-14 18:35:04.21: SIM {TimeUS : 43235199, Roll : 0.0, Pitch : 0.0, Yaw : 360.0, Alt : 30.1000003815, Lat : 49.28357, Lng : -123.11502, Q1 : 1.0, Q2 : 0.0, Q3 : 0.0, Q4 : -9.69060778289e-08}
2019-04-14 18:35:04.31: SIM {TimeUS : 43335159, Roll : 0.0, Pitch : 0.0, Yaw : 359.99, Alt : 30.1000003815, Lat : 49.28357, Lng : -123.11502, Q1 : 1.0, Q2 : 0.0, Q3 : 0.0, Q4 : -2.49562532417e-07}
2019-04-14 18:35:04.41: SIM {TimeUS : 43435119, Roll : 0.0, Pitch : 0.0, Yaw : 359.99, Alt : 30.1000003815, Lat : 49.28357, Lng : -123.11502, Q1 : 1.0, Q2 : 0.0, Q3 : 0.0, Q4 : -4.56291587625e-07}
2019-04-14 18:35:04.51: SIM {TimeUS : 43535079, Roll : 0.0, Pitch : 0.0, Yaw : 359.99, Alt : 30.1000003815, Lat : 49.28357, Lng : -123.11502, Q1 : 1.0, Q2 : 0.0, Q3 : 0.0, Q4 : -6.12485280271e-07}
2019-04-14 18:35:04.61: SIM {TimeUS : 43635039, Roll : 0.0, Pitch : 0.0, Yaw : 359.99, Alt : 30.1000003815, Lat : 49.28357, Lng : -123.11502, Q1 : 1.0, Q2 : 0.0, Q3 : 0.0, Q4 : -8.06498121619e-07}
2019-04-14 18:35:04.71: SIM {TimeUS : 43734999, Roll : 0.0, Pitch : 0.0, Yaw : 359.99, Alt : 30.1000003815, Lat : 49.28357, Lng : -123.11502, Q1 : 1.0, Q2 : 0.0, Q3 : 0.0, Q4 : -9.7890165307e-07}
2019-04-14 18:35:04.81: SIM {TimeUS : 43834959, Roll : 0.0, Pitch : 0.0, Yaw : 359.99, Alt : 30.1000003815, Lat : 49.28357, Lng : -123.11502, Q1 : 1.0, Q2 : 0.0, Q3 : 0.0, Q4 : -1.15503428333e-06}
2019-04-14 18:35:04.91: SIM {TimeUS : 43934919, Roll : 0.0, Pitch : 0.0, Yaw : 359.99, Alt : 30.1100006104, Lat : 49.28357, Lng : -123.11502, Q1 : 1.0, Q2 : 0.0, Q3 : 0.0, Q4 : -1.34757715387e-06}
2019-04-14 18:35:05.01: SIM {TimeUS : 44034879, Roll : 0.0, Pitch : 0.0, Yaw : 359.99, Alt : 30.1299991608, Lat : 49.28357, Lng : -123.11502, Q1 : 1.0, Q2 : 0.0, Q3 : 0.0, Q4 : -1.56363739734e-06}
2019-04-14 18:35:05.11: SIM {TimeUS : 44134839, Roll : 0.0, Pitch : 0.0, Yaw : 359.99, Alt : 30.1599998474, Lat : 49.28357, Lng : -123.11502, Q1 : 1.0, Q2 : 0.0, Q3 : 0.0, Q4 : -1.81010864253e-06}
2019-04-14 18:35:05.21: SIM {TimeUS : 44234799, Roll : 0.0, Pitch : 0.0, Yaw : 359.99, Alt : 30.1900005341, Lat : 49.28357, Lng : -123.11502, Q1 : 1.0, Q2 : 0.0, Q3 : 0.0, Q4 : -2.03701415558e-06}
2019-04-14 18:35:05.31: SIM {TimeUS : 44334759, Roll : -0.03, Pitch : -0.03, Yaw : 359.99, Alt : 30.2299995422, Lat : 49.28357, Lng : -123.11502, Q1 : 0.999999940395, Q2 : -0.000281902059214, Q3 : -0.000263788417215, Q4 : -4.0382460611e-06}
2019-04-14 18:35:05.41: SIM {TimeUS : 44434719, Roll : -0.25, Pitch : -0.26, Yaw : 359.99, Alt : 30.2999992371, Lat : 49.28357, Lng : -123.11502, Q1 : 0.999994933605, Q2 : -0.00223296368495, Q3 : -0.00228156684898, Q4 : -2.77438502962e-05}
2019-04-14 18:35:05.51: SIM {TimeUS : 44534679, Roll : -0.54, Pitch : -0.53, Yaw : 359.99, Alt : 30.4400005341, Lat : 49.28357, Lng : -123.11502, Q1 : 0.999977767467, Q2 : -0.00477814022452, Q3 : -0.00465042237192, Q4 : -8.11356658232e-05}
2019-04-14 18:35:05.61: SIM {TimeUS : 44634639, Roll : -0.77, Pitch : -0.7, Yaw : 359.98, Alt : 30.5900001526, Lat : 49.28357, Lng : -123.11502, Q1 : 0.999958515167, Q2 : -0.00672701233998, Q3 : -0.00613874010742, Q4 : -0.000154296911205}
2019-04-14 18:35:05.71: SIM {TimeUS : 44734599, Roll : -0.83, Pitch : -0.74, Yaw : 359.97, Alt : 30.75, Lat : 49.28357, Lng : -123.11502, Q1 : 0.999952554703, Q2 : -0.00729084713385, Q3 : -0.00645755138248, Q4 : -0.000232829421293}
2019-04-14 18:35:05.81: SIM {TimeUS : 44834559, Roll : -0.74, Pitch : -0.65, Yaw : 359.96, Alt : 30.9099998474, Lat : 49.28357, Lng : -123.1150201, Q1 : 0.999962508678, Q2 : -0.00647873338312, Q3 : -0.00573660712689, Q4 : -0.000317538069794}
2019-04-14 18:35:05.92: SIM {TimeUS : 44935352, Roll : -0.54, Pitch : -0.49, Yaw : 359.95, Alt : 31.0599994659, Lat : 49.2835701, Lng : -123.1150201, Q1 : 0.999979436398, Q2 : -0.00475646648556, Q3 : -0.00428229896352, Q4 : -0.000392780406401}
2019-04-14 18:35:06.01: SIM {TimeUS : 45035312, Roll : -0.3, Pitch : -0.29, Yaw : 359.94, Alt : 31.2199993134, Lat : 49.2835701, Lng : -123.1150202, Q1 : 0.999993026257, Q2 : -0.00265535432845, Q3 : -0.00257923523895, Q4 : -0.00045723299263}
2019-04-14 18:35:06.11: SIM {TimeUS : 45135272, Roll : -0.09, Pitch : -0.12, Yaw : 359.94, Alt : 31.3799991608, Lat : 49.2835702, Lng : -123.1150203, Q1 : 0.999998927116, Q2 : -0.000795633939561, Q3 : -0.00110641517676, Q4 : -0.000499855261296}
2019-04-14 18:35:06.21: SIM {TimeUS : 45235232, Roll : 0.04, Pitch : 0.0, Yaw : 359.93, Alt : 31.5599994659, Lat : 49.2835702, Lng : -123.1150204, Q1 : 0.999999761581, Q2 : 0.000392210233258, Q3 : -9.13591793505e-06, Q4 : -0.000527281488758}
2019-04-14 18:35:06.31: SIM {TimeUS : 45335192, Roll : 0.09, Pitch : 0.07, Yaw : 359.93, Alt : 31.7299995422, Lat : 49.2835702, Lng : -123.1150204, Q1 : 0.999999344349, Q2 : 0.000818050059024, Q3 : 0.000631130009424, Q4 : -0.000542055815458}
2019-04-14 18:35:06.41: SIM {TimeUS : 45435152, Roll : 0.07, Pitch : 0.1, Yaw : 359.93, Alt : 31.9099998474, Lat : 49.2835703, Lng : -123.1150205, Q1 : 0.99999922514, Q2 : 0.000684049271513, Q3 : 0.000875474943314, Q4 : -0.000546899682377}
2019-04-14 18:35:06.51: SIM {TimeUS : 45535112, Roll : 0.06, Pitch : 0.11, Yaw : 359.93, Alt : 32.0999984741, Lat : 49.2835703, Lng : -123.1150206, Q1 : 0.99999922514, Q2 : 0.000540645385627, Q3 : 0.00099810177926, Q4 : -0.000535013154149}
2019-04-14 18:35:06.61: SIM {TimeUS : 45635072, Roll : 0.05, Pitch : 0.12, Yaw : 359.94, Alt : 32.2900009155, Lat : 49.2835703, Lng : -123.1150206, Q1 : 0.999999165535, Q2 : 0.000483739713673, Q3 : 0.00108082802035, Q4 : -0.00051994813839}
2019-04-14 18:35:06.71: SIM {TimeUS : 45735032, Roll : 0.05, Pitch : 0.13, Yaw : 359.94, Alt : 32.4799995422, Lat : 49.2835703, Lng : -123.1150206, Q1 : 0.99999910593, Q2 : 0.000461710616946, Q3 : 0.00115565990563, Q4 : -0.000507443561219}
2019-04-14 18:35:06.81: SIM {TimeUS : 45834992, Roll : 0.06, Pitch : 0.15, Yaw : 359.94, Alt : 32.6800003052, Lat : 49.2835703, Lng : -123.1150207, Q1 : 0.999998867512, Q2 : 0.000541877525393, Q3 : 0.0013246294111, Q4 : -0.000496785505675}
2019-04-14 18:35:06.91: SIM {TimeUS : 45934952, Roll : 0.09, Pitch : 0.14, Yaw : 359.94, Alt : 32.8699989319, Lat : 49.2835703, Lng : -123.1150207, Q1 : 0.999998748302, Q2 : 0.00079791888129, Q3 : 0.00130282063037, Q4 : -0.000489480851684}
2019-04-14 18:35:07.01: SIM {TimeUS : 46034912, Roll : 0.12, Pitch : 0.13, Yaw : 359.94, Alt : 33.0699996948, Lat : 49.2835704, Lng : -123.1150207, Q1 : 0.999998629093, Q2 : 0.00110318104271, Q3 : 0.00113895710092, Q4 : -0.000485017400933}
2019-04-14 18:35:07.11: SIM {TimeUS : 46134872, Roll : 0.15, Pitch : 0.11, Yaw : 359.94, Alt : 33.2799987793, Lat : 49.2835704, Lng : -123.1150208, Q1 : 0.999998450279, Q2 : 0.00138637679629, Q3 : 0.0010055124294, Q4 : -0.000476678047562}
2019-04-14 18:35:07.21: SIM {TimeUS : 46234832, Roll : 0.17, Pitch : 0.11, Yaw : 359.94, Alt : 33.4799995422, Lat : 49.2835704, Lng : -123.1150208, Q1 : 0.999998152256, Q2 : 0.00155708554666, Q3 : 0.000999526004307, Q4 : -0.000467317702714}
2019-04-14 18:35:07.31: SIM {TimeUS : 46334792, Roll : 0.19, Pitch : 0.12, Yaw : 359.94, Alt : 33.6899986267, Lat : 49.2835704, Lng : -123.1150208, Q1 : 0.999997794628, Q2 : 0.00170855992474, Q3 : 0.00111253559589, Q4 : -0.000458629190689}
2019-04-14 18:35:07.41: SIM {TimeUS : 46434752, Roll : 0.19, Pitch : 0.12, Yaw : 359.94, Alt : 33.9000015259, Lat : 49.2835704, Lng : -123.1150208, Q1 : 0.999997854233, Q2 : 0.00168912636582, Q3 : 0.00111654296052, Q4 : -0.000451704458101}
2019-04-14 18:35:07.51: SIM {TimeUS : 46534712, Roll : 0.16, Pitch : 0.12, Yaw : 359.94, Alt : 34.1100006104, Lat : 49.2835704, Lng : -123.1150208, Q1 : 0.999998211861, Q2 : 0.00148026307579, Q3 : 0.00108714483213, Q4 : -0.00044711821829}
2019-04-14 18:35:07.61: SIM {TimeUS : 46634672, Roll : 0.13, Pitch : 0.12, Yaw : 359.94, Alt : 34.3199996948, Lat : 49.2835704, Lng : -123.1150208, Q1 : 0.999998629093, Q2 : 0.00118310097605, Q3 : 0.00106944527943, Q4 : -0.000451935891761}
2019-04-14 18:35:07.71: SIM {TimeUS : 46734632, Roll : 0.1, Pitch : 0.11, Yaw : 359.94, Alt : 34.5299987793, Lat : 49.2835704, Lng : -123.1150208, Q1 : 0.999998986721, Q2 : 0.00089493568521, Q3 : 0.000997903640382, Q4 : -0.000464829849079}
2019-04-14 18:35:07.81: SIM {TimeUS : 46834592, Roll : 0.08, Pitch : 0.07, Yaw : 359.94, Alt : 34.7400016785, Lat : 49.2835704, Lng : -123.1150208, Q1 : 0.999999403954, Q2 : 0.000733735156246, Q3 : 0.000660455261823, Q4 : -0.000495084736031}
2019-04-14 18:35:07.91: SIM {TimeUS : 46934552, Roll : 0.07, Pitch : 0.03, Yaw : 359.93, Alt : 34.9599990845, Lat : 49.2835704, Lng : -123.1150208, Q1 : 0.999999582767, Q2 : 0.000642176368274, Q3 : 0.000329252041411, Q4 : -0.000535513448995}
2019-04-14 18:35:08.02: SIM {TimeUS : 47035345, Roll : 0.05, Pitch : 0.01, Yaw : 359.93, Alt : 35.1800003052, Lat : 49.2835704, Lng : -123.1150207, Q1 : 0.999999701977, Q2 : 0.000459419126855, Q3 : 0.000156545997015, Q4 : -0.000580078747589}
2019-04-14 18:35:08.11: SIM {TimeUS : 47135305, Roll : 0.03, Pitch : 0.01, Yaw : 359.92, Alt : 35.3899993896, Lat : 49.2835704, Lng : -123.1150207, Q1 : 0.999999761581, Q2 : 0.000295504170936, Q3 : 0.000118336865853, Q4 : -0.000619297206867}
2019-04-14 18:35:08.21: SIM {TimeUS : 47235265, Roll : 0.03, Pitch : 0.01, Yaw : 359.92, Alt : 35.6100006104, Lat : 49.2835704, Lng : -123.1150207, Q1 : 0.999999761581, Q2 : 0.000267892435659, Q3 : 9.56275325734e-05, Q4 : -0.000657297612634}
2019-04-14 18:35:08.31: SIM {TimeUS : 47335225, Roll : 0.01, Pitch : -0.01, Yaw : 359.92, Alt : 35.8300018311, Lat : 49.2835704, Lng : -123.1150207, Q1 : 0.999999761581, Q2 : 0.000104713413748, Q3 : -9.92936475086e-05, Q4 : -0.000692256959155}
2019-04-14 18:35:08.41: SIM {TimeUS : 47435185, Roll : -0.02, Pitch : -0.04, Yaw : 359.91, Alt : 36.0499992371, Lat : 49.2835704, Lng : -123.1150207, Q1 : 0.999999642372, Q2 : -0.000178007830982, Q3 : -0.000382774276659, Q4 : -0.000721609336324}
2019-04-14 18:35:08.51: SIM {TimeUS : 47535145, Roll : -0.05, Pitch : -0.06, Yaw : 359.91, Alt : 36.2700004578, Lat : 49.2835704, Lng : -123.1150207, Q1 : 0.999999463558, Q2 : -0.000490982551128, Q3 : -0.000568297109567, Q4 : -0.000748101680074}
2019-04-14 18:35:08.61: SIM {TimeUS : 47635105, Roll : -0.08, Pitch : -0.07, Yaw : 359.91, Alt : 36.5, Lat : 49.2835704, Lng : -123.1150207, Q1 : 0.999999165535, Q2 : -0.000759542454034, Q3 : -0.000674197333865, Q4 : -0.000773811771069}
2019-04-14 18:35:08.71: SIM {TimeUS : 47735065, Roll : -0.08, Pitch : -0.07, Yaw : 359.9, Alt : 36.7200012207, Lat : 49.2835704, Lng : -123.1150206, Q1 : 0.999999165535, Q2 : -0.000784964417107, Q3 : -0.000669238623232, Q4 : -0.000793477811385}
2019-04-14 18:35:08.81: SIM {TimeUS : 47835025, Roll : -0.08, Pitch : -0.07, Yaw : 359.9, Alt : 36.9399986267, Lat : 49.2835704, Lng : -123.1150206, Q1 : 0.99999922514, Q2 : -0.000724486308172, Q3 : -0.000610893126577, Q4 : -0.000813280232251}
2019-04-14 18:35:08.91: SIM {TimeUS : 47934985, Roll : -0.07, Pitch : -0.05, Yaw : 359.9, Alt : 37.1699981689, Lat : 49.2835704, Lng : -123.1150206, Q1 : 0.999999344349, Q2 : -0.000622256717179, Q3 : -0.000446975231171, Q4 : -0.000836000137497}
2019-04-14 18:35:09.01: SIM {TimeUS : 48034945, Roll : -0.05, Pitch : -0.03, Yaw : 359.9, Alt : 37.3899993896, Lat : 49.2835704, Lng : -123.1150206, Q1 : 0.999999463558, Q2 : -0.0004953261232, Q3 : -0.00033919638372, Q4 : -0.000852764700539}
2019-04-14 18:35:09.11: SIM {TimeUS : 48134905, Roll : -0.06, Pitch : -0.04, Yaw : 359.9, Alt : 37.6199989319, Lat : 49.2835704, Lng : -123.1150206, Q1 : 0.999999403954, Q2 : -0.000537275453098, Q3 : -0.000364969368093, Q4 : -0.000863833061885}
2019-04-14 18:35:09.21: SIM {TimeUS : 48234865, Roll : -0.07, Pitch : -0.02, Yaw : 359.9, Alt : 37.8400001526, Lat : 49.2835704, Lng : -123.1150206, Q1 : 0.999999403954, Q2 : -0.000637999735773, Q3 : -0.00025884778006, Q4 : -0.000870264309924}
2019-04-14 18:35:09.31: SIM {TimeUS : 48334825, Roll : -0.09, Pitch : -0.01, Yaw : 359.89, Alt : 38.0699996948, Lat : 49.2835704, Lng : -123.1150206, Q1 : 0.99999922514, Q2 : -0.000861722859554, Q3 : -0.000115521033877, Q4 : -0.000878736842424}
2019-04-14 18:35:09.41: SIM {TimeUS : 48434785, Roll : -0.1, Pitch : 0.0, Yaw : 359.89, Alt : 38.2999992371, Lat : 49.2835704, Lng : -123.1150206, Q1 : 0.99999922514, Q2 : -0.00090390664991, Q3 : 5.93917684455e-06, Q4 : -0.000881817075424}
2019-04-14 18:35:09.51: SIM {TimeUS : 48534745, Roll : -0.07, Pitch : 0.02, Yaw : 359.89, Alt : 38.5200004578, Lat : 49.2835704, Lng : -123.1150206, Q1 : 0.999999344349, Q2 : -0.000688038242515, Q3 : 0.000259161548456, Q4 : -0.000890754745342}
2019-04-14 18:35:09.61: SIM {TimeUS : 48634705, Roll : -0.05, Pitch : 0.02, Yaw : 359.89, Alt : 38.75, Lat : 49.2835704, Lng : -123.1150206, Q1 : 0.999999463558, Q2 : -0.000458718801383, Q3 : 0.00025121786166, Q4 : -0.000908659305423}
2019-04-14 18:35:09.71: SIM {TimeUS : 48734665, Roll : -0.02, Pitch : 0.02, Yaw : 359.89, Alt : 38.9799995422, Lat : 49.2835706, Lng : -123.1150206, Q1 : 0.999999523163, Q2 : -0.000183643496712, Q3 : 0.000188872771105, Q4 : -0.000927884015255}
2019-04-14 18:35:09.81: SIM {TimeUS : 48834625, Roll : 0.01, Pitch : 0.03, Yaw : 359.89, Alt : 39.2099990845, Lat : 49.2835706, Lng : -123.1150206, Q1 : 0.999999463558, Q2 : 0.000152710868861, Q3 : 0.000342337356415, Q4 : -0.000942895829212}
2019-04-14 18:35:09.91: SIM {TimeUS : 48934585, Roll : 0.05, Pitch : 0.06, Yaw : 359.88, Alt : 39.4399986267, Lat : 49.2835706, Lng : -123.1150206, Q1 : 0.99999922514, Q2 : 0.00048622812028, Q3 : 0.000608516857028, Q4 : -0.00096332654357}
2019-04-14 18:35:10.01: SIM {TimeUS : 49034545, Roll : 0.08, Pitch : 0.09, Yaw : 359.88, Alt : 39.6699981689, Lat : 49.2835706, Lng : -123.1150206, Q1 : 0.999998927116, Q2 : 0.000722359342035, Q3 : 0.00083864829503, Q4 : -0.000989997875877}
2019-04-14 18:35:10.12: SIM {TimeUS : 49135338, Roll : 0.07, Pitch : 0.11, Yaw : 359.88, Alt : 39.9000015259, Lat : 49.2835706, Lng : -123.1150206, Q1 : 0.999998748302, Q2 : 0.000622210034635, Q3 : 0.00104105309583, Q4 : -0.00100886623841}
2019-04-14 18:35:10.21: SIM {TimeUS : 49235298, Roll : 0.02, Pitch : 0.13, Yaw : 359.87, Alt : 40.1300010681, Lat : 49.2835706, Lng : -123.1150206, Q1 : 0.999998688698, Q2 : 0.000198165012989, Q3 : 0.00120303500444, Q4 : -0.00104794302024}
2019-04-14 18:35:10.31: SIM {TimeUS : 49335258, Roll : -0.01, Pitch : 0.14, Yaw : 359.87, Alt : 40.3699989319, Lat : 49.2835706, Lng : -123.1150206, Q1 : 0.999998629093, Q2 : -0.000142510558362, Q3 : 0.00122227100655, Q4 : -0.00108223909047}
2019-04-14 18:35:10.41: SIM {TimeUS : 49435218, Roll : -0.04, Pitch : 0.12, Yaw : 359.87, Alt : 40.5999984741, Lat : 49.2835706, Lng : -123.1150206, Q1 : 0.999998748302, Q2 : -0.000350775342667, Q3 : 0.00108274864033, Q4 : -0.00110993534327}
2019-04-14 18:35:10.51: SIM {TimeUS : 49535178, Roll : -0.04, Pitch : 0.11, Yaw : 359.86, Alt : 40.8300018311, Lat : 49.2835706, Lng : -123.1150206, Q1 : 0.999998748302, Q2 : -0.000425511825597, Q3 : 0.00100193463732, Q4 : -0.00113775301725}
2019-04-14 18:35:10.61: SIM {TimeUS : 49635138, Roll : -0.03, Pitch : 0.12, Yaw : 359.86, Alt : 41.0600013733, Lat : 49.2835706, Lng : -123.1150206, Q1 : 0.999998688698, Q2 : -0.000334470969392, Q3 : 0.00109863979742, Q4 : -0.00117073010188}
2019-04-14 18:35:10.71: SIM {TimeUS : 49735098, Roll : 0.0, Pitch : 0.15, Yaw : 359.86, Alt : 41.2999992371, Lat : 49.2835706, Lng : -123.1150206, Q1 : 0.999998390675, Q2 : 1.60946074175e-05, Q3 : 0.00133217289113, Q4 : -0.00121328316163}
2019-04-14 18:35:10.81: SIM {TimeUS : 49835058, Roll : 0.05, Pitch : 0.16, Yaw : 359.85, Alt : 41.5299987793, Lat : 49.2835706, Lng : -123.1150207, Q1 : 0.999998033047, Q2 : 0.000461591727799, Q3 : 0.00146536587272, Q4 : -0.00125834008213}
2019-04-14 18:35:10.91: SIM {TimeUS : 49935018, Roll : 0.08, Pitch : 0.13, Yaw : 359.85, Alt : 41.7599983215, Lat : 49.2835706, Lng : -123.1150207, Q1 : 0.999998152256, Q2 : 0.000760958937462, Q3 : 0.00117885496002, Q4 : -0.00129713758361}
2019-04-14 18:35:11.01: SIM {TimeUS : 50034978, Roll : 0.08, Pitch : 0.08, Yaw : 359.84, Alt : 42.0, Lat : 49.2835706, Lng : -123.1150207, Q1 : 0.999998569489, Q2 : 0.000778711691964, Q3 : 0.000720994547009, Q4 : -0.00132425036281}
2019-04-14 18:35:11.11: SIM {TimeUS : 50134938, Roll : 0.05, Pitch : 0.04, Yaw : 359.84, Alt : 42.2299995422, Lat : 49.2835706, Lng : -123.1150207, Q1 : 0.999998927116, Q2 : 0.000472457439173, Q3 : 0.000381619815016, Q4 : -0.00134137156419}
2019-04-14 18:35:11.21: SIM {TimeUS : 50234898, Roll : 0.0, Pitch : 0.03, Yaw : 359.84, Alt : 42.4599990845, Lat : 49.2835706, Lng : -123.1150207, Q1 : 0.999999046326, Q2 : 5.3710841712e-06, Q3 : 0.00029881997034, Q4 : -0.0013536735205}
2019-04-14 18:35:11.31: SIM {TimeUS : 50334858, Roll : -0.03, Pitch : 0.05, Yaw : 359.84, Alt : 42.7000007629, Lat : 49.2835704, Lng : -123.1150206, Q1 : 0.999998927116, Q2 : -0.000290571828373, Q3 : 0.000521270558238, Q4 : -0.00135859299917}
2019-04-14 18:35:11.41: SIM {TimeUS : 50434818, Roll : -0.04, Pitch : 0.07, Yaw : 359.84, Alt : 42.9300003052, Lat : 49.2835704, Lng : -123.1150206, Q1 : 0.999998807907, Q2 : -0.00040073870332, Q3 : 0.000675252988003, Q4 : -0.00136031792499}
2019-04-14 18:35:11.51: SIM {TimeUS : 50534778, Roll : -0.04, Pitch : 0.07, Yaw : 359.84, Alt : 43.1699981689, Lat : 49.2835704, Lng : -123.1150206, Q1 : 0.999998807907, Q2 : -0.000351891183527, Q3 : 0.000637875054963, Q4 : -0.00136490468867}
2019-04-14 18:35:11.61: SIM {TimeUS : 50634738, Roll : -0.04, Pitch : 0.06, Yaw : 359.84, Alt : 43.4000015259, Lat : 49.2835704, Lng : -123.1150206, Q1 : 0.999998807907, Q2 : -0.000367826229194, Q3 : 0.000571468728594, Q4 : -0.00137505040038}
2019-04-14 18:35:11.71: SIM {TimeUS : 50734698, Roll : -0.03, Pitch : 0.05, Yaw : 359.84, Alt : 43.6399993896, Lat : 49.2835704, Lng : -123.1150206, Q1 : 0.999998867512, Q2 : -0.000292525073746, Q3 : 0.000465354823973, Q4 : -0.0013909455156}
2019-04-14 18:35:11.81: SIM {TimeUS : 50834658, Roll : -0.01, Pitch : 0.04, Yaw : 359.83, Alt : 43.8699989319, Lat : 49.2835704, Lng : -123.1150206, Q1 : 0.999998927116, Q2 : -0.000120050688565, Q3 : 0.000382666155929, Q4 : -0.00141269189771}
2019-04-14 18:35:11.91: SIM {TimeUS : 50934618, Roll : 0.0, Pitch : 0.03, Yaw : 359.83, Alt : 44.1100006104, Lat : 49.2835704, Lng : -123.1150206, Q1 : 0.999998927116, Q2 : -1.23108402477e-05, Q3 : 0.000344196421793, Q4 : -0.00143755914178}
2019-04-14 18:35:12.01: SIM {TimeUS : 51034578, Roll : 0.0, Pitch : 0.01, Yaw : 359.83, Alt : 44.3499984741, Lat : 49.2835704, Lng : -123.1150206, Q1 : 0.999998927116, Q2 : -6.38662386336e-05, Q3 : 0.00015699522919, Q4 : -0.00146230368409}
2019-04-14 18:35:12.11: SIM {TimeUS : 51134538, Roll : -0.02, Pitch : -0.01, Yaw : 359.82, Alt : 44.5800018311, Lat : 49.2835704, Lng : -123.1150206, Q1 : 0.999998867512, Q2 : -0.000176674569957, Q3 : -0.000164346463862, Q4 : -0.00149388529826}
2019-04-14 18:35:12.21: SIM {TimeUS : 51235331, Roll : -0.02, Pitch : -0.04, Yaw : 359.82, Alt : 44.8199996948, Lat : 49.2835704, Lng : -123.1150206, Q1 : 0.999998748302, Q2 : -0.000261299457634, Q3 : -0.000385246210499, Q4 : -0.00153315276839}
2019-04-14 18:35:12.31: SIM {TimeUS : 51335291, Roll : -0.02, Pitch : -0.05, Yaw : 359.82, Alt : 45.0600013733, Lat : 49.2835703, Lng : -123.1150206, Q1 : 0.999998629093, Q2 : -0.000226508956985, Q3 : -0.000495214830153, Q4 : -0.00157026725356}
2019-04-14 18:35:12.41: SIM {TimeUS : 51435251, Roll : -0.02, Pitch : -0.05, Yaw : 359.81, Alt : 45.2900009155, Lat : 49.2835703, Lng : -123.1150206, Q1 : 0.999998569489, Q2 : -0.000227901444305, Q3 : -0.000499661080539, Q4 : -0.001601796248}
2019-04-14 18:35:12.51: SIM {TimeUS : 51535211, Roll : -0.04, Pitch : -0.04, Yaw : 359.81, Alt : 45.5299987793, Lat : 49.2835703, Lng : -123.1150206, Q1 : 0.999998509884, Q2 : -0.000412120396504, Q3 : -0.000388205371564, Q4 : -0.00163672911003}
2019-04-14 18:35:12.61: SIM {TimeUS : 51635171, Roll : -0.08, Pitch : -0.03, Yaw : 359.8, Alt : 45.7599983215, Lat : 49.2835703, Lng : -123.1150206, Q1 : 0.99999833107, Q2 : -0.000700035132468, Q3 : -0.000274770834949, Q4 : -0.00166693655774}
2019-04-14 18:35:12.71: SIM {TimeUS : 51735131, Roll : -0.1, Pitch : -0.02, Yaw : 359.8, Alt : 45.9900016785, Lat : 49.2835703, Lng : -123.1150206, Q1 : 0.999998092651, Q2 : -0.000904820044525, Q3 : -0.000192145744222, Q4 : -0.00169626134448}
2019-04-14 18:35:12.81: SIM {TimeUS : 51835091, Roll : -0.1, Pitch : 0.0, Yaw : 359.8, Alt : 46.2200012207, Lat : 49.2835703, Lng : -123.1150206, Q1 : 0.999998092651, Q2 : -0.000951256195549, Q3 : -8.29256823636e-05, Q4 : -0.00171865010634}
2019-04-14 18:35:12.91: SIM {TimeUS : 51935051, Roll : -0.09, Pitch : 0.0, Yaw : 359.8, Alt : 46.4500007629, Lat : 49.2835703, Lng : -123.1150206, Q1 : 0.999998152256, Q2 : -0.000804778537713, Q3 : 6.60082441755e-05, Q4 : -0.00174175086431}
2019-04-14 18:35:13.01: SIM {TimeUS : 52035011, Roll : -0.06, Pitch : 0.01, Yaw : 359.79, Alt : 46.6699981689, Lat : 49.2835703, Lng : -123.1150206, Q1 : 0.999998271465, Q2 : -0.000571012904402, Q3 : 0.000114435046271, Q4 : -0.00176510168239}
2019-04-14 18:35:13.11: SIM {TimeUS : 52134971, Roll : -0.04, Pitch : 0.0, Yaw : 359.79, Alt : 46.8800010681, Lat : 49.2835703, Lng : -123.1150206, Q1 : 0.99999833107, Q2 : -0.000381811289117, Q3 : 3.72198519472e-05, Q4 : -0.00179057265632}
2019-04-14 18:35:13.21: SIM {TimeUS : 52234931, Roll : -0.03, Pitch : -0.01, Yaw : 359.79, Alt : 47.0900001526, Lat : 49.2835703, Lng : -123.1150206, Q1 : 0.99999833107, Q2 : -0.000295334699331, Q3 : -0.000135127454996, Q4 : -0.00181314395741}
2019-04-14 18:35:13.31: SIM {TimeUS : 52334891, Roll : -0.02, Pitch : -0.04, Yaw : 359.79, Alt : 47.2900009155, Lat : 49.2835703, Lng : -123.1150206, Q1 : 0.999998271465, Q2 : -0.000177587091457, Q3 : -0.000364034785889, Q4 : -0.0018319246592}
2019-04-14 18:35:13.41: SIM {TimeUS : 52434851, Roll : 0.0, Pitch : -0.06, Yaw : 359.78, Alt : 47.4799995422, Lat : 49.2835703, Lng : -123.1150206, Q1 : 0.999998152256, Q2 : -5.00963892591e-07, Q3 : -0.000555146485567, Q4 : -0.00185131409671}
2019-04-14 18:35:13.51: SIM {TimeUS : 52534811, Roll : 0.01, Pitch : -0.09, Yaw : 359.78, Alt : 47.6599998474, Lat : 49.2835703, Lng : -123.1150206, Q1 : 0.999997913837, Q2 : 9.4403665571e-05, Q3 : -0.000849434174597, Q4 : -0.00186833145563}
2019-04-14 18:35:13.61: SIM {TimeUS : 52634771, Roll : 0.01, Pitch : -0.13, Yaw : 359.78, Alt : 47.8400001526, Lat : 49.2835703, Lng : -123.1150206, Q1 : 0.999997496605, Q2 : 0.000147150174598, Q3 : -0.0012073465623, Q4 : -0.00188030779827}
2019-04-14 18:35:13.71: SIM {TimeUS : 52734731, Roll : 0.04, Pitch : -0.15, Yaw : 359.78, Alt : 48.0, Lat : 49.2835703, Lng : -123.1150206, Q1 : 0.999997258186, Q2 : 0.000363231054507, Q3 : -0.001323072589, Q4 : -0.00189583061729}
2019-04-14 18:35:13.81: SIM {TimeUS : 52834691, Roll : 0.06, Pitch : -0.14, Yaw : 359.78, Alt : 48.1399993896, Lat : 49.2835703, Lng : -123.1150206, Q1 : 0.999997258186, Q2 : 0.000579295970965, Q3 : -0.00123285281006, Q4 : -0.00191465183161}
2019-04-14 18:35:13.91: SIM {TimeUS : 52934651, Roll : 0.08, Pitch : -0.11, Yaw : 359.77, Alt : 48.2799987793, Lat : 49.2835703, Lng : -123.1150206, Q1 : 0.999997317791, Q2 : 0.000737936818041, Q3 : -0.000996992108412, Q4 : -0.00193922920153}
2019-04-14 18:35:14.01: SIM {TimeUS : 53034611, Roll : 0.08, Pitch : -0.07, Yaw : 359.77, Alt : 48.4099998474, Lat : 49.2835704, Lng : -123.1150206, Q1 : 0.99999755621, Q2 : 0.000720980810001, Q3 : -0.00069345528027, Q4 : -0.0019676068332}
2019-04-14 18:35:14.11: SIM {TimeUS : 53134571, Roll : 0.07, Pitch : -0.05, Yaw : 359.77, Alt : 48.5200004578, Lat : 49.2835704, Lng : -123.1150206, Q1 : 0.999997675419, Q2 : 0.000688525324222, Q3 : -0.000472780899145, Q4 : -0.0019988338463}
2019-04-14 18:35:14.22: SIM {TimeUS : 53235364, Roll : 0.06, Pitch : -0.05, Yaw : 359.76, Alt : 48.6199989319, Lat : 49.2835704, Lng : -123.1150206, Q1 : 0.999997675419, Q2 : 0.000575090933125, Q3 : -0.000458509952296, Q4 : -0.00203442806378}
2019-04-14 18:35:14.31: SIM {TimeUS : 53335324, Roll : 0.03, Pitch : -0.05, Yaw : 359.76, Alt : 48.7099990845, Lat : 49.2835704, Lng : -123.1150206, Q1 : 0.999997675419, Q2 : 0.000304135290207, Q3 : -0.000480273098219, Q4 : -0.00207370240241}
2019-04-14 18:35:14.41: SIM {TimeUS : 53435284, Roll : 0.01, Pitch : -0.04, Yaw : 359.75, Alt : 48.7799987793, Lat : 49.2835704, Lng : -123.1150206, Q1 : 0.999997675419, Q2 : 0.00012372713536, Q3 : -0.000388165324694, Q4 : -0.00211088289507}
2019-04-14 18:35:14.51: SIM {TimeUS : 53535244, Roll : 0.0, Pitch : -0.02, Yaw : 359.75, Alt : 48.8499984741, Lat : 49.2835704, Lng : -123.1150206, Q1 : 0.999997675419, Q2 : 2.31919693761e-05, Q3 : -0.000243180445977, Q4 : -0.00214347871952}
2019-04-14 18:35:14.61: SIM {TimeUS : 53635204, Roll : 0.0, Pitch : 0.0, Yaw : 359.75, Alt : 48.9099998474, Lat : 49.2835704, Lng : -123.1150206, Q1 : 0.999997615814, Q2 : -3.37492929248e-05, Q3 : -2.16812695726e-05, Q4 : -0.00217316718772}
2019-04-14 18:35:14.71: SIM {TimeUS : 53735164, Roll : 0.01, Pitch : 0.02, Yaw : 359.74, Alt : 48.9599990845, Lat : 49.2835704, Lng : -123.1150206, Q1 : 0.99999755621, Q2 : 0.000129886699142, Q3 : 0.000241595422267, Q4 : -0.00219624233432}
2019-04-14 18:35:14.81: SIM {TimeUS : 53835124, Roll : 0.09, Pitch : 0.0, Yaw : 359.74, Alt : 49.0, Lat : 49.2835704, Lng : -123.1150206, Q1 : 0.999997198582, Q2 : 0.000834707519971, Q3 : -2.41177585849e-05, Q4 : -0.00221643899567}
2019-04-14 18:35:14.91: SIM {TimeUS : 53935084, Roll : 0.31, Pitch : -0.19, Yaw : 359.74, Alt : 49.0299987793, Lat : 49.2835704, Lng : -123.1150206, Q1 : 0.999992132187, Q2 : 0.00278461887501, Q3 : -0.00171201990452, Q4 : -0.00223962031305}
2019-04-14 18:35:15.01: SIM {TimeUS : 54035044, Roll : 0.71, Pitch : -0.58, Yaw : 359.73, Alt : 49.0600013733, Lat : 49.2835704, Lng : -123.1150206, Q1 : 0.999964773655, Q2 : 0.00624695094302, Q3 : -0.00513234781101, Q4 : -0.00226159533486}
2019-04-14 18:35:15.11: SIM {TimeUS : 54135004, Roll : 1.28, Pitch : -1.16, Yaw : 359.72, Alt : 49.0900001526, Lat : 49.2835706, Lng : -123.1150206, Q1 : 0.999882757664, Q2 : 0.0111766709015, Q3 : -0.0102163897827, Q4 : -0.00227468833327}
2019-04-14 18:35:15.21: SIM {TimeUS : 54234964, Roll : 1.98, Pitch : -1.87, Yaw : 359.7, Alt : 49.1100006104, Lat : 49.2835706, Lng : -123.1150205, Q1 : 0.999714016914, Q2 : 0.0172822866589, Q3 : -0.0163767896593, Q4 : -0.00225376826711}
2019-04-14 18:35:15.31: SIM {TimeUS : 54334924, Roll : 2.74, Pitch : -2.59, Yaw : 359.68, Alt : 49.1300010681, Lat : 49.2835707, Lng : -123.1150204, Q1 : 0.99945384264, Q2 : 0.0238939411938, Q3 : -0.0227246601135, Q4 : -0.00217143865302}
2019-04-14 18:35:15.41: SIM {TimeUS : 54434884, Roll : 3.42, Pitch : -3.24, Yaw : 359.67, Alt : 49.1500015259, Lat : 49.2835707, Lng : -123.1150203, Q1 : 0.999149501324, Q2 : 0.0298328138888, Q3 : -0.028394466266, Q4 : -0.00202304683626}
2019-04-14 18:35:15.51: SIM {TimeUS : 54534844, Roll : 3.96, Pitch : -3.74, Yaw : 359.66, Alt : 49.1599998474, Lat : 49.2835709, Lng : -123.11502, Q1 : 0.998867750168, Q2 : 0.0344750992954, Q3 : -0.0327326580882, Q4 : -0.00180539488792}
2019-04-14 18:35:15.61: SIM {TimeUS : 54634804, Roll : 4.33, Pitch : -4.08, Yaw : 359.66, Alt : 49.1800003052, Lat : 49.283571, Lng : -123.1150199, Q1 : 0.998646914959, Q2 : 0.0377242006361, Q3 : -0.035761307925, Q4 : -0.00154265097808}
2019-04-14 18:35:15.71: SIM {TimeUS : 54734764, Roll : 4.6, Pitch : -4.35, Yaw : 359.67, Alt : 49.1899986267, Lat : 49.2835713, Lng : -123.1150195, Q1 : 0.998469829559, Q2 : 0.0400679111481, Q3 : -0.0380924083292, Q4 : -0.00126804981846}
2019-04-14 18:35:15.81: SIM {TimeUS : 54834724, Roll : 4.85, Pitch : -4.6, Yaw : 359.69, Alt : 49.2000007629, Lat : 49.2835715, Lng : -123.115019, Q1 : 0.998297989368, Q2 : 0.0422011651099, Q3 : -0.0402395986021, Q4 : -0.00098692800384}
2019-04-14 18:35:15.91: SIM {TimeUS : 54934684, Roll : 5.12, Pitch : -4.85, Yaw : 359.7, Alt : 49.2099990845, Lat : 49.2835719, Lng : -123.1150185, Q1 : 0.998104989529, Q2 : 0.0445843189955, Q3 : -0.042405616492, Q4 : -0.000699130119756}
2019-04-14 18:35:16.01: SIM {TimeUS : 55034644, Roll : 5.41, Pitch : -5.1, Yaw : 359.71, Alt : 49.2200012207, Lat : 49.2835722, Lng : -123.1150179, Q1 : 0.997896373272, Q2 : 0.0470568947494, Q3 : -0.0445898063481, Q4 : -0.000418500421802}
2019-04-14 18:35:16.11: SIM {TimeUS : 55134604, Roll : 5.67, Pitch : -5.34, Yaw : 359.71, Alt : 49.2200012207, Lat : 49.2835727, Lng : -123.1150172, Q1 : 0.997692704201, Q2 : 0.049310926348, Q3 : -0.0466653853655, Q4 : -0.000154896406457}
2019-04-14 18:35:16.21: SIM {TimeUS : 55234564, Roll : 5.86, Pitch : -5.53, Yaw : 359.72, Alt : 49.2299995422, Lat : 49.2835732, Lng : -123.1150163, Q1 : 0.99752831459, Q2 : 0.050990819931, Q3 : -0.0483450070024, Q4 : 8.07897085906e-05}
2019-04-14 18:35:16.32: SIM {TimeUS : 55335357, Roll : 6.01, Pitch : -5.66, Yaw : 359.73, Alt : 49.2400016785, Lat : 49.2835737, Lng : -123.1150155, Q1 : 0.997406363487, Q2 : 0.0522547475994, Q3 : -0.0494968257844, Q4 : 0.000275726895779}
2019-04-14 18:35:16.41: SIM {TimeUS : 55435317, Roll : 6.11, Pitch : -5.75, Yaw : 359.74, Alt : 49.2400016785, Lat : 49.2835743, Lng : -123.1150145, Q1 : 0.997324466705, Q2 : 0.0531314127147, Q3 : -0.0502076260746, Q4 : 0.000418742158217}
2019-04-14 18:35:16.51: SIM {TimeUS : 55535277, Roll : 6.19, Pitch : -5.82, Yaw : 359.74, Alt : 49.25, Lat : 49.283575, Lng : -123.1150135, Q1 : 0.997253298759, Q2 : 0.0538519471884, Q3 : -0.0508490353823, Q4 : 0.00051388022257}
2019-04-14 18:35:16.61: SIM {TimeUS : 55635237, Roll : 6.32, Pitch : -5.92, Yaw : 359.73, Alt : 49.25, Lat : 49.2835757, Lng : -123.1150124, Q1 : 0.997148454189, Q2 : 0.0549511611462, Q3 : -0.0517201013863, Q4 : 0.000580913736485}
2019-04-14 18:35:16.71: SIM {TimeUS : 55735197, Roll : 6.65, Pitch : -5.94, Yaw : 359.85, Alt : 49.25, Lat : 49.2835764, Lng : -123.1150112, Q1 : 0.996972858906, Q2 : 0.0578843206167, Q3 : -0.0518793836236, Q4 : 0.00175637879875}
2019-04-14 18:35:16.81: SIM {TimeUS : 55835157, Roll : 7.23, Pitch : -5.84, Yaw : 0.61, Alt : 49.2599983215, Lat : 49.2835771, Lng : -123.1150099, Q1 : 0.996673941612, Q2 : 0.0633205100894, Q3 : -0.0505786463618, Q4 : 0.00856633204967}
2019-04-14 18:35:16.91: SIM {TimeUS : 55935117, Roll : 7.88, Pitch : -5.84, Yaw : 2.68, Alt : 49.2599983215, Lat : 49.283578, Lng : -123.1150086, Q1 : 0.995983660221, Q2 : 0.0698277801275, Q3 : -0.0492024682462, Q4 : 0.0268295891583}
2019-04-14 18:35:17.01: SIM {TimeUS : 56035077, Roll : 8.28, Pitch : -6.2, Yaw : 6.34, Alt : 49.2599983215, Lat : 49.2835788, Lng : -123.1150071, Q1 : 0.994184195995, Q2 : 0.0749716460705, Q3 : -0.0499162524939, Q4 : 0.0590376183391}
2019-04-14 18:35:17.11: SIM {TimeUS : 56135037, Roll : 8.2, Pitch : -7.04, Yaw : 11.51, Alt : 49.2599983215, Lat : 49.2835797, Lng : -123.1150055, Q1 : 0.990097463131, Q2 : 0.0771535336971, Q3 : -0.0537965111434, Q4 : 0.104212537408}
2019-04-14 18:35:17.21: SIM {TimeUS : 56234997, Roll : 7.5, Pitch : -8.26, Yaw : 17.95, Alt : 49.2599983215, Lat : 49.2835806, Lng : -123.1150038, Q1 : 0.982338011265, Q2 : 0.0756956860423, Q3 : -0.0608630925417, Q4 : 0.159931004047}
2019-04-14 18:35:17.31: SIM {TimeUS : 56334957, Roll : 6.14, Pitch : -9.67, Yaw : 25.41, Alt : 49.2700004578, Lat : 49.2835814, Lng : -123.115002, Q1 : 0.969641506672, Q2 : 0.0706603676081, Q3 : -0.070421308279, Q4 : 0.223256230354}
2019-04-14 18:35:17.41: SIM {TimeUS : 56434917, Roll : 4.08, Pitch : -11.04, Yaw : 33.59, Alt : 49.2700004578, Lat : 49.2835824, Lng : -123.1150001, Q1 : 0.951287150383, Q2 : 0.0617325305939, Q3 : -0.0818234086037, Q4 : 0.290769249201}
2019-04-14 18:35:17.51: SIM {TimeUS : 56534877, Roll : 1.22, Pitch : -12.12, Yaw : 41.91, Alt : 49.2700004578, Lat : 49.2835834, Lng : -123.1149981, Q1 : 0.928170204163, Q2 : 0.0476958602667, Q3 : -0.094810180366, Q4 : 0.356701940298}
2019-04-14 18:35:17.61: SIM {TimeUS : 56634837, Roll : -1.99, Pitch : -12.7, Yaw : 49.48, Alt : 49.2700004578, Lat : 49.2835844, Lng : -123.114996, Q1 : 0.903288125992, Q2 : 0.0306108929217, Q3 : -0.107716239989, Q4 : 0.414162814617}
2019-04-14 18:35:17.71: SIM {TimeUS : 56734797, Roll : -4.88, Pitch : -12.82, Yaw : 55.52, Alt : 49.2700004578, Lat : 49.2835855, Lng : -123.1149938, Q1 : 0.880764126778, Q2 : 0.0144764659926, Q3 : -0.11849810183, Q4 : 0.458261042833}
2019-04-14 18:35:17.81: SIM {TimeUS : 56834757, Roll : -6.92, Pitch : -12.7, Yaw : 59.59, Alt : 49.2700004578, Lat : 49.2835868, Lng : -123.1149916, Q1 : 0.864198148251, Q2 : 0.00279208132997, Q3 : -0.125632733107, Q4 : 0.487206548452}
2019-04-14 18:35:17.91: SIM {TimeUS : 56934717, Roll : -7.88, Pitch : -12.55, Yaw : 61.68, Alt : 49.2700004578, Lat : 49.2835881, Lng : -123.1149894, Q1 : 0.855253338814, Q2 : -0.00277341925539, Q3 : -0.128692209721, Q4 : 0.501968443394}
2019-04-14 18:35:18.01: SIM {TimeUS : 57034677, Roll : -7.84, Pitch : -12.57, Yaw : 62.05, Alt : 49.2700004578, Lat : 49.2835897, Lng : -123.1149871, Q1 : 0.853613674641, Q2 : -0.00192738790065, Q3 : -0.12862239778, Q4 : 0.504773497581}
2019-04-14 18:35:18.11: SIM {TimeUS : 57134637, Roll : -6.99, Pitch : -12.85, Yaw : 61.06, Alt : 49.2700004578, Lat : 49.2835911, Lng : -123.1149849, Q1 : 0.857806324959, Q2 : 0.00453987205401, Q3 : -0.127006351948, Q4 : 0.498013228178}
2019-04-14 18:35:18.21: SIM {TimeUS : 57234597, Roll : -5.6, Pitch : -13.36, Yaw : 59.05, Alt : 49.2700004578, Lat : 49.2835928, Lng : -123.1149825, Q1 : 0.865980565548, Q2 : 0.0150301521644, Q3 : -0.125108391047, Q4 : 0.483941793442}
2019-04-14 18:35:18.31: SIM {TimeUS : 57334557, Roll : -3.9, Pitch : -14.02, Yaw : 56.35, Alt : 49.2700004578, Lat : 49.2835946, Lng : -123.1149802, Q1 : 0.876347780228, Q2 : 0.0278510972857, Q3 : -0.123533688486, Q4 : 0.464734643698}
2019-04-14 18:35:18.42: SIM {TimeUS : 57435350, Roll : -2.07, Pitch : -14.71, Yaw : 53.25, Alt : 49.2799987793, Lat : 49.2835964, Lng : -123.1149777, Q1 : 0.88747882843, Q2 : 0.0413472019136, Q3 : -0.122494377196, Q4 : 0.442342579365}
2019-04-14 18:35:18.51: SIM {TimeUS : 57535310, Roll : -0.31, Pitch : -15.27, Yaw : 50.11, Alt : 49.2799987793, Lat : 49.2835982, Lng : -123.1149751, Q1 : 0.897998452187, Q2 : 0.053800418973, Q3 : -0.121529012918, Q4 : 0.419446051121}
2019-04-14 18:35:18.61: SIM {TimeUS : 57635270, Roll : 1.21, Pitch : -15.62, Yaw : 47.24, Alt : 49.2799987793, Lat : 49.2836001, Lng : -123.1149725, Q1 : 0.907066643238, Q2 : 0.0641210004687, Q3 : -0.120305418968, Q4 : 0.398302912712}
2019-04-14 18:35:18.71: SIM {TimeUS : 57735230, Roll : 2.4, Pitch : -15.77, Yaw : 44.92, Alt : 49.2799987793, Lat : 49.2836019, Lng : -123.1149697, Q1 : 0.914101660252, Q2 : 0.0716005042195, Q3 : -0.118818245828, Q4 : 0.38101670146}
2019-04-14 18:35:18.81: SIM {TimeUS : 57835190, Roll : 3.16, Pitch : -15.77, Yaw : 43.31, Alt : 49.2799987793, Lat : 49.2836038, Lng : -123.1149668, Q1 : 0.918865203857, Q2 : 0.0760797485709, Q3 : -0.117362126708, Q4 : 0.368950843811}
2019-04-14 18:35:18.91: SIM {TimeUS : 57935150, Roll : 3.49, Pitch : -15.73, Yaw : 42.47, Alt : 49.2799987793, Lat : 49.2836057, Lng : -123.1149638, Q1 : 0.921355724335, Q2 : 0.0777068138123, Q3 : -0.1166093871, Q4 : 0.362584501505}
2019-04-14 18:35:19.01: SIM {TimeUS : 58035110, Roll : 3.39, Pitch : -15.72, Yaw : 42.37, Alt : 49.2799987793, Lat : 49.2836078, Lng : -123.1149606, Q1 : 0.921771228313, Q2 : 0.0767445117235, Q3 : -0.116911284626, Q4 : 0.361635029316}
2019-04-14 18:35:19.11: SIM {TimeUS : 58135070, Roll : 2.92, Pitch : -15.77, Yaw : 42.88, Alt : 49.2799987793, Lat : 49.2836098, Lng : -123.1149574, Q1 : 0.920406699181, Q2 : 0.0736569017172, Q3 : -0.118470557034, Q4 : 0.365227133036}
2019-04-14 18:35:19.21: SIM {TimeUS : 58235030, Roll : 2.2, Pitch : -15.86, Yaw : 43.84, Alt : 49.2799987793, Lat : 49.2836117, Lng : -123.114954, Q1 : 0.917656242847, Q2 : 0.069174066186, Q3 : -0.120912261307, Q4 : 0.372158765793}
2019-04-14 18:35:19.31: SIM {TimeUS : 58334990, Roll : 1.37, Pitch : -15.97, Yaw : 45.07, Alt : 49.2799987793, Lat : 49.2836138, Lng : -123.1149506, Q1 : 0.913959085941, Q2 : 0.0642168670893, Q3 : -0.12382620573, Q4 : 0.381080180407}
2019-04-14 18:35:19.41: SIM {TimeUS : 58434950, Roll : 0.51, Pitch : -16.09, Yaw : 46.39, Alt : 49.2799987793, Lat : 49.2836158, Lng : -123.1149471, Q1 : 0.909828841686, Q2 : 0.0592642389238, Q3 : -0.126937314868, Q4 : 0.390622884035}
2019-04-14 18:35:19.51: SIM {TimeUS : 58534910, Roll : -0.24, Pitch : -16.2, Yaw : 47.65, Alt : 49.2799987793, Lat : 49.2836178, Lng : -123.1149435, Q1 : 0.905761599541, Q2 : 0.0550317279994, Q3 : -0.129793718457, Q4 : 0.399651199579}
2019-04-14 18:35:19.61: SIM {TimeUS : 58634870, Roll : -0.81, Pitch : -16.27, Yaw : 48.71, Alt : 49.2799987793, Lat : 49.28362, Lng : -123.1149399, Q1 : 0.902224242687, Q2 : 0.0519433021545, Q3 : -0.131889730692, Q4 : 0.40730625391}
2019-04-14 18:35:19.71: SIM {TimeUS : 58734830, Roll : -1.19, Pitch : -16.31, Yaw : 49.49, Alt : 49.2799987793, Lat : 49.2836221, Lng : -123.1149362, Q1 : 0.899560272694, Q2 : 0.0499863661826, Q3 : -0.13320992887, Q4 : 0.412974327803}
2019-04-14 18:35:19.81: SIM {TimeUS : 58834790, Roll : -1.4, Pitch : -16.35, Yaw : 49.95, Alt : 49.2799987793, Lat : 49.2836244, Lng : -123.1149325, Q1 : 0.897928535938, Q2 : 0.0490747243166, Q3 : -0.134015142918, Q4 : 0.416360408068}
2019-04-14 18:35:19.91: SIM {TimeUS : 58934750, Roll : -1.42, Pitch : -16.39, Yaw : 50.1, Alt : 49.2799987793, Lat : 49.2836267, Lng : -123.1149288, Q1 : 0.897329330444, Q2 : 0.0492637008429, Q3 : -0.134394422174, Q4 : 0.417506068945}
2019-04-14 18:35:20.01: SIM {TimeUS : 59034710, Roll : -1.29, Pitch : -16.45, Yaw : 49.98, Alt : 49.2900009155, Lat : 49.2836288, Lng : -123.114925, Q1 : 0.897650182247, Q2 : 0.050357632339, Q3 : -0.134450390935, Q4 : 0.416666954756}
2019-04-14 18:35:20.11: SIM {TimeUS : 59134670, Roll : -1.04, Pitch : -16.51, Yaw : 49.64, Alt : 49.2900009155, Lat : 49.2836311, Lng : -123.1149212, Q1 : 0.898704171181, Q2 : 0.0520875826478, Q3 : -0.134117528796, Q4 : 0.41428270936}
2019-04-14 18:35:20.21: SIM {TimeUS : 59234630, Roll : -0.72, Pitch : -16.56, Yaw : 49.17, Alt : 49.2900009155, Lat : 49.2836335, Lng : -123.1149172, Q1 : 0.900222480297, Q2 : 0.0542506948113, Q3 : -0.133570939302, Q4 : 0.410871207714}
2019-04-14 18:35:20.31: SIM {TimeUS : 59334590, Roll : -0.36, Pitch : -16.6, Yaw : 48.62, Alt : 49.2900009155, Lat : 49.2836359, Lng : -123.1149134, Q1 : 0.901945590973, Q2 : 0.0565650425851, Q3 : -0.132927134633, Q4 : 0.406970441341}
2019-04-14 18:35:20.41: SIM {TimeUS : 59434550, Roll : -0.02, Pitch : -16.64, Yaw : 48.08, Alt : 49.2900009155, Lat : 49.2836383, Lng : -123.1149095, Q1 : 0.903648078442, Q2 : 0.0587662272155, Q3 : -0.132270842791, Q4 : 0.403077125549}
2019-04-14 18:35:20.52: SIM {TimeUS : 59535343, Roll : 0.27, Pitch : -16.67, Yaw : 47.59, Alt : 49.2900009155, Lat : 49.2836408, Lng : -123.1149055, Q1 : 0.905153870583, Q2 : 0.0607211776078, Q3 : -0.131697013974, Q4 : 0.39958140254}
2019-04-14 18:35:20.61: SIM {TimeUS : 59635303, Roll : 0.5, Pitch : -16.7, Yaw : 47.21, Alt : 49.2900009155, Lat : 49.2836432, Lng : -123.1149014, Q1 : 0.906318247318, Q2 : 0.0621967166662, Q3 : -0.13131724298, Q4 : 0.396830707788}
2019-04-14 18:35:20.71: SIM {TimeUS : 59735263, Roll : 0.63, Pitch : -16.72, Yaw : 46.96, Alt : 49.2900009155, Lat : 49.2836456, Lng : -123.1148974, Q1 : 0.907099366188, Q2 : 0.0630135685205, Q3 : -0.131193816662, Q4 : 0.394953399897}
2019-04-14 18:35:20.81: SIM {TimeUS : 59835223, Roll : 0.67, Pitch : -16.75, Yaw : 46.83, Alt : 49.2900009155, Lat : 49.2836481, Lng : -123.1148933, Q1 : 0.907479465008, Q2 : 0.063255392015, Q3 : -0.131349846721, Q4 : 0.393988668919}
2019-04-14 18:35:20.91: SIM {TimeUS : 59935183, Roll : 0.63, Pitch : -16.79, Yaw : 46.82, Alt : 49.2900009155, Lat : 49.2836505, Lng : -123.1148892, Q1 : 0.907485187054, Q2 : 0.063026599586, Q3 : -0.13183285296, Q4 : 0.393850803375}
2019-04-14 18:35:21.01: SIM {TimeUS : 60035143, Roll : 0.51, Pitch : -16.84, Yaw : 46.91, Alt : 49.2900009155, Lat : 49.283653, Lng : -123.114885, Q1 : 0.907184302807, Q2 : 0.0624169297516, Q3 : -0.132564783096, Q4 : 0.394394904375}
2019-04-14 18:35:21.11: SIM {TimeUS : 60135103, Roll : 0.35, Pitch : -16.89, Yaw : 47.07, Alt : 49.2900009155, Lat : 49.2836554, Lng : -123.1148808, Q1 : 0.906670093536, Q2 : 0.06147063151, Q3 : -0.133429303765, Q4 : 0.395433098078}
2019-04-14 18:35:21.21: SIM {TimeUS : 60235063, Roll : 0.16, Pitch : -16.92, Yaw : 47.26, Alt : 49.2900009155, Lat : 49.2836579, Lng : -123.1148765, Q1 : 0.906050384045, Q2 : 0.060354873538, Q3 : -0.134268462658, Q4 : 0.396739214659}
2019-04-14 18:35:21.31: SIM {TimeUS : 60335023, Roll : 0.0, Pitch : -16.96, Yaw : 47.47, Alt : 49.2999992371, Lat : 49.2836604, Lng : -123.1148722, Q1 : 0.905397415161, Q2 : 0.0593723617494, Q3 : -0.135030403733, Q4 : 0.398117184639}
2019-04-14 18:35:21.41: SIM {TimeUS : 60434983, Roll : -0.12, Pitch : -17.0, Yaw : 47.65, Alt : 49.2999992371, Lat : 49.2836631, Lng : -123.114868, Q1 : 0.90477001667, Q2 : 0.0587482899427, Q3 : -0.135713592172, Q4 : 0.399401634932}
2019-04-14 18:35:21.51: SIM {TimeUS : 60534943, Roll : -0.19, Pitch : -17.05, Yaw : 47.8, Alt : 49.2999992371, Lat : 49.2836656, Lng : -123.1148636, Q1 : 0.904245436192, Q2 : 0.0585045851767, Q3 : -0.136229336262, Q4 : 0.400448441505}
2019-04-14 18:35:21.61: SIM {TimeUS : 60634903, Roll : -0.22, Pitch : -17.09, Yaw : 47.89, Alt : 49.2999992371, Lat : 49.2836682, Lng : -123.1148593, Q1 : 0.903867900372, Q2 : 0.0585715100169, Q3 : -0.136625513434, Q4 : 0.401155531406}
2019-04-14 18:35:21.71: SIM {TimeUS : 60734863, Roll : -0.2, Pitch : -17.13, Yaw : 47.94, Alt : 49.2999992371, Lat : 49.2836707, Lng : -123.1148549, Q1 : 0.90366178751, Q2 : 0.058893237263, Q3 : -0.136876121163, Q4 : 0.401487141848}
2019-04-14 18:35:21.81: SIM {TimeUS : 60834823, Roll : -0.17, Pitch : -17.17, Yaw : 47.93, Alt : 49.2999992371, Lat : 49.2836734, Lng : -123.1148506, Q1 : 0.903625488281, Q2 : 0.0592864975333, Q3 : -0.137044087052, Q4 : 0.40145367384}
2019-04-14 18:35:21.91: SIM {TimeUS : 60934783, Roll : -0.13, Pitch : -17.2, Yaw : 47.88, Alt : 49.2999992371, Lat : 49.283676, Lng : -123.1148462, Q1 : 0.903749465942, Q2 : 0.0595951490104, Q3 : -0.137155219913, Q4 : 0.401090800762}
2019-04-14 18:35:22.01: SIM {TimeUS : 61034743, Roll : -0.1, Pitch : -17.2, Yaw : 47.8, Alt : 49.2999992371, Lat : 49.2836785, Lng : -123.1148417, Q1 : 0.904004871845, Q2 : 0.0598212629557, Q3 : -0.13713349402, Q4 : 0.400488495827}
2019-04-14 18:35:22.11: SIM {TimeUS : 61134703, Roll : -0.05, Pitch : -17.2, Yaw : 47.7, Alt : 49.2999992371, Lat : 49.2836813, Lng : -123.1148373, Q1 : 0.904336333275, Q2 : 0.0600769966841, Q3 : -0.136966109276, Q4 : 0.39975848794}
2019-04-14 18:35:22.21: SIM {TimeUS : 61234663, Roll : 0.0, Pitch : -17.21, Yaw : 47.59, Alt : 49.3100013733, Lat : 49.2836839, Lng : -123.1148327, Q1 : 0.904675662518, Q2 : 0.0603875108063, Q3 : -0.136903092265, Q4 : 0.398964703083}
2019-04-14 18:35:22.31: SIM {TimeUS : 61334623, Roll : 0.06, Pitch : -17.24, Yaw : 47.48, Alt : 49.3100013733, Lat : 49.2836865, Lng : -123.1148284, Q1 : 0.904966056347, Q2 : 0.0608961507678, Q3 : -0.137016668916, Q4 : 0.398189038038}
2019-04-14 18:35:22.41: SIM {TimeUS : 61434583, Roll : 0.13, Pitch : -17.3, Yaw : 47.39, Alt : 49.3100013733, Lat : 49.2836893, Lng : -123.1148239, Q1 : 0.905178666115, Q2 : 0.0615250691772, Q3 : -0.137320026755, Q4 : 0.397504091263}
2019-04-14 18:35:22.51: SIM {TimeUS : 61534543, Roll : 0.17, Pitch : -17.34, Yaw : 47.32, Alt : 49.3100013733, Lat : 49.2836919, Lng : -123.1148193, Q1 : 0.905371129513, Q2 : 0.061889089644, Q3 : -0.137475788593, Q4 : 0.396955043077}
2019-04-14 18:35:22.62: SIM {TimeUS : 61635336, Roll : 0.2, Pitch : -17.34, Yaw : 47.26, Alt : 49.3100013733, Lat : 49.2836947, Lng : -123.1148148, Q1 : 0.905540525913, Q2 : 0.0620256178081, Q3 : -0.137418791652, Q4 : 0.396566867828}
2019-04-14 18:35:22.71: SIM {TimeUS : 61735296, Roll : 0.2, Pitch : -17.34, Yaw : 47.23, Alt : 49.3100013733, Lat : 49.2836973, Lng : -123.1148102, Q1 : 0.905640602112, Q2 : 0.0620347857475, Q3 : -0.137487083673, Q4 : 0.396313071251}
2019-04-14 18:35:22.81: SIM {TimeUS : 61835256, Roll : 0.18, Pitch : -17.37, Yaw : 47.22, Alt : 49.3100013733, Lat : 49.2837001, Lng : -123.1148057, Q1 : 0.9056661129, Q2 : 0.0619631782174, Q3 : -0.137764170766, Q4 : 0.396169811487}
2019-04-14 18:35:22.91: SIM {TimeUS : 61935216, Roll : 0.16, Pitch : -17.4, Yaw : 47.22, Alt : 49.3100013733, Lat : 49.2837028, Lng : -123.1148011, Q1 : 0.905641794205, Q2 : 0.0619331970811, Q3 : -0.138055473566, Q4 : 0.396128684282}
2019-04-14 18:35:23.01: SIM {TimeUS : 62035176, Roll : 0.15, Pitch : -17.44, Yaw : 47.23, Alt : 49.3100013733, Lat : 49.2837054, Lng : -123.1147966, Q1 : 0.90557128191, Q2 : 0.0619359761477, Q3 : -0.138407334685, Q4 : 0.396166712046}
2019-04-14 18:35:23.11: SIM {TimeUS : 62135136, Roll : 0.13, Pitch : -17.47, Yaw : 47.24, Alt : 49.3100013733, Lat : 49.2837082, Lng : -123.114792, Q1 : 0.90548813343, Q2 : 0.0619140900671, Q3 : -0.138695552945, Q4 : 0.396259367466}
2019-04-14 18:35:23.21: SIM {TimeUS : 62235096, Roll : 0.11, Pitch : -17.5, Yaw : 47.26, Alt : 49.3100013733, Lat : 49.2837109, Lng : -123.1147874, Q1 : 0.905403077602, Q2 : 0.061905618757, Q3 : -0.138963624835, Q4 : 0.396361112595}
2019-04-14 18:35:23.31: SIM {TimeUS : 62335056, Roll : 0.11, Pitch : -17.51, Yaw : 47.28, Alt : 49.3100013733, Lat : 49.2837137, Lng : -123.1147827, Q1 : 0.905335843563, Q2 : 0.061933670193, Q3 : -0.139092639089, Q4 : 0.396464943886}
2019-04-14 18:35:23.41: SIM {TimeUS : 62435016, Roll : 0.11, Pitch : -17.52, Yaw : 47.29, Alt : 49.3100013733, Lat : 49.2837165, Lng : -123.1147781, Q1 : 0.90528434515, Q2 : 0.0620452687144, Q3 : -0.139173477888, Q4 : 0.39653673768}
2019-04-14 18:35:23.51: SIM {TimeUS : 62534976, Roll : 0.12, Pitch : -17.54, Yaw : 47.29, Alt : 49.3199996948, Lat : 49.2837192, Lng : -123.1147735, Q1 : 0.905255258083, Q2 : 0.062182802707, Q3 : -0.139252841473, Q4 : 0.396553695202}
2019-04-14 18:35:23.61: SIM {TimeUS : 62634936, Roll : 0.12, Pitch : -17.57, Yaw : 47.28, Alt : 49.3199996948, Lat : 49.283722, Lng : -123.1147688, Q1 : 0.905243873596, Q2 : 0.0622626356781, Q3 : -0.139499932528, Q4 : 0.396480381489}
2019-04-14 18:35:23.71: SIM {TimeUS : 62734896, Roll : 0.1, Pitch : -17.61, Yaw : 47.27, Alt : 49.3199996948, Lat : 49.2837247, Lng : -123.114764, Q1 : 0.905251026154, Q2 : 0.0621913708746, Q3 : -0.139939635992, Q4 : 0.396320313215}
2019-04-14 18:35:23.81: SIM {TimeUS : 62834856, Roll : 0.08, Pitch : -17.66, Yaw : 47.25, Alt : 49.3199996948, Lat : 49.2837276, Lng : -123.1147595, Q1 : 0.905268549919, Q2 : 0.0621986053884, Q3 : -0.140371501446, Q4 : 0.396126300097}
2019-04-14 18:35:23.91: SIM {TimeUS : 62934816, Roll : 0.09, Pitch : -17.69, Yaw : 47.22, Alt : 49.3199996948, Lat : 49.2837302, Lng : -123.1147548, Q1 : 0.905304372311, Q2 : 0.0623935870826, Q3 : -0.140593975782, Q4 : 0.39593487978}
2019-04-14 18:35:24.01: SIM {TimeUS : 63034776, Roll : 0.12, Pitch : -17.69, Yaw : 47.2, Alt : 49.3199996948, Lat : 49.2837331, Lng : -123.1147501, Q1 : 0.905379414558, Q2 : 0.0626107081771, Q3 : -0.140521392226, Q4 : 0.395754665136}
2019-04-14 18:35:24.11: SIM {TimeUS : 63134736, Roll : 0.16, Pitch : -17.68, Yaw : 47.17, Alt : 49.3199996948, Lat : 49.2837358, Lng : -123.1147454, Q1 : 0.905476033688, Q2 : 0.0627827420831, Q3 : -0.140305325389, Q4 : 0.395583063364}
2019-04-14 18:35:24.21: SIM {TimeUS : 63234696, Roll : 0.16, Pitch : -17.66, Yaw : 47.14, Alt : 49.3199996948, Lat : 49.2837387, Lng : -123.1147406, Q1 : 0.90558296442, Q2 : 0.0627474486828, Q3 : -0.140146389604, Q4 : 0.395400136709}
2019-04-14 18:35:24.31: SIM {TimeUS : 63334656, Roll : 0.16, Pitch : -17.64, Yaw : 47.12, Alt : 49.3199996948, Lat : 49.2837416, Lng : -123.1147359, Q1 : 0.905690252781, Q2 : 0.0626358911395, Q3 : -0.14002007246, Q4 : 0.395216822624}
2019-04-14 18:35:24.41: SIM {TimeUS : 63434616, Roll : 0.16, Pitch : -17.62, Yaw : 47.1, Alt : 49.3199996948, Lat : 49.2837443, Lng : -123.1147311, Q1 : 0.90579277277, Q2 : 0.0625087842345, Q3 : -0.139922887087, Q4 : 0.395036369562}
2019-04-14 18:35:24.51: SIM {TimeUS : 63534576, Roll : 0.15, Pitch : -17.64, Yaw : 47.08, Alt : 49.3199996948, Lat : 49.2837472, Lng : -123.1147264, Q1 : 0.905852437019, Q2 : 0.062438622117, Q3 : -0.140080869198, Q4 : 0.394854635}
2019-04-14 18:35:24.61: SIM {TimeUS : 63634536, Roll : 0.14, Pitch : -17.68, Yaw : 47.06, Alt : 49.3199996948, Lat : 49.2837501, Lng : -123.1147216, Q1 : 0.90586990118, Q2 : 0.0625002086163, Q3 : -0.140400901437, Q4 : 0.394690990448}
2019-04-14 18:35:24.71: SIM {TimeUS : 63735329, Roll : 0.13, Pitch : -17.73, Yaw : 47.05, Alt : 49.3199996948, Lat : 49.2837528, Lng : -123.1147168, Q1 : 0.905855774879, Q2 : 0.0625693574548, Q3 : -0.140873625875, Q4 : 0.394544094801}
2019-04-14 18:35:24.81: SIM {TimeUS : 63835289, Roll : 0.13, Pitch : -17.78, Yaw : 47.03, Alt : 49.3199996948, Lat : 49.2837557, Lng : -123.114712, Q1 : 0.905825018883, Q2 : 0.0627615973353, Q3 : -0.14131590724, Q4 : 0.394426047802}
2019-04-14 18:35:24.91: SIM {TimeUS : 63935249, Roll : 0.14, Pitch : -17.81, Yaw : 47.02, Alt : 49.3300018311, Lat : 49.2837586, Lng : -123.1147073, Q1 : 0.90581703186, Q2 : 0.062954261899, Q3 : -0.141492292285, Q4 : 0.394350290298}
2019-04-14 18:35:25.01: SIM {TimeUS : 64035209, Roll : 0.15, Pitch : -17.84, Yaw : 47.01, Alt : 49.3300018311, Lat : 49.2837613, Lng : -123.1147025, Q1 : 0.90581792593, Q2 : 0.0630521029234, Q3 : -0.141672685742, Q4 : 0.394267916679}
2019-04-14 18:35:25.11: SIM {TimeUS : 64135169, Roll : 0.14, Pitch : -17.85, Yaw : 47.01, Alt : 49.3300018311, Lat : 49.2837642, Lng : -123.1146977, Q1 : 0.905831992626, Q2 : 0.0630741938949, Q3 : -0.141792207956, Q4 : 0.394189119339}
2019-04-14 18:35:25.21: SIM {TimeUS : 64235129, Roll : 0.16, Pitch : -17.84, Yaw : 47.0, Alt : 49.3300018311, Lat : 49.2837672, Lng : -123.1146929, Q1 : 0.905864298344, Q2 : 0.0631243214011, Q3 : -0.14170204103, Q4 : 0.394139289856}
2019-04-14 18:35:25.31: SIM {TimeUS : 64335089, Roll : 0.17, Pitch : -17.85, Yaw : 46.99, Alt : 49.3300018311, Lat : 49.2837699, Lng : -123.1146881, Q1 : 0.905871212482, Q2 : 0.0632941499352, Q3 : -0.141721904278, Q4 : 0.394089013338}
2019-04-14 18:35:25.41: SIM {TimeUS : 64435049, Roll : 0.18, Pitch : -17.88, Yaw : 46.98, Alt : 49.3300018311, Lat : 49.2837728, Lng : -123.1146831, Q1 : 0.905869185925, Q2 : 0.0634065493941, Q3 : -0.141888588667, Q4 : 0.394015580416}
2019-04-14 18:35:25.51: SIM {TimeUS : 64535009, Roll : 0.18, Pitch : -17.89, Yaw : 46.97, Alt : 49.3300018311, Lat : 49.2837758, Lng : -123.1146784, Q1 : 0.90587580204, Q2 : 0.0634690597653, Q3 : -0.142020925879, Q4 : 0.393942654133}
2019-04-14 18:35:25.61: SIM {TimeUS : 64634969, Roll : 0.18, Pitch : -17.89, Yaw : 46.96, Alt : 49.3300018311, Lat : 49.2837787, Lng : -123.1146736, Q1 : 0.905916154385, Q2 : 0.0634676367044, Q3 : -0.141984730959, Q4 : 0.39386305213}
2019-04-14 18:35:25.71: SIM {TimeUS : 64734929, Roll : 0.18, Pitch : -17.89, Yaw : 46.95, Alt : 49.3300018311, Lat : 49.2837814, Lng : -123.1146688, Q1 : 0.905958354473, Q2 : 0.0634350180626, Q3 : -0.142010390759, Q4 : 0.393762022257}
2019-04-14 18:35:25.81: SIM {TimeUS : 64834889, Roll : 0.16, Pitch : -17.91, Yaw : 46.94, Alt : 49.3300018311, Lat : 49.2837843, Lng : -123.1146639, Q1 : 0.905992388725, Q2 : 0.0633439794183, Q3 : -0.142212957144, Q4 : 0.393625199795}
2019-04-14 18:35:25.91: SIM {TimeUS : 64934849, Roll : 0.14, Pitch : -17.94, Yaw : 46.92, Alt : 49.3300018311, Lat : 49.2837873, Lng : -123.1146591, Q1 : 0.906014740467, Q2 : 0.0632399320602, Q3 : -0.142586782575, Q4 : 0.393455266953}
2019-04-14 18:35:26.01: SIM {TimeUS : 65034809, Roll : 0.12, Pitch : -17.95, Yaw : 46.9, Alt : 49.3300018311, Lat : 49.2837902, Lng : -123.1146542, Q1 : 0.906064450741, Q2 : 0.0631358474493, Q3 : -0.142709627748, Q4 : 0.393312931061}
2019-04-14 18:35:26.11: SIM {TimeUS : 65134769, Roll : 0.13, Pitch : -17.94, Yaw : 46.89, Alt : 49.3300018311, Lat : 49.283793, Lng : -123.1146494, Q1 : 0.906122565269, Q2 : 0.0631263554096, Q3 : -0.142628803849, Q4 : 0.39320987463}
2019-04-14 18:35:26.21: SIM {TimeUS : 65234729, Roll : 0.15, Pitch : -17.93, Yaw : 46.88, Alt : 49.3300018311, Lat : 49.2837959, Lng : -123.1146445, Q1 : 0.906173348427, Q2 : 0.0632416307926, Q3 : -0.142487511039, Q4 : 0.393125504255}
2019-04-14 18:35:26.31: SIM {TimeUS : 65334689, Roll : 0.17, Pitch : -17.94, Yaw : 46.86, Alt : 49.3300018311, Lat : 49.2837989, Lng : -123.1146396, Q1 : 0.906206429005, Q2 : 0.0633779391646, Q3 : -0.142494663596, Q4 : 0.393024712801}
2019-04-14 18:35:26.41: SIM {TimeUS : 65434649, Roll : 0.16, Pitch : -17.96, Yaw : 46.85, Alt : 49.3400001526, Lat : 49.2838018, Lng : -123.1146348, Q1 : 0.906222581863, Q2 : 0.0634183287621, Q3 : -0.142711907625, Q4 : 0.392902165651}
2019-04-14 18:35:26.51: SIM {TimeUS : 65534609, Roll : 0.15, Pitch : -17.99, Yaw : 46.84, Alt : 49.3400001526, Lat : 49.2838047, Lng : -123.1146299, Q1 : 0.90624243021, Q2 : 0.0633491054177, Q3 : -0.142975121737, Q4 : 0.392771780491}
2019-04-14 18:35:26.61: SIM {TimeUS : 65634569, Roll : 0.13, Pitch : -18.01, Yaw : 46.82, Alt : 49.3400001526, Lat : 49.2838076, Lng : -123.114625, Q1 : 0.906262993813, Q2 : 0.0633055493236, Q3 : -0.143183335662, Q4 : 0.392655521631}
2019-04-14 18:35:26.72: SIM {TimeUS : 65735362, Roll : 0.14, Pitch : -18.02, Yaw : 46.81, Alt : 49.3400001526, Lat : 49.2838105, Lng : -123.1146201, Q1 : 0.90628361702, Q2 : 0.0633754581213, Q3 : -0.14328931272, Q4 : 0.392557919025}
2019-04-14 18:35:26.81: SIM {TimeUS : 65835322, Roll : 0.15, Pitch : -18.03, Yaw : 46.8, Alt : 49.3400001526, Lat : 49.2838135, Lng : -123.1146152, Q1 : 0.906301617622, Q2 : 0.063483722508, Q3 : -0.14334744215, Q4 : 0.392477691174}
2019-04-14 18:35:26.91: SIM {TimeUS : 65935282, Roll : 0.17, Pitch : -18.04, Yaw : 46.79, Alt : 49.3400001526, Lat : 49.2838165, Lng : -123.1146103, Q1 : 0.906305789948, Q2 : 0.0636754781008, Q3 : -0.143346577883, Q4 : 0.392437309027}
2019-04-14 18:35:27.01: SIM {TimeUS : 66035242, Roll : 0.18, Pitch : -18.06, Yaw : 46.79, Alt : 49.3400001526, Lat : 49.2838194, Lng : -123.1146053, Q1 : 0.906299412251, Q2 : 0.0638184919953, Q3 : -0.143433377147, Q4 : 0.392397105694}
2019-04-14 18:35:27.11: SIM {TimeUS : 66135202, Roll : 0.19, Pitch : -18.08, Yaw : 46.78, Alt : 49.3400001526, Lat : 49.2838223, Lng : -123.1146005, Q1 : 0.906285226345, Q2 : 0.0639700144529, Q3 : -0.14356572926, Q4 : 0.392356753349}
2019-04-14 18:35:27.21: SIM {TimeUS : 66235162, Roll : 0.21, Pitch : -18.1, Yaw : 46.78, Alt : 49.3400001526, Lat : 49.2838251, Lng : -123.1145956, Q1 : 0.906271278858, Q2 : 0.064129665494, Q3 : -0.143682554364, Q4 : 0.392320156097}
2019-04-14 18:35:27.31: SIM {TimeUS : 66335122, Roll : 0.23, Pitch : -18.11, Yaw : 46.77, Alt : 49.3400001526, Lat : 49.2838281, Lng : -123.1145907, Q1 : 0.906259953976, Q2 : 0.0643401220441, Q3 : -0.143706142902, Q4 : 0.392303258181}
2019-04-14 18:35:27.41: SIM {TimeUS : 66435082, Roll : 0.26, Pitch : -18.12, Yaw : 46.77, Alt : 49.3400001526, Lat : 49.2838311, Lng : -123.1145858, Q1 : 0.906244516373, Q2 : 0.0646117702127, Q3 : -0.1436842978, Q4 : 0.392302155495}
2019-04-14 18:35:27.51: SIM {TimeUS : 66535042, Roll : 0.26, Pitch : -18.12, Yaw : 46.76, Alt : 49.3400001526, Lat : 49.2838341, Lng : -123.1145809, Q1 : 0.906263232231, Q2 : 0.0645711272955, Q3 : -0.143664345145, Q4 : 0.392272949219}
2019-04-14 18:35:27.61: SIM {TimeUS : 66635002, Roll : 0.23, Pitch : -18.12, Yaw : 46.76, Alt : 49.3499984741, Lat : 49.283837, Lng : -123.1145759, Q1 : 0.906283795834, Q2 : 0.0643790885806, Q3 : -0.143808856606, Q4 : 0.392204076052}
