2019-04-14 02:09:49.10: SIM {TimeUS : 40516287, Roll : 0.0, Pitch : 0.0, Yaw : 0.0, Alt : 30.1000003815, Lat : 49.28357, Lng : -123.11502, Q1 : 1.0, Q2 : 0.0, Q3 : 0.0, Q4 : 0.0}
2019-04-14 02:09:49.21: SIM {TimeUS : 40635406, Roll : 0.0, Pitch : 0.0, Yaw : 0.0, Alt : 30.1000003815, Lat : 49.28357, Lng : -123.11502, Q1 : 1.0, Q2 : 0.0, Q3 : 0.0, Q4 : 0.0}
2019-04-14 02:09:49.31: SIM {TimeUS : 40735366, Roll : 0.0, Pitch : 0.0, Yaw : 0.0, Alt : 30.1000003815, Lat : 49.28357, Lng : -123.11502, Q1 : 1.0, Q2 : 0.0, Q3 : 0.0, Q4 : 0.0}
2019-04-14 02:09:49.41: SIM {TimeUS : 40835326, Roll : 0.0, Pitch : 0.0, Yaw : 0.0, Alt : 30.1000003815, Lat : 49.28357, Lng : -123.11502, Q1 : 1.0, Q2 : 0.0, Q3 : 0.0, Q4 : 0.0}
2019-04-14 02:09:49.51: SIM {TimeUS : 40935286, Roll : 0.0, Pitch : 0.0, Yaw : 0.0, Alt : 30.1000003815, Lat : 49.28357, Lng : -123.11502, Q1 : 1.0, Q2 : 0.0, Q3 : 0.0, Q4 : 0.0}
2019-04-14 02:09:49.61: SIM {TimeUS : 41035246, Roll : 0.0, Pitch : 0.0, Yaw : 0.0, Alt : 30.1000003815, Lat : 49.28357, Lng : -123.11502, Q1 : 1.0, Q2 : 0.0, Q3 : 0.0, Q4 : 0.0}
2019-04-14 02:09:49.71: SIM {TimeUS : 41135206, Roll : 0.0, Pitch : 0.0, Yaw : 0.0, Alt : 30.1000003815, Lat : 49.28357, Lng : -123.11502, Q1 : 1.0, Q2 : 0.0, Q3 : 0.0, Q4 : 0.0}
2019-04-14 02:09:49.81: SIM {TimeUS : 41235166, Roll : 0.0, Pitch : 0.0, Yaw : 0.0, Alt : 30.1000003815, Lat : 49.28357, Lng : -123.11502, Q1 : 1.0, Q2 : 0.0, Q3 : 0.0, Q4 : 0.0}
2019-04-14 02:09:49.91: SIM {TimeUS : 41335126, Roll : 0.0, Pitch : 0.0, Yaw : 0.0, Alt : 30.1000003815, Lat : 49.28357, Lng : -123.11502, Q1 : 1.0, Q2 : 0.0, Q3 : 0.0, Q4 : 0.0}
2019-04-14 02:09:50.01: SIM {TimeUS : 41435086, Roll : 0.0, Pitch : 0.0, Yaw : 0.0, Alt : 30.1000003815, Lat : 49.28357, Lng : -123.11502, Q1 : 1.0, Q2 : 0.0, Q3 : 0.0, Q4 : 0.0}
2019-04-14 02:09:50.11: SIM {TimeUS : 41535046, Roll : 0.0, Pitch : 0.0, Yaw : 0.0, Alt : 30.1000003815, Lat : 49.28357, Lng : -123.11502, Q1 : 1.0, Q2 : 0.0, Q3 : 0.0, Q4 : 0.0}
2019-04-14 02:09:50.21: SIM {TimeUS : 41635006, Roll : 0.0, Pitch : 0.0, Yaw : 0.0, Alt : 30.1000003815, Lat : 49.28357, Lng : -123.11502, Q1 : 1.0, Q2 : 0.0, Q3 : 0.0, Q4 : 0.0}
2019-04-14 02:09:50.31: SIM {TimeUS : 41734966, Roll : 0.0, Pitch : 0.0, Yaw : 0.0, Alt : 30.1000003815, Lat : 49.28357, Lng : -123.11502, Q1 : 1.0, Q2 : 0.0, Q3 : 0.0, Q4 : 0.0}
2019-04-14 02:09:50.41: SIM {TimeUS : 41834926, Roll : 0.0, Pitch : 0.0, Yaw : 0.0, Alt : 30.1000003815, Lat : 49.28357, Lng : -123.11502, Q1 : 1.0, Q2 : 0.0, Q3 : 0.0, Q4 : 0.0}
2019-04-14 02:09:50.51: SIM {TimeUS : 41934886, Roll : 0.0, Pitch : 0.0, Yaw : 0.0, Alt : 30.1000003815, Lat : 49.28357, Lng : -123.11502, Q1 : 1.0, Q2 : 0.0, Q3 : 0.0, Q4 : 0.0}
2019-04-14 02:09:50.61: SIM {TimeUS : 42034846, Roll : 0.0, Pitch : 0.0, Yaw : 0.0, Alt : 30.1000003815, Lat : 49.28357, Lng : -123.11502, Q1 : 1.0, Q2 : 0.0, Q3 : 0.0, Q4 : 0.0}
2019-04-14 02:09:50.71: SIM {TimeUS : 42134806, Roll : 0.0, Pitch : 0.0, Yaw : 0.0, Alt : 30.1000003815, Lat : 49.28357, Lng : -123.11502, Q1 : 1.0, Q2 : 0.0, Q3 : 0.0, Q4 : 0.0}
2019-04-14 02:09:50.81: SIM {TimeUS : 42234766, Roll : 0.0, Pitch : 0.0, Yaw : 0.0, Alt : 30.1000003815, Lat : 49.28357, Lng : -123.11502, Q1 : 1.0, Q2 : 0.0, Q3 : 0.0, Q4 : 0.0}
2019-04-14 02:09:50.91: SIM {TimeUS : 42334726, Roll : 0.0, Pitch : 0.0, Yaw : 0.0, Alt : 30.1000003815, Lat : 49.28357, Lng : -123.11502, Q1 : 1.0, Q2 : 0.0, Q3 : 0.0, Q4 : 0.0}
2019-04-14 02:09:51.01: SIM {TimeUS : 42434686, Roll : 0.0, Pitch : 0.0, Yaw : 0.0, Alt : 30.1000003815, Lat : 49.28357, Lng : -123.11502, Q1 : 1.0, Q2 : 0.0, Q3 : 0.0, Q4 : 0.0}
2019-04-14 02:09:51.11: SIM {TimeUS : 42534646, Roll : 0.0, Pitch : 0.0, Yaw : 0.0, Alt : 30.1000003815, Lat : 49.28357, Lng : -123.11502, Q1 : 1.0, Q2 : 0.0, Q3 : 0.0, Q4 : 0.0}
2019-04-14 02:09:51.22: SIM {TimeUS : 42635439, Roll : 0.0, Pitch : 0.0, Yaw : 0.0, Alt : 30.1000003815, Lat : 49.28357, Lng : -123.11502, Q1 : 1.0, Q2 : 0.0, Q3 : 0.0, Q4 : 0.0}
2019-04-14 02:09:51.31: SIM {TimeUS : 42735399, Roll : 0.0, Pitch : 0.0, Yaw : 0.0, Alt : 30.1000003815, Lat : 49.28357, Lng : -123.11502, Q1 : 1.0, Q2 : 0.0, Q3 : 0.0, Q4 : 0.0}
2019-04-14 02:09:51.41: SIM {TimeUS : 42835359, Roll : 0.0, Pitch : 0.0, Yaw : 0.0, Alt : 30.1000003815, Lat : 49.28357, Lng : -123.11502, Q1 : 1.0, Q2 : 0.0, Q3 : 0.0, Q4 : 3.50114867653e-11}
2019-04-14 02:09:51.51: SIM {TimeUS : 42935319, Roll : 0.0, Pitch : 0.0, Yaw : 360.0, Alt : 30.1000003815, Lat : 49.28357, Lng : -123.11502, Q1 : 1.0, Q2 : 0.0, Q3 : 0.0, Q4 : -1.62090429967e-08}
2019-04-14 02:09:51.61: SIM {TimeUS : 43035279, Roll : 0.0, Pitch : 0.0, Yaw : 359.99, Alt : 30.1000003815, Lat : 49.28357, Lng : -123.11502, Q1 : 1.0, Q2 : 0.0, Q3 : 0.0, Q4 : -2.03575766022e-07}
2019-04-14 02:09:51.71: SIM {TimeUS : 43135239, Roll : 0.0, Pitch : 0.0, Yaw : 359.99, Alt : 30.1000003815, Lat : 49.28357, Lng : -123.11502, Q1 : 1.0, Q2 : 0.0, Q3 : 0.0, Q4 : -3.88829448639e-07}
2019-04-14 02:09:51.81: SIM {TimeUS : 43235199, Roll : 0.0, Pitch : 0.0, Yaw : 359.99, Alt : 30.1000003815, Lat : 49.28357, Lng : -123.11502, Q1 : 1.0, Q2 : 0.0, Q3 : 0.0, Q4 : -5.73934016757e-07}
2019-04-14 02:09:51.91: SIM {TimeUS : 43335159, Roll : 0.0, Pitch : 0.0, Yaw : 359.99, Alt : 30.1000003815, Lat : 49.28357, Lng : -123.11502, Q1 : 1.0, Q2 : 0.0, Q3 : 0.0, Q4 : -7.34191758056e-07}
2019-04-14 02:09:52.01: SIM {TimeUS : 43435119, Roll : 0.0, Pitch : 0.0, Yaw : 359.99, Alt : 30.1000003815, Lat : 49.28357, Lng : -123.11502, Q1 : 1.0, Q2 : 0.0, Q3 : 0.0, Q4 : -9.15105772492e-07}
2019-04-14 02:09:52.11: SIM {TimeUS : 43535079, Roll : 0.0, Pitch : 0.0, Yaw : 359.99, Alt : 30.1000003815, Lat : 49.28357, Lng : -123.11502, Q1 : 1.0, Q2 : 0.0, Q3 : 0.0, Q4 : -1.15322916372e-06}
2019-04-14 02:09:52.21: SIM {TimeUS : 43635039, Roll : 0.0, Pitch : 0.0, Yaw : 359.99, Alt : 30.1000003815, Lat : 49.28357, Lng : -123.11502, Q1 : 1.0, Q2 : 0.0, Q3 : 0.0, Q4 : -1.34733625146e-06}
2019-04-14 02:09:52.31: SIM {TimeUS : 43734999, Roll : 0.0, Pitch : 0.0, Yaw : 359.99, Alt : 30.1200008392, Lat : 49.28357, Lng : -123.11502, Q1 : 1.0, Q2 : 0.0, Q3 : 0.0, Q4 : -1.53480505105e-06}
2019-04-14 02:09:52.41: SIM {TimeUS : 43834959, Roll : 0.0, Pitch : 0.0, Yaw : 359.99, Alt : 30.1399993896, Lat : 49.28357, Lng : -123.11502, Q1 : 1.0, Q2 : 0.0, Q3 : 0.0, Q4 : -1.76719515821e-06}
2019-04-14 02:09:52.51: SIM {TimeUS : 43934919, Roll : 0.0, Pitch : 0.0, Yaw : 359.99, Alt : 30.1800003052, Lat : 49.28357, Lng : -123.11502, Q1 : 1.0, Q2 : 0.0, Q3 : 0.0, Q4 : -1.99844953386e-06}
2019-04-14 02:09:52.61: SIM {TimeUS : 44034879, Roll : 0.0, Pitch : 0.0, Yaw : 359.99, Alt : 30.2099990845, Lat : 49.28357, Lng : -123.11502, Q1 : 1.0, Q2 : -8.27413714433e-06, Q3 : -7.33499473426e-06, Q4 : -2.26202064368e-06}
2019-04-14 02:09:52.71: SIM {TimeUS : 44134839, Roll : -0.19, Pitch : -0.17, Yaw : 359.99, Alt : 30.2700004578, Lat : 49.28357, Lng : -123.11502, Q1 : 0.999997437, Q2 : -0.00169147271663, Q3 : -0.0015088923974, Q4 : -1.52704924403e-05}
2019-04-14 02:09:52.81: SIM {TimeUS : 44234799, Roll : -0.53, Pitch : -0.45, Yaw : 359.99, Alt : 30.3899993896, Lat : 49.28357, Lng : -123.11502, Q1 : 0.999981343746, Q2 : -0.00464398413897, Q3 : -0.00397411873564, Q4 : -5.80040978093e-05}
2019-04-14 02:09:52.91: SIM {TimeUS : 44334759, Roll : -0.8, Pitch : -0.67, Yaw : 359.98, Alt : 30.5400009155, Lat : 49.28357, Lng : -123.11502, Q1 : 0.999957978725, Q2 : -0.00699715036899, Q3 : -0.00592422951013, Q4 : -0.00012957805302}
2019-04-14 02:09:53.01: SIM {TimeUS : 44434719, Roll : -0.88, Pitch : -0.77, Yaw : 359.98, Alt : 30.7000007629, Lat : 49.28357, Lng : -123.11502, Q1 : 0.99994713068, Q2 : -0.00773485703394, Q3 : -0.00677637755871, Q4 : -0.000215904437937}
2019-04-14 02:09:53.11: SIM {TimeUS : 44534679, Roll : -0.8, Pitch : -0.72, Yaw : 359.96, Alt : 30.8500003815, Lat : 49.28357, Lng : -123.1150201, Q1 : 0.999955296516, Q2 : -0.00701143173501, Q3 : -0.00633848551661, Q4 : -0.000310338946292}
2019-04-14 02:09:53.21: SIM {TimeUS : 44634639, Roll : -0.62, Pitch : -0.56, Yaw : 359.95, Alt : 31.0100002289, Lat : 49.28357, Lng : -123.1150201, Q1 : 0.999972641468, Q2 : -0.00547655811533, Q3 : -0.00495102861896, Q4 : -0.000395789305912}
2019-04-14 02:09:53.32: SIM {TimeUS : 44735432, Roll : -0.4, Pitch : -0.35, Yaw : 359.94, Alt : 31.1599998474, Lat : 49.2835701, Lng : -123.1150202, Q1 : 0.999988794327, Q2 : -0.00351203954779, Q3 : -0.00313820922747, Q4 : -0.000465405290015}
2019-04-14 02:09:53.41: SIM {TimeUS : 44835392, Roll : -0.19, Pitch : -0.16, Yaw : 359.94, Alt : 31.3199996948, Lat : 49.2835701, Lng : -123.1150203, Q1 : 0.999997437, Q2 : -0.00166440394241, Q3 : -0.00145741528831, Q4 : -0.000515604857355}
2019-04-14 02:09:53.51: SIM {TimeUS : 44935352, Roll : -0.03, Pitch : -0.02, Yaw : 359.93, Alt : 31.4899997711, Lat : 49.2835702, Lng : -123.1150204, Q1 : 0.999999761581, Q2 : -0.000272216100711, Q3 : -0.000250891316682, Q4 : -0.000544720329344}
2019-04-14 02:09:53.61: SIM {TimeUS : 45035312, Roll : 0.06, Pitch : 0.03, Yaw : 359.93, Alt : 31.6700000763, Lat : 49.2835702, Lng : -123.1150204, Q1 : 0.999999642372, Q2 : 0.000542559137102, Q3 : 0.000326882756781, Q4 : -0.00055203033844}
2019-04-14 02:09:53.71: SIM {TimeUS : 45135272, Roll : 0.1, Pitch : 0.05, Yaw : 359.93, Alt : 31.8500003815, Lat : 49.2835703, Lng : -123.1150205, Q1 : 0.999999344349, Q2 : 0.000887598493136, Q3 : 0.000470227590995, Q4 : -0.000537090119906}
2019-04-14 02:09:53.81: SIM {TimeUS : 45235232, Roll : 0.09, Pitch : 0.05, Yaw : 359.94, Alt : 32.0299987793, Lat : 49.2835703, Lng : -123.1150206, Q1 : 0.999999403954, Q2 : 0.000834424572531, Q3 : 0.000459067727206, Q4 : -0.00051968783373}
2019-04-14 02:09:53.91: SIM {TimeUS : 45335192, Roll : 0.08, Pitch : 0.05, Yaw : 359.94, Alt : 32.2200012207, Lat : 49.2835703, Lng : -123.1150206, Q1 : 0.999999523163, Q2 : 0.000703915837221, Q3 : 0.000472417916171, Q4 : -0.000502675306052}
2019-04-14 02:09:54.01: SIM {TimeUS : 45435152, Roll : 0.06, Pitch : 0.07, Yaw : 359.94, Alt : 32.4099998474, Lat : 49.2835703, Lng : -123.1150207, Q1 : 0.999999582767, Q2 : 0.000530169578269, Q3 : 0.000613954151049, Q4 : -0.000482244853629}
2019-04-14 02:09:54.11: SIM {TimeUS : 45535112, Roll : 0.07, Pitch : 0.1, Yaw : 359.94, Alt : 32.5999984741, Lat : 49.2835703, Lng : -123.1150207, Q1 : 0.99999922514, Q2 : 0.000629286281765, Q3 : 0.000944342988078, Q4 : -0.000458532653283}
2019-04-14 02:09:54.21: SIM {TimeUS : 45635072, Roll : 0.1, Pitch : 0.13, Yaw : 359.94, Alt : 32.7999992371, Lat : 49.2835703, Lng : -123.1150208, Q1 : 0.999998748302, Q2 : 0.000923299405258, Q3 : 0.00121389317792, Q4 : -0.000440714909928}
2019-04-14 02:09:54.31: SIM {TimeUS : 45735032, Roll : 0.13, Pitch : 0.16, Yaw : 359.95, Alt : 33.0, Lat : 49.2835704, Lng : -123.1150208, Q1 : 0.999998211861, Q2 : 0.00118856388144, Q3 : 0.00141738902312, Q4 : -0.000432414672105}
2019-04-14 02:09:54.41: SIM {TimeUS : 45834992, Roll : 0.15, Pitch : 0.18, Yaw : 359.95, Alt : 33.2000007629, Lat : 49.2835704, Lng : -123.1150208, Q1 : 0.999997735023, Q2 : 0.00135971989948, Q3 : 0.00159544881899, Q4 : -0.000431879307143}
2019-04-14 02:09:54.51: SIM {TimeUS : 45934952, Roll : 0.16, Pitch : 0.17, Yaw : 359.95, Alt : 33.4000015259, Lat : 49.2835704, Lng : -123.1150208, Q1 : 0.999997615814, Q2 : 0.00147037033457, Q3 : 0.00152474071365, Q4 : -0.000430650572525}
2019-04-14 02:09:54.61: SIM {TimeUS : 46034912, Roll : 0.16, Pitch : 0.13, Yaw : 359.94, Alt : 33.6100006104, Lat : 49.2835704, Lng : -123.1150209, Q1 : 0.999998092651, Q2 : 0.00148222502321, Q3 : 0.00118691567332, Q4 : -0.000446621183073}
2019-04-14 02:09:54.71: SIM {TimeUS : 46134872, Roll : 0.16, Pitch : 0.11, Yaw : 359.94, Alt : 33.8199996948, Lat : 49.2835704, Lng : -123.1150209, Q1 : 0.999998390675, Q2 : 0.00142458186019, Q3 : 0.000987065955997, Q4 : -0.000460855284473}
2019-04-14 02:09:54.81: SIM {TimeUS : 46234832, Roll : 0.15, Pitch : 0.1, Yaw : 359.94, Alt : 34.0200004578, Lat : 49.2835704, Lng : -123.1150209, Q1 : 0.999998509884, Q2 : 0.00136588956229, Q3 : 0.000945407897234, Q4 : -0.000484546268126}
2019-04-14 02:09:54.91: SIM {TimeUS : 46334792, Roll : 0.15, Pitch : 0.11, Yaw : 359.94, Alt : 34.2299995422, Lat : 49.2835704, Lng : -123.1150209, Q1 : 0.999998450279, Q2 : 0.00135409028735, Q3 : 0.00100442522671, Q4 : -0.00051110656932}
2019-04-14 02:09:55.01: SIM {TimeUS : 46434752, Roll : 0.14, Pitch : 0.1, Yaw : 359.93, Alt : 34.4500007629, Lat : 49.2835704, Lng : -123.1150209, Q1 : 0.999998629093, Q2 : 0.00126649660524, Q3 : 0.000902166008018, Q4 : -0.000531695608515}
2019-04-14 02:09:55.11: SIM {TimeUS : 46534712, Roll : 0.12, Pitch : 0.08, Yaw : 359.93, Alt : 34.6599998474, Lat : 49.2835704, Lng : -123.1150208, Q1 : 0.999998986721, Q2 : 0.00107558898162, Q3 : 0.000740858784411, Q4 : -0.000551541801542}
2019-04-14 02:09:55.21: SIM {TimeUS : 46634672, Roll : 0.09, Pitch : 0.07, Yaw : 359.93, Alt : 34.8800010681, Lat : 49.2835704, Lng : -123.1150208, Q1 : 0.999999284744, Q2 : 0.000860700791236, Q3 : 0.000631029426586, Q4 : -0.000572336779442}
2019-04-14 02:09:55.31: SIM {TimeUS : 46734632, Roll : 0.07, Pitch : 0.06, Yaw : 359.93, Alt : 35.0900001526, Lat : 49.2835704, Lng : -123.1150208, Q1 : 0.999999463558, Q2 : 0.000627249595709, Q3 : 0.00055065494962, Q4 : -0.000598359969445}
2019-04-14 02:09:55.42: SIM {TimeUS : 46835425, Roll : 0.05, Pitch : 0.02, Yaw : 359.92, Alt : 35.3100013733, Lat : 49.2835704, Lng : -123.1150208, Q1 : 0.999999642372, Q2 : 0.00051824253751, Q3 : 0.000260676053585, Q4 : -0.000626362278126}
2019-04-14 02:09:55.51: SIM {TimeUS : 46935385, Roll : 0.05, Pitch : 0.0, Yaw : 359.92, Alt : 35.5299987793, Lat : 49.2835704, Lng : -123.1150208, Q1 : 0.999999701977, Q2 : 0.000438988150563, Q3 : 3.3227057429e-05, Q4 : -0.000660560501274}
2019-04-14 02:09:55.61: SIM {TimeUS : 47035345, Roll : 0.02, Pitch : 0.0, Yaw : 359.91, Alt : 35.75, Lat : 49.2835704, Lng : -123.1150208, Q1 : 0.999999761581, Q2 : 0.000225670723012, Q3 : -3.21152947436e-05, Q4 : -0.000698652176652}
2019-04-14 02:09:55.71: SIM {TimeUS : 47135305, Roll : 0.01, Pitch : 0.0, Yaw : 359.91, Alt : 35.9700012207, Lat : 49.2835704, Lng : -123.1150207, Q1 : 0.999999701977, Q2 : 0.000137421404361, Q3 : -1.11308618216e-05, Q4 : -0.000727740523871}
2019-04-14 02:09:55.81: SIM {TimeUS : 47235265, Roll : 0.02, Pitch : 0.0, Yaw : 359.91, Alt : 36.1899986267, Lat : 49.2835704, Lng : -123.1150207, Q1 : 0.999999701977, Q2 : 0.00018587053637, Q3 : 4.21798040406e-06, Q4 : -0.000750784820411}
2019-04-14 02:09:55.91: SIM {TimeUS : 47335225, Roll : 0.0, Pitch : -0.01, Yaw : 359.91, Alt : 36.4099998474, Lat : 49.2835704, Lng : -123.1150207, Q1 : 0.999999701977, Q2 : 5.5887059716e-05, Q3 : -0.000153749235324, Q4 : -0.000770085258409}
2019-04-14 02:09:56.01: SIM {TimeUS : 47435185, Roll : -0.02, Pitch : -0.05, Yaw : 359.9, Alt : 36.6300010681, Lat : 49.2835704, Lng : -123.1150207, Q1 : 0.999999523163, Q2 : -0.000259183463641, Q3 : -0.000483970972709, Q4 : -0.000789869111031}
2019-04-14 02:09:56.11: SIM {TimeUS : 47535145, Roll : -0.07, Pitch : -0.08, Yaw : 359.9, Alt : 36.8499984741, Lat : 49.2835704, Lng : -123.1150207, Q1 : 0.999999165535, Q2 : -0.000630923605058, Q3 : -0.000728358747438, Q4 : -0.000808017386589}
2019-04-14 02:09:56.21: SIM {TimeUS : 47635105, Roll : -0.11, Pitch : -0.1, Yaw : 359.9, Alt : 37.0800018311, Lat : 49.2835704, Lng : -123.1150207, Q1 : 0.999998748302, Q2 : -0.00099386961665, Q3 : -0.000934155483264, Q4 : -0.000827985699289}
2019-04-14 02:09:56.31: SIM {TimeUS : 47735065, Roll : -0.12, Pitch : -0.11, Yaw : 359.9, Alt : 37.2999992371, Lat : 49.2835704, Lng : -123.1150207, Q1 : 0.999998569489, Q2 : -0.00111533235759, Q3 : -0.000983763602562, Q4 : -0.000854075595271}
2019-04-14 02:09:56.41: SIM {TimeUS : 47835025, Roll : -0.12, Pitch : -0.09, Yaw : 359.89, Alt : 37.5299987793, Lat : 49.2835704, Lng : -123.1150206, Q1 : 0.999998688698, Q2 : -0.00105409801472, Q3 : -0.000862016982865, Q4 : -0.00088207150111}
2019-04-14 02:09:56.51: SIM {TimeUS : 47934985, Roll : -0.09, Pitch : -0.06, Yaw : 359.89, Alt : 37.75, Lat : 49.2835704, Lng : -123.1150206, Q1 : 0.99999910593, Q2 : -0.000862493063323, Q3 : -0.000542810419574, Q4 : -0.000907163717784}
2019-04-14 02:09:56.61: SIM {TimeUS : 48034945, Roll : -0.07, Pitch : -0.03, Yaw : 359.89, Alt : 37.9799995422, Lat : 49.2835704, Lng : -123.1150206, Q1 : 0.999999284744, Q2 : -0.000674394075759, Q3 : -0.000306791684125, Q4 : -0.000935748394113}
2019-04-14 02:09:56.71: SIM {TimeUS : 48134905, Roll : -0.07, Pitch : -0.03, Yaw : 359.88, Alt : 38.2099990845, Lat : 49.2835704, Lng : -123.1150206, Q1 : 0.999999284744, Q2 : -0.000637610268313, Q3 : -0.000280840526102, Q4 : -0.000966890482232}
2019-04-14 02:09:56.81: SIM {TimeUS : 48234865, Roll : -0.07, Pitch : -0.01, Yaw : 359.88, Alt : 38.4399986267, Lat : 49.2835706, Lng : -123.1150206, Q1 : 0.999999284744, Q2 : -0.000683379999828, Q3 : -0.000161640200531, Q4 : -0.00098789180629}
2019-04-14 02:09:56.91: SIM {TimeUS : 48334825, Roll : -0.09, Pitch : 0.0, Yaw : 359.88, Alt : 38.6699981689, Lat : 49.2835706, Lng : -123.1150206, Q1 : 0.99999910593, Q2 : -0.000854048179463, Q3 : -2.49548656939e-06, Q4 : -0.00100245920476}
2019-04-14 02:09:57.01: SIM {TimeUS : 48434785, Roll : -0.1, Pitch : 0.01, Yaw : 359.88, Alt : 38.8899993896, Lat : 49.2835706, Lng : -123.1150206, Q1 : 0.99999910593, Q2 : -0.000885560410097, Q3 : 0.000128126484924, Q4 : -0.00101167755201}
2019-04-14 02:09:57.11: SIM {TimeUS : 48534745, Roll : -0.08, Pitch : 0.03, Yaw : 359.88, Alt : 39.1199989319, Lat : 49.2835706, Lng : -123.1150206, Q1 : 0.999999165535, Q2 : -0.00073723756941, Q3 : 0.00034093321301, Q4 : -0.00102070719004}
2019-04-14 02:09:57.21: SIM {TimeUS : 48634705, Roll : -0.06, Pitch : 0.03, Yaw : 359.88, Alt : 39.3499984741, Lat : 49.2835706, Lng : -123.1150206, Q1 : 0.999999284744, Q2 : -0.000528502161615, Q3 : 0.000338669808116, Q4 : -0.00102044292726}
2019-04-14 02:09:57.31: SIM {TimeUS : 48734665, Roll : -0.02, Pitch : 0.03, Yaw : 359.88, Alt : 39.5800018311, Lat : 49.2835706, Lng : -123.1150207, Q1 : 0.999999403954, Q2 : -0.000249817036092, Q3 : 0.000309918483254, Q4 : -0.0010163889965}
2019-04-14 02:09:57.41: SIM {TimeUS : 48834625, Roll : 0.01, Pitch : 0.05, Yaw : 359.88, Alt : 39.8100013733, Lat : 49.2835706, Lng : -123.1150207, Q1 : 0.999999344349, Q2 : 0.000103540281998, Q3 : 0.000479792564875, Q4 : -0.00100845517591}
2019-04-14 02:09:57.52: SIM {TimeUS : 48935418, Roll : 0.05, Pitch : 0.09, Yaw : 359.88, Alt : 40.0499992371, Lat : 49.2835706, Lng : -123.1150207, Q1 : 0.999999046326, Q2 : 0.000501587870531, Q3 : 0.000805056013633, Q4 : -0.00100911268964}
2019-04-14 02:09:57.61: SIM {TimeUS : 49035378, Roll : 0.08, Pitch : 0.13, Yaw : 359.88, Alt : 40.2799987793, Lat : 49.2835706, Lng : -123.1150207, Q1 : 0.999998509884, Q2 : 0.000776491244324, Q3 : 0.00117607403081, Q4 : -0.00101850286592}
2019-04-14 02:09:57.71: SIM {TimeUS : 49135338, Roll : 0.08, Pitch : 0.17, Yaw : 359.88, Alt : 40.5099983215, Lat : 49.2835706, Lng : -123.1150207, Q1 : 0.999998092651, Q2 : 0.000702614022885, Q3 : 0.00150300085079, Q4 : -0.00102299207356}
2019-04-14 02:09:57.81: SIM {TimeUS : 49235298, Roll : 0.03, Pitch : 0.19, Yaw : 359.88, Alt : 40.7400016785, Lat : 49.2835706, Lng : -123.1150207, Q1 : 0.999997973442, Q2 : 0.000276160251815, Q3 : 0.00170501414686, Q4 : -0.00104396149982}
2019-04-14 02:09:57.91: SIM {TimeUS : 49335258, Roll : -0.01, Pitch : 0.2, Yaw : 359.87, Alt : 40.9799995422, Lat : 49.2835706, Lng : -123.1150207, Q1 : 0.999997854233, Q2 : -0.000134468864417, Q3 : 0.00177218159661, Q4 : -0.00106840825174}
2019-04-14 02:09:58.01: SIM {TimeUS : 49435218, Roll : -0.03, Pitch : 0.17, Yaw : 359.87, Alt : 41.2099990845, Lat : 49.2835706, Lng : -123.1150207, Q1 : 0.999998211861, Q2 : -0.00034344944288, Q3 : 0.00153206801042, Q4 : -0.00109676585998}
2019-04-14 02:09:58.11: SIM {TimeUS : 49535178, Roll : -0.04, Pitch : 0.13, Yaw : 359.86, Alt : 41.4399986267, Lat : 49.2835706, Lng : -123.1150207, Q1 : 0.999998629093, Q2 : -0.000386074301787, Q3 : 0.00115886819549, Q4 : -0.00113790587056}
2019-04-14 02:09:58.21: SIM {TimeUS : 49635138, Roll : -0.02, Pitch : 0.11, Yaw : 359.86, Alt : 41.6800003052, Lat : 49.2835706, Lng : -123.1150207, Q1 : 0.999998748302, Q2 : -0.000248945259955, Q3 : 0.00103368016426, Q4 : -0.00119102082681}
2019-04-14 02:09:58.31: SIM {TimeUS : 49735098, Roll : 0.01, Pitch : 0.12, Yaw : 359.85, Alt : 41.9099998474, Lat : 49.2835706, Lng : -123.1150207, Q1 : 0.999998629093, Q2 : 0.000105424041976, Q3 : 0.00108650501352, Q4 : -0.00124735443387}
2019-04-14 02:09:58.41: SIM {TimeUS : 49835058, Roll : 0.06, Pitch : 0.12, Yaw : 359.85, Alt : 42.1399993896, Lat : 49.2835706, Lng : -123.1150207, Q1 : 0.99999833107, Q2 : 0.000602216052357, Q3 : 0.00113242119551, Q4 : -0.00129858963192}
2019-04-14 02:09:58.51: SIM {TimeUS : 49935018, Roll : 0.11, Pitch : 0.11, Yaw : 359.84, Alt : 42.3800010681, Lat : 49.2835706, Lng : -123.1150207, Q1 : 0.999998092651, Q2 : 0.00096818653401, Q3 : 0.000994979287498, Q4 : -0.00135031423997}
2019-04-14 02:09:58.61: SIM {TimeUS : 50034978, Roll : 0.11, Pitch : 0.09, Yaw : 359.84, Alt : 42.6100006104, Lat : 49.2835706, Lng : -123.1150207, Q1 : 0.999998211861, Q2 : 0.000995026086457, Q3 : 0.000791989034042, Q4 : -0.00139712658711}
2019-04-14 02:09:58.71: SIM {TimeUS : 50134938, Roll : 0.07, Pitch : 0.07, Yaw : 359.83, Alt : 42.8499984741, Lat : 49.2835706, Lng : -123.1150207, Q1 : 0.999998629093, Q2 : 0.000629879068583, Q3 : 0.000633954128716, Q4 : -0.00141857587732}
2019-04-14 02:09:58.81: SIM {TimeUS : 50234898, Roll : 0.01, Pitch : 0.06, Yaw : 359.83, Alt : 43.0800018311, Lat : 49.2835706, Lng : -123.1150207, Q1 : 0.999998807907, Q2 : 0.000116406670713, Q3 : 0.000579003302846, Q4 : -0.00143011368345}
2019-04-14 02:09:58.91: SIM {TimeUS : 50334858, Roll : -0.02, Pitch : 0.07, Yaw : 359.83, Alt : 43.3199996948, Lat : 49.2835706, Lng : -123.1150207, Q1 : 0.999998688698, Q2 : -0.000253477221122, Q3 : 0.000681035278831, Q4 : -0.00144112692215}
2019-04-14 02:09:59.01: SIM {TimeUS : 50434818, Roll : -0.04, Pitch : 0.08, Yaw : 359.83, Alt : 43.5499992371, Lat : 49.2835704, Lng : -123.1150207, Q1 : 0.999998569489, Q2 : -0.000430155225331, Q3 : 0.000728686340153, Q4 : -0.00145138730295}
2019-04-14 02:09:59.11: SIM {TimeUS : 50534778, Roll : -0.04, Pitch : 0.07, Yaw : 359.83, Alt : 43.7900009155, Lat : 49.2835704, Lng : -123.1150207, Q1 : 0.999998688698, Q2 : -0.00038660413702, Q3 : 0.000618614663836, Q4 : -0.00145517650526}
2019-04-14 02:09:59.21: SIM {TimeUS : 50634738, Roll : -0.04, Pitch : 0.05, Yaw : 359.83, Alt : 44.0200004578, Lat : 49.2835704, Lng : -123.1150207, Q1 : 0.999998748302, Q2 : -0.000390936009353, Q3 : 0.000453876738902, Q4 : -0.00146507180762}
2019-04-14 02:09:59.31: SIM {TimeUS : 50734698, Roll : -0.03, Pitch : 0.03, Yaw : 359.83, Alt : 44.2599983215, Lat : 49.2835704, Lng : -123.1150207, Q1 : 0.999998807907, Q2 : -0.000334491749527, Q3 : 0.000293561228318, Q4 : -0.0014798581833}
2019-04-14 02:09:59.41: SIM {TimeUS : 50834658, Roll : -0.02, Pitch : 0.02, Yaw : 359.82, Alt : 44.5, Lat : 49.2835704, Lng : -123.1150207, Q1 : 0.999998807907, Q2 : -0.000198035748326, Q3 : 0.000250758428592, Q4 : -0.00150544149801}
2019-04-14 02:09:59.51: SIM {TimeUS : 50934618, Roll : -0.01, Pitch : 0.03, Yaw : 359.82, Alt : 44.7299995422, Lat : 49.2835704, Lng : -123.1150206, Q1 : 0.999998748302, Q2 : -0.000137864830322, Q3 : 0.000272086064797, Q4 : -0.00153330212925}
2019-04-14 02:09:59.61: SIM {TimeUS : 51035411, Roll : -0.02, Pitch : 0.01, Yaw : 359.82, Alt : 44.9700012207, Lat : 49.2835704, Lng : -123.1150206, Q1 : 0.999998748302, Q2 : -0.000176891830051, Q3 : 0.000137082126457, Q4 : -0.00156435614917}
2019-04-14 02:09:59.71: SIM {TimeUS : 51135371, Roll : -0.02, Pitch : -0.01, Yaw : 359.81, Alt : 45.2099990845, Lat : 49.2835704, Lng : -123.1150206, Q1 : 0.999998688698, Q2 : -0.000231020851061, Q3 : -0.00012692801829, Q4 : -0.00159554393031}
2019-04-14 02:09:59.81: SIM {TimeUS : 51235331, Roll : -0.02, Pitch : -0.03, Yaw : 359.81, Alt : 45.4399986267, Lat : 49.2835703, Lng : -123.1150206, Q1 : 0.999998569489, Q2 : -0.000261674547801, Q3 : -0.000315082870657, Q4 : -0.00162649503909}
2019-04-14 02:09:59.91: SIM {TimeUS : 51335291, Roll : -0.02, Pitch : -0.05, Yaw : 359.8, Alt : 45.6800003052, Lat : 49.2835703, Lng : -123.1150206, Q1 : 0.999998509884, Q2 : -0.000206331984373, Q3 : -0.000437231006799, Q4 : -0.0016592516331}
2019-04-14 02:10:00.01: SIM {TimeUS : 51435251, Roll : -0.02, Pitch : -0.05, Yaw : 359.8, Alt : 45.9099998474, Lat : 49.2835703, Lng : -123.1150206, Q1 : 0.999998450279, Q2 : -0.000224088318646, Q3 : -0.000452525331639, Q4 : -0.00169067678507}
2019-04-14 02:10:00.11: SIM {TimeUS : 51535211, Roll : -0.04, Pitch : -0.03, Yaw : 359.8, Alt : 46.1399993896, Lat : 49.2835703, Lng : -123.1150206, Q1 : 0.999998390675, Q2 : -0.000420085474616, Q3 : -0.000341417413438, Q4 : -0.00172351696528}
2019-04-14 02:10:00.21: SIM {TimeUS : 51635171, Roll : -0.08, Pitch : -0.02, Yaw : 359.79, Alt : 46.3699989319, Lat : 49.2835703, Lng : -123.1150206, Q1 : 0.999998152256, Q2 : -0.00072056701174, Q3 : -0.000245394709054, Q4 : -0.00175346701872}
2019-04-14 02:10:00.31: SIM {TimeUS : 51735131, Roll : -0.1, Pitch : -0.01, Yaw : 359.79, Alt : 46.5900001526, Lat : 49.2835703, Lng : -123.1150206, Q1 : 0.999997973442, Q2 : -0.000944242754485, Q3 : -0.000161735719303, Q4 : -0.00178106501698}
2019-04-14 02:10:00.41: SIM {TimeUS : 51835091, Roll : -0.11, Pitch : 0.0, Yaw : 359.79, Alt : 46.8100013733, Lat : 49.2835703, Lng : -123.1150206, Q1 : 0.999997854233, Q2 : -0.000990740722045, Q3 : -3.84538761864e-05, Q4 : -0.00180737068877}
2019-04-14 02:10:00.51: SIM {TimeUS : 51935051, Roll : -0.1, Pitch : 0.01, Yaw : 359.78, Alt : 47.0200004578, Lat : 49.2835703, Lng : -123.1150206, Q1 : 0.999997913837, Q2 : -0.000880576553755, Q3 : 0.000134928966872, Q4 : -0.00183570862282}
2019-04-14 02:10:00.61: SIM {TimeUS : 52035011, Roll : -0.07, Pitch : 0.02, Yaw : 359.78, Alt : 47.2200012207, Lat : 49.2835703, Lng : -123.1150206, Q1 : 0.999998033047, Q2 : -0.000673274800647, Q3 : 0.000203230170882, Q4 : -0.00186660862528}
2019-04-14 02:10:00.71: SIM {TimeUS : 52134971, Roll : -0.05, Pitch : 0.01, Yaw : 359.78, Alt : 47.4099998474, Lat : 49.2835703, Lng : -123.1150206, Q1 : 0.999998092651, Q2 : -0.000495148124173, Q3 : 0.000124334677821, Q4 : -0.00189464690629}
2019-04-14 02:10:00.81: SIM {TimeUS : 52234931, Roll : -0.04, Pitch : -0.01, Yaw : 359.78, Alt : 47.5999984741, Lat : 49.2835703, Lng : -123.1150206, Q1 : 0.999998092651, Q2 : -0.000412379566114, Q3 : -9.07732464839e-05, Q4 : -0.00191794277634}
2019-04-14 02:10:00.91: SIM {TimeUS : 52334891, Roll : -0.05, Pitch : -0.04, Yaw : 359.77, Alt : 47.7700004578, Lat : 49.2835703, Lng : -123.1150206, Q1 : 0.999997913837, Q2 : -0.000463978154585, Q3 : -0.000433121138485, Q4 : -0.00193689705338}
2019-04-14 02:10:01.01: SIM {TimeUS : 52434851, Roll : -0.04, Pitch : -0.08, Yaw : 359.77, Alt : 47.9399986267, Lat : 49.2835703, Lng : -123.1150206, Q1 : 0.999997735023, Q2 : -0.000401168683311, Q3 : -0.000713555084076, Q4 : -0.0019515621243}
2019-04-14 02:10:01.11: SIM {TimeUS : 52534811, Roll : -0.03, Pitch : -0.1, Yaw : 359.77, Alt : 48.0900001526, Lat : 49.2835703, Lng : -123.1150206, Q1 : 0.99999755621, Q2 : -0.000319785583997, Q3 : -0.000954056275077, Q4 : -0.00196503545158}
2019-04-14 02:10:01.21: SIM {TimeUS : 52634771, Roll : -0.03, Pitch : -0.12, Yaw : 359.77, Alt : 48.2299995422, Lat : 49.2835703, Lng : -123.1150206, Q1 : 0.999997437, Q2 : -0.000304421992041, Q3 : -0.00108987069689, Q4 : -0.00198147259653}
2019-04-14 02:10:01.31: SIM {TimeUS : 52734731, Roll : 0.0, Pitch : -0.11, Yaw : 359.77, Alt : 48.3600006104, Lat : 49.2835703, Lng : -123.1150206, Q1 : 0.999997496605, Q2 : -5.82917928114e-05, Q3 : -0.000990888453089, Q4 : -0.00200170977041}
2019-04-14 02:10:01.41: SIM {TimeUS : 52834691, Roll : 0.02, Pitch : -0.08, Yaw : 359.76, Alt : 48.4799995422, Lat : 49.2835703, Lng : -123.1150206, Q1 : 0.999997615814, Q2 : 0.000233290353208, Q3 : -0.000757830566727, Q4 : -0.00202504592016}
2019-04-14 02:10:01.51: SIM {TimeUS : 52934651, Roll : 0.05, Pitch : -0.05, Yaw : 359.76, Alt : 48.5800018311, Lat : 49.2835703, Lng : -123.1150207, Q1 : 0.999997675419, Q2 : 0.000491061422508, Q3 : -0.00048585634795, Q4 : -0.00205078884028}
2019-04-14 02:10:01.62: SIM {TimeUS : 53035444, Roll : 0.06, Pitch : -0.03, Yaw : 359.76, Alt : 48.6699981689, Lat : 49.2835703, Lng : -123.1150207, Q1 : 0.999997675419, Q2 : 0.000565755472053, Q3 : -0.000264025497017, Q4 : -0.00207555084489}
2019-04-14 02:10:01.71: SIM {TimeUS : 53135404, Roll : 0.07, Pitch : -0.02, Yaw : 359.75, Alt : 48.75, Lat : 49.2835703, Lng : -123.1150207, Q1 : 0.99999755621, Q2 : 0.000619282363914, Q3 : -0.000197185974685, Q4 : -0.00210475269705}
2019-04-14 02:10:01.81: SIM {TimeUS : 53235364, Roll : 0.06, Pitch : -0.03, Yaw : 359.75, Alt : 48.8199996948, Lat : 49.2835703, Lng : -123.1150207, Q1 : 0.999997496605, Q2 : 0.000548369833268, Q3 : -0.00029974716017, Q4 : -0.00213270727545}
2019-04-14 02:10:01.91: SIM {TimeUS : 53335324, Roll : 0.03, Pitch : -0.04, Yaw : 359.75, Alt : 48.8800010681, Lat : 49.2835703, Lng : -123.1150207, Q1 : 0.99999755621, Q2 : 0.000316474382998, Q3 : -0.000366917491192, Q4 : -0.00216064276174}
2019-04-14 02:10:02.01: SIM {TimeUS : 53435284, Roll : 0.01, Pitch : -0.04, Yaw : 359.74, Alt : 48.9399986267, Lat : 49.2835703, Lng : -123.1150207, Q1 : 0.99999755621, Q2 : 0.00012012924708, Q3 : -0.000356557429768, Q4 : -0.00218828953803}
2019-04-14 02:10:02.11: SIM {TimeUS : 53535244, Roll : 0.0, Pitch : -0.03, Yaw : 359.74, Alt : 48.9799995422, Lat : 49.2835703, Lng : -123.1150207, Q1 : 0.999997496605, Q2 : -4.32192905464e-07, Q3 : -0.000319066020893, Q4 : -0.00221396749839}
2019-04-14 02:10:02.21: SIM {TimeUS : 53635204, Roll : 0.05, Pitch : -0.06, Yaw : 359.74, Alt : 49.0200004578, Lat : 49.2835703, Lng : -123.1150207, Q1 : 0.999997258186, Q2 : 0.00046635090257, Q3 : -0.000531201949343, Q4 : -0.00223687407561}
2019-04-14 02:10:02.31: SIM {TimeUS : 53735164, Roll : 0.3, Pitch : -0.18, Yaw : 359.74, Alt : 49.0499992371, Lat : 49.2835704, Lng : -123.1150207, Q1 : 0.999992549419, Q2 : 0.00266327755526, Q3 : -0.00165344355628, Q4 : -0.00226045981981}
2019-04-14 02:10:02.41: SIM {TimeUS : 53835124, Roll : 0.79, Pitch : -0.48, Yaw : 359.73, Alt : 49.0800018311, Lat : 49.2835704, Lng : -123.1150207, Q1 : 0.999964773655, Q2 : 0.00689332187176, Q3 : -0.00421841396019, Q4 : -0.00227807206102}
2019-04-14 02:10:02.51: SIM {TimeUS : 53935084, Roll : 1.46, Pitch : -0.94, Yaw : 359.72, Alt : 49.0999984741, Lat : 49.2835704, Lng : -123.1150207, Q1 : 0.999880969524, Q2 : 0.0128062395379, Q3 : -0.00829370878637, Q4 : -0.00228370772675}
2019-04-14 02:10:02.61: SIM {TimeUS : 54035044, Roll : 2.27, Pitch : -1.52, Yaw : 359.71, Alt : 49.1300010681, Lat : 49.2835704, Lng : -123.1150206, Q1 : 0.999711453915, Q2 : 0.019827246666, Q3 : -0.0133727015927, Q4 : -0.00225572660565}
2019-04-14 02:10:02.71: SIM {TimeUS : 54135004, Roll : 3.1, Pitch : -2.15, Yaw : 359.69, Alt : 49.1399993896, Lat : 49.2835706, Lng : -123.1150205, Q1 : 0.99945217371, Q2 : 0.0270727202296, Q3 : -0.0189105421305, Q4 : -0.00219088373706}
2019-04-14 02:10:02.81: SIM {TimeUS : 54234964, Roll : 3.86, Pitch : -2.73, Yaw : 359.67, Alt : 49.1599998474, Lat : 49.2835706, Lng : -123.1150204, Q1 : 0.999146521091, Q2 : 0.0336171351373, Q3 : -0.02391285263, Q4 : -0.00206604367122}
2019-04-14 02:10:02.91: SIM {TimeUS : 54334924, Roll : 4.45, Pitch : -3.15, Yaw : 359.66, Alt : 49.1699981689, Lat : 49.2835708, Lng : -123.1150201, Q1 : 0.998864710331, Q2 : 0.0387528985739, Q3 : -0.0276416614652, Q4 : -0.00187537318561}
2019-04-14 02:10:03.01: SIM {TimeUS : 54434884, Roll : 4.88, Pitch : -3.46, Yaw : 359.66, Alt : 49.1800003052, Lat : 49.2835709, Lng : -123.1150199, Q1 : 0.998636245728, Q2 : 0.0424758531153, Q3 : -0.0303115323186, Q4 : -0.00164369225968}
2019-04-14 02:10:03.11: SIM {TimeUS : 54534844, Roll : 5.2, Pitch : -3.69, Yaw : 359.67, Alt : 49.1899986267, Lat : 49.283571, Lng : -123.1150195, Q1 : 0.998450279236, Q2 : 0.0452915765345, Q3 : -0.0323092453182, Q4 : -0.00138082168996}
2019-04-14 02:10:03.21: SIM {TimeUS : 54634804, Roll : 5.48, Pitch : -3.87, Yaw : 359.68, Alt : 49.2000007629, Lat : 49.2835713, Lng : -123.115019, Q1 : 0.9982842803, Q2 : 0.0477122403681, Q3 : -0.0339235812426, Q4 : -0.00110105169006}
2019-04-14 02:10:03.31: SIM {TimeUS : 54734764, Roll : 5.77, Pitch : -4.08, Yaw : 359.69, Alt : 49.2099990845, Lat : 49.2835715, Lng : -123.1150184, Q1 : 0.998095631599, Q2 : 0.0502603240311, Q3 : -0.0357543155551, Q4 : -0.000830410863273}
2019-04-14 02:10:03.41: SIM {TimeUS : 54834724, Roll : 6.09, Pitch : -4.31, Yaw : 359.7, Alt : 49.2200012207, Lat : 49.2835719, Lng : -123.1150177, Q1 : 0.997878730297, Q2 : 0.053047735244, Q3 : -0.0377315245569, Q4 : -0.00057126802858}
2019-04-14 02:10:03.51: SIM {TimeUS : 54934684, Roll : 6.41, Pitch : -4.52, Yaw : 359.7, Alt : 49.2299995422, Lat : 49.2835722, Lng : -123.1150169, Q1 : 0.997656047344, Q2 : 0.0558173432946, Q3 : -0.0395814962685, Q4 : -0.000321692496073}
2019-04-14 02:10:03.61: SIM {TimeUS : 55034644, Roll : 6.65, Pitch : -4.67, Yaw : 359.71, Alt : 49.2299995422, Lat : 49.2835727, Lng : -123.115016, Q1 : 0.997485101223, Q2 : 0.057900249958, Q3 : -0.0408785641193, Q4 : -8.37800180307e-05}
2019-04-14 02:10:03.72: SIM {TimeUS : 55135437, Roll : 6.8, Pitch : -4.77, Yaw : 359.72, Alt : 49.2400016785, Lat : 49.2835732, Lng : -123.115015, Q1 : 0.997376024723, Q2 : 0.0591784305871, Q3 : -0.0417017713189, Q4 : 0.00011739461479}
2019-04-14 02:10:03.81: SIM {TimeUS : 55235397, Roll : 6.88, Pitch : -4.84, Yaw : 359.73, Alt : 49.2400016785, Lat : 49.2835737, Lng : -123.1150139, Q1 : 0.997305452824, Q2 : 0.0599094852805, Q3 : -0.0423395745456, Q4 : 0.000251864752499}
2019-04-14 02:10:03.91: SIM {TimeUS : 55335357, Roll : 6.97, Pitch : -4.9, Yaw : 359.73, Alt : 49.25, Lat : 49.2835741, Lng : -123.1150127, Q1 : 0.997238755226, Q2 : 0.0606440529227, Q3 : -0.0428605563939, Q4 : 0.000333984469762}
2019-04-14 02:10:04.01: SIM {TimeUS : 55435317, Roll : 7.1, Pitch : -4.95, Yaw : 359.74, Alt : 49.25, Lat : 49.2835747, Lng : -123.1150115, Q1 : 0.997151076794, Q2 : 0.0617666020989, Q3 : -0.0432947874069, Q4 : 0.000422740151407}
2019-04-14 02:10:04.11: SIM {TimeUS : 55535277, Roll : 7.42, Pitch : -4.89, Yaw : 359.91, Alt : 49.25, Lat : 49.2835753, Lng : -123.1150101, Q1 : 0.996992647648, Q2 : 0.0646577179432, Q3 : -0.0426709018648, Q4 : 0.0020544945728}
2019-04-14 02:10:04.21: SIM {TimeUS : 55635237, Roll : 7.99, Pitch : -4.7, Yaw : 0.84, Alt : 49.2599983215, Lat : 49.2835759, Lng : -123.1150087, Q1 : 0.99667853117, Q2 : 0.0699686259031, Q3 : -0.0403935946524, Q4 : 0.0102275628597}
2019-04-14 02:10:04.31: SIM {TimeUS : 55735197, Roll : 8.64, Pitch : -4.66, Yaw : 3.16, Alt : 49.2599983215, Lat : 49.2835767, Lng : -123.1150072, Q1 : 0.995866775513, Q2 : 0.0764095038176, Q3 : -0.0384497642517, Q4 : 0.0305389426649}
2019-04-14 02:10:04.41: SIM {TimeUS : 55835157, Roll : 9.08, Pitch : -5.06, Yaw : 7.06, Alt : 49.2599983215, Lat : 49.2835774, Lng : -123.1150056, Q1 : 0.993783354759, Q2 : 0.0816571414471, Q3 : -0.0390514731407, Q4 : 0.0648213475943}
2019-04-14 02:10:04.51: SIM {TimeUS : 55935117, Roll : 9.06, Pitch : -5.96, Yaw : 12.42, Alt : 49.2599983215, Lat : 49.2835781, Lng : -123.1150038, Q1 : 0.989229261875, Q2 : 0.0840757861733, Q3 : -0.0430414117873, Q4 : 0.111821934581}
2019-04-14 02:10:04.61: SIM {TimeUS : 56035077, Roll : 8.45, Pitch : -7.29, Yaw : 19.01, Alt : 49.2599983215, Lat : 49.2835788, Lng : -123.1150019, Q1 : 0.980811774731, Q2 : 0.083066008985, Q3 : -0.0504227541387, Q4 : 0.169014289975}
2019-04-14 02:10:04.71: SIM {TimeUS : 56135037, Roll : 7.22, Pitch : -8.87, Yaw : 26.57, Alt : 49.2700004578, Lat : 49.2835795, Lng : -123.1149999, Q1 : 0.967267155647, Q2 : 0.0789031460881, Q3 : -0.0607467330992, Q4 : 0.233406051993}
2019-04-14 02:10:04.81: SIM {TimeUS : 56234997, Roll : 5.42, Pitch : -10.48, Yaw : 34.84, Alt : 49.2700004578, Lat : 49.2835804, Lng : -123.1149978, Q1 : 0.947780430317, Q2 : 0.0722559839487, Q3 : -0.0729684308171, Q4 : 0.30193862319}
2019-04-14 02:10:04.91: SIM {TimeUS : 56334957, Roll : 3.06, Pitch : -11.86, Yaw : 43.55, Alt : 49.2700004578, Lat : 49.2835812, Lng : -123.1149956, Q1 : 0.922304809093, Q2 : 0.0630164816976, Q3 : -0.0860835760832, Q4 : 0.371446341276}
2019-04-14 02:10:05.01: SIM {TimeUS : 56434917, Roll : 0.07, Pitch : -12.79, Yaw : 52.14, Alt : 49.2700004578, Lat : 49.2835819, Lng : -123.1149933, Q1 : 0.892624676228, Q2 : 0.0495619736612, Q3 : -0.09980327636, Q4 : 0.436811298132}
2019-04-14 02:10:05.11: SIM {TimeUS : 56534877, Roll : -3.11, Pitch : -13.16, Yaw : 59.7, Alt : 49.2700004578, Lat : 49.2835829, Lng : -123.1149909, Q1 : 0.862811923027, Q2 : 0.033604234457, Q3 : -0.112808868289, Q4 : 0.491630494595}
2019-04-14 02:10:05.21: SIM {TimeUS : 56634837, Roll : -5.85, Pitch : -13.07, Yaw : 65.5, Alt : 49.2700004578, Lat : 49.2835838, Lng : -123.1149884, Q1 : 0.837622344494, Q2 : 0.018820732832, Q3 : -0.123057484627, Q4 : 0.531875371933}
2019-04-14 02:10:05.31: SIM {TimeUS : 56734797, Roll : -7.65, Pitch : -12.79, Yaw : 69.19, Alt : 49.2700004578, Lat : 49.2835849, Lng : -123.1149859, Q1 : 0.82043337822, Q2 : 0.00853971298784, Q3 : -0.12922270596, Q4 : 0.556882083416}
2019-04-14 02:10:05.41: SIM {TimeUS : 56834757, Roll : -8.37, Pitch : -12.61, Yaw : 70.88, Alt : 49.2700004578, Lat : 49.2835861, Lng : -123.1149833, Q1 : 0.812236189842, Q2 : 0.00439699506387, Q3 : -0.13131403923, Q4 : 0.568339407444}
2019-04-14 02:10:05.51: SIM {TimeUS : 56934717, Roll : -8.12, Pitch : -12.64, Yaw : 70.89, Alt : 49.2700004578, Lat : 49.2835874, Lng : -123.1149806, Q1 : 0.812167942524, Q2 : 0.00636713579297, Q3 : -0.130329057574, Q4 : 0.568644940853}
2019-04-14 02:10:05.61: SIM {TimeUS : 57034677, Roll : -7.11, Pitch : -12.95, Yaw : 69.58, Alt : 49.2700004578, Lat : 49.2835889, Lng : -123.1149779, Q1 : 0.818392217159, Q2 : 0.0136308735237, Q3 : -0.127598717809, Q4 : 0.560149073601}
2019-04-14 02:10:05.71: SIM {TimeUS : 57134637, Roll : -5.57, Pitch : -13.49, Yaw : 67.31, Alt : 49.2700004578, Lat : 49.2835903, Lng : -123.1149752, Q1 : 0.828782856464, Q2 : 0.0248649828136, Q3 : -0.124467648566, Q4 : 0.544984936714}
2019-04-14 02:10:05.82: SIM {TimeUS : 57235430, Roll : -3.73, Pitch : -14.18, Yaw : 64.38, Alt : 49.2799987793, Lat : 49.283592, Lng : -123.1149724, Q1 : 0.841492593288, Q2 : 0.0384292118251, Q3 : -0.121676973999, Q4 : 0.524984002113}
2019-04-14 02:10:05.91: SIM {TimeUS : 57335390, Roll : -1.81, Pitch : -14.86, Yaw : 61.14, Alt : 49.2799987793, Lat : 49.2835935, Lng : -123.1149695, Q1 : 0.85467684269, Q2 : 0.0522985123098, Q3 : -0.119345493615, Q4 : 0.502542555332}
2019-04-14 02:10:06.01: SIM {TimeUS : 57435350, Roll : 0.0, Pitch : -15.41, Yaw : 57.9, Alt : 49.2799987793, Lat : 49.2835952, Lng : -123.1149664, Q1 : 0.867098331451, Q2 : 0.0650039240718, Q3 : -0.117346636951, Q4 : 0.479734033346}
2019-04-14 02:10:06.11: SIM {TimeUS : 57535310, Roll : 1.57, Pitch : -15.76, Yaw : 54.99, Alt : 49.2799987793, Lat : 49.2835969, Lng : -123.1149633, Q1 : 0.87769895792, Q2 : 0.0753632187843, Q3 : -0.115351557732, Q4 : 0.458976000547}
2019-04-14 02:10:06.21: SIM {TimeUS : 57635270, Roll : 2.74, Pitch : -15.89, Yaw : 52.68, Alt : 49.2799987793, Lat : 49.2835984, Lng : -123.1149601, Q1 : 0.885828197002, Q2 : 0.0825977772474, Q3 : -0.113360479474, Q4 : 0.442306995392}
2019-04-14 02:10:06.31: SIM {TimeUS : 57735230, Roll : 3.44, Pitch : -15.87, Yaw : 51.13, Alt : 49.2799987793, Lat : 49.2836001, Lng : -123.1149567, Q1 : 0.891232907772, Q2 : 0.0864578038454, Q3 : -0.111668944359, Q4 : 0.430997699499}
2019-04-14 02:10:06.41: SIM {TimeUS : 57835190, Roll : 3.68, Pitch : -15.8, Yaw : 50.39, Alt : 49.2799987793, Lat : 49.2836019, Lng : -123.1149531, Q1 : 0.893915295601, Q2 : 0.0873377025127, Q3 : -0.110792607069, Q4 : 0.425455719233}
2019-04-14 02:10:06.51: SIM {TimeUS : 57935150, Roll : 3.5, Pitch : -15.77, Yaw : 50.39, Alt : 49.2799987793, Lat : 49.2836035, Lng : -123.1149496, Q1 : 0.894091248512, Q2 : 0.0857856720686, Q3 : -0.111254945397, Q4 : 0.425281137228}
2019-04-14 02:10:06.61: SIM {TimeUS : 58035110, Roll : 2.96, Pitch : -15.82, Yaw : 51.0, Alt : 49.2799987793, Lat : 49.2836051, Lng : -123.1149459, Q1 : 0.892145037651, Q2 : 0.0823999643326, Q3 : -0.113146029413, Q4 : 0.429517745972}
2019-04-14 02:10:06.71: SIM {TimeUS : 58135070, Roll : 2.18, Pitch : -15.94, Yaw : 52.05, Alt : 49.2799987793, Lat : 49.2836068, Lng : -123.114942, Q1 : 0.888573586941, Q2 : 0.0778195559978, Q3 : -0.116290427744, Q4 : 0.436872512102}
2019-04-14 02:10:06.81: SIM {TimeUS : 58235030, Roll : 1.29, Pitch : -16.07, Yaw : 53.36, Alt : 49.2799987793, Lat : 49.2836086, Lng : -123.1149381, Q1 : 0.883977532387, Q2 : 0.0727536380291, Q3 : -0.119949072599, Q4 : 0.445985287428}
2019-04-14 02:10:06.91: SIM {TimeUS : 58334990, Roll : 0.41, Pitch : -16.2, Yaw : 54.73, Alt : 49.2799987793, Lat : 49.2836104, Lng : -123.1149341, Q1 : 0.878976643085, Q2 : 0.0680007562041, Q3 : -0.123491927981, Q4 : 0.455549925566}
2019-04-14 02:10:07.01: SIM {TimeUS : 58434950, Roll : -0.35, Pitch : -16.3, Yaw : 56.0, Alt : 49.2900009155, Lat : 49.2836121, Lng : -123.1149301, Q1 : 0.874190568924, Q2 : 0.0638406425714, Q3 : -0.126645371318, Q4 : 0.464409530163}
2019-04-14 02:10:07.11: SIM {TimeUS : 58534910, Roll : -0.95, Pitch : -16.37, Yaw : 57.06, Alt : 49.2900009155, Lat : 49.2836139, Lng : -123.114926, Q1 : 0.870114207268, Q2 : 0.0607999786735, Q3 : -0.129074767232, Q4 : 0.47174602747}
2019-04-14 02:10:07.21: SIM {TimeUS : 58634870, Roll : -1.31, Pitch : -16.41, Yaw : 57.82, Alt : 49.2900009155, Lat : 49.2836158, Lng : -123.1149218, Q1 : 0.867123186588, Q2 : 0.0590487457812, Q3 : -0.130444929004, Q4 : 0.477068990469}
2019-04-14 02:10:07.31: SIM {TimeUS : 58734830, Roll : -1.47, Pitch : -16.42, Yaw : 58.25, Alt : 49.2900009155, Lat : 49.2836176, Lng : -123.1149176, Q1 : 0.865394711494, Q2 : 0.0584032163024, Q3 : -0.130955681205, Q4 : 0.480137139559}
2019-04-14 02:10:07.41: SIM {TimeUS : 58834790, Roll : -1.45, Pitch : -16.44, Yaw : 58.36, Alt : 49.2900009155, Lat : 49.2836195, Lng : -123.1149134, Q1 : 0.864896893501, Q2 : 0.0587417297065, Q3 : -0.131005808711, Q4 : 0.480978488922}
2019-04-14 02:10:07.51: SIM {TimeUS : 58934750, Roll : -1.29, Pitch : -16.48, Yaw : 58.2, Alt : 49.2900009155, Lat : 49.2836214, Lng : -123.1149091, Q1 : 0.865462958813, Q2 : 0.0599782727659, Q3 : -0.130726516247, Q4 : 0.479882359505}
2019-04-14 02:10:07.61: SIM {TimeUS : 59034710, Roll : -1.01, Pitch : -16.55, Yaw : 57.82, Alt : 49.2900009155, Lat : 49.2836233, Lng : -123.1149047, Q1 : 0.866828560829, Q2 : 0.0618984811008, Q3 : -0.130282744765, Q4 : 0.477287381887}
2019-04-14 02:10:07.71: SIM {TimeUS : 59134670, Roll : -0.68, Pitch : -16.61, Yaw : 57.3, Alt : 49.2900009155, Lat : 49.2836254, Lng : -123.1149004, Q1 : 0.868716299534, Q2 : 0.0640973746777, Q3 : -0.1296197474, Q4 : 0.473732322454}
2019-04-14 02:10:07.81: SIM {TimeUS : 59234630, Roll : -0.32, Pitch : -16.66, Yaw : 56.73, Alt : 49.2900009155, Lat : 49.2836274, Lng : -123.1148959, Q1 : 0.870812654495, Q2 : 0.0663796290755, Q3 : -0.128854870796, Q4 : 0.469761103392}
2019-04-14 02:10:07.92: SIM {TimeUS : 59335423, Roll : 0.01, Pitch : -16.7, Yaw : 56.17, Alt : 49.2900009155, Lat : 49.2836294, Lng : -123.1148914, Q1 : 0.872860074043, Q2 : 0.06854929775, Q3 : -0.128113150597, Q4 : 0.465836137533}
2019-04-14 02:10:08.01: SIM {TimeUS : 59435383, Roll : 0.3, Pitch : -16.74, Yaw : 55.68, Alt : 49.2900009155, Lat : 49.2836315, Lng : -123.1148868, Q1 : 0.874623954296, Q2 : 0.0703370943666, Q3 : -0.127478942275, Q4 : 0.462422788143}
2019-04-14 02:10:08.11: SIM {TimeUS : 59535343, Roll : 0.52, Pitch : -16.76, Yaw : 55.3, Alt : 49.2900009155, Lat : 49.2836335, Lng : -123.1148824, Q1 : 0.87597745657, Q2 : 0.071691095829, Q3 : -0.127030581236, Q4 : 0.459768563509}
2019-04-14 02:10:08.21: SIM {TimeUS : 59635303, Roll : 0.65, Pitch : -16.79, Yaw : 55.06, Alt : 49.2900009155, Lat : 49.2836355, Lng : -123.1148777, Q1 : 0.876857757568, Q2 : 0.0724995732307, Q3 : -0.126862391829, Q4 : 0.458006769419}
2019-04-14 02:10:08.31: SIM {TimeUS : 59735263, Roll : 0.68, Pitch : -16.81, Yaw : 54.94, Alt : 49.2900009155, Lat : 49.2836377, Lng : -123.1148732, Q1 : 0.87726277113, Q2 : 0.0727419257164, Q3 : -0.126998275518, Q4 : 0.457154244184}
2019-04-14 02:10:08.41: SIM {TimeUS : 59835223, Roll : 0.64, Pitch : -16.84, Yaw : 54.95, Alt : 49.2900009155, Lat : 49.2836397, Lng : -123.1148685, Q1 : 0.877241671085, Q2 : 0.0725180506706, Q3 : -0.127388611436, Q4 : 0.45712184906}
2019-04-14 02:10:08.51: SIM {TimeUS : 59935183, Roll : 0.54, Pitch : -16.88, Yaw : 55.05, Alt : 49.2900009155, Lat : 49.2836418, Lng : -123.1148638, Q1 : 0.876857221127, Q2 : 0.0720112547278, Q3 : -0.128033235669, Q4 : 0.45775899291}
2019-04-14 02:10:08.61: SIM {TimeUS : 60035143, Roll : 0.39, Pitch : -16.93, Yaw : 55.22, Alt : 49.2999992371, Lat : 49.2836439, Lng : -123.114859, Q1 : 0.876220345497, Q2 : 0.0712509229779, Q3 : -0.128924787045, Q4 : 0.458846002817}
2019-04-14 02:10:08.71: SIM {TimeUS : 60135103, Roll : 0.21, Pitch : -16.98, Yaw : 55.42, Alt : 49.2999992371, Lat : 49.283646, Lng : -123.1148543, Q1 : 0.875454843044, Q2 : 0.070297382772, Q3 : -0.129895761609, Q4 : 0.460178405046}
2019-04-14 02:10:08.81: SIM {TimeUS : 60235063, Roll : 0.03, Pitch : -17.01, Yaw : 55.63, Alt : 49.2999992371, Lat : 49.2836481, Lng : -123.1148494, Q1 : 0.874679088593, Q2 : 0.0693124607205, Q3 : -0.130724072456, Q4 : 0.461566418409}
2019-04-14 02:10:08.91: SIM {TimeUS : 60335023, Roll : -0.12, Pitch : -17.04, Yaw : 55.82, Alt : 49.2999992371, Lat : 49.2836503, Lng : -123.1148446, Q1 : 0.873978078365, Q2 : 0.0684102326632, Q3 : -0.131484374404, Q4 : 0.462811201811}
2019-04-14 02:10:09.01: SIM {TimeUS : 60434983, Roll : -0.23, Pitch : -17.08, Yaw : 55.97, Alt : 49.2999992371, Lat : 49.2836524, Lng : -123.1148397, Q1 : 0.873401165009, Q2 : 0.067911632359, Q3 : -0.132115349174, Q4 : 0.463792979717}
2019-04-14 02:10:09.11: SIM {TimeUS : 60534943, Roll : -0.28, Pitch : -17.12, Yaw : 56.07, Alt : 49.2999992371, Lat : 49.2836546, Lng : -123.1148349, Q1 : 0.872994840145, Q2 : 0.0678040012717, Q3 : -0.132558852434, Q4 : 0.464446783066}
2019-04-14 02:10:09.21: SIM {TimeUS : 60634903, Roll : -0.27, Pitch : -17.16, Yaw : 56.11, Alt : 49.2999992371, Lat : 49.2836566, Lng : -123.1148299, Q1 : 0.872775375843, Q2 : 0.0680704340339, Q3 : -0.132796451449, Q4 : 0.46475225687}
2019-04-14 02:10:09.31: SIM {TimeUS : 60734863, Roll : -0.22, Pitch : -17.19, Yaw : 56.1, Alt : 49.2999992371, Lat : 49.2836589, Lng : -123.114825, Q1 : 0.872744381428, Q2 : 0.0686166808009, Q3 : -0.132857233286, Q4 : 0.464712768793}
2019-04-14 02:10:09.41: SIM {TimeUS : 60834823, Roll : -0.16, Pitch : -17.22, Yaw : 56.04, Alt : 49.2999992371, Lat : 49.283661, Lng : -123.1148201, Q1 : 0.872894823551, Q2 : 0.0691421478987, Q3 : -0.13286998868, Q4 : 0.464348554611}
2019-04-14 02:10:09.51: SIM {TimeUS : 60934783, Roll : -0.1, Pitch : -17.24, Yaw : 55.95, Alt : 49.2999992371, Lat : 49.2836633, Lng : -123.1148151, Q1 : 0.87320035696, Q2 : 0.0695275366306, Q3 : -0.132818847895, Q4 : 0.463730841875}
2019-04-14 02:10:09.61: SIM {TimeUS : 61034743, Roll : -0.05, Pitch : -17.25, Yaw : 55.85, Alt : 49.3100013733, Lat : 49.2836655, Lng : -123.1148101, Q1 : 0.873593211174, Q2 : 0.0698152258992, Q3 : -0.132766723633, Q4 : 0.462961941957}
2019-04-14 02:10:09.71: SIM {TimeUS : 61134703, Roll : 0.0, Pitch : -17.26, Yaw : 55.73, Alt : 49.3100013733, Lat : 49.2836676, Lng : -123.1148051, Q1 : 0.87400829792, Q2 : 0.0702110677958, Q3 : -0.132639959455, Q4 : 0.462154269218}
2019-04-14 02:10:09.81: SIM {TimeUS : 61234663, Roll : 0.06, Pitch : -17.27, Yaw : 55.62, Alt : 49.3100013733, Lat : 49.28367, Lng : -123.1148001, Q1 : 0.874394595623, Q2 : 0.0706221833825, Q3 : -0.132587373257, Q4 : 0.461375385523}
2019-04-14 02:10:09.91: SIM {TimeUS : 61334623, Roll : 0.13, Pitch : -17.31, Yaw : 55.53, Alt : 49.3100013733, Lat : 49.2836722, Lng : -123.114795, Q1 : 0.874699652195, Q2 : 0.0711594820023, Q3 : -0.132644072175, Q4 : 0.460697740316}
2019-04-14 02:10:10.02: SIM {TimeUS : 61435416, Roll : 0.19, Pitch : -17.37, Yaw : 55.45, Alt : 49.3100013733, Lat : 49.2836744, Lng : -123.1147899, Q1 : 0.874906301498, Q2 : 0.0717519521713, Q3 : -0.132915884256, Q4 : 0.460134744644}
2019-04-14 02:10:10.11: SIM {TimeUS : 61535376, Roll : 0.22, Pitch : -17.4, Yaw : 55.39, Alt : 49.3100013733, Lat : 49.2836767, Lng : -123.1147848, Q1 : 0.875066697598, Q2 : 0.0720684751868, Q3 : -0.13306042552, Q4 : 0.459738403559}
2019-04-14 02:10:10.21: SIM {TimeUS : 61635336, Roll : 0.23, Pitch : -17.4, Yaw : 55.36, Alt : 49.3100013733, Lat : 49.283679, Lng : -123.1147797, Q1 : 0.875191032887, Q2 : 0.0720985233784, Q3 : -0.133000418544, Q4 : 0.45951423049}
2019-04-14 02:10:10.31: SIM {TimeUS : 61735296, Roll : 0.21, Pitch : -17.4, Yaw : 55.35, Alt : 49.3100013733, Lat : 49.2836813, Lng : -123.1147746, Q1 : 0.875236868858, Q2 : 0.0719165951014, Q3 : -0.133137613535, Q4 : 0.459415733814}
2019-04-14 02:10:10.41: SIM {TimeUS : 61835256, Roll : 0.17, Pitch : -17.42, Yaw : 55.36, Alt : 49.3100013733, Lat : 49.2836834, Lng : -123.1147695, Q1 : 0.875202298164, Q2 : 0.0717063546181, Q3 : -0.133484736085, Q4 : 0.459413707256}
2019-04-14 02:10:10.51: SIM {TimeUS : 61935216, Roll : 0.13, Pitch : -17.46, Yaw : 55.38, Alt : 49.3100013733, Lat : 49.2836858, Lng : -123.1147643, Q1 : 0.875114321709, Q2 : 0.071587331593, Q3 : -0.133845344186, Q4 : 0.459495037794}
2019-04-14 02:10:10.61: SIM {TimeUS : 62035176, Roll : 0.1, Pitch : -17.49, Yaw : 55.4, Alt : 49.3100013733, Lat : 49.2836881, Lng : -123.1147592, Q1 : 0.875, Q2 : 0.0714708790183, Q3 : -0.13419893384, Q4 : 0.459627628326}
2019-04-14 02:10:10.71: SIM {TimeUS : 62135136, Roll : 0.08, Pitch : -17.51, Yaw : 55.43, Alt : 49.3199996948, Lat : 49.2836904, Lng : -123.114754, Q1 : 0.874891638756, Q2 : 0.0714123994112, Q3 : -0.134437218308, Q4 : 0.459773361683}
2019-04-14 02:10:10.81: SIM {TimeUS : 62235096, Roll : 0.06, Pitch : -17.53, Yaw : 55.45, Alt : 49.3199996948, Lat : 49.2836926, Lng : -123.1147488, Q1 : 0.874788582325, Q2 : 0.0714636743069, Q3 : -0.134684085846, Q4 : 0.459889233112}
2019-04-14 02:10:10.91: SIM {TimeUS : 62335056, Roll : 0.07, Pitch : -17.55, Yaw : 55.46, Alt : 49.3199996948, Lat : 49.2836949, Lng : -123.1147436, Q1 : 0.874725043774, Q2 : 0.0715565234423, Q3 : -0.134773552418, Q4 : 0.459969431162}
2019-04-14 02:10:11.01: SIM {TimeUS : 62435016, Roll : 0.08, Pitch : -17.57, Yaw : 55.46, Alt : 49.3199996948, Lat : 49.2836973, Lng : -123.1147384, Q1 : 0.874685287476, Q2 : 0.071774430573, Q3 : -0.134858578444, Q4 : 0.459986180067}
2019-04-14 02:10:11.11: SIM {TimeUS : 62534976, Roll : 0.11, Pitch : -17.59, Yaw : 55.45, Alt : 49.3199996948, Lat : 49.2836996, Lng : -123.1147332, Q1 : 0.874680578709, Q2 : 0.0720123052597, Q3 : -0.134961858392, Q4 : 0.459927678108}
2019-04-14 02:10:11.21: SIM {TimeUS : 62634936, Roll : 0.11, Pitch : -17.63, Yaw : 55.43, Alt : 49.3199996948, Lat : 49.283702, Lng : -123.1147279, Q1 : 0.87471216917, Q2 : 0.0721833258867, Q3 : -0.135183826089, Q4 : 0.459775537252}
2019-04-14 02:10:11.31: SIM {TimeUS : 62734896, Roll : 0.09, Pitch : -17.67, Yaw : 55.41, Alt : 49.3199996948, Lat : 49.2837042, Lng : -123.1147227, Q1 : 0.874773621559, Q2 : 0.0721834748983, Q3 : -0.135620519519, Q4 : 0.459529966116}
2019-04-14 02:10:11.41: SIM {TimeUS : 62834856, Roll : 0.08, Pitch : -17.72, Yaw : 55.38, Alt : 49.3199996948, Lat : 49.2837065, Lng : -123.1147174, Q1 : 0.874843239784, Q2 : 0.0722452923656, Q3 : -0.136054307222, Q4 : 0.459259361029}
2019-04-14 02:10:11.51: SIM {TimeUS : 62934816, Roll : 0.1, Pitch : -17.75, Yaw : 55.35, Alt : 49.3199996948, Lat : 49.2837089, Lng : -123.1147122, Q1 : 0.874920248985, Q2 : 0.0724836438894, Q3 : -0.136248379946, Q4 : 0.459017574787}
2019-04-14 02:10:11.61: SIM {TimeUS : 63034776, Roll : 0.13, Pitch : -17.75, Yaw : 55.31, Alt : 49.3199996948, Lat : 49.2837113, Lng : -123.1147068, Q1 : 0.875034034252, Q2 : 0.0726468265057, Q3 : -0.136171966791, Q4 : 0.458797454834}
2019-04-14 02:10:11.71: SIM {TimeUS : 63134736, Roll : 0.15, Pitch : -17.73, Yaw : 55.28, Alt : 49.3199996948, Lat : 49.2837137, Lng : -123.1147016, Q1 : 0.875171840191, Q2 : 0.0726929306984, Q3 : -0.135932981968, Q4 : 0.4585981071}
2019-04-14 02:10:11.81: SIM {TimeUS : 63234696, Roll : 0.15, Pitch : -17.71, Yaw : 55.25, Alt : 49.3199996948, Lat : 49.283716, Lng : -123.1146963, Q1 : 0.875301599503, Q2 : 0.072598695755, Q3 : -0.13578273356, Q4 : 0.458409845829}
2019-04-14 02:10:11.91: SIM {TimeUS : 63334656, Roll : 0.15, Pitch : -17.69, Yaw : 55.23, Alt : 49.3199996948, Lat : 49.2837184, Lng : -123.1146909, Q1 : 0.875417888165, Q2 : 0.0725150033832, Q3 : -0.135648116469, Q4 : 0.458240926266}
2019-04-14 02:10:12.01: SIM {TimeUS : 63434616, Roll : 0.16, Pitch : -17.67, Yaw : 55.21, Alt : 49.3199996948, Lat : 49.2837208, Lng : -123.1146856, Q1 : 0.87550753355, Q2 : 0.0724538117647, Q3 : -0.13551966846, Q4 : 0.45811727643}
2019-04-14 02:10:12.11: SIM {TimeUS : 63535409, Roll : 0.16, Pitch : -17.69, Yaw : 55.2, Alt : 49.3199996948, Lat : 49.283723, Lng : -123.1146802, Q1 : 0.875550150871, Q2 : 0.0724858939648, Q3 : -0.135615706444, Q4 : 0.458002328873}
2019-04-14 02:10:12.21: SIM {TimeUS : 63635369, Roll : 0.16, Pitch : -17.71, Yaw : 55.19, Alt : 49.3300018311, Lat : 49.2837254, Lng : -123.1146749, Q1 : 0.875564873219, Q2 : 0.0726121813059, Q3 : -0.135791420937, Q4 : 0.457902163267}
2019-04-14 02:10:12.31: SIM {TimeUS : 63735329, Roll : 0.15, Pitch : -17.76, Yaw : 55.18, Alt : 49.3300018311, Lat : 49.2837278, Lng : -123.1146695, Q1 : 0.875546813011, Q2 : 0.0727306455374, Q3 : -0.136233389378, Q4 : 0.457786500454}
2019-04-14 02:10:12.41: SIM {TimeUS : 63835289, Roll : 0.14, Pitch : -17.82, Yaw : 55.17, Alt : 49.3300018311, Lat : 49.2837302, Lng : -123.1146641, Q1 : 0.875517189503, Q2 : 0.0728636682034, Q3 : -0.136719301343, Q4 : 0.457677155733}
2019-04-14 02:10:12.51: SIM {TimeUS : 63935249, Roll : 0.14, Pitch : -17.85, Yaw : 55.16, Alt : 49.3300018311, Lat : 49.2837326, Lng : -123.1146588, Q1 : 0.875501155853, Q2 : 0.0729779005051, Q3 : -0.136994361877, Q4 : 0.457607358694}
2019-04-14 02:10:12.61: SIM {TimeUS : 64035209, Roll : 0.13, Pitch : -17.88, Yaw : 55.16, Alt : 49.3300018311, Lat : 49.283735, Lng : -123.1146534, Q1 : 0.875494658947, Q2 : 0.0730231851339, Q3 : -0.137273818254, Q4 : 0.457528859377}
2019-04-14 02:10:12.71: SIM {TimeUS : 64135169, Roll : 0.12, Pitch : -17.9, Yaw : 55.15, Alt : 49.3300018311, Lat : 49.2837374, Lng : -123.114648, Q1 : 0.87550932169, Q2 : 0.072994440794, Q3 : -0.13744276762, Q4 : 0.457454651594}
2019-04-14 02:10:12.81: SIM {TimeUS : 64235129, Roll : 0.13, Pitch : -17.89, Yaw : 55.14, Alt : 49.3300018311, Lat : 49.2837398, Lng : -123.1146426, Q1 : 0.875545442104, Q2 : 0.0730301514268, Q3 : -0.137315541506, Q4 : 0.457417964935}
2019-04-14 02:10:12.91: SIM {TimeUS : 64335089, Roll : 0.15, Pitch : -17.89, Yaw : 55.13, Alt : 49.3300018311, Lat : 49.2837422, Lng : -123.1146372, Q1 : 0.875563561916, Q2 : 0.0732187107205, Q3 : -0.137262836099, Q4 : 0.457368969917}
2019-04-14 02:10:13.01: SIM {TimeUS : 64435049, Roll : 0.17, Pitch : -17.91, Yaw : 55.12, Alt : 49.3300018311, Lat : 49.2837446, Lng : -123.1146318, Q1 : 0.875578463078, Q2 : 0.0733622312546, Q3 : -0.137349978089, Q4 : 0.457291305065}
2019-04-14 02:10:13.11: SIM {TimeUS : 64535009, Roll : 0.18, Pitch : -17.92, Yaw : 55.11, Alt : 49.3300018311, Lat : 49.2837471, Lng : -123.1146264, Q1 : 0.875597596169, Q2 : 0.0734900385141, Q3 : -0.137412831187, Q4 : 0.457215309143}
2019-04-14 02:10:13.21: SIM {TimeUS : 64634969, Roll : 0.19, Pitch : -17.92, Yaw : 55.1, Alt : 49.3300018311, Lat : 49.2837495, Lng : -123.114621, Q1 : 0.875640571117, Q2 : 0.0735577717423, Q3 : -0.137330844998, Q4 : 0.457146644592}
2019-04-14 02:10:13.31: SIM {TimeUS : 64734929, Roll : 0.19, Pitch : -17.92, Yaw : 55.09, Alt : 49.3300018311, Lat : 49.2837519, Lng : -123.1146155, Q1 : 0.875694155693, Q2 : 0.0735405683517, Q3 : -0.137305423617, Q4 : 0.457054466009}
2019-04-14 02:10:13.41: SIM {TimeUS : 64834889, Roll : 0.17, Pitch : -17.93, Yaw : 55.07, Alt : 49.3300018311, Lat : 49.2837543, Lng : -123.1146101, Q1 : 0.875738501549, Q2 : 0.073415376246, Q3 : -0.13755351305, Q4 : 0.456914961338}
2019-04-14 02:10:13.51: SIM {TimeUS : 64934849, Roll : 0.13, Pitch : -17.97, Yaw : 55.06, Alt : 49.3300018311, Lat : 49.2837567, Lng : -123.1146047, Q1 : 0.875767290592, Q2 : 0.0732801184058, Q3 : -0.138011172414, Q4 : 0.456743508577}
2019-04-14 02:10:13.61: SIM {TimeUS : 65034809, Roll : 0.12, Pitch : -17.99, Yaw : 55.05, Alt : 49.3300018311, Lat : 49.2837592, Lng : -123.1145992, Q1 : 0.875822305679, Q2 : 0.0731751546264, Q3 : -0.138171747327, Q4 : 0.456606298685}
2019-04-14 02:10:13.71: SIM {TimeUS : 65134769, Roll : 0.12, Pitch : -17.97, Yaw : 55.03, Alt : 49.3400001526, Lat : 49.2837616, Lng : -123.1145937, Q1 : 0.875889658928, Q2 : 0.073157645762, Q3 : -0.138076871634, Q4 : 0.45650857687}
2019-04-14 02:10:13.81: SIM {TimeUS : 65234729, Roll : 0.14, Pitch : -17.97, Yaw : 55.02, Alt : 49.3400001526, Lat : 49.283764, Lng : -123.1145883, Q1 : 0.875946879387, Q2 : 0.073229752481, Q3 : -0.137956812978, Q4 : 0.456423461437}
2019-04-14 02:10:13.91: SIM {TimeUS : 65334689, Roll : 0.15, Pitch : -17.97, Yaw : 55.0, Alt : 49.3400001526, Lat : 49.2837665, Lng : -123.1145828, Q1 : 0.875981986523, Q2 : 0.0733706131577, Q3 : -0.137960910797, Q4 : 0.456332236528}
2019-04-14 02:10:14.01: SIM {TimeUS : 65434649, Roll : 0.15, Pitch : -17.99, Yaw : 54.99, Alt : 49.3400001526, Lat : 49.2837689, Lng : -123.1145773, Q1 : 0.876015901566, Q2 : 0.0733716860414, Q3 : -0.138150915504, Q4 : 0.456209480762}
2019-04-14 02:10:14.12: SIM {TimeUS : 65535442, Roll : 0.12, Pitch : -18.02, Yaw : 54.98, Alt : 49.3400001526, Lat : 49.2837714, Lng : -123.1145718, Q1 : 0.876049697399, Q2 : 0.0732702985406, Q3 : -0.138447359204, Q4 : 0.45607098937}
2019-04-14 02:10:14.21: SIM {TimeUS : 65635402, Roll : 0.11, Pitch : -18.04, Yaw : 54.97, Alt : 49.3400001526, Lat : 49.2837738, Lng : -123.1145664, Q1 : 0.876084923744, Q2 : 0.0732178911567, Q3 : -0.138665810227, Q4 : 0.455945283175}
2019-04-14 02:10:14.31: SIM {TimeUS : 65735362, Roll : 0.11, Pitch : -18.06, Yaw : 54.95, Alt : 49.3400001526, Lat : 49.2837762, Lng : -123.1145609, Q1 : 0.876113176346, Q2 : 0.0733208879828, Q3 : -0.138796374202, Q4 : 0.455834805965}
2019-04-14 02:10:14.41: SIM {TimeUS : 65835322, Roll : 0.13, Pitch : -18.07, Yaw : 54.94, Alt : 49.3400001526, Lat : 49.2837787, Lng : -123.1145554, Q1 : 0.876136362553, Q2 : 0.0734837725759, Q3 : -0.138866484165, Q4 : 0.455742657185}
2019-04-14 02:10:14.51: SIM {TimeUS : 65935282, Roll : 0.16, Pitch : -18.08, Yaw : 54.93, Alt : 49.3400001526, Lat : 49.2837811, Lng : -123.1145499, Q1 : 0.876151263714, Q2 : 0.0737306475639, Q3 : -0.138824939728, Q4 : 0.455686748028}
2019-04-14 02:10:14.61: SIM {TimeUS : 66035242, Roll : 0.18, Pitch : -18.09, Yaw : 54.92, Alt : 49.3400001526, Lat : 49.2837836, Lng : -123.1145444, Q1 : 0.876158952713, Q2 : 0.073911473155, Q3 : -0.138841375709, Q4 : 0.455637603998}
2019-04-14 02:10:14.71: SIM {TimeUS : 66135202, Roll : 0.19, Pitch : -18.11, Yaw : 54.91, Alt : 49.3400001526, Lat : 49.2837861, Lng : -123.1145389, Q1 : 0.876162707806, Q2 : 0.0740865692496, Q3 : -0.138879075646, Q4 : 0.455590516329}
2019-04-14 02:10:14.81: SIM {TimeUS : 66235162, Roll : 0.21, Pitch : -18.12, Yaw : 54.9, Alt : 49.3400001526, Lat : 49.2837885, Lng : -123.1145334, Q1 : 0.876162409782, Q2 : 0.0742485895753, Q3 : -0.138927236199, Q4 : 0.455550044775}
2019-04-14 02:10:14.91: SIM {TimeUS : 66335122, Roll : 0.23, Pitch : -18.13, Yaw : 54.9, Alt : 49.3400001526, Lat : 49.283791, Lng : -123.1145279, Q1 : 0.876151442528, Q2 : 0.0744835585356, Q3 : -0.138921678066, Q4 : 0.455534428358}
2019-04-14 02:10:15.01: SIM {TimeUS : 66435082, Roll : 0.26, Pitch : -18.15, Yaw : 54.89, Alt : 49.3499984741, Lat : 49.2837934, Lng : -123.1145224, Q1 : 0.876137852669, Q2 : 0.0747167468071, Q3 : -0.138943567872, Q4 : 0.455515682697}
