2019-04-14 01:24:34.60: SIM {TimeUS : 40816167, Roll : 0.0, Pitch : 0.0, Yaw : 0.0, Alt : 30.1000003815, Lat : 49.28357, Lng : -123.11502, Q1 : 1.0, Q2 : 0.0, Q3 : 0.0, Q4 : 0.0}
2019-04-14 01:24:34.71: SIM {TimeUS : 40935286, Roll : 0.0, Pitch : 0.0, Yaw : 0.0, Alt : 30.1000003815, Lat : 49.28357, Lng : -123.11502, Q1 : 1.0, Q2 : 0.0, Q3 : 0.0, Q4 : 0.0}
2019-04-14 01:24:34.81: SIM {TimeUS : 41035246, Roll : 0.0, Pitch : 0.0, Yaw : 0.0, Alt : 30.1000003815, Lat : 49.28357, Lng : -123.11502, Q1 : 1.0, Q2 : 0.0, Q3 : 0.0, Q4 : 0.0}
2019-04-14 01:24:34.91: SIM {TimeUS : 41135206, Roll : 0.0, Pitch : 0.0, Yaw : 0.0, Alt : 30.1000003815, Lat : 49.28357, Lng : -123.11502, Q1 : 1.0, Q2 : 0.0, Q3 : 0.0, Q4 : 0.0}
2019-04-14 01:24:35.01: SIM {TimeUS : 41235166, Roll : 0.0, Pitch : 0.0, Yaw : 0.0, Alt : 30.1000003815, Lat : 49.28357, Lng : -123.11502, Q1 : 1.0, Q2 : 0.0, Q3 : 0.0, Q4 : 0.0}
2019-04-14 01:24:35.11: SIM {TimeUS : 41335126, Roll : 0.0, Pitch : 0.0, Yaw : 0.0, Alt : 30.1000003815, Lat : 49.28357, Lng : -123.11502, Q1 : 1.0, Q2 : 0.0, Q3 : 0.0, Q4 : 0.0}
2019-04-14 01:24:35.21: SIM {TimeUS : 41435086, Roll : 0.0, Pitch : 0.0, Yaw : 0.0, Alt : 30.1000003815, Lat : 49.28357, Lng : -123.11502, Q1 : 1.0, Q2 : 0.0, Q3 : 0.0, Q4 : 0.0}
2019-04-14 01:24:35.31: SIM {TimeUS : 41535046, Roll : 0.0, Pitch : 0.0, Yaw : 0.0, Alt : 30.1000003815, Lat : 49.28357, Lng : -123.11502, Q1 : 1.0, Q2 : 0.0, Q3 : 0.0, Q4 : 0.0}
2019-04-14 01:24:35.41: SIM {TimeUS : 41635006, Roll : 0.0, Pitch : 0.0, Yaw : 0.0, Alt : 30.1000003815, Lat : 49.28357, Lng : -123.11502, Q1 : 1.0, Q2 : 0.0, Q3 : 0.0, Q4 : 0.0}
2019-04-14 01:24:35.51: SIM {TimeUS : 41734966, Roll : 0.0, Pitch : 0.0, Yaw : 0.0, Alt : 30.1000003815, Lat : 49.28357, Lng : -123.11502, Q1 : 1.0, Q2 : 0.0, Q3 : 0.0, Q4 : 0.0}
2019-04-14 01:24:35.61: SIM {TimeUS : 41834926, Roll : 0.0, Pitch : 0.0, Yaw : 0.0, Alt : 30.1000003815, Lat : 49.28357, Lng : -123.11502, Q1 : 1.0, Q2 : 0.0, Q3 : 0.0, Q4 : 0.0}
2019-04-14 01:24:35.71: SIM {TimeUS : 41934886, Roll : 0.0, Pitch : 0.0, Yaw : 0.0, Alt : 30.1000003815, Lat : 49.28357, Lng : -123.11502, Q1 : 1.0, Q2 : 0.0, Q3 : 0.0, Q4 : 0.0}
2019-04-14 01:24:35.81: SIM {TimeUS : 42034846, Roll : 0.0, Pitch : 0.0, Yaw : 0.0, Alt : 30.1000003815, Lat : 49.28357, Lng : -123.11502, Q1 : 1.0, Q2 : 0.0, Q3 : 0.0, Q4 : 0.0}
2019-04-14 01:24:35.91: SIM {TimeUS : 42134806, Roll : 0.0, Pitch : 0.0, Yaw : 0.0, Alt : 30.1000003815, Lat : 49.28357, Lng : -123.11502, Q1 : 1.0, Q2 : 0.0, Q3 : 0.0, Q4 : 0.0}
2019-04-14 01:24:36.01: SIM {TimeUS : 42234766, Roll : 0.0, Pitch : 0.0, Yaw : 0.0, Alt : 30.1000003815, Lat : 49.28357, Lng : -123.11502, Q1 : 1.0, Q2 : 0.0, Q3 : 0.0, Q4 : 0.0}
2019-04-14 01:24:36.11: SIM {TimeUS : 42334726, Roll : 0.0, Pitch : 0.0, Yaw : 0.0, Alt : 30.1000003815, Lat : 49.28357, Lng : -123.11502, Q1 : 1.0, Q2 : 0.0, Q3 : 0.0, Q4 : 0.0}
2019-04-14 01:24:36.21: SIM {TimeUS : 42434686, Roll : 0.0, Pitch : 0.0, Yaw : 0.0, Alt : 30.1000003815, Lat : 49.28357, Lng : -123.11502, Q1 : 1.0, Q2 : 0.0, Q3 : 0.0, Q4 : 0.0}
2019-04-14 01:24:36.31: SIM {TimeUS : 42534646, Roll : 0.0, Pitch : 0.0, Yaw : 0.0, Alt : 30.1000003815, Lat : 49.28357, Lng : -123.11502, Q1 : 1.0, Q2 : 0.0, Q3 : 0.0, Q4 : 0.0}
2019-04-14 01:24:36.41: SIM {TimeUS : 42634606, Roll : 0.0, Pitch : 0.0, Yaw : 0.0, Alt : 30.1000003815, Lat : 49.28357, Lng : -123.11502, Q1 : 1.0, Q2 : 0.0, Q3 : 0.0, Q4 : 0.0}
2019-04-14 01:24:36.51: SIM {TimeUS : 42734566, Roll : 0.0, Pitch : 0.0, Yaw : 0.0, Alt : 30.1000003815, Lat : 49.28357, Lng : -123.11502, Q1 : 1.0, Q2 : 0.0, Q3 : 0.0, Q4 : 0.0}
2019-04-14 01:24:36.61: SIM {TimeUS : 42834526, Roll : 0.0, Pitch : 0.0, Yaw : 0.0, Alt : 30.1000003815, Lat : 49.28357, Lng : -123.11502, Q1 : 1.0, Q2 : 0.0, Q3 : 0.0, Q4 : 0.0}
2019-04-14 01:24:36.71: SIM {TimeUS : 42935319, Roll : 0.0, Pitch : 0.0, Yaw : 0.0, Alt : 30.1000003815, Lat : 49.28357, Lng : -123.11502, Q1 : 1.0, Q2 : 0.0, Q3 : 0.0, Q4 : 0.0}
2019-04-14 01:24:36.81: SIM {TimeUS : 43035279, Roll : 0.0, Pitch : 0.0, Yaw : 0.0, Alt : 30.1000003815, Lat : 49.28357, Lng : -123.11502, Q1 : 1.0, Q2 : 0.0, Q3 : 0.0, Q4 : 0.0}
2019-04-14 01:24:36.91: SIM {TimeUS : 43135239, Roll : 0.0, Pitch : 0.0, Yaw : 360.0, Alt : 30.1000003815, Lat : 49.28357, Lng : -123.11502, Q1 : 1.0, Q2 : 0.0, Q3 : 0.0, Q4 : -5.76911088346e-12}
2019-04-14 01:24:37.01: SIM {TimeUS : 43235199, Roll : 0.0, Pitch : 0.0, Yaw : 0.0, Alt : 30.1000003815, Lat : 49.28357, Lng : -123.11502, Q1 : 1.0, Q2 : 0.0, Q3 : 0.0, Q4 : 1.67138317075e-11}
2019-04-14 01:24:37.11: SIM {TimeUS : 43335159, Roll : 0.0, Pitch : 0.0, Yaw : 360.0, Alt : 30.1000003815, Lat : 49.28357, Lng : -123.11502, Q1 : 1.0, Q2 : 0.0, Q3 : 0.0, Q4 : -9.67275255448e-08}
2019-04-14 01:24:37.21: SIM {TimeUS : 43435119, Roll : 0.0, Pitch : 0.0, Yaw : 359.99, Alt : 30.1000003815, Lat : 49.28357, Lng : -123.11502, Q1 : 1.0, Q2 : 0.0, Q3 : 0.0, Q4 : -2.55648444636e-07}
2019-04-14 01:24:37.31: SIM {TimeUS : 43535079, Roll : 0.0, Pitch : 0.0, Yaw : 359.99, Alt : 30.1000003815, Lat : 49.28357, Lng : -123.11502, Q1 : 1.0, Q2 : 0.0, Q3 : 0.0, Q4 : -4.11411292589e-07}
2019-04-14 01:24:37.41: SIM {TimeUS : 43635039, Roll : 0.0, Pitch : 0.0, Yaw : 359.99, Alt : 30.1000003815, Lat : 49.28357, Lng : -123.11502, Q1 : 1.0, Q2 : 0.0, Q3 : 0.0, Q4 : -6.45757154416e-07}
2019-04-14 01:24:37.51: SIM {TimeUS : 43734999, Roll : 0.0, Pitch : 0.0, Yaw : 359.99, Alt : 30.1000003815, Lat : 49.28357, Lng : -123.11502, Q1 : 1.0, Q2 : 0.0, Q3 : 0.0, Q4 : -8.18779994916e-07}
2019-04-14 01:24:37.61: SIM {TimeUS : 43834959, Roll : 0.0, Pitch : 0.0, Yaw : 359.99, Alt : 30.1000003815, Lat : 49.28357, Lng : -123.11502, Q1 : 1.0, Q2 : 0.0, Q3 : 0.0, Q4 : -9.70793394117e-07}
2019-04-14 01:24:37.71: SIM {TimeUS : 43934919, Roll : 0.0, Pitch : 0.0, Yaw : 359.99, Alt : 30.1000003815, Lat : 49.28357, Lng : -123.11502, Q1 : 1.0, Q2 : 0.0, Q3 : 0.0, Q4 : -1.21235632378e-06}
2019-04-14 01:24:37.81: SIM {TimeUS : 44034879, Roll : 0.0, Pitch : 0.0, Yaw : 359.99, Alt : 30.1100006104, Lat : 49.28357, Lng : -123.11502, Q1 : 1.0, Q2 : 0.0, Q3 : 0.0, Q4 : -1.41997804803e-06}
2019-04-14 01:24:37.91: SIM {TimeUS : 44134839, Roll : 0.0, Pitch : 0.0, Yaw : 359.99, Alt : 30.1299991608, Lat : 49.28357, Lng : -123.11502, Q1 : 1.0, Q2 : 0.0, Q3 : 0.0, Q4 : -1.61016464517e-06}
2019-04-14 01:24:38.01: SIM {TimeUS : 44234799, Roll : 0.0, Pitch : 0.0, Yaw : 359.99, Alt : 30.1499996185, Lat : 49.28357, Lng : -123.11502, Q1 : 1.0, Q2 : 0.0, Q3 : 0.0, Q4 : -1.86124407264e-06}
2019-04-14 01:24:38.11: SIM {TimeUS : 44334759, Roll : 0.0, Pitch : 0.0, Yaw : 359.99, Alt : 30.1900005341, Lat : 49.28357, Lng : -123.11502, Q1 : 1.0, Q2 : 0.0, Q3 : 0.0, Q4 : -2.02494879886e-06}
2019-04-14 01:24:38.21: SIM {TimeUS : 44434719, Roll : -0.02, Pitch : -0.02, Yaw : 359.99, Alt : 30.2299995422, Lat : 49.28357, Lng : -123.11502, Q1 : 0.999999940395, Q2 : -0.000260012893705, Q3 : -0.000253097881796, Q4 : -3.27681595991e-06}
2019-04-14 01:24:38.31: SIM {TimeUS : 44534679, Roll : -0.27, Pitch : -0.23, Yaw : 359.99, Alt : 30.2999992371, Lat : 49.28357, Lng : -123.11502, Q1 : 0.99999499321, Q2 : -0.0024315752089, Q3 : -0.00202506477945, Q4 : -2.55753602687e-05}
2019-04-14 01:24:38.41: SIM {TimeUS : 44634639, Roll : -0.6, Pitch : -0.48, Yaw : 359.99, Alt : 30.4400005341, Lat : 49.28357, Lng : -123.11502, Q1 : 0.999977350235, Q2 : -0.00526110036299, Q3 : -0.00420214515179, Q4 : -7.23457196727e-05}
2019-04-14 01:24:38.51: SIM {TimeUS : 44734599, Roll : -0.81, Pitch : -0.66, Yaw : 359.98, Alt : 30.5900001526, Lat : 49.28357, Lng : -123.11502, Q1 : 0.999958217144, Q2 : -0.00708338432014, Q3 : -0.00577807473019, Q4 : -0.000136649454362}
2019-04-14 01:24:38.61: SIM {TimeUS : 44834559, Roll : -0.84, Pitch : -0.71, Yaw : 359.98, Alt : 30.75, Lat : 49.28357, Lng : -123.11502, Q1 : 0.999953150749, Q2 : -0.00737492833287, Q3 : -0.00626459158957, Q4 : -0.000207697405131}
2019-04-14 01:24:38.71: SIM {TimeUS : 44934519, Roll : -0.72, Pitch : -0.64, Yaw : 359.97, Alt : 30.9099998474, Lat : 49.28357, Lng : -123.1150201, Q1 : 0.999963998795, Q2 : -0.00633531855419, Q3 : -0.00564279127866, Q4 : -0.000277439015917}
2019-04-14 01:24:38.81: SIM {TimeUS : 45035312, Roll : -0.51, Pitch : -0.49, Yaw : 359.96, Alt : 31.0599994659, Lat : 49.2835701, Lng : -123.1150201, Q1 : 0.999980807304, Q2 : -0.00445908959955, Q3 : -0.00428969645873, Q4 : -0.000341069477145}
2019-04-14 01:24:38.91: SIM {TimeUS : 45135272, Roll : -0.27, Pitch : -0.29, Yaw : 359.95, Alt : 31.2199993134, Lat : 49.2835701, Lng : -123.1150202, Q1 : 0.999993681908, Q2 : -0.00239567621611, Q3 : -0.0026032414753, Q4 : -0.000391571811633}
2019-04-14 01:24:39.01: SIM {TimeUS : 45235232, Roll : -0.08, Pitch : -0.11, Yaw : 359.95, Alt : 31.3899993896, Lat : 49.2835702, Lng : -123.1150203, Q1 : 0.999999165535, Q2 : -0.000708926119842, Q3 : -0.000966747815255, Q4 : -0.000430293206591}
2019-04-14 01:24:39.11: SIM {TimeUS : 45335192, Roll : 0.03, Pitch : 0.02, Yaw : 359.94, Alt : 31.5599994659, Lat : 49.2835702, Lng : -123.1150203, Q1 : 0.999999821186, Q2 : 0.000277922197711, Q3 : 0.000256233674008, Q4 : -0.000460375595139}
2019-04-14 01:24:39.21: SIM {TimeUS : 45435152, Roll : 0.06, Pitch : 0.1, Yaw : 359.94, Alt : 31.7299995422, Lat : 49.2835702, Lng : -123.1150204, Q1 : 0.999999284744, Q2 : 0.000573386030737, Q3 : 0.000914333679248, Q4 : -0.000481604773086}
2019-04-14 01:24:39.31: SIM {TimeUS : 45535112, Roll : 0.07, Pitch : 0.13, Yaw : 359.94, Alt : 31.9099998474, Lat : 49.2835703, Lng : -123.1150205, Q1 : 0.999998927116, Q2 : 0.000674896931741, Q3 : 0.00119098939467, Q4 : -0.000483260955662}
2019-04-14 01:24:39.41: SIM {TimeUS : 45635072, Roll : 0.08, Pitch : 0.12, Yaw : 359.94, Alt : 32.0999984741, Lat : 49.2835703, Lng : -123.1150205, Q1 : 0.999999046326, Q2 : 0.000706053106114, Q3 : 0.00109253684059, Q4 : -0.000460805196781}
2019-04-14 01:24:39.51: SIM {TimeUS : 45735032, Roll : 0.08, Pitch : 0.11, Yaw : 359.95, Alt : 32.2900009155, Lat : 49.2835703, Lng : -123.1150206, Q1 : 0.999999165535, Q2 : 0.000701325188857, Q3 : 0.000978957512416, Q4 : -0.000436045840615}
2019-04-14 01:24:39.61: SIM {TimeUS : 45834992, Roll : 0.07, Pitch : 0.1, Yaw : 359.95, Alt : 32.4799995422, Lat : 49.2835703, Lng : -123.1150206, Q1 : 0.999999284744, Q2 : 0.000635334989056, Q3 : 0.000924204709008, Q4 : -0.000412249559304}
2019-04-14 01:24:39.71: SIM {TimeUS : 45934952, Roll : 0.07, Pitch : 0.08, Yaw : 359.95, Alt : 32.6699981689, Lat : 49.2835703, Lng : -123.1150207, Q1 : 0.999999403954, Q2 : 0.000676766328979, Q3 : 0.000784676056355, Q4 : -0.000402123434469}
2019-04-14 01:24:39.81: SIM {TimeUS : 46034912, Roll : 0.09, Pitch : 0.07, Yaw : 359.95, Alt : 32.8699989319, Lat : 49.2835703, Lng : -123.1150207, Q1 : 0.999999403954, Q2 : 0.000815068371594, Q3 : 0.000663872924633, Q4 : -0.000395339913666}
2019-04-14 01:24:39.91: SIM {TimeUS : 46134872, Roll : 0.11, Pitch : 0.09, Yaw : 359.95, Alt : 33.0699996948, Lat : 49.2835704, Lng : -123.1150207, Q1 : 0.99999910593, Q2 : 0.000976474548224, Q3 : 0.000816625601146, Q4 : -0.000391330220737}
2019-04-14 01:24:40.01: SIM {TimeUS : 46234832, Roll : 0.13, Pitch : 0.11, Yaw : 359.95, Alt : 33.2799987793, Lat : 49.2835704, Lng : -123.1150207, Q1 : 0.999998807907, Q2 : 0.00114299205597, Q3 : 0.000993116758764, Q4 : -0.000388519256376}
2019-04-14 01:24:40.11: SIM {TimeUS : 46334792, Roll : 0.15, Pitch : 0.13, Yaw : 359.95, Alt : 33.4799995422, Lat : 49.2835704, Lng : -123.1150208, Q1 : 0.99999833107, Q2 : 0.00134038354736, Q3 : 0.00118233857211, Q4 : -0.000392937334254}
2019-04-14 01:24:40.21: SIM {TimeUS : 46434752, Roll : 0.16, Pitch : 0.14, Yaw : 359.95, Alt : 33.6899986267, Lat : 49.2835704, Lng : -123.1150208, Q1 : 0.999998033047, Q2 : 0.00143980165012, Q3 : 0.00129259028472, Q4 : -0.000403647747589}
2019-04-14 01:24:40.31: SIM {TimeUS : 46534712, Roll : 0.15, Pitch : 0.14, Yaw : 359.95, Alt : 33.8899993896, Lat : 49.2835704, Lng : -123.1150208, Q1 : 0.999998211861, Q2 : 0.00136255717371, Q3 : 0.00125600898173, Q4 : -0.000427893246524}
2019-04-14 01:24:40.41: SIM {TimeUS : 46634672, Roll : 0.13, Pitch : 0.13, Yaw : 359.94, Alt : 34.0999984741, Lat : 49.2835704, Lng : -123.1150208, Q1 : 0.999998450279, Q2 : 0.0012126644142, Q3 : 0.00117706391029, Q4 : -0.000457124959212}
2019-04-14 01:24:40.51: SIM {TimeUS : 46734632, Roll : 0.11, Pitch : 0.12, Yaw : 359.94, Alt : 34.3199996948, Lat : 49.2835704, Lng : -123.1150208, Q1 : 0.999998807907, Q2 : 0.00100035651121, Q3 : 0.00108102767263, Q4 : -0.000490771257319}
2019-04-14 01:24:40.61: SIM {TimeUS : 46834592, Roll : 0.09, Pitch : 0.08, Yaw : 359.93, Alt : 34.5299987793, Lat : 49.2835704, Lng : -123.1150208, Q1 : 0.99999922514, Q2 : 0.000852514931466, Q3 : 0.000750308507122, Q4 : -0.000533302139957}
2019-04-14 01:24:40.71: SIM {TimeUS : 46934552, Roll : 0.08, Pitch : 0.05, Yaw : 359.93, Alt : 34.7400016785, Lat : 49.2835704, Lng : -123.1150208, Q1 : 0.999999463558, Q2 : 0.000769455102272, Q3 : 0.000448254548246, Q4 : -0.000574281846639}
2019-04-14 01:24:40.81: SIM {TimeUS : 47034512, Roll : 0.06, Pitch : 0.03, Yaw : 359.92, Alt : 34.9599990845, Lat : 49.2835704, Lng : -123.1150207, Q1 : 0.999999582767, Q2 : 0.000593416159973, Q3 : 0.000281075655948, Q4 : -0.000616061151959}
2019-04-14 01:24:40.91: SIM {TimeUS : 47135305, Roll : 0.05, Pitch : 0.02, Yaw : 359.92, Alt : 35.1800003052, Lat : 49.2835704, Lng : -123.1150207, Q1 : 0.999999642372, Q2 : 0.000492168415803, Q3 : 0.000240957597271, Q4 : -0.000649888359476}
2019-04-14 01:24:41.01: SIM {TimeUS : 47235265, Roll : 0.05, Pitch : 0.02, Yaw : 359.92, Alt : 35.3899993896, Lat : 49.2835704, Lng : -123.1150207, Q1 : 0.999999642372, Q2 : 0.000479307840578, Q3 : 0.00023308643722, Q4 : -0.000669416040182}
2019-04-14 01:24:41.11: SIM {TimeUS : 47335225, Roll : 0.03, Pitch : 0.0, Yaw : 359.92, Alt : 35.6100006104, Lat : 49.2835704, Lng : -123.1150207, Q1 : 0.999999701977, Q2 : 0.000284917099634, Q3 : 5.84587942285e-05, Q4 : -0.000684252474457}
2019-04-14 01:24:41.21: SIM {TimeUS : 47435185, Roll : 0.0, Pitch : -0.02, Yaw : 359.92, Alt : 35.8300018311, Lat : 49.2835704, Lng : -123.1150207, Q1 : 0.999999761581, Q2 : -1.87336627278e-05, Q3 : -0.000249881937634, Q4 : -0.000694652146194}
2019-04-14 01:24:41.31: SIM {TimeUS : 47535145, Roll : -0.04, Pitch : -0.05, Yaw : 359.91, Alt : 36.0499992371, Lat : 49.2835704, Lng : -123.1150207, Q1 : 0.999999582767, Q2 : -0.000356419855962, Q3 : -0.000479209498735, Q4 : -0.00070620974293}
2019-04-14 01:24:41.41: SIM {TimeUS : 47635105, Roll : -0.07, Pitch : -0.06, Yaw : 359.91, Alt : 36.2700004578, Lat : 49.2835704, Lng : -123.1150207, Q1 : 0.999999344349, Q2 : -0.000631157949101, Q3 : -0.000609655806329, Q4 : -0.000717463553883}
2019-04-14 01:24:41.51: SIM {TimeUS : 47735065, Roll : -0.08, Pitch : -0.07, Yaw : 359.91, Alt : 36.4900016785, Lat : 49.2835704, Lng : -123.1150206, Q1 : 0.999999284744, Q2 : -0.000724463898223, Q3 : -0.00063506339211, Q4 : -0.000727117527276}
2019-04-14 01:24:41.61: SIM {TimeUS : 47835025, Roll : -0.08, Pitch : -0.06, Yaw : 359.91, Alt : 36.7200012207, Lat : 49.2835704, Lng : -123.1150206, Q1 : 0.999999284744, Q2 : -0.000767299265135, Q3 : -0.000598792626988, Q4 : -0.000740319781471}
2019-04-14 01:24:41.71: SIM {TimeUS : 47934985, Roll : -0.07, Pitch : -0.05, Yaw : 359.91, Alt : 36.9399986267, Lat : 49.2835704, Lng : -123.1150206, Q1 : 0.999999344349, Q2 : -0.000698247516993, Q3 : -0.000442405667854, Q4 : -0.000757844187319}
2019-04-14 01:24:41.81: SIM {TimeUS : 48034945, Roll : -0.06, Pitch : -0.04, Yaw : 359.91, Alt : 37.1599998474, Lat : 49.2835704, Lng : -123.1150206, Q1 : 0.999999463558, Q2 : -0.000566984585021, Q3 : -0.000348930421751, Q4 : -0.000773277424742}
2019-04-14 01:24:41.91: SIM {TimeUS : 48134905, Roll : -0.06, Pitch : -0.04, Yaw : 359.9, Alt : 37.3899993896, Lat : 49.2835704, Lng : -123.1150206, Q1 : 0.999999463558, Q2 : -0.000577320053708, Q3 : -0.000383312552003, Q4 : -0.00078799208859}
2019-04-14 01:24:42.01: SIM {TimeUS : 48234865, Roll : -0.07, Pitch : -0.02, Yaw : 359.9, Alt : 37.6100006104, Lat : 49.2835704, Lng : -123.1150206, Q1 : 0.999999463558, Q2 : -0.000641368562356, Q3 : -0.000246651266934, Q4 : -0.00081242917804}
2019-04-14 01:24:42.11: SIM {TimeUS : 48334825, Roll : -0.09, Pitch : 0.0, Yaw : 359.9, Alt : 37.8400001526, Lat : 49.2835704, Lng : -123.1150206, Q1 : 0.999999284744, Q2 : -0.00082719657803, Q3 : -6.11365976511e-05, Q4 : -0.000839549931698}
2019-04-14 01:24:42.21: SIM {TimeUS : 48434785, Roll : -0.09, Pitch : 0.0, Yaw : 359.9, Alt : 38.0699996948, Lat : 49.2835704, Lng : -123.1150206, Q1 : 0.999999284744, Q2 : -0.000837921747006, Q3 : 7.67430028645e-05, Q4 : -0.000858822430018}
2019-04-14 01:24:42.31: SIM {TimeUS : 48534745, Roll : -0.07, Pitch : 0.03, Yaw : 359.89, Alt : 38.2900009155, Lat : 49.2835704, Lng : -123.1150206, Q1 : 0.999999344349, Q2 : -0.000642922474071, Q3 : 0.000335404474754, Q4 : -0.000881261774339}
2019-04-14 01:24:42.41: SIM {TimeUS : 48634705, Roll : -0.04, Pitch : 0.03, Yaw : 359.89, Alt : 38.5200004578, Lat : 49.2835704, Lng : -123.1150206, Q1 : 0.999999463558, Q2 : -0.000431624386692, Q3 : 0.000301037391182, Q4 : -0.000907217268832}
2019-04-14 01:24:42.51: SIM {TimeUS : 48734665, Roll : -0.02, Pitch : 0.01, Yaw : 359.89, Alt : 38.75, Lat : 49.2835704, Lng : -123.1150206, Q1 : 0.999999523163, Q2 : -0.000178470771061, Q3 : 0.000171303137904, Q4 : -0.000930303707719}
2019-04-14 01:24:42.61: SIM {TimeUS : 48834625, Roll : 0.01, Pitch : 0.02, Yaw : 359.89, Alt : 38.9799995422, Lat : 49.2835706, Lng : -123.1150206, Q1 : 0.999999523163, Q2 : 0.000116965486086, Q3 : 0.000219000779907, Q4 : -0.000951178953983}
2019-04-14 01:24:42.71: SIM {TimeUS : 48934585, Roll : 0.04, Pitch : 0.04, Yaw : 359.88, Alt : 39.2099990845, Lat : 49.2835706, Lng : -123.1150206, Q1 : 0.999999344349, Q2 : 0.000416821014369, Q3 : 0.000405789440265, Q4 : -0.000975987873971}
2019-04-14 01:24:42.81: SIM {TimeUS : 49034545, Roll : 0.07, Pitch : 0.07, Yaw : 359.88, Alt : 39.4399986267, Lat : 49.2835706, Lng : -123.1150206, Q1 : 0.999999046326, Q2 : 0.000659668818116, Q3 : 0.000660254445393, Q4 : -0.000999995041639}
2019-04-14 01:24:42.91: SIM {TimeUS : 49134505, Roll : 0.06, Pitch : 0.1, Yaw : 359.88, Alt : 39.6699981689, Lat : 49.2835706, Lng : -123.1150207, Q1 : 0.999998927116, Q2 : 0.000581765489187, Q3 : 0.00090668204939, Q4 : -0.00101876095869}
2019-04-14 01:24:43.01: SIM {TimeUS : 49235298, Roll : 0.01, Pitch : 0.12, Yaw : 359.87, Alt : 39.9000015259, Lat : 49.2835706, Lng : -123.1150206, Q1 : 0.999998807907, Q2 : 0.000168945698533, Q3 : 0.0011264460627, Q4 : -0.00105657381937}
2019-04-14 01:24:43.11: SIM {TimeUS : 49335258, Roll : -0.01, Pitch : 0.13, Yaw : 359.87, Alt : 40.1300010681, Lat : 49.2835706, Lng : -123.1150206, Q1 : 0.999998748302, Q2 : -0.000158542243298, Q3 : 0.0011591570219, Q4 : -0.0010879591573}
2019-04-14 01:24:43.21: SIM {TimeUS : 49435218, Roll : -0.04, Pitch : 0.11, Yaw : 359.87, Alt : 40.3699989319, Lat : 49.2835706, Lng : -123.1150206, Q1 : 0.999998748302, Q2 : -0.000382536411053, Q3 : 0.00104107544757, Q4 : -0.00111867743544}
2019-04-14 01:24:43.31: SIM {TimeUS : 49535178, Roll : -0.05, Pitch : 0.11, Yaw : 359.86, Alt : 40.5999984741, Lat : 49.2835706, Lng : -123.1150206, Q1 : 0.999998748302, Q2 : -0.000480452756165, Q3 : 0.00097330409335, Q4 : -0.00115105113946}
2019-04-14 01:24:43.41: SIM {TimeUS : 49635138, Roll : -0.04, Pitch : 0.12, Yaw : 359.86, Alt : 40.8300018311, Lat : 49.2835706, Lng : -123.1150206, Q1 : 0.999998629093, Q2 : -0.00039230560651, Q3 : 0.00108959164936, Q4 : -0.00118770310655}
2019-04-14 01:24:43.51: SIM {TimeUS : 49735098, Roll : 0.0, Pitch : 0.14, Yaw : 359.85, Alt : 41.0600013733, Lat : 49.2835706, Lng : -123.1150207, Q1 : 0.999998390675, Q2 : -3.96398900193e-05, Q3 : 0.00129157258198, Q4 : -0.00122753635515}
2019-04-14 01:24:43.61: SIM {TimeUS : 49835058, Roll : 0.04, Pitch : 0.15, Yaw : 359.85, Alt : 41.2999992371, Lat : 49.2835706, Lng : -123.1150207, Q1 : 0.999998152256, Q2 : 0.00040202550008, Q3 : 0.00139137194492, Q4 : -0.00126671802718}
2019-04-14 01:24:43.71: SIM {TimeUS : 49935018, Roll : 0.08, Pitch : 0.12, Yaw : 359.85, Alt : 41.5299987793, Lat : 49.2835706, Lng : -123.1150207, Q1 : 0.999998271465, Q2 : 0.000742797972634, Q3 : 0.00112149107736, Q4 : -0.00130058708601}
2019-04-14 01:24:43.81: SIM {TimeUS : 50034978, Roll : 0.09, Pitch : 0.07, Yaw : 359.84, Alt : 41.7599983215, Lat : 49.2835706, Lng : -123.1150207, Q1 : 0.999998569489, Q2 : 0.000806055031717, Q3 : 0.000680086726788, Q4 : -0.00132628995925}
2019-04-14 01:24:43.91: SIM {TimeUS : 50134938, Roll : 0.05, Pitch : 0.04, Yaw : 359.84, Alt : 42.0, Lat : 49.2835706, Lng : -123.1150207, Q1 : 0.999998867512, Q2 : 0.0005181604065, Q3 : 0.00040077464655, Q4 : -0.00134104781318}
2019-04-14 01:24:44.01: SIM {TimeUS : 50234898, Roll : 0.0, Pitch : 0.03, Yaw : 359.84, Alt : 42.2299995422, Lat : 49.2835706, Lng : -123.1150207, Q1 : 0.999999046326, Q2 : 6.17664773017e-05, Q3 : 0.000344900327036, Q4 : -0.00134549860377}
2019-04-14 01:24:44.11: SIM {TimeUS : 50334858, Roll : -0.02, Pitch : 0.06, Yaw : 359.84, Alt : 42.4599990845, Lat : 49.2835706, Lng : -123.1150207, Q1 : 0.999998867512, Q2 : -0.000235153769609, Q3 : 0.000581430562306, Q4 : -0.00134282186627}
2019-04-14 01:24:44.21: SIM {TimeUS : 50434818, Roll : -0.04, Pitch : 0.08, Yaw : 359.84, Alt : 42.7000007629, Lat : 49.2835704, Lng : -123.1150207, Q1 : 0.999998748302, Q2 : -0.00038281804882, Q3 : 0.000753792992327, Q4 : -0.0013380588498}
2019-04-14 01:24:44.31: SIM {TimeUS : 50534778, Roll : -0.04, Pitch : 0.07, Yaw : 359.84, Alt : 42.9300003052, Lat : 49.2835704, Lng : -123.1150206, Q1 : 0.999998807907, Q2 : -0.000358534947736, Q3 : 0.00069369468838, Q4 : -0.00133795524016}
2019-04-14 01:24:44.41: SIM {TimeUS : 50634738, Roll : -0.04, Pitch : 0.06, Yaw : 359.84, Alt : 43.1699981689, Lat : 49.2835704, Lng : -123.1150206, Q1 : 0.999998867512, Q2 : -0.00037960492773, Q3 : 0.000526797608472, Q4 : -0.00134487345349}
2019-04-14 01:24:44.51: SIM {TimeUS : 50734698, Roll : -0.03, Pitch : 0.04, Yaw : 359.84, Alt : 43.4000015259, Lat : 49.2835704, Lng : -123.1150206, Q1 : 0.999998986721, Q2 : -0.00031457139994, Q3 : 0.000360832927981, Q4 : -0.00135948171373}
2019-04-14 01:24:44.61: SIM {TimeUS : 50834658, Roll : -0.01, Pitch : 0.03, Yaw : 359.84, Alt : 43.6399993896, Lat : 49.2835704, Lng : -123.1150206, Q1 : 0.999998986721, Q2 : -0.000153533008415, Q3 : 0.000294935249258, Q4 : -0.00138475082349}
2019-04-14 01:24:44.71: SIM {TimeUS : 50934618, Roll : 0.0, Pitch : 0.03, Yaw : 359.83, Alt : 43.8699989319, Lat : 49.2835704, Lng : -123.1150206, Q1 : 0.999998986721, Q2 : -4.77241956105e-05, Q3 : 0.000292310025543, Q4 : -0.00141387141775}
2019-04-14 01:24:44.81: SIM {TimeUS : 51034578, Roll : -0.01, Pitch : 0.01, Yaw : 359.83, Alt : 44.1100006104, Lat : 49.2835704, Lng : -123.1150206, Q1 : 0.999998986721, Q2 : -8.75387922861e-05, Q3 : 0.00015369123139, Q4 : -0.00144265487324}
2019-04-14 01:24:44.91: SIM {TimeUS : 51134538, Roll : -0.01, Pitch : -0.01, Yaw : 359.83, Alt : 44.3499984741, Lat : 49.2835704, Lng : -123.1150206, Q1 : 0.999998867512, Q2 : -0.000160700335982, Q3 : -0.000122879311675, Q4 : -0.0014726461377}
2019-04-14 01:24:45.01: SIM {TimeUS : 51234498, Roll : -0.02, Pitch : -0.03, Yaw : 359.82, Alt : 44.5800018311, Lat : 49.2835704, Lng : -123.1150206, Q1 : 0.999998807907, Q2 : -0.000215484280488, Q3 : -0.000294499332085, Q4 : -0.00150593009312}
2019-04-14 01:24:45.11: SIM {TimeUS : 51335291, Roll : -0.02, Pitch : -0.04, Yaw : 359.82, Alt : 44.8199996948, Lat : 49.2835704, Lng : -123.1150206, Q1 : 0.999998748302, Q2 : -0.000177460548002, Q3 : -0.00037155020982, Q4 : -0.00154153280891}
2019-04-14 01:24:45.21: SIM {TimeUS : 51435251, Roll : -0.02, Pitch : -0.04, Yaw : 359.81, Alt : 45.0600013733, Lat : 49.2835704, Lng : -123.1150206, Q1 : 0.999998629093, Q2 : -0.000218417626456, Q3 : -0.000410784647102, Q4 : -0.00157649896573}
2019-04-14 01:24:45.31: SIM {TimeUS : 51535211, Roll : -0.05, Pitch : -0.04, Yaw : 359.81, Alt : 45.2900009155, Lat : 49.2835703, Lng : -123.1150206, Q1 : 0.999998509884, Q2 : -0.000442698801635, Q3 : -0.000393942580558, Q4 : -0.00161076185759}
2019-04-14 01:24:45.41: SIM {TimeUS : 51635171, Roll : -0.08, Pitch : -0.04, Yaw : 359.81, Alt : 45.5299987793, Lat : 49.2835703, Lng : -123.1150206, Q1 : 0.999998271465, Q2 : -0.000777825189289, Q3 : -0.000369206478354, Q4 : -0.00164484605193}
2019-04-14 01:24:45.51: SIM {TimeUS : 51735131, Roll : -0.11, Pitch : -0.03, Yaw : 359.8, Alt : 45.7599983215, Lat : 49.2835703, Lng : -123.1150206, Q1 : 0.999998033047, Q2 : -0.000987947103567, Q3 : -0.000331688526785, Q4 : -0.001675477135}
2019-04-14 01:24:45.61: SIM {TimeUS : 51835091, Roll : -0.11, Pitch : -0.02, Yaw : 359.8, Alt : 45.9900016785, Lat : 49.2835703, Lng : -123.1150206, Q1 : 0.999998033047, Q2 : -0.00100151554216, Q3 : -0.000191275583347, Q4 : -0.00170747120865}
2019-04-14 01:24:45.71: SIM {TimeUS : 51935051, Roll : -0.09, Pitch : 0.0, Yaw : 359.8, Alt : 46.2200012207, Lat : 49.2835703, Lng : -123.1150206, Q1 : 0.999998092651, Q2 : -0.000857760780491, Q3 : 5.93669719819e-05, Q4 : -0.00173798343167}
2019-04-14 01:24:45.81: SIM {TimeUS : 52035011, Roll : -0.06, Pitch : 0.02, Yaw : 359.79, Alt : 46.4500007629, Lat : 49.2835703, Lng : -123.1150206, Q1 : 0.999998211861, Q2 : -0.00060782575747, Q3 : 0.000209187550354, Q4 : -0.00176465290133}
2019-04-14 01:24:45.91: SIM {TimeUS : 52134971, Roll : -0.04, Pitch : 0.02, Yaw : 359.79, Alt : 46.6699981689, Lat : 49.2835703, Lng : -123.1150206, Q1 : 0.99999833107, Q2 : -0.00040174726746, Q3 : 0.000179663387826, Q4 : -0.00178630952723}
2019-04-14 01:24:46.01: SIM {TimeUS : 52234931, Roll : -0.03, Pitch : 0.0, Yaw : 359.79, Alt : 46.8800010681, Lat : 49.2835703, Lng : -123.1150206, Q1 : 0.99999833107, Q2 : -0.000298144412227, Q3 : 5.41401050214e-06, Q4 : -0.00180760503281}
2019-04-14 01:24:46.11: SIM {TimeUS : 52334891, Roll : -0.02, Pitch : -0.02, Yaw : 359.79, Alt : 47.0900001526, Lat : 49.2835703, Lng : -123.1150206, Q1 : 0.999998271465, Q2 : -0.000180138435098, Q3 : -0.000259339693002, Q4 : -0.00182520772796}
2019-04-14 01:24:46.21: SIM {TimeUS : 52434851, Roll : 0.0, Pitch : -0.05, Yaw : 359.78, Alt : 47.2900009155, Lat : 49.2835703, Lng : -123.1150206, Q1 : 0.999998152256, Q2 : 4.87849956698e-06, Q3 : -0.000517365639098, Q4 : -0.00183968152851}
2019-04-14 01:24:46.31: SIM {TimeUS : 52534811, Roll : 0.01, Pitch : -0.08, Yaw : 359.78, Alt : 47.4799995422, Lat : 49.2835703, Lng : -123.1150206, Q1 : 0.999998033047, Q2 : 8.69437644724e-05, Q3 : -0.000733876659069, Q4 : -0.00185862521175}
2019-04-14 01:24:46.41: SIM {TimeUS : 52634771, Roll : 0.0, Pitch : -0.11, Yaw : 359.78, Alt : 47.6599998474, Lat : 49.2835703, Lng : -123.1150206, Q1 : 0.999997735023, Q2 : 3.73048278561e-05, Q3 : -0.000997966970317, Q4 : -0.00188005820382}
2019-04-14 01:24:46.51: SIM {TimeUS : 52734731, Roll : 0.01, Pitch : -0.14, Yaw : 359.78, Alt : 47.8400001526, Lat : 49.2835703, Lng : -123.1150206, Q1 : 0.999997377396, Q2 : 0.000130757078296, Q3 : -0.00125481304713, Q4 : -0.00190108036622}
2019-04-14 01:24:46.61: SIM {TimeUS : 52834691, Roll : 0.04, Pitch : -0.15, Yaw : 359.77, Alt : 48.0, Lat : 49.2835703, Lng : -123.1150206, Q1 : 0.999997198582, Q2 : 0.000353777431883, Q3 : -0.0013203297276, Q4 : -0.00192434934434}
2019-04-14 01:24:46.71: SIM {TimeUS : 52934651, Roll : 0.07, Pitch : -0.13, Yaw : 359.77, Alt : 48.1399993896, Lat : 49.2835704, Lng : -123.1150206, Q1 : 0.999997258186, Q2 : 0.000610366754699, Q3 : -0.00118145230226, Q4 : -0.00194530677982}
2019-04-14 01:24:46.81: SIM {TimeUS : 53034611, Roll : 0.08, Pitch : -0.1, Yaw : 359.77, Alt : 48.2799987793, Lat : 49.2835704, Lng : -123.1150206, Q1 : 0.999997377396, Q2 : 0.00073362357216, Q3 : -0.000927396991756, Q4 : -0.0019656540826}
2019-04-14 01:24:46.91: SIM {TimeUS : 53134571, Roll : 0.09, Pitch : -0.08, Yaw : 359.77, Alt : 48.4099998474, Lat : 49.2835704, Lng : -123.1150206, Q1 : 0.999997437, Q2 : 0.000811946520116, Q3 : -0.000724011333659, Q4 : -0.00198598904535}
2019-04-14 01:24:47.01: SIM {TimeUS : 53234531, Roll : 0.08, Pitch : -0.07, Yaw : 359.76, Alt : 48.5200004578, Lat : 49.2835704, Lng : -123.1150206, Q1 : 0.999997496605, Q2 : 0.000726561353076, Q3 : -0.000655866111629, Q4 : -0.00201154733077}
2019-04-14 01:24:47.11: SIM {TimeUS : 53335324, Roll : 0.05, Pitch : -0.06, Yaw : 359.76, Alt : 48.6199989319, Lat : 49.2835704, Lng : -123.1150206, Q1 : 0.999997615814, Q2 : 0.000482664036099, Q3 : -0.000564446265344, Q4 : -0.0020394034218}
2019-04-14 01:24:47.21: SIM {TimeUS : 53435284, Roll : 0.03, Pitch : -0.04, Yaw : 359.76, Alt : 48.7099990845, Lat : 49.2835704, Lng : -123.1150206, Q1 : 0.999997735023, Q2 : 0.000295361707686, Q3 : -0.000405252998462, Q4 : -0.00206769653596}
2019-04-14 01:24:47.31: SIM {TimeUS : 53535244, Roll : 0.01, Pitch : -0.02, Yaw : 359.75, Alt : 48.7799987793, Lat : 49.2835704, Lng : -123.1150206, Q1 : 0.999997794628, Q2 : 0.000107100553578, Q3 : -0.000223988972721, Q4 : -0.00209657405503}
2019-04-14 01:24:47.41: SIM {TimeUS : 53635204, Roll : 0.0, Pitch : 0.0, Yaw : 359.75, Alt : 48.8499984741, Lat : 49.2835704, Lng : -123.1150206, Q1 : 0.999997735023, Q2 : -1.51901667778e-05, Q3 : -1.1958985624e-07, Q4 : -0.00212270324118}
2019-04-14 01:24:47.51: SIM {TimeUS : 53735164, Roll : 0.01, Pitch : 0.03, Yaw : 359.75, Alt : 48.9099998474, Lat : 49.2835704, Lng : -123.1150206, Q1 : 0.999997615814, Q2 : 0.000107567459054, Q3 : 0.000316984951496, Q4 : -0.00215129321441}
2019-04-14 01:24:47.61: SIM {TimeUS : 53835124, Roll : 0.03, Pitch : 0.05, Yaw : 359.75, Alt : 48.9500007629, Lat : 49.2835704, Lng : -123.1150206, Q1 : 0.999997437, Q2 : 0.000330704991939, Q3 : 0.000504482188262, Q4 : -0.00218182010576}
2019-04-14 01:24:47.71: SIM {TimeUS : 53935084, Roll : 0.11, Pitch : 0.0, Yaw : 359.74, Alt : 49.0, Lat : 49.2835704, Lng : -123.1150206, Q1 : 0.999997079372, Q2 : 0.00100100750569, Q3 : 4.87971738039e-05, Q4 : -0.00220409734175}
2019-04-14 01:24:47.81: SIM {TimeUS : 54035044, Roll : 0.33, Pitch : -0.16, Yaw : 359.74, Alt : 49.0299987793, Lat : 49.2835706, Lng : -123.1150206, Q1 : 0.999992072582, Q2 : 0.00294853886589, Q3 : -0.00147303170525, Q4 : -0.00222570914775}
2019-04-14 01:24:47.91: SIM {TimeUS : 54135004, Roll : 0.76, Pitch : -0.51, Yaw : 359.73, Alt : 49.0600013733, Lat : 49.2835706, Lng : -123.1150206, Q1 : 0.999965250492, Q2 : 0.0066695692949, Q3 : -0.00447162427008, Q4 : -0.00224511465058}
2019-04-14 01:24:48.01: SIM {TimeUS : 54234964, Roll : 1.4, Pitch : -1.0, Yaw : 359.72, Alt : 49.0900001526, Lat : 49.2835706, Lng : -123.1150206, Q1 : 0.999883949757, Q2 : 0.0122433695942, Q3 : -0.00877933111042, Q4 : -0.00225412240252}
2019-04-14 01:24:48.11: SIM {TimeUS : 54334924, Roll : 2.2, Pitch : -1.57, Yaw : 359.71, Alt : 49.1100006104, Lat : 49.2835706, Lng : -123.1150205, Q1 : 0.999717950821, Q2 : 0.0192142296582, Q3 : -0.0137768760324, Q4 : -0.00223842961714}
2019-04-14 01:24:48.21: SIM {TimeUS : 54434884, Roll : 3.06, Pitch : -2.17, Yaw : 359.69, Alt : 49.1300010681, Lat : 49.2835707, Lng : -123.1150204, Q1 : 0.999460697174, Q2 : 0.0266614574939, Q3 : -0.0190482977778, Q4 : -0.00216972851194}
2019-04-14 01:24:48.31: SIM {TimeUS : 54534844, Roll : 3.82, Pitch : -2.71, Yaw : 359.67, Alt : 49.1500015259, Lat : 49.2835707, Lng : -123.1150203, Q1 : 0.99916011095, Q2 : 0.0333302505314, Q3 : -0.0237490478903, Q4 : -0.00204410683364}
2019-04-14 01:24:48.41: SIM {TimeUS : 54634804, Roll : 4.42, Pitch : -3.12, Yaw : 359.66, Alt : 49.1599998474, Lat : 49.2835708, Lng : -123.11502, Q1 : 0.998881280422, Q2 : 0.0385103486478, Q3 : -0.0273818913847, Q4 : -0.00186084711459}
2019-04-14 01:24:48.51: SIM {TimeUS : 54734764, Roll : 4.84, Pitch : -3.43, Yaw : 359.66, Alt : 49.1800003052, Lat : 49.2835709, Lng : -123.1150198, Q1 : 0.998655855656, Q2 : 0.0421953387558, Q3 : -0.0300557520241, Q4 : -0.00163378054276}
2019-04-14 01:24:48.61: SIM {TimeUS : 54834724, Roll : 5.18, Pitch : -3.67, Yaw : 359.67, Alt : 49.1899986267, Lat : 49.2835712, Lng : -123.1150194, Q1 : 0.998464286327, Q2 : 0.045112002641, Q3 : -0.0321269854903, Q4 : -0.00137270253617}
2019-04-14 01:24:48.71: SIM {TimeUS : 54934684, Roll : 5.48, Pitch : -3.87, Yaw : 359.68, Alt : 49.2000007629, Lat : 49.2835714, Lng : -123.1150189, Q1 : 0.998284161091, Q2 : 0.0477327443659, Q3 : -0.0338991954923, Q4 : -0.00108822633047}
2019-04-14 01:24:48.81: SIM {TimeUS : 55034644, Roll : 5.78, Pitch : -4.06, Yaw : 359.7, Alt : 49.2099990845, Lat : 49.2835716, Lng : -123.1150183, Q1 : 0.998099803925, Q2 : 0.0503152906895, Q3 : -0.03556131199, Q4 : -0.000798535358626}
2019-04-14 01:24:48.91: SIM {TimeUS : 55134604, Roll : 6.08, Pitch : -4.27, Yaw : 359.71, Alt : 49.2200012207, Lat : 49.283572, Lng : -123.1150175, Q1 : 0.997894346714, Q2 : 0.0529884435236, Q3 : -0.0374012291431, Q4 : -0.000528937031049}
2019-04-14 01:24:49.01: SIM {TimeUS : 55234564, Roll : 6.36, Pitch : -4.48, Yaw : 359.71, Alt : 49.2200012207, Lat : 49.2835724, Lng : -123.1150168, Q1 : 0.997695982456, Q2 : 0.0553875342011, Q3 : -0.0391768142581, Q4 : -0.000288441282464}
2019-04-14 01:24:49.11: SIM {TimeUS : 55334524, Roll : 6.59, Pitch : -4.63, Yaw : 359.72, Alt : 49.2299995422, Lat : 49.2835727, Lng : -123.1150159, Q1 : 0.997530817986, Q2 : 0.0573620833457, Q3 : -0.0405195690691, Q4 : -6.61631711409e-05}
2019-04-14 01:24:49.21: SIM {TimeUS : 55435317, Roll : 6.75, Pitch : -4.74, Yaw : 359.73, Alt : 49.2400016785, Lat : 49.2835732, Lng : -123.1150149, Q1 : 0.997409820557, Q2 : 0.0587689727545, Q3 : -0.0414714515209, Q4 : 0.000122514771647}
2019-04-14 01:24:49.31: SIM {TimeUS : 55535277, Roll : 6.86, Pitch : -4.83, Yaw : 359.73, Alt : 49.2400016785, Lat : 49.2835737, Lng : -123.1150138, Q1 : 0.997322440147, Q2 : 0.0596974380314, Q3 : -0.0422381982207, Q4 : 0.000254750048043}
2019-04-14 01:24:49.41: SIM {TimeUS : 55635237, Roll : 6.96, Pitch : -4.9, Yaw : 359.74, Alt : 49.25, Lat : 49.2835743, Lng : -123.1150126, Q1 : 0.997244775295, Q2 : 0.0605777949095, Q3 : -0.0428144559264, Q4 : 0.00035000074422}
2019-04-14 01:24:49.51: SIM {TimeUS : 55735197, Roll : 7.11, Pitch : -4.96, Yaw : 359.74, Alt : 49.25, Lat : 49.2835749, Lng : -123.1150114, Q1 : 0.997136592865, Q2 : 0.0619322583079, Q3 : -0.0433911643922, Q4 : 0.000447048892966}
2019-04-14 01:24:49.61: SIM {TimeUS : 55835157, Roll : 7.45, Pitch : -4.91, Yaw : 359.89, Alt : 49.25, Lat : 49.2835755, Lng : -123.1150101, Q1 : 0.996968626976, Q2 : 0.0649048537016, Q3 : -0.042866550386, Q4 : 0.00185719877481}
2019-04-14 01:24:49.71: SIM {TimeUS : 55935117, Roll : 8.01, Pitch : -4.71, Yaw : 0.74, Alt : 49.2599983215, Lat : 49.2835761, Lng : -123.1150086, Q1 : 0.99667173624, Q2 : 0.0700815021992, Q3 : -0.0405824221671, Q4 : 0.00933777540922}
2019-04-14 01:24:49.81: SIM {TimeUS : 56035077, Roll : 8.62, Pitch : -4.62, Yaw : 2.94, Alt : 49.2599983215, Lat : 49.2835768, Lng : -123.1150071, Q1 : 0.995946466923, Q2 : 0.0761792361736, Q3 : -0.0383200533688, Q4 : 0.028616996482}
2019-04-14 01:24:49.91: SIM {TimeUS : 56135037, Roll : 9.04, Pitch : -4.99, Yaw : 6.72, Alt : 49.2599983215, Lat : 49.2835775, Lng : -123.1150055, Q1 : 0.99402153492, Q2 : 0.0812110155821, Q3 : -0.0387382693589, Q4 : 0.0618493333459}
2019-04-14 01:24:50.01: SIM {TimeUS : 56234997, Roll : 9.05, Pitch : -5.9, Yaw : 11.98, Alt : 49.2599983215, Lat : 49.2835782, Lng : -123.1150037, Q1 : 0.989698588848, Q2 : 0.0837471783161, Q3 : -0.0427975840867, Q4 : 0.107941903174}
2019-04-14 01:24:50.11: SIM {TimeUS : 56334957, Roll : 8.49, Pitch : -7.24, Yaw : 18.48, Alt : 49.2599983215, Lat : 49.2835788, Lng : -123.1150019, Q1 : 0.981594324112, Q2 : 0.0830417126417, Q3 : -0.0503374040127, Q4 : 0.164447039366}
2019-04-14 01:24:50.21: SIM {TimeUS : 56434917, Roll : 7.31, Pitch : -8.83, Yaw : 25.97, Alt : 49.2700004578, Lat : 49.2835797, Lng : -123.1149999, Q1 : 0.968435943127, Q2 : 0.0792414620519, Q3 : -0.0605970881879, Q4 : 0.228430703282}
2019-04-14 01:24:50.31: SIM {TimeUS : 56534877, Roll : 5.57, Pitch : -10.44, Yaw : 34.21, Alt : 49.2700004578, Lat : 49.2835804, Lng : -123.1149978, Q1 : 0.949366927147, Q2 : 0.0729845389724, Q3 : -0.0726409777999, Q4 : 0.296814888716}
2019-04-14 01:24:50.41: SIM {TimeUS : 56634837, Roll : 3.29, Pitch : -11.83, Yaw : 42.91, Alt : 49.2700004578, Lat : 49.2835812, Lng : -123.1149956, Q1 : 0.924269735813, Q2 : 0.0643192827702, Q3 : -0.0854072198272, Q4 : 0.366461575031}
2019-04-14 01:24:50.51: SIM {TimeUS : 56734797, Roll : 0.38, Pitch : -12.79, Yaw : 51.54, Alt : 49.2700004578, Lat : 49.283582, Lng : -123.1149932, Q1 : 0.894752919674, Q2 : 0.0514340624213, Q3 : -0.0988936498761, Q4 : 0.432425498962}
2019-04-14 01:24:50.61: SIM {TimeUS : 56834757, Roll : -2.81, Pitch : -13.19, Yaw : 59.22, Alt : 49.2700004578, Lat : 49.283583, Lng : -123.1149908, Q1 : 0.864776432514, Q2 : 0.0354987606406, Q3 : -0.111913472414, Q4 : 0.488238602877}
2019-04-14 01:24:50.71: SIM {TimeUS : 56934717, Roll : -5.64, Pitch : -13.1, Yaw : 65.16, Alt : 49.2700004578, Lat : 49.283584, Lng : -123.1149884, Q1 : 0.839110076427, Q2 : 0.020153304562, Q3 : -0.12237264961, Q4 : 0.529634833336}
2019-04-14 01:24:50.81: SIM {TimeUS : 57034677, Roll : -7.56, Pitch : -12.79, Yaw : 69.02, Alt : 49.2700004578, Lat : 49.283585, Lng : -123.1149858, Q1 : 0.821269929409, Q2 : 0.00900635216385, Q3 : -0.128782406449, Q4 : 0.555742442608}
2019-04-14 01:24:50.91: SIM {TimeUS : 57134637, Roll : -8.39, Pitch : -12.56, Yaw : 70.85, Alt : 49.2700004578, Lat : 49.2835862, Lng : -123.1149832, Q1 : 0.812417447567, Q2 : 0.00399049185216, Q3 : -0.131054624915, Q4 : 0.568143188953}
2019-04-14 01:24:51.01: SIM {TimeUS : 57234597, Roll : -8.22, Pitch : -12.55, Yaw : 70.97, Alt : 49.2700004578, Lat : 49.2835876, Lng : -123.1149806, Q1 : 0.811806797981, Q2 : 0.00529299303889, Q3 : -0.130182549357, Q4 : 0.569204926491}
2019-04-14 01:24:51.11: SIM {TimeUS : 57334557, Roll : -7.26, Pitch : -12.84, Yaw : 69.75, Alt : 49.2700004578, Lat : 49.283589, Lng : -123.1149779, Q1 : 0.817646324635, Q2 : 0.0121954903007, Q3 : -0.127535581589, Q4 : 0.561284601688}
2019-04-14 01:24:51.21: SIM {TimeUS : 57434517, Roll : -5.75, Pitch : -13.39, Yaw : 67.54, Alt : 49.2700004578, Lat : 49.2835903, Lng : -123.1149751, Q1 : 0.827806532383, Q2 : 0.0232803672552, Q3 : -0.124575048685, Q4 : 0.546512067318}
2019-04-14 01:24:51.31: SIM {TimeUS : 57535310, Roll : -3.92, Pitch : -14.11, Yaw : 64.64, Alt : 49.2799987793, Lat : 49.283592, Lng : -123.1149723, Q1 : 0.840416193008, Q2 : 0.0369207412004, Q3 : -0.121986351907, Q4 : 0.526741623878}
2019-04-14 01:24:51.41: SIM {TimeUS : 57635270, Roll : -2.0, Pitch : -14.83, Yaw : 61.41, Alt : 49.2799987793, Lat : 49.2835935, Lng : -123.1149694, Q1 : 0.853622078896, Q2 : 0.0509572066367, Q3 : -0.1198496297, Q4 : 0.504349827766}
2019-04-14 01:24:51.51: SIM {TimeUS : 57735230, Roll : -0.16, Pitch : -15.4, Yaw : 58.15, Alt : 49.2799987793, Lat : 49.2835952, Lng : -123.1149664, Q1 : 0.866174757481, Q2 : 0.0639224722981, Q3 : -0.117819391191, Q4 : 0.48142889142}
2019-04-14 01:24:51.61: SIM {TimeUS : 57835190, Roll : 1.45, Pitch : -15.75, Yaw : 55.19, Alt : 49.2799987793, Lat : 49.2835969, Lng : -123.1149633, Q1 : 0.876972317696, Q2 : 0.0746780857444, Q3 : -0.115629114211, Q4 : 0.460404962301}
2019-04-14 01:24:51.71: SIM {TimeUS : 57935150, Roll : 2.7, Pitch : -15.9, Yaw : 52.82, Alt : 49.2799987793, Lat : 49.2835984, Lng : -123.1149601, Q1 : 0.885304868221, Q2 : 0.0824641883373, Q3 : -0.113473534584, Q4 : 0.443349480629}
2019-04-14 01:24:51.81: SIM {TimeUS : 58035110, Roll : 3.48, Pitch : -15.91, Yaw : 51.2, Alt : 49.2799987793, Lat : 49.2836001, Lng : -123.1149567, Q1 : 0.890897035599, Q2 : 0.0869307294488, Q3 : -0.111750878394, Q4 : 0.431575357914}
2019-04-14 01:24:51.91: SIM {TimeUS : 58135070, Roll : 3.75, Pitch : -15.86, Yaw : 50.39, Alt : 49.2799987793, Lat : 49.2836019, Lng : -123.1149531, Q1 : 0.89378118515, Q2 : 0.0880867987871, Q3 : -0.111030504107, Q4 : 0.425521105528}
2019-04-14 01:24:52.01: SIM {TimeUS : 58235030, Roll : 3.57, Pitch : -15.82, Yaw : 50.33, Alt : 49.2799987793, Lat : 49.2836036, Lng : -123.1149496, Q1 : 0.894186377525, Q2 : 0.086448289454, Q3 : -0.11139728874, Q4 : 0.42490953207}
2019-04-14 01:24:52.11: SIM {TimeUS : 58334990, Roll : 3.05, Pitch : -15.82, Yaw : 50.9, Alt : 49.2799987793, Lat : 49.2836053, Lng : -123.1149459, Q1 : 0.892442941666, Q2 : 0.0829597786069, Q3 : -0.112889267504, Q4 : 0.428858160973}
2019-04-14 01:24:52.21: SIM {TimeUS : 58434950, Roll : 2.27, Pitch : -15.88, Yaw : 51.93, Alt : 49.2799987793, Lat : 49.2836069, Lng : -123.1149421, Q1 : 0.889030516148, Q2 : 0.0781823992729, Q3 : -0.115610681474, Q4 : 0.43605786562}
2019-04-14 01:24:52.31: SIM {TimeUS : 58534910, Roll : 1.38, Pitch : -16.01, Yaw : 53.23, Alt : 49.2799987793, Lat : 49.2836086, Lng : -123.1149381, Q1 : 0.884487390518, Q2 : 0.0731135383248, Q3 : -0.119123712182, Q4 : 0.44513592124}
2019-04-14 01:24:52.41: SIM {TimeUS : 58634870, Roll : 0.52, Pitch : -16.13, Yaw : 54.61, Alt : 49.2799987793, Lat : 49.2836104, Lng : -123.1149342, Q1 : 0.879458665848, Q2 : 0.0684264153242, Q3 : -0.122641928494, Q4 : 0.454784840345}
2019-04-14 01:24:52.51: SIM {TimeUS : 58734830, Roll : -0.24, Pitch : -16.24, Yaw : 55.91, Alt : 49.2799987793, Lat : 49.2836122, Lng : -123.1149301, Q1 : 0.874581217766, Q2 : 0.0644012093544, Q3 : -0.125774860382, Q4 : 0.463832855225}
2019-04-14 01:24:52.61: SIM {TimeUS : 58834790, Roll : -0.86, Pitch : -16.33, Yaw : 57.0, Alt : 49.2799987793, Lat : 49.283614, Lng : -123.114926, Q1 : 0.870383262634, Q2 : 0.0612363554537, Q3 : -0.128399252892, Q4 : 0.471377462149}
2019-04-14 01:24:52.71: SIM {TimeUS : 58934750, Roll : -1.29, Pitch : -16.4, Yaw : 57.79, Alt : 49.2900009155, Lat : 49.2836158, Lng : -123.1149219, Q1 : 0.867242872715, Q2 : 0.059174016118, Q3 : -0.13031065464, Q4 : 0.476872473955}
2019-04-14 01:24:52.81: SIM {TimeUS : 59034710, Roll : -1.51, Pitch : -16.47, Yaw : 58.26, Alt : 49.2900009155, Lat : 49.2836177, Lng : -123.1149176, Q1 : 0.865343749523, Q2 : 0.0583064928651, Q3 : -0.131477788091, Q4 : 0.480098068714}
2019-04-14 01:24:52.91: SIM {TimeUS : 59134670, Roll : -1.53, Pitch : -16.5, Yaw : 58.4, Alt : 49.2900009155, Lat : 49.2836195, Lng : -123.1149134, Q1 : 0.864730834961, Q2 : 0.058454643935, Q3 : -0.13173648715, Q4 : 0.481112390757}
2019-04-14 01:24:53.01: SIM {TimeUS : 59234630, Roll : -1.37, Pitch : -16.53, Yaw : 58.25, Alt : 49.2900009155, Lat : 49.2836214, Lng : -123.1149091, Q1 : 0.865225017071, Q2 : 0.0596017241478, Q3 : -0.131398126483, Q4 : 0.48017475009}
2019-04-14 01:24:53.11: SIM {TimeUS : 59334590, Roll : -1.08, Pitch : -16.56, Yaw : 57.89, Alt : 49.2900009155, Lat : 49.2836233, Lng : -123.1149048, Q1 : 0.866566002369, Q2 : 0.0615245737135, Q3 : -0.130615726113, Q4 : 0.477721363306}
2019-04-14 01:24:53.21: SIM {TimeUS : 59434550, Roll : -0.71, Pitch : -16.6, Yaw : 57.38, Alt : 49.2900009155, Lat : 49.2836254, Lng : -123.1149004, Q1 : 0.868444740772, Q2 : 0.0638652220368, Q3 : -0.129640683532, Q4 : 0.474255502224}
2019-04-14 01:24:53.31: SIM {TimeUS : 59534510, Roll : -0.32, Pitch : -16.63, Yaw : 56.8, Alt : 49.2900009155, Lat : 49.2836274, Lng : -123.1148959, Q1 : 0.870549082756, Q2 : 0.0663495361805, Q3 : -0.128610819578, Q4 : 0.470320433378}
2019-04-14 01:24:53.41: SIM {TimeUS : 59635303, Roll : 0.04, Pitch : -16.67, Yaw : 56.23, Alt : 49.2900009155, Lat : 49.2836294, Lng : -123.1148915, Q1 : 0.872621357441, Q2 : 0.0686884149909, Q3 : -0.127745062113, Q4 : 0.466363668442}
2019-04-14 01:24:53.51: SIM {TimeUS : 59735263, Roll : 0.33, Pitch : -16.71, Yaw : 55.73, Alt : 49.2900009155, Lat : 49.2836315, Lng : -123.114887, Q1 : 0.874431431293, Q2 : 0.070523224771, Q3 : -0.127116784453, Q4 : 0.462858021259}
2019-04-14 01:24:53.61: SIM {TimeUS : 59835223, Roll : 0.54, Pitch : -16.74, Yaw : 55.34, Alt : 49.2900009155, Lat : 49.2836335, Lng : -123.1148825, Q1 : 0.875842690468, Q2 : 0.0718084052205, Q3 : -0.126784771681, Q4 : 0.460074752569}
2019-04-14 01:24:53.71: SIM {TimeUS : 59935183, Roll : 0.66, Pitch : -16.78, Yaw : 55.08, Alt : 49.2900009155, Lat : 49.2836355, Lng : -123.1148779, Q1 : 0.876780569553, Q2 : 0.0725520774722, Q3 : -0.126764237881, Q4 : 0.45817348361}
2019-04-14 01:24:53.81: SIM {TimeUS : 60035143, Roll : 0.68, Pitch : -16.82, Yaw : 54.95, Alt : 49.2900009155, Lat : 49.2836377, Lng : -123.1148732, Q1 : 0.877229034901, Q2 : 0.0727256461978, Q3 : -0.127077415586, Q4 : 0.457199692726}
2019-04-14 01:24:53.91: SIM {TimeUS : 60135103, Roll : 0.6, Pitch : -16.86, Yaw : 54.95, Alt : 49.2900009155, Lat : 49.2836396, Lng : -123.1148686, Q1 : 0.877241194248, Q2 : 0.0723252147436, Q3 : -0.127683907747, Q4 : 0.457070887089}
2019-04-14 01:24:54.01: SIM {TimeUS : 60235063, Roll : 0.47, Pitch : -16.89, Yaw : 55.04, Alt : 49.2900009155, Lat : 49.2836418, Lng : -123.1148638, Q1 : 0.876903414726, Q2 : 0.0714904591441, Q3 : -0.128398150206, Q4 : 0.457649946213}
2019-04-14 01:24:54.11: SIM {TimeUS : 60335023, Roll : 0.29, Pitch : -16.93, Yaw : 55.21, Alt : 49.2999992371, Lat : 49.2836439, Lng : -123.1148591, Q1 : 0.876300036907, Q2 : 0.070511944592, Q3 : -0.129254624248, Q4 : 0.458715170622}
2019-04-14 01:24:54.21: SIM {TimeUS : 60434983, Roll : 0.13, Pitch : -16.97, Yaw : 55.42, Alt : 49.2999992371, Lat : 49.283646, Lng : -123.1148543, Q1 : 0.875532865524, Q2 : 0.0696728602052, Q3 : -0.130132511258, Q4 : 0.460058093071}
2019-04-14 01:24:54.31: SIM {TimeUS : 60534943, Roll : 0.0, Pitch : -17.02, Yaw : 55.62, Alt : 49.2999992371, Lat : 49.2836481, Lng : -123.1148495, Q1 : 0.874722838402, Q2 : 0.069035038352, Q3 : -0.130915611982, Q4 : 0.461470723152}
2019-04-14 01:24:54.41: SIM {TimeUS : 60634903, Roll : -0.09, Pitch : -17.07, Yaw : 55.81, Alt : 49.2999992371, Lat : 49.2836501, Lng : -123.1148447, Q1 : 0.873963236809, Q2 : 0.0687254741788, Q3 : -0.131554275751, Q4 : 0.462772756815}
2019-04-14 01:24:54.51: SIM {TimeUS : 60734863, Roll : -0.15, Pitch : -17.11, Yaw : 55.96, Alt : 49.2999992371, Lat : 49.2836524, Lng : -123.1148398, Q1 : 0.873346030712, Q2 : 0.0686650723219, Q3 : -0.132031932473, Q4 : 0.463809609413}
2019-04-14 01:24:54.61: SIM {TimeUS : 60834823, Roll : -0.18, Pitch : -17.15, Yaw : 56.06, Alt : 49.2999992371, Lat : 49.2836545, Lng : -123.1148349, Q1 : 0.872927963734, Q2 : 0.0686546713114, Q3 : -0.132402554154, Q4 : 0.464492201805}
2019-04-14 01:24:54.71: SIM {TimeUS : 60934783, Roll : -0.2, Pitch : -17.17, Yaw : 56.1, Alt : 49.2999992371, Lat : 49.2836566, Lng : -123.11483, Q1 : 0.872735440731, Q2 : 0.068640165031, Q3 : -0.132619634271, Q4 : 0.464793950319}
2019-04-14 01:24:54.81: SIM {TimeUS : 61034743, Roll : -0.21, Pitch : -17.18, Yaw : 56.1, Alt : 49.2999992371, Lat : 49.2836589, Lng : -123.1148251, Q1 : 0.872757554054, Q2 : 0.06864798069, Q3 : -0.132722496986, Q4 : 0.464721977711}
2019-04-14 01:24:54.91: SIM {TimeUS : 61134703, Roll : -0.18, Pitch : -17.19, Yaw : 56.04, Alt : 49.2999992371, Lat : 49.283661, Lng : -123.1148202, Q1 : 0.87294536829, Q2 : 0.0687951743603, Q3 : -0.132706880569, Q4 : 0.46435174346}
2019-04-14 01:24:55.01: SIM {TimeUS : 61234663, Roll : -0.13, Pitch : -17.2, Yaw : 55.96, Alt : 49.2999992371, Lat : 49.2836633, Lng : -123.1148152, Q1 : 0.873244524002, Q2 : 0.0691369250417, Q3 : -0.132673889399, Q4 : 0.463747531176}
2019-04-14 01:24:55.11: SIM {TimeUS : 61334623, Roll : -0.05, Pitch : -17.24, Yaw : 55.85, Alt : 49.3100013733, Lat : 49.2836655, Lng : -123.1148102, Q1 : 0.873583674431, Q2 : 0.0698104575276, Q3 : -0.132681950927, Q4 : 0.463005006313}
2019-04-14 01:24:55.21: SIM {TimeUS : 61434583, Roll : 0.03, Pitch : -17.3, Yaw : 55.74, Alt : 49.3100013733, Lat : 49.2836676, Lng : -123.1148052, Q1 : 0.873920321465, Q2 : 0.0705857798457, Q3 : -0.132848620415, Q4 : 0.462203532457}
2019-04-14 01:24:55.31: SIM {TimeUS : 61534543, Roll : 0.1, Pitch : -17.34, Yaw : 55.63, Alt : 49.3100013733, Lat : 49.28367, Lng : -123.1148002, Q1 : 0.874273180962, Q2 : 0.0711519271135, Q3 : -0.132936313748, Q4 : 0.46142372489}
2019-04-14 01:24:55.41: SIM {TimeUS : 61634503, Roll : 0.16, Pitch : -17.34, Yaw : 55.53, Alt : 49.3100013733, Lat : 49.2836722, Lng : -123.1147951, Q1 : 0.874629497528, Q2 : 0.0714870914817, Q3 : -0.132779583335, Q4 : 0.4607411623}
2019-04-14 01:24:55.51: SIM {TimeUS : 61735296, Roll : 0.19, Pitch : -17.35, Yaw : 55.45, Alt : 49.3100013733, Lat : 49.2836744, Lng : -123.11479, Q1 : 0.874924838543, Q2 : 0.0716447234154, Q3 : -0.132740214467, Q4 : 0.460166960955}
2019-04-14 01:24:55.61: SIM {TimeUS : 61835256, Roll : 0.19, Pitch : -17.36, Yaw : 55.39, Alt : 49.3100013733, Lat : 49.2836767, Lng : -123.1147849, Q1 : 0.875128448009, Q2 : 0.0716875642538, Q3 : -0.132906466722, Q4 : 0.459724932909}
2019-04-14 01:24:55.71: SIM {TimeUS : 61935216, Roll : 0.19, Pitch : -17.38, Yaw : 55.36, Alt : 49.3100013733, Lat : 49.283679, Lng : -123.1147798, Q1 : 0.875233709812, Q2 : 0.071702606976, Q3 : -0.133079588413, Q4 : 0.459472000599}
2019-04-14 01:24:55.81: SIM {TimeUS : 62035176, Roll : 0.17, Pitch : -17.41, Yaw : 55.35, Alt : 49.3100013733, Lat : 49.2836811, Lng : -123.1147747, Q1 : 0.87526011467, Q2 : 0.0716678053141, Q3 : -0.133323252201, Q4 : 0.459356546402}
2019-04-14 01:24:55.91: SIM {TimeUS : 62135136, Roll : 0.16, Pitch : -17.42, Yaw : 55.35, Alt : 49.3100013733, Lat : 49.2836834, Lng : -123.1147696, Q1 : 0.875233352184, Q2 : 0.0716108381748, Q3 : -0.133528068662, Q4 : 0.459356814623}
2019-04-14 01:24:56.01: SIM {TimeUS : 62235096, Roll : 0.14, Pitch : -17.45, Yaw : 55.37, Alt : 49.3100013733, Lat : 49.2836858, Lng : -123.1147644, Q1 : 0.875152111053, Q2 : 0.0716111212969, Q3 : -0.133771389723, Q4 : 0.459440797567}
2019-04-14 01:24:56.11: SIM {TimeUS : 62335056, Roll : 0.12, Pitch : -17.47, Yaw : 55.39, Alt : 49.3100013733, Lat : 49.2836881, Lng : -123.1147593, Q1 : 0.875061750412, Q2 : 0.0715736821294, Q3 : -0.13397565484, Q4 : 0.459559231997}
2019-04-14 01:24:56.21: SIM {TimeUS : 62435016, Roll : 0.12, Pitch : -17.5, Yaw : 55.41, Alt : 49.3100013733, Lat : 49.2836904, Lng : -123.1147541, Q1 : 0.874954342842, Q2 : 0.0716796368361, Q3 : -0.134184017777, Q4 : 0.459686428308}
2019-04-14 01:24:56.31: SIM {TimeUS : 62534976, Roll : 0.12, Pitch : -17.52, Yaw : 55.43, Alt : 49.3199996948, Lat : 49.2836926, Lng : -123.1147489, Q1 : 0.874853670597, Q2 : 0.0718486756086, Q3 : -0.134360358119, Q4 : 0.459800094366}
2019-04-14 01:24:56.41: SIM {TimeUS : 62634936, Roll : 0.12, Pitch : -17.56, Yaw : 55.43, Alt : 49.3199996948, Lat : 49.2836949, Lng : -123.1147437, Q1 : 0.874773681164, Q2 : 0.0719669982791, Q3 : -0.134680002928, Q4 : 0.459840297699}
2019-04-14 01:24:56.51: SIM {TimeUS : 62734896, Roll : 0.08, Pitch : -17.61, Yaw : 55.44, Alt : 49.3199996948, Lat : 49.2836973, Lng : -123.1147385, Q1 : 0.87473076582, Q2 : 0.0718917250633, Q3 : -0.13515278697, Q4 : 0.459794968367}
2019-04-14 01:24:56.61: SIM {TimeUS : 62834856, Roll : 0.06, Pitch : -17.65, Yaw : 55.43, Alt : 49.3199996948, Lat : 49.2836996, Lng : -123.1147333, Q1 : 0.874712646008, Q2 : 0.0718584209681, Q3 : -0.135611057281, Q4 : 0.459699720144}
2019-04-14 01:24:56.71: SIM {TimeUS : 62934816, Roll : 0.06, Pitch : -17.68, Yaw : 55.42, Alt : 49.3199996948, Lat : 49.2837018, Lng : -123.114728, Q1 : 0.874722659588, Q2 : 0.0720008760691, Q3 : -0.135840818286, Q4 : 0.459590524435}
2019-04-14 01:24:56.81: SIM {TimeUS : 63034776, Roll : 0.09, Pitch : -17.68, Yaw : 55.4, Alt : 49.3199996948, Lat : 49.2837042, Lng : -123.1147228, Q1 : 0.874784350395, Q2 : 0.0722075924277, Q3 : -0.135726988316, Q4 : 0.459474295378}
2019-04-14 01:24:56.91: SIM {TimeUS : 63134736, Roll : 0.12, Pitch : -17.65, Yaw : 55.38, Alt : 49.3199996948, Lat : 49.2837065, Lng : -123.1147175, Q1 : 0.874898016453, Q2 : 0.0723160132766, Q3 : -0.135388448834, Q4 : 0.459340631962}
2019-04-14 01:24:57.01: SIM {TimeUS : 63234696, Roll : 0.14, Pitch : -17.64, Yaw : 55.35, Alt : 49.3199996948, Lat : 49.2837089, Lng : -123.1147122, Q1 : 0.875016152859, Q2 : 0.0723419338465, Q3 : -0.135215759277, Q4 : 0.459162354469}
2019-04-14 01:24:57.11: SIM {TimeUS : 63334656, Roll : 0.14, Pitch : -17.63, Yaw : 55.32, Alt : 49.3199996948, Lat : 49.2837113, Lng : -123.1147068, Q1 : 0.875146150589, Q2 : 0.0722478702664, Q3 : -0.135150656104, Q4 : 0.458948582411}
2019-04-14 01:24:57.21: SIM {TimeUS : 63434616, Roll : 0.14, Pitch : -17.62, Yaw : 55.29, Alt : 49.3199996948, Lat : 49.2837136, Lng : -123.1147016, Q1 : 0.875274777412, Q2 : 0.072147063911, Q3 : -0.135111063719, Q4 : 0.458730787039}
2019-04-14 01:24:57.31: SIM {TimeUS : 63534576, Roll : 0.13, Pitch : -17.63, Yaw : 55.26, Alt : 49.3199996948, Lat : 49.283716, Lng : -123.1146963, Q1 : 0.875365376472, Q2 : 0.0721338838339, Q3 : -0.135304689407, Q4 : 0.458502799273}
2019-04-14 01:24:57.41: SIM {TimeUS : 63634536, Roll : 0.13, Pitch : -17.67, Yaw : 55.24, Alt : 49.3199996948, Lat : 49.2837184, Lng : -123.114691, Q1 : 0.875419318676, Q2 : 0.072249405086, Q3 : -0.135614156723, Q4 : 0.458290159702}
2019-04-14 01:24:57.51: SIM {TimeUS : 63734496, Roll : 0.12, Pitch : -17.73, Yaw : 55.22, Alt : 49.3199996948, Lat : 49.2837206, Lng : -123.1146857, Q1 : 0.875436782837, Q2 : 0.0723924413323, Q3 : -0.136079117656, Q4 : 0.458096385002}
2019-04-14 01:24:57.61: SIM {TimeUS : 63835289, Roll : 0.12, Pitch : -17.79, Yaw : 55.2, Alt : 49.3199996948, Lat : 49.283723, Lng : -123.1146803, Q1 : 0.875429034233, Q2 : 0.0726275071502, Q3 : -0.13655397296, Q4 : 0.457932651043}
2019-04-14 01:24:57.71: SIM {TimeUS : 63935249, Roll : 0.13, Pitch : -17.82, Yaw : 55.19, Alt : 49.3199996948, Lat : 49.2837254, Lng : -123.114675, Q1 : 0.875441789627, Q2 : 0.0727984830737, Q3 : -0.136724099517, Q4 : 0.45783033967}
2019-04-14 01:24:57.81: SIM {TimeUS : 64035209, Roll : 0.13, Pitch : -17.84, Yaw : 55.18, Alt : 49.3300018311, Lat : 49.2837278, Lng : -123.1146696, Q1 : 0.87546390295, Q2 : 0.0728441104293, Q3 : -0.136895433068, Q4 : 0.457729578018}
2019-04-14 01:24:57.91: SIM {TimeUS : 64135169, Roll : 0.12, Pitch : -17.85, Yaw : 55.17, Alt : 49.3300018311, Lat : 49.2837302, Lng : -123.1146642, Q1 : 0.875495910645, Q2 : 0.0728454738855, Q3 : -0.136999607086, Q4 : 0.457637012005}
2019-04-14 01:24:58.01: SIM {TimeUS : 64235129, Roll : 0.14, Pitch : -17.84, Yaw : 55.16, Alt : 49.3300018311, Lat : 49.2837326, Lng : -123.1146589, Q1 : 0.875537276268, Q2 : 0.0728954896331, Q3 : -0.136869207025, Q4 : 0.45758882165}
2019-04-14 01:24:58.11: SIM {TimeUS : 64335089, Roll : 0.17, Pitch : -17.84, Yaw : 55.15, Alt : 49.3300018311, Lat : 49.283735, Lng : -123.1146535, Q1 : 0.875550687313, Q2 : 0.0731053054333, Q3 : -0.136793985963, Q4 : 0.457552134991}
2019-04-14 01:24:58.21: SIM {TimeUS : 64435049, Roll : 0.18, Pitch : -17.86, Yaw : 55.14, Alt : 49.3300018311, Lat : 49.2837374, Lng : -123.1146481, Q1 : 0.875552475452, Q2 : 0.0732833817601, Q3 : -0.136885672808, Q4 : 0.457492798567}
2019-04-14 01:24:58.31: SIM {TimeUS : 64535009, Roll : 0.19, Pitch : -17.87, Yaw : 55.13, Alt : 49.3300018311, Lat : 49.2837398, Lng : -123.1146427, Q1 : 0.875561118126, Q2 : 0.0733883529902, Q3 : -0.13698258996, Q4 : 0.457430511713}
2019-04-14 01:24:58.41: SIM {TimeUS : 64634969, Roll : 0.19, Pitch : -17.88, Yaw : 55.12, Alt : 49.3300018311, Lat : 49.2837422, Lng : -123.1146373, Q1 : 0.875591814518, Q2 : 0.0734211653471, Q3 : -0.13698618114, Q4 : 0.457365423441}
2019-04-14 01:24:58.51: SIM {TimeUS : 64734929, Roll : 0.19, Pitch : -17.88, Yaw : 55.11, Alt : 49.3300018311, Lat : 49.2837446, Lng : -123.1146319, Q1 : 0.875625610352, Q2 : 0.0733979940414, Q3 : -0.137080475688, Q4 : 0.457276105881}
2019-04-14 01:24:58.61: SIM {TimeUS : 64834889, Roll : 0.16, Pitch : -17.91, Yaw : 55.1, Alt : 49.3300018311, Lat : 49.283747, Lng : -123.1146265, Q1 : 0.87565946579, Q2 : 0.0732780322433, Q3 : -0.13736538589, Q4 : 0.457145065069}
2019-04-14 01:24:58.71: SIM {TimeUS : 64934849, Roll : 0.13, Pitch : -17.94, Yaw : 55.09, Alt : 49.3300018311, Lat : 49.2837494, Lng : -123.1146211, Q1 : 0.875682592392, Q2 : 0.0731753632426, Q3 : -0.137781456113, Q4 : 0.456991970539}
2019-04-14 01:24:58.81: SIM {TimeUS : 65034809, Roll : 0.12, Pitch : -17.95, Yaw : 55.08, Alt : 49.3300018311, Lat : 49.2837519, Lng : -123.1146156, Q1 : 0.875730335712, Q2 : 0.0730910003185, Q3 : -0.137901365757, Q4 : 0.456877827644}
2019-04-14 01:24:58.91: SIM {TimeUS : 65134769, Roll : 0.12, Pitch : -17.94, Yaw : 55.07, Alt : 49.3300018311, Lat : 49.2837543, Lng : -123.1146102, Q1 : 0.875787377357, Q2 : 0.0730914026499, Q3 : -0.137796014547, Q4 : 0.456800192595}
2019-04-14 01:24:59.01: SIM {TimeUS : 65234729, Roll : 0.15, Pitch : -17.93, Yaw : 55.05, Alt : 49.3300018311, Lat : 49.2837567, Lng : -123.1146048, Q1 : 0.875835895538, Q2 : 0.0732052475214, Q3 : -0.13763615489, Q4 : 0.456737101078}
2019-04-14 01:24:59.11: SIM {TimeUS : 65334689, Roll : 0.16, Pitch : -17.94, Yaw : 55.04, Alt : 49.3300018311, Lat : 49.2837591, Lng : -123.1145993, Q1 : 0.875872671604, Q2 : 0.0733014121652, Q3 : -0.137681022286, Q4 : 0.456637680531}
2019-04-14 01:24:59.21: SIM {TimeUS : 65434649, Roll : 0.14, Pitch : -17.96, Yaw : 55.03, Alt : 49.3300018311, Lat : 49.2837616, Lng : -123.1145939, Q1 : 0.875913918018, Q2 : 0.0732775107026, Q3 : -0.137874215841, Q4 : 0.456504046917}
2019-04-14 01:24:59.31: SIM {TimeUS : 65534609, Roll : 0.12, Pitch : -17.98, Yaw : 55.01, Alt : 49.3400001526, Lat : 49.283764, Lng : -123.1145884, Q1 : 0.875958204269, Q2 : 0.0731563344598, Q3 : -0.138156324625, Q4 : 0.456353157759}
2019-04-14 01:24:59.41: SIM {TimeUS : 65634569, Roll : 0.11, Pitch : -18.01, Yaw : 55.0, Alt : 49.3400001526, Lat : 49.2837664, Lng : -123.1145828, Q1 : 0.875993788242, Q2 : 0.0731386393309, Q3 : -0.138391077518, Q4 : 0.456216603518}
2019-04-14 01:24:59.51: SIM {TimeUS : 65734529, Roll : 0.12, Pitch : -18.03, Yaw : 54.98, Alt : 49.3400001526, Lat : 49.2837689, Lng : -123.1145775, Q1 : 0.876018226147, Q2 : 0.0732883289456, Q3 : -0.138553783298, Q4 : 0.456096202135}
2019-04-14 01:24:59.61: SIM {TimeUS : 65835322, Roll : 0.13, Pitch : -18.05, Yaw : 54.97, Alt : 49.3400001526, Lat : 49.2837713, Lng : -123.114572, Q1 : 0.876045048237, Q2 : 0.0734526142478, Q3 : -0.138640224934, Q4 : 0.455992013216}
2019-04-14 01:24:59.71: SIM {TimeUS : 65935282, Roll : 0.15, Pitch : -18.05, Yaw : 54.96, Alt : 49.3400001526, Lat : 49.2837738, Lng : -123.1145665, Q1 : 0.876073181629, Q2 : 0.0736178904772, Q3 : -0.138590410352, Q4 : 0.455926388502}
2019-04-14 01:24:59.81: SIM {TimeUS : 66035242, Roll : 0.16, Pitch : -18.06, Yaw : 54.95, Alt : 49.3400001526, Lat : 49.2837762, Lng : -123.114561, Q1 : 0.876098573208, Q2 : 0.0737153366208, Q3 : -0.138606667519, Q4 : 0.455856919289}
2019-04-14 01:24:59.91: SIM {TimeUS : 66135202, Roll : 0.17, Pitch : -18.07, Yaw : 54.94, Alt : 49.3400001526, Lat : 49.2837787, Lng : -123.1145555, Q1 : 0.876112878323, Q2 : 0.0738422498107, Q3 : -0.138670161366, Q4 : 0.455789625645}
2019-04-14 01:25:00.01: SIM {TimeUS : 66235162, Roll : 0.19, Pitch : -18.08, Yaw : 54.93, Alt : 49.3400001526, Lat : 49.2837811, Lng : -123.11455, Q1 : 0.876123130322, Q2 : 0.0739986896515, Q3 : -0.138711646199, Q4 : 0.455731898546}
2019-04-14 01:25:00.11: SIM {TimeUS : 66335122, Roll : 0.22, Pitch : -18.1, Yaw : 54.92, Alt : 49.3400001526, Lat : 49.2837836, Lng : -123.1145445, Q1 : 0.8761241436, Q2 : 0.0742372721434, Q3 : -0.138689488173, Q4 : 0.455697894096}
2019-04-14 01:25:00.21: SIM {TimeUS : 66435082, Roll : 0.25, Pitch : -18.11, Yaw : 54.91, Alt : 49.3400001526, Lat : 49.283786, Lng : -123.114539, Q1 : 0.876112580299, Q2 : 0.0745366588235, Q3 : -0.138667836785, Q4 : 0.455677866936}
2019-04-14 01:25:00.31: SIM {TimeUS : 66535042, Roll : 0.25, Pitch : -18.11, Yaw : 54.91, Alt : 49.3400001526, Lat : 49.2837885, Lng : -123.1145335, Q1 : 0.876131415367, Q2 : 0.0745113864541, Q3 : -0.138689830899, Q4 : 0.45563903451}
2019-04-14 01:25:00.41: SIM {TimeUS : 66635002, Roll : 0.22, Pitch : -18.12, Yaw : 54.91, Alt : 49.3400001526, Lat : 49.2837909, Lng : -123.114528, Q1 : 0.876147150993, Q2 : 0.0743538141251, Q3 : -0.138903111219, Q4 : 0.455569595098}
2019-04-14 01:25:00.51: SIM {TimeUS : 66734962, Roll : 0.19, Pitch : -18.15, Yaw : 54.9, Alt : 49.3499984741, Lat : 49.2837934, Lng : -123.1145225, Q1 : 0.876146614552, Q2 : 0.0742452517152, Q3 : -0.139210775495, Q4 : 0.455494433641}
