2019-04-14 01:34:37.60: SIM {TimeUS : 40816167, Roll : 0.0, Pitch : 0.0, Yaw : 0.0, Alt : 30.1000003815, Lat : 49.28357, Lng : -123.11502, Q1 : 1.0, Q2 : 0.0, Q3 : 0.0, Q4 : 0.0}
2019-04-14 01:34:37.71: SIM {TimeUS : 40935286, Roll : 0.0, Pitch : 0.0, Yaw : 0.0, Alt : 30.1000003815, Lat : 49.28357, Lng : -123.11502, Q1 : 1.0, Q2 : 0.0, Q3 : 0.0, Q4 : 0.0}
2019-04-14 01:34:37.81: SIM {TimeUS : 41035246, Roll : 0.0, Pitch : 0.0, Yaw : 0.0, Alt : 30.1000003815, Lat : 49.28357, Lng : -123.11502, Q1 : 1.0, Q2 : 0.0, Q3 : 0.0, Q4 : 0.0}
2019-04-14 01:34:37.91: SIM {TimeUS : 41135206, Roll : 0.0, Pitch : 0.0, Yaw : 0.0, Alt : 30.1000003815, Lat : 49.28357, Lng : -123.11502, Q1 : 1.0, Q2 : 0.0, Q3 : 0.0, Q4 : 0.0}
2019-04-14 01:34:38.01: SIM {TimeUS : 41235166, Roll : 0.0, Pitch : 0.0, Yaw : 0.0, Alt : 30.1000003815, Lat : 49.28357, Lng : -123.11502, Q1 : 1.0, Q2 : 0.0, Q3 : 0.0, Q4 : 0.0}
2019-04-14 01:34:38.11: SIM {TimeUS : 41335126, Roll : 0.0, Pitch : 0.0, Yaw : 0.0, Alt : 30.1000003815, Lat : 49.28357, Lng : -123.11502, Q1 : 1.0, Q2 : 0.0, Q3 : 0.0, Q4 : 0.0}
2019-04-14 01:34:38.21: SIM {TimeUS : 41435086, Roll : 0.0, Pitch : 0.0, Yaw : 0.0, Alt : 30.1000003815, Lat : 49.28357, Lng : -123.11502, Q1 : 1.0, Q2 : 0.0, Q3 : 0.0, Q4 : 0.0}
2019-04-14 01:34:38.31: SIM {TimeUS : 41535046, Roll : 0.0, Pitch : 0.0, Yaw : 0.0, Alt : 30.1000003815, Lat : 49.28357, Lng : -123.11502, Q1 : 1.0, Q2 : 0.0, Q3 : 0.0, Q4 : 0.0}
2019-04-14 01:34:38.41: SIM {TimeUS : 41635006, Roll : 0.0, Pitch : 0.0, Yaw : 0.0, Alt : 30.1000003815, Lat : 49.28357, Lng : -123.11502, Q1 : 1.0, Q2 : 0.0, Q3 : 0.0, Q4 : 0.0}
2019-04-14 01:34:38.51: SIM {TimeUS : 41734966, Roll : 0.0, Pitch : 0.0, Yaw : 0.0, Alt : 30.1000003815, Lat : 49.28357, Lng : -123.11502, Q1 : 1.0, Q2 : 0.0, Q3 : 0.0, Q4 : 0.0}
2019-04-14 01:34:38.61: SIM {TimeUS : 41834926, Roll : 0.0, Pitch : 0.0, Yaw : 0.0, Alt : 30.1000003815, Lat : 49.28357, Lng : -123.11502, Q1 : 1.0, Q2 : 0.0, Q3 : 0.0, Q4 : 0.0}
2019-04-14 01:34:38.71: SIM {TimeUS : 41934886, Roll : 0.0, Pitch : 0.0, Yaw : 0.0, Alt : 30.1000003815, Lat : 49.28357, Lng : -123.11502, Q1 : 1.0, Q2 : 0.0, Q3 : 0.0, Q4 : 0.0}
2019-04-14 01:34:38.81: SIM {TimeUS : 42034846, Roll : 0.0, Pitch : 0.0, Yaw : 0.0, Alt : 30.1000003815, Lat : 49.28357, Lng : -123.11502, Q1 : 1.0, Q2 : 0.0, Q3 : 0.0, Q4 : 0.0}
2019-04-14 01:34:38.91: SIM {TimeUS : 42134806, Roll : 0.0, Pitch : 0.0, Yaw : 0.0, Alt : 30.1000003815, Lat : 49.28357, Lng : -123.11502, Q1 : 1.0, Q2 : 0.0, Q3 : 0.0, Q4 : 0.0}
2019-04-14 01:34:39.01: SIM {TimeUS : 42234766, Roll : 0.0, Pitch : 0.0, Yaw : 0.0, Alt : 30.1000003815, Lat : 49.28357, Lng : -123.11502, Q1 : 1.0, Q2 : 0.0, Q3 : 0.0, Q4 : 0.0}
2019-04-14 01:34:39.11: SIM {TimeUS : 42334726, Roll : 0.0, Pitch : 0.0, Yaw : 0.0, Alt : 30.1000003815, Lat : 49.28357, Lng : -123.11502, Q1 : 1.0, Q2 : 0.0, Q3 : 0.0, Q4 : 0.0}
2019-04-14 01:34:39.21: SIM {TimeUS : 42434686, Roll : 0.0, Pitch : 0.0, Yaw : 0.0, Alt : 30.1000003815, Lat : 49.28357, Lng : -123.11502, Q1 : 1.0, Q2 : 0.0, Q3 : 0.0, Q4 : 0.0}
2019-04-14 01:34:39.31: SIM {TimeUS : 42534646, Roll : 0.0, Pitch : 0.0, Yaw : 0.0, Alt : 30.1000003815, Lat : 49.28357, Lng : -123.11502, Q1 : 1.0, Q2 : 0.0, Q3 : 0.0, Q4 : 0.0}
2019-04-14 01:34:39.41: SIM {TimeUS : 42634606, Roll : 0.0, Pitch : 0.0, Yaw : 0.0, Alt : 30.1000003815, Lat : 49.28357, Lng : -123.11502, Q1 : 1.0, Q2 : 0.0, Q3 : 0.0, Q4 : 0.0}
2019-04-14 01:34:39.51: SIM {TimeUS : 42734566, Roll : 0.0, Pitch : 0.0, Yaw : 0.0, Alt : 30.1000003815, Lat : 49.28357, Lng : -123.11502, Q1 : 1.0, Q2 : 0.0, Q3 : 0.0, Q4 : 0.0}
2019-04-14 01:34:39.61: SIM {TimeUS : 42834526, Roll : 0.0, Pitch : 0.0, Yaw : 0.0, Alt : 30.1000003815, Lat : 49.28357, Lng : -123.11502, Q1 : 1.0, Q2 : 0.0, Q3 : 0.0, Q4 : 0.0}
2019-04-14 01:34:39.71: SIM {TimeUS : 42935319, Roll : 0.0, Pitch : 0.0, Yaw : 0.0, Alt : 30.1000003815, Lat : 49.28357, Lng : -123.11502, Q1 : 1.0, Q2 : 0.0, Q3 : 0.0, Q4 : 0.0}
2019-04-14 01:34:39.81: SIM {TimeUS : 43035279, Roll : 0.0, Pitch : 0.0, Yaw : 0.0, Alt : 30.1000003815, Lat : 49.28357, Lng : -123.11502, Q1 : 1.0, Q2 : 0.0, Q3 : 0.0, Q4 : 0.0}
2019-04-14 01:34:39.91: SIM {TimeUS : 43135239, Roll : 0.0, Pitch : 0.0, Yaw : 360.0, Alt : 30.1000003815, Lat : 49.28357, Lng : -123.11502, Q1 : 1.0, Q2 : 0.0, Q3 : 0.0, Q4 : -1.30378364355e-11}
2019-04-14 01:34:40.01: SIM {TimeUS : 43235199, Roll : 0.0, Pitch : 0.0, Yaw : 360.0, Alt : 30.1000003815, Lat : 49.28357, Lng : -123.11502, Q1 : 1.0, Q2 : 0.0, Q3 : 0.0, Q4 : -1.61347042393e-08}
2019-04-14 01:34:40.11: SIM {TimeUS : 43335159, Roll : 0.0, Pitch : 0.0, Yaw : 359.99, Alt : 30.1000003815, Lat : 49.28357, Lng : -123.11502, Q1 : 1.0, Q2 : 0.0, Q3 : 0.0, Q4 : -2.17456857854e-07}
2019-04-14 01:34:40.21: SIM {TimeUS : 43435119, Roll : 0.0, Pitch : 0.0, Yaw : 359.99, Alt : 30.1000003815, Lat : 49.28357, Lng : -123.11502, Q1 : 1.0, Q2 : 0.0, Q3 : 0.0, Q4 : -4.00171472847e-07}
2019-04-14 01:34:40.31: SIM {TimeUS : 43535079, Roll : 0.0, Pitch : 0.0, Yaw : 359.99, Alt : 30.1000003815, Lat : 49.28357, Lng : -123.11502, Q1 : 1.0, Q2 : 0.0, Q3 : 0.0, Q4 : -6.04655326697e-07}
2019-04-14 01:34:40.41: SIM {TimeUS : 43635039, Roll : 0.0, Pitch : 0.0, Yaw : 359.99, Alt : 30.1000003815, Lat : 49.28357, Lng : -123.11502, Q1 : 1.0, Q2 : 0.0, Q3 : 0.0, Q4 : -7.90581736965e-07}
2019-04-14 01:34:40.51: SIM {TimeUS : 43734999, Roll : 0.0, Pitch : 0.0, Yaw : 359.99, Alt : 30.1000003815, Lat : 49.28357, Lng : -123.11502, Q1 : 1.0, Q2 : 0.0, Q3 : 0.0, Q4 : -9.71279291662e-07}
2019-04-14 01:34:40.61: SIM {TimeUS : 43834959, Roll : 0.0, Pitch : 0.0, Yaw : 359.99, Alt : 30.1000003815, Lat : 49.28357, Lng : -123.11502, Q1 : 1.0, Q2 : 0.0, Q3 : 0.0, Q4 : -1.15550903956e-06}
2019-04-14 01:34:40.71: SIM {TimeUS : 43934919, Roll : 0.0, Pitch : 0.0, Yaw : 359.99, Alt : 30.1000003815, Lat : 49.28357, Lng : -123.11502, Q1 : 1.0, Q2 : 0.0, Q3 : 0.0, Q4 : -1.36439552989e-06}
2019-04-14 01:34:40.81: SIM {TimeUS : 44034879, Roll : 0.0, Pitch : 0.0, Yaw : 359.99, Alt : 30.1200008392, Lat : 49.28357, Lng : -123.11502, Q1 : 1.0, Q2 : 0.0, Q3 : 0.0, Q4 : -1.53995665642e-06}
2019-04-14 01:34:40.91: SIM {TimeUS : 44134839, Roll : 0.0, Pitch : 0.0, Yaw : 359.99, Alt : 30.1499996185, Lat : 49.28357, Lng : -123.11502, Q1 : 1.0, Q2 : 0.0, Q3 : 0.0, Q4 : -1.81072880423e-06}
2019-04-14 01:34:41.01: SIM {TimeUS : 44234799, Roll : 0.0, Pitch : 0.0, Yaw : 359.99, Alt : 30.1800003052, Lat : 49.28357, Lng : -123.11502, Q1 : 1.0, Q2 : 0.0, Q3 : 0.0, Q4 : -2.05376818485e-06}
2019-04-14 01:34:41.11: SIM {TimeUS : 44334759, Roll : 0.0, Pitch : 0.0, Yaw : 359.99, Alt : 30.2099990845, Lat : 49.28357, Lng : -123.11502, Q1 : 1.0, Q2 : -7.32536864234e-06, Q3 : -7.5440798355e-06, Q4 : -2.17028082261e-06}
2019-04-14 01:34:41.21: SIM {TimeUS : 44434719, Roll : -0.16, Pitch : -0.16, Yaw : 359.99, Alt : 30.2700004578, Lat : 49.28357, Lng : -123.11502, Q1 : 0.999998033047, Q2 : -0.00141816423275, Q3 : -0.00140862644184, Q4 : -1.6905954908e-05}
2019-04-14 01:34:41.31: SIM {TimeUS : 44534679, Roll : -0.47, Pitch : -0.41, Yaw : 359.99, Alt : 30.3899993896, Lat : 49.28357, Lng : -123.11502, Q1 : 0.999984920025, Q2 : -0.00414405949414, Q3 : -0.00360071915202, Q4 : -6.05789246038e-05}
2019-04-14 01:34:41.41: SIM {TimeUS : 44634639, Roll : -0.76, Pitch : -0.6, Yaw : 359.98, Alt : 30.5400009155, Lat : 49.28357, Lng : -123.11502, Q1 : 0.999963998795, Q2 : -0.00665355660021, Q3 : -0.00526977516711, Q4 : -0.000125125297927}
2019-04-14 01:34:41.51: SIM {TimeUS : 44734599, Roll : -0.88, Pitch : -0.68, Yaw : 359.98, Alt : 30.7000007629, Lat : 49.28357, Lng : -123.11502, Q1 : 0.999952018261, Q2 : -0.00776490755379, Q3 : -0.00596901914105, Q4 : -0.000199801288545}
2019-04-14 01:34:41.61: SIM {TimeUS : 44834559, Roll : -0.83, Pitch : -0.65, Yaw : 359.97, Alt : 30.8500003815, Lat : 49.28357, Lng : -123.11502, Q1 : 0.999957382679, Q2 : -0.00726206460968, Q3 : -0.00569486850873, Q4 : -0.000279838801362}
2019-04-14 01:34:41.71: SIM {TimeUS : 44934519, Roll : -0.64, Pitch : -0.53, Yaw : 359.96, Alt : 31.0100002289, Lat : 49.28357, Lng : -123.1150201, Q1 : 0.999973416328, Q2 : -0.0056023504585, Q3 : -0.004653041251, Q4 : -0.000353245355655}
2019-04-14 01:34:41.81: SIM {TimeUS : 45035312, Roll : -0.38, Pitch : -0.36, Yaw : 359.95, Alt : 31.1599998474, Lat : 49.2835701, Lng : -123.1150202, Q1 : 0.999989151955, Q2 : -0.00337988277897, Q3 : -0.00317393965088, Q4 : -0.000413644535001}
2019-04-14 01:34:41.91: SIM {TimeUS : 45135272, Roll : -0.14, Pitch : -0.19, Yaw : 359.94, Alt : 31.3299999237, Lat : 49.2835701, Lng : -123.1150203, Q1 : 0.999997675419, Q2 : -0.00129335466772, Q3 : -0.00167827773839, Q4 : -0.000461438961793}
2019-04-14 01:34:42.01: SIM {TimeUS : 45235232, Roll : 0.01, Pitch : -0.04, Yaw : 359.94, Alt : 31.5, Lat : 49.2835702, Lng : -123.1150203, Q1 : 0.999999821186, Q2 : 0.000126193190226, Q3 : -0.000384208018659, Q4 : -0.000495753833093}
2019-04-14 01:34:42.11: SIM {TimeUS : 45335192, Roll : 0.08, Pitch : 0.05, Yaw : 359.94, Alt : 31.6700000763, Lat : 49.2835702, Lng : -123.1150204, Q1 : 0.999999463558, Q2 : 0.000748870312236, Q3 : 0.000523211725522, Q4 : -0.000514902465511}
2019-04-14 01:34:42.21: SIM {TimeUS : 45435152, Roll : 0.07, Pitch : 0.11, Yaw : 359.94, Alt : 31.8500003815, Lat : 49.2835703, Lng : -123.1150205, Q1 : 0.999999165535, Q2 : 0.000678450800478, Q3 : 0.00098507956136, Q4 : -0.000522005895618}
2019-04-14 01:34:42.31: SIM {TimeUS : 45535112, Roll : 0.05, Pitch : 0.13, Yaw : 359.93, Alt : 32.0400009155, Lat : 49.2835703, Lng : -123.1150205, Q1 : 0.999999046326, Q2 : 0.000489808386192, Q3 : 0.00118544255383, Q4 : -0.000532107020263}
2019-04-14 01:34:42.41: SIM {TimeUS : 45635072, Roll : 0.04, Pitch : 0.13, Yaw : 359.93, Alt : 32.2200012207, Lat : 49.2835703, Lng : -123.1150206, Q1 : 0.999999046326, Q2 : 0.000387275737012, Q3 : 0.00121738819871, Q4 : -0.000541936198715}
2019-04-14 01:34:42.51: SIM {TimeUS : 45735032, Roll : 0.03, Pitch : 0.14, Yaw : 359.93, Alt : 32.4199981689, Lat : 49.2835703, Lng : -123.1150206, Q1 : 0.999999046326, Q2 : 0.000330065755406, Q3 : 0.00123526295647, Q4 : -0.000550258089788}
2019-04-14 01:34:42.61: SIM {TimeUS : 45834992, Roll : 0.05, Pitch : 0.15, Yaw : 359.93, Alt : 32.6100006104, Lat : 49.2835703, Lng : -123.1150207, Q1 : 0.999998807907, Q2 : 0.00047475003521, Q3 : 0.00136260082945, Q4 : -0.000539435073733}
2019-04-14 01:34:42.71: SIM {TimeUS : 45934952, Roll : 0.08, Pitch : 0.14, Yaw : 359.94, Alt : 32.8100013733, Lat : 49.2835703, Lng : -123.1150207, Q1 : 0.999998748302, Q2 : 0.000759345595725, Q3 : 0.00127304811031, Q4 : -0.000523066788446}
2019-04-14 01:34:42.81: SIM {TimeUS : 46034912, Roll : 0.12, Pitch : 0.11, Yaw : 359.94, Alt : 33.0099983215, Lat : 49.2835704, Lng : -123.1150207, Q1 : 0.999998748302, Q2 : 0.00108485238161, Q3 : 0.0010270443745, Q4 : -0.000503210758325}
2019-04-14 01:34:42.91: SIM {TimeUS : 46134872, Roll : 0.15, Pitch : 0.09, Yaw : 359.94, Alt : 33.2099990845, Lat : 49.2835704, Lng : -123.1150208, Q1 : 0.999998569489, Q2 : 0.00137960270513, Q3 : 0.000856109429151, Q4 : -0.000482791510876}
2019-04-14 01:34:43.01: SIM {TimeUS : 46234832, Roll : 0.18, Pitch : 0.09, Yaw : 359.94, Alt : 33.4099998474, Lat : 49.2835704, Lng : -123.1150208, Q1 : 0.99999833107, Q2 : 0.00157252920326, Q3 : 0.000853628851473, Q4 : -0.000458398892079}
2019-04-14 01:34:43.11: SIM {TimeUS : 46334792, Roll : 0.19, Pitch : 0.11, Yaw : 359.95, Alt : 33.6199989319, Lat : 49.2835704, Lng : -123.1150208, Q1 : 0.999997973442, Q2 : 0.00168887979817, Q3 : 0.000989055261016, Q4 : -0.000433840497863}
2019-04-14 01:34:43.21: SIM {TimeUS : 46434752, Roll : 0.18, Pitch : 0.12, Yaw : 359.95, Alt : 33.8300018311, Lat : 49.2835704, Lng : -123.1150208, Q1 : 0.999998033047, Q2 : 0.0016367174685, Q3 : 0.00107161572669, Q4 : -0.000417386181653}
2019-04-14 01:34:43.31: SIM {TimeUS : 46534712, Roll : 0.16, Pitch : 0.12, Yaw : 359.95, Alt : 34.0400009155, Lat : 49.2835704, Lng : -123.1150208, Q1 : 0.999998271465, Q2 : 0.00142283958849, Q3 : 0.00111917743925, Q4 : -0.000404490507208}
2019-04-14 01:34:43.41: SIM {TimeUS : 46634672, Roll : 0.12, Pitch : 0.13, Yaw : 359.95, Alt : 34.25, Lat : 49.2835704, Lng : -123.1150208, Q1 : 0.999998569489, Q2 : 0.00113457068801, Q3 : 0.00117543991655, Q4 : -0.000401582976338}
2019-04-14 01:34:43.51: SIM {TimeUS : 46734632, Roll : 0.09, Pitch : 0.13, Yaw : 359.95, Alt : 34.4599990845, Lat : 49.2835704, Lng : -123.1150208, Q1 : 0.999998867512, Q2 : 0.000866087910254, Q3 : 0.00114507274702, Q4 : -0.000407435116358}
2019-04-14 01:34:43.61: SIM {TimeUS : 46834592, Roll : 0.08, Pitch : 0.09, Yaw : 359.94, Alt : 34.6699981689, Lat : 49.2835704, Lng : -123.1150208, Q1 : 0.999999284744, Q2 : 0.000750346167479, Q3 : 0.000808819779195, Q4 : -0.000437734241132}
2019-04-14 01:34:43.71: SIM {TimeUS : 46934552, Roll : 0.08, Pitch : 0.05, Yaw : 359.94, Alt : 34.8899993896, Lat : 49.2835704, Lng : -123.1150208, Q1 : 0.999999523163, Q2 : 0.00073084665928, Q3 : 0.00048215786228, Q4 : -0.000486570963403}
2019-04-14 01:34:43.81: SIM {TimeUS : 47034512, Roll : 0.07, Pitch : 0.03, Yaw : 359.93, Alt : 35.0999984741, Lat : 49.2835704, Lng : -123.1150208, Q1 : 0.999999582767, Q2 : 0.000622120744083, Q3 : 0.000320385792293, Q4 : -0.000540378910955}
2019-04-14 01:34:43.91: SIM {TimeUS : 47135305, Roll : 0.05, Pitch : 0.03, Yaw : 359.93, Alt : 35.3199996948, Lat : 49.2835704, Lng : -123.1150207, Q1 : 0.999999642372, Q2 : 0.00052359822439, Q3 : 0.00027192584821, Q4 : -0.000589878181927}
2019-04-14 01:34:44.01: SIM {TimeUS : 47235265, Roll : 0.05, Pitch : 0.02, Yaw : 359.92, Alt : 35.5400009155, Lat : 49.2835704, Lng : -123.1150207, Q1 : 0.999999642372, Q2 : 0.000497812696267, Q3 : 0.00022742713918, Q4 : -0.000630372262094}
2019-04-14 01:34:44.11: SIM {TimeUS : 47335225, Roll : 0.03, Pitch : 0.0, Yaw : 359.92, Alt : 35.7599983215, Lat : 49.2835704, Lng : -123.1150207, Q1 : 0.999999761581, Q2 : 0.000273109297268, Q3 : 1.72071777342e-05, Q4 : -0.000666217296384}
2019-04-14 01:34:44.21: SIM {TimeUS : 47435185, Roll : 0.0, Pitch : -0.03, Yaw : 359.92, Alt : 35.9799995422, Lat : 49.2835704, Lng : -123.1150207, Q1 : 0.999999701977, Q2 : -4.79804875795e-05, Q3 : -0.000340167578543, Q4 : -0.000694780028425}
2019-04-14 01:34:44.31: SIM {TimeUS : 47535145, Roll : -0.04, Pitch : -0.06, Yaw : 359.91, Alt : 36.2000007629, Lat : 49.2835704, Lng : -123.1150207, Q1 : 0.999999523163, Q2 : -0.000379879376851, Q3 : -0.000557937833946, Q4 : -0.00072735408321}
2019-04-14 01:34:44.41: SIM {TimeUS : 47635105, Roll : -0.07, Pitch : -0.07, Yaw : 359.91, Alt : 36.4199981689, Lat : 49.2835704, Lng : -123.1150207, Q1 : 0.999999284744, Q2 : -0.000648191547953, Q3 : -0.000658150413074, Q4 : -0.00075762817869}
2019-04-14 01:34:44.51: SIM {TimeUS : 47735065, Roll : -0.07, Pitch : -0.07, Yaw : 359.91, Alt : 36.6399993896, Lat : 49.2835704, Lng : -123.1150206, Q1 : 0.999999284744, Q2 : -0.000694340968039, Q3 : -0.000633803079836, Q4 : -0.000779103836976}
2019-04-14 01:34:44.61: SIM {TimeUS : 47835025, Roll : -0.08, Pitch : -0.06, Yaw : 359.9, Alt : 36.8699989319, Lat : 49.2835704, Lng : -123.1150206, Q1 : 0.999999284744, Q2 : -0.000703359837644, Q3 : -0.000590474926867, Q4 : -0.000797994376626}
2019-04-14 01:34:44.71: SIM {TimeUS : 47934985, Roll : -0.07, Pitch : -0.05, Yaw : 359.9, Alt : 37.0900001526, Lat : 49.2835704, Lng : -123.1150206, Q1 : 0.999999344349, Q2 : -0.0006513838307, Q3 : -0.000461824121885, Q4 : -0.000814905331936}
2019-04-14 01:34:44.81: SIM {TimeUS : 48034945, Roll : -0.06, Pitch : -0.04, Yaw : 359.9, Alt : 37.3199996948, Lat : 49.2835704, Lng : -123.1150206, Q1 : 0.999999403954, Q2 : -0.000556435086764, Q3 : -0.000396960182115, Q4 : -0.00082581746392}
2019-04-14 01:34:44.91: SIM {TimeUS : 48134905, Roll : -0.06, Pitch : -0.05, Yaw : 359.9, Alt : 37.5400009155, Lat : 49.2835704, Lng : -123.1150206, Q1 : 0.999999344349, Q2 : -0.000607840542216, Q3 : -0.000460270850454, Q4 : -0.00083351455396}
2019-04-14 01:34:45.01: SIM {TimeUS : 48234865, Roll : -0.07, Pitch : -0.03, Yaw : 359.9, Alt : 37.7700004578, Lat : 49.2835704, Lng : -123.1150206, Q1 : 0.999999344349, Q2 : -0.000693545327522, Q3 : -0.000342863902915, Q4 : -0.000847698363941}
2019-04-14 01:34:45.11: SIM {TimeUS : 48334825, Roll : -0.1, Pitch : -0.01, Yaw : 359.9, Alt : 37.9900016785, Lat : 49.2835704, Lng : -123.1150206, Q1 : 0.99999922514, Q2 : -0.000882347812876, Q3 : -0.000142400851473, Q4 : -0.000862876244355}
2019-04-14 01:34:45.21: SIM {TimeUS : 48434785, Roll : -0.1, Pitch : 0.0, Yaw : 359.9, Alt : 38.2200012207, Lat : 49.2835704, Lng : -123.1150206, Q1 : 0.99999922514, Q2 : -0.000887507805601, Q3 : 2.90968491754e-05, Q4 : -0.000871007097885}
2019-04-14 01:34:45.31: SIM {TimeUS : 48534745, Roll : -0.07, Pitch : 0.03, Yaw : 359.89, Alt : 38.4500007629, Lat : 49.2835704, Lng : -123.1150206, Q1 : 0.999999344349, Q2 : -0.000683081452735, Q3 : 0.00032323441701, Q4 : -0.00087881705258}
2019-04-14 01:34:45.41: SIM {TimeUS : 48634705, Roll : -0.05, Pitch : 0.03, Yaw : 359.89, Alt : 38.6800003052, Lat : 49.2835704, Lng : -123.1150206, Q1 : 0.999999463558, Q2 : -0.000474524480524, Q3 : 0.000294801458949, Q4 : -0.000893121876288}
2019-04-14 01:34:45.51: SIM {TimeUS : 48734665, Roll : -0.02, Pitch : 0.02, Yaw : 359.89, Alt : 38.9099998474, Lat : 49.2835704, Lng : -123.1150206, Q1 : 0.999999582767, Q2 : -0.000221140653593, Q3 : 0.000175776731339, Q4 : -0.000906247296371}
2019-04-14 01:34:45.61: SIM {TimeUS : 48834625, Roll : 0.01, Pitch : 0.03, Yaw : 359.89, Alt : 39.1399993896, Lat : 49.2835704, Lng : -123.1150206, Q1 : 0.999999523163, Q2 : 9.45106294239e-05, Q3 : 0.000270997988991, Q4 : -0.000918323290534}
2019-04-14 01:34:45.71: SIM {TimeUS : 48934585, Roll : 0.04, Pitch : 0.05, Yaw : 359.89, Alt : 39.3600006104, Lat : 49.2835704, Lng : -123.1150206, Q1 : 0.999999344349, Q2 : 0.00041850990965, Q3 : 0.000488556397613, Q4 : -0.000937228498515}
2019-04-14 01:34:45.81: SIM {TimeUS : 49034545, Roll : 0.07, Pitch : 0.08, Yaw : 359.88, Alt : 39.5999984741, Lat : 49.2835704, Lng : -123.1150206, Q1 : 0.999999046326, Q2 : 0.000681784178596, Q3 : 0.000715357309673, Q4 : -0.000962503720075}
2019-04-14 01:34:45.91: SIM {TimeUS : 49134505, Roll : 0.07, Pitch : 0.1, Yaw : 359.88, Alt : 39.8300018311, Lat : 49.2835706, Lng : -123.1150206, Q1 : 0.999998867512, Q2 : 0.000620902690571, Q3 : 0.000924285384826, Q4 : -0.000986895873211}
2019-04-14 01:34:46.01: SIM {TimeUS : 49235298, Roll : 0.02, Pitch : 0.12, Yaw : 359.88, Alt : 40.0600013733, Lat : 49.2835706, Lng : -123.1150206, Q1 : 0.999998807907, Q2 : 0.000223662267672, Q3 : 0.00110867817421, Q4 : -0.00103030307218}
2019-04-14 01:34:46.11: SIM {TimeUS : 49335258, Roll : -0.01, Pitch : 0.11, Yaw : 359.87, Alt : 40.2900009155, Lat : 49.2835706, Lng : -123.1150206, Q1 : 0.999998927116, Q2 : -9.3719601864e-05, Q3 : 0.0010470362613, Q4 : -0.00106287875678}
2019-04-14 01:34:46.21: SIM {TimeUS : 49435218, Roll : -0.03, Pitch : 0.09, Yaw : 359.87, Alt : 40.5200004578, Lat : 49.2835706, Lng : -123.1150206, Q1 : 0.999999046326, Q2 : -0.000323369895341, Q3 : 0.000813316029962, Q4 : -0.00109473138582}
2019-04-14 01:34:46.31: SIM {TimeUS : 49535178, Roll : -0.05, Pitch : 0.07, Yaw : 359.87, Alt : 40.75, Lat : 49.2835706, Lng : -123.1150206, Q1 : 0.999999046326, Q2 : -0.00045048337779, Q3 : 0.000654663483147, Q4 : -0.00112876354251}
2019-04-14 01:34:46.41: SIM {TimeUS : 49635138, Roll : -0.04, Pitch : 0.08, Yaw : 359.86, Alt : 40.9900016785, Lat : 49.2835706, Lng : -123.1150206, Q1 : 0.999998986721, Q2 : -0.000380449433578, Q3 : 0.000754315056838, Q4 : -0.00116328219883}
2019-04-14 01:34:46.51: SIM {TimeUS : 49735098, Roll : 0.0, Pitch : 0.11, Yaw : 359.86, Alt : 41.2200012207, Lat : 49.2835706, Lng : -123.1150206, Q1 : 0.999998748302, Q2 : -2.25417443289e-05, Q3 : 0.00104347721208, Q4 : -0.00119190162513}
2019-04-14 01:34:46.61: SIM {TimeUS : 49835058, Roll : 0.04, Pitch : 0.14, Yaw : 359.86, Alt : 41.4500007629, Lat : 49.2835706, Lng : -123.1150207, Q1 : 0.999998390675, Q2 : 0.000407265819376, Q3 : 0.00124619924463, Q4 : -0.00122155831195}
2019-04-14 01:34:46.71: SIM {TimeUS : 49935018, Roll : 0.08, Pitch : 0.12, Yaw : 359.85, Alt : 41.6899986267, Lat : 49.2835706, Lng : -123.1150207, Q1 : 0.999998390675, Q2 : 0.000710068037733, Q3 : 0.00104645534884, Q4 : -0.00125273771118}
2019-04-14 01:34:46.81: SIM {TimeUS : 50034978, Roll : 0.08, Pitch : 0.07, Yaw : 359.85, Alt : 41.9199981689, Lat : 49.2835706, Lng : -123.1150207, Q1 : 0.999998688698, Q2 : 0.000737360387575, Q3 : 0.000647606968414, Q4 : -0.00128265412059}
2019-04-14 01:34:46.91: SIM {TimeUS : 50134938, Roll : 0.05, Pitch : 0.04, Yaw : 359.85, Alt : 42.1500015259, Lat : 49.2835706, Lng : -123.1150207, Q1 : 0.999998986721, Q2 : 0.000455251778476, Q3 : 0.000350553134922, Q4 : -0.00130743649788}
2019-04-14 01:34:47.01: SIM {TimeUS : 50234898, Roll : 0.0, Pitch : 0.03, Yaw : 359.84, Alt : 42.3899993896, Lat : 49.2835706, Lng : -123.1150207, Q1 : 0.99999910593, Q2 : 1.02982594399e-05, Q3 : 0.000265234790277, Q4 : -0.00132243777625}
2019-04-14 01:34:47.11: SIM {TimeUS : 50334858, Roll : -0.03, Pitch : 0.05, Yaw : 359.84, Alt : 42.6199989319, Lat : 49.2835706, Lng : -123.1150206, Q1 : 0.999998927116, Q2 : -0.000320557795931, Q3 : 0.000498420267832, Q4 : -0.00132414931431}
2019-04-14 01:34:47.21: SIM {TimeUS : 50434818, Roll : -0.05, Pitch : 0.07, Yaw : 359.84, Alt : 42.8600006104, Lat : 49.2835704, Lng : -123.1150206, Q1 : 0.999998748302, Q2 : -0.000499851477798, Q3 : 0.000696792907547, Q4 : -0.00132116943132}
2019-04-14 01:34:47.31: SIM {TimeUS : 50534778, Roll : -0.05, Pitch : 0.08, Yaw : 359.84, Alt : 43.0900001526, Lat : 49.2835704, Lng : -123.1150206, Q1 : 0.999998748302, Q2 : -0.000490736041684, Q3 : 0.000712364446372, Q4 : -0.00132202147506}
2019-04-14 01:34:47.41: SIM {TimeUS : 50634738, Roll : -0.06, Pitch : 0.07, Yaw : 359.84, Alt : 43.3300018311, Lat : 49.2835704, Lng : -123.1150206, Q1 : 0.999998748302, Q2 : -0.000531654513907, Q3 : 0.000628471141681, Q4 : -0.00133261154406}
2019-04-14 01:34:47.51: SIM {TimeUS : 50734698, Roll : -0.05, Pitch : 0.05, Yaw : 359.84, Alt : 43.5600013733, Lat : 49.2835704, Lng : -123.1150206, Q1 : 0.999998867512, Q2 : -0.000451356347185, Q3 : 0.000500594906043, Q4 : -0.00134755671024}
2019-04-14 01:34:47.61: SIM {TimeUS : 50834658, Roll : -0.02, Pitch : 0.04, Yaw : 359.84, Alt : 43.7999992371, Lat : 49.2835704, Lng : -123.1150206, Q1 : 0.999998986721, Q2 : -0.000225898373174, Q3 : 0.000410231004935, Q4 : -0.00136794568971}
2019-04-14 01:34:47.71: SIM {TimeUS : 50934618, Roll : 0.0, Pitch : 0.04, Yaw : 359.84, Alt : 44.0299987793, Lat : 49.2835704, Lng : -123.1150206, Q1 : 0.999998986721, Q2 : -4.3694046326e-05, Q3 : 0.000369395274902, Q4 : -0.00138712464832}
2019-04-14 01:34:47.81: SIM {TimeUS : 51034578, Roll : 0.0, Pitch : 0.02, Yaw : 359.83, Alt : 44.2700004578, Lat : 49.2835704, Lng : -123.1150206, Q1 : 0.999998986721, Q2 : -3.76796961064e-05, Q3 : 0.000223057228141, Q4 : -0.00140717008617}
2019-04-14 01:34:47.91: SIM {TimeUS : 51134538, Roll : -0.01, Pitch : 0.0, Yaw : 359.83, Alt : 44.5, Lat : 49.2835704, Lng : -123.1150206, Q1 : 0.999998986721, Q2 : -0.000129200983793, Q3 : -6.74019902362e-05, Q4 : -0.00143391336314}
2019-04-14 01:34:48.01: SIM {TimeUS : 51234498, Roll : -0.02, Pitch : -0.02, Yaw : 359.83, Alt : 44.7400016785, Lat : 49.2835704, Lng : -123.1150206, Q1 : 0.999998867512, Q2 : -0.000217858163523, Q3 : -0.000257610809058, Q4 : -0.00147425604519}
2019-04-14 01:34:48.11: SIM {TimeUS : 51335291, Roll : -0.02, Pitch : -0.03, Yaw : 359.82, Alt : 44.9799995422, Lat : 49.2835704, Lng : -123.1150206, Q1 : 0.999998748302, Q2 : -0.000200627357117, Q3 : -0.000308363756631, Q4 : -0.00152319611516}
2019-04-14 01:34:48.21: SIM {TimeUS : 51435251, Roll : -0.02, Pitch : -0.03, Yaw : 359.82, Alt : 45.2099990845, Lat : 49.2835704, Lng : -123.1150206, Q1 : 0.999998688698, Q2 : -0.00022078838083, Q3 : -0.000321476225508, Q4 : -0.0015706558479}
2019-04-14 01:34:48.31: SIM {TimeUS : 51535211, Roll : -0.04, Pitch : -0.03, Yaw : 359.81, Alt : 45.4500007629, Lat : 49.2835704, Lng : -123.1150206, Q1 : 0.999998569489, Q2 : -0.000389256485505, Q3 : -0.000297924183542, Q4 : -0.00162104028277}
2019-04-14 01:34:48.41: SIM {TimeUS : 51635171, Roll : -0.07, Pitch : -0.03, Yaw : 359.8, Alt : 45.6800003052, Lat : 49.2835703, Lng : -123.1150206, Q1 : 0.99999833107, Q2 : -0.000689868582413, Q3 : -0.000292164389975, Q4 : -0.00166849128436}
2019-04-14 01:34:48.51: SIM {TimeUS : 51735131, Roll : -0.1, Pitch : -0.03, Yaw : 359.8, Alt : 45.9199981689, Lat : 49.2835703, Lng : -123.1150206, Q1 : 0.999998092651, Q2 : -0.000928786874283, Q3 : -0.000283977511572, Q4 : -0.0017044802662}
2019-04-14 01:34:48.61: SIM {TimeUS : 51835091, Roll : -0.11, Pitch : -0.02, Yaw : 359.8, Alt : 46.1500015259, Lat : 49.2835703, Lng : -123.1150206, Q1 : 0.999997973442, Q2 : -0.000991469598375, Q3 : -0.000179555485374, Q4 : -0.00173250457738}
2019-04-14 01:34:48.71: SIM {TimeUS : 51935051, Roll : -0.09, Pitch : 0.0, Yaw : 359.79, Alt : 46.3699989319, Lat : 49.2835703, Lng : -123.1150206, Q1 : 0.999998092651, Q2 : -0.000851775286719, Q3 : 5.51967314095e-05, Q4 : -0.00175404653419}
2019-04-14 01:34:48.81: SIM {TimeUS : 52035011, Roll : -0.06, Pitch : 0.02, Yaw : 359.79, Alt : 46.5900001526, Lat : 49.2835703, Lng : -123.1150206, Q1 : 0.999998211861, Q2 : -0.000589172821492, Q3 : 0.000208394892979, Q4 : -0.00177217938472}
2019-04-14 01:34:48.91: SIM {TimeUS : 52134971, Roll : -0.04, Pitch : 0.02, Yaw : 359.79, Alt : 46.8100013733, Lat : 49.2835703, Lng : -123.1150206, Q1 : 0.99999833107, Q2 : -0.000369980669348, Q3 : 0.000189098383998, Q4 : -0.00178849231452}
2019-04-14 01:34:49.01: SIM {TimeUS : 52234931, Roll : -0.03, Pitch : 0.0, Yaw : 359.79, Alt : 47.0200004578, Lat : 49.2835703, Lng : -123.1150206, Q1 : 0.99999833107, Q2 : -0.000278032122878, Q3 : 2.00350259547e-05, Q4 : -0.00180454761721}
2019-04-14 01:34:49.11: SIM {TimeUS : 52334891, Roll : -0.01, Pitch : -0.03, Yaw : 359.79, Alt : 47.2200012207, Lat : 49.2835703, Lng : -123.1150206, Q1 : 0.999998271465, Q2 : -0.000151675965753, Q3 : -0.000271053053439, Q4 : -0.00182314997073}
2019-04-14 01:34:49.21: SIM {TimeUS : 52434851, Roll : 0.0, Pitch : -0.05, Yaw : 359.78, Alt : 47.4199981689, Lat : 49.2835703, Lng : -123.1150206, Q1 : 0.999998152256, Q2 : -2.44121929427e-06, Q3 : -0.000510088750161, Q4 : -0.00184139795601}
2019-04-14 01:34:49.31: SIM {TimeUS : 52534811, Roll : 0.0, Pitch : -0.08, Yaw : 359.78, Alt : 47.5999984741, Lat : 49.2835703, Lng : -123.1150206, Q1 : 0.999997973442, Q2 : 8.13981969259e-05, Q3 : -0.00074944953667, Q4 : -0.00186184304766}
2019-04-14 01:34:49.41: SIM {TimeUS : 52634771, Roll : 0.01, Pitch : -0.12, Yaw : 359.78, Alt : 47.7799987793, Lat : 49.2835703, Lng : -123.1150206, Q1 : 0.99999755621, Q2 : 0.000139906362165, Q3 : -0.00113023095764, Q4 : -0.00188685941976}
2019-04-14 01:34:49.51: SIM {TimeUS : 52734731, Roll : 0.04, Pitch : -0.15, Yaw : 359.78, Alt : 47.9399986267, Lat : 49.2835703, Lng : -123.1150206, Q1 : 0.999997198582, Q2 : 0.000360179372365, Q3 : -0.00134440313559, Q4 : -0.0019118222408}
2019-04-14 01:34:49.61: SIM {TimeUS : 52834691, Roll : 0.06, Pitch : -0.15, Yaw : 359.77, Alt : 48.0999984741, Lat : 49.2835704, Lng : -123.1150206, Q1 : 0.999997079372, Q2 : 0.000590037670918, Q3 : -0.00131981039885, Q4 : -0.00193268316798}
2019-04-14 01:34:49.71: SIM {TimeUS : 52934651, Roll : 0.08, Pitch : -0.12, Yaw : 359.77, Alt : 48.2400016785, Lat : 49.2835704, Lng : -123.1150206, Q1 : 0.999997198582, Q2 : 0.000755764718633, Q3 : -0.00111155130435, Q4 : -0.00195207912475}
2019-04-14 01:34:49.81: SIM {TimeUS : 53034611, Roll : 0.08, Pitch : -0.09, Yaw : 359.77, Alt : 48.3600006104, Lat : 49.2835704, Lng : -123.1150206, Q1 : 0.999997437, Q2 : 0.000761998235248, Q3 : -0.00079921586439, Q4 : -0.0019695602823}
2019-04-14 01:34:49.91: SIM {TimeUS : 53134571, Roll : 0.08, Pitch : -0.06, Yaw : 359.77, Alt : 48.4799995422, Lat : 49.2835704, Lng : -123.1150206, Q1 : 0.999997615814, Q2 : 0.000732485961635, Q3 : -0.000548476469703, Q4 : -0.00198818044737}
2019-04-14 01:34:50.01: SIM {TimeUS : 53234531, Roll : 0.07, Pitch : -0.05, Yaw : 359.76, Alt : 48.5800018311, Lat : 49.2835704, Lng : -123.1150206, Q1 : 0.999997675419, Q2 : 0.000618040561676, Q3 : -0.000502771465108, Q4 : -0.00201054057106}
2019-04-14 01:34:50.11: SIM {TimeUS : 53335324, Roll : 0.04, Pitch : -0.05, Yaw : 359.76, Alt : 48.6800003052, Lat : 49.2835704, Lng : -123.1150206, Q1 : 0.999997735023, Q2 : 0.000401063851314, Q3 : -0.000460588897113, Q4 : -0.00203982787207}
2019-04-14 01:34:50.21: SIM {TimeUS : 53435284, Roll : 0.02, Pitch : -0.03, Yaw : 359.76, Alt : 48.7599983215, Lat : 49.2835704, Lng : -123.1150206, Q1 : 0.999997794628, Q2 : 0.00020973449864, Q3 : -0.000340125639923, Q4 : -0.00206677010283}
2019-04-14 01:34:50.31: SIM {TimeUS : 53535244, Roll : 0.0, Pitch : -0.02, Yaw : 359.75, Alt : 48.8300018311, Lat : 49.2835704, Lng : -123.1150206, Q1 : 0.999997794628, Q2 : 7.13638364687e-05, Q3 : -0.00018055671535, Q4 : -0.00209644064307}
2019-04-14 01:34:50.41: SIM {TimeUS : 53635204, Roll : 0.0, Pitch : 0.0, Yaw : 359.75, Alt : 48.8899993896, Lat : 49.2835704, Lng : -123.1150206, Q1 : 0.999997735023, Q2 : 1.50508913066e-05, Q3 : 5.30374563823e-05, Q4 : -0.00213523441926}
2019-04-14 01:34:50.51: SIM {TimeUS : 53735164, Roll : 0.01, Pitch : 0.03, Yaw : 359.75, Alt : 48.9399986267, Lat : 49.2835704, Lng : -123.1150206, Q1 : 0.99999755621, Q2 : 0.000121027878777, Q3 : 0.000320576917147, Q4 : -0.00217513809912}
2019-04-14 01:34:50.61: SIM {TimeUS : 53835124, Roll : 0.04, Pitch : 0.04, Yaw : 359.74, Alt : 48.9799995422, Lat : 49.2835704, Lng : -123.1150206, Q1 : 0.999997377396, Q2 : 0.000414854701376, Q3 : 0.000418017822085, Q4 : -0.00220955186523}
2019-04-14 01:34:50.71: SIM {TimeUS : 53935084, Roll : 0.17, Pitch : -0.03, Yaw : 359.74, Alt : 49.0200004578, Lat : 49.2835704, Lng : -123.1150206, Q1 : 0.999996304512, Q2 : 0.00150905235205, Q3 : -0.000318824575515, Q4 : -0.00224352814257}
2019-04-14 01:34:50.81: SIM {TimeUS : 54035044, Roll : 0.46, Pitch : -0.26, Yaw : 359.73, Alt : 49.0499992371, Lat : 49.2835704, Lng : -123.1150206, Q1 : 0.999986350536, Q2 : 0.00409338902682, Q3 : -0.00232208613306, Q4 : -0.00227117817849}
2019-04-14 01:34:50.91: SIM {TimeUS : 54135004, Roll : 0.97, Pitch : -0.66, Yaw : 359.73, Alt : 49.0800018311, Lat : 49.2835706, Lng : -123.1150206, Q1 : 0.999944329262, Q2 : 0.00848195608705, Q3 : -0.00584361469373, Q4 : -0.00229017832316}
2019-04-14 01:34:51.01: SIM {TimeUS : 54234964, Roll : 1.67, Pitch : -1.2, Yaw : 359.72, Alt : 49.1100006104, Lat : 49.2835706, Lng : -123.1150206, Q1 : 0.999835371971, Q2 : 0.0146110942587, Q3 : -0.0105146197602, Q4 : -0.00228833593428}
2019-04-14 01:34:51.11: SIM {TimeUS : 54334924, Roll : 2.51, Pitch : -1.79, Yaw : 359.7, Alt : 49.1300010681, Lat : 49.2835706, Lng : -123.1150205, Q1 : 0.999633967876, Q2 : 0.0219136290252, Q3 : -0.015707751736, Q4 : -0.00223929318599}
2019-04-14 01:34:51.21: SIM {TimeUS : 54434884, Roll : 3.35, Pitch : -2.38, Yaw : 359.68, Alt : 49.1399993896, Lat : 49.2835707, Lng : -123.1150204, Q1 : 0.999351620674, Q2 : 0.0292386077344, Q3 : -0.0209021307528, Q4 : -0.0021383385174}
2019-04-14 01:34:51.31: SIM {TimeUS : 54534844, Roll : 4.07, Pitch : -2.87, Yaw : 359.67, Alt : 49.1599998474, Lat : 49.2835708, Lng : -123.1150202, Q1 : 0.999050557613, Q2 : 0.035482544452, Q3 : -0.0252004563808, Q4 : -0.00196400773712}
2019-04-14 01:34:51.41: SIM {TimeUS : 54634804, Roll : 4.6, Pitch : -3.24, Yaw : 359.67, Alt : 49.1699981689, Lat : 49.2835709, Lng : -123.11502, Q1 : 0.998790860176, Q2 : 0.0401142910123, Q3 : -0.0283664315939, Q4 : -0.00173732650001}
2019-04-14 01:34:51.51: SIM {TimeUS : 54734764, Roll : 4.98, Pitch : -3.51, Yaw : 359.67, Alt : 49.1899986267, Lat : 49.283571, Lng : -123.1150196, Q1 : 0.998584866524, Q2 : 0.0433612465858, Q3 : -0.0307554714382, Q4 : -0.00148314516991}
2019-04-14 01:34:51.61: SIM {TimeUS : 54834724, Roll : 5.28, Pitch : -3.73, Yaw : 359.68, Alt : 49.2000007629, Lat : 49.2835713, Lng : -123.1150192, Q1 : 0.998407781124, Q2 : 0.0459558032453, Q3 : -0.0326885655522, Q4 : -0.0012107368093}
2019-04-14 01:34:51.71: SIM {TimeUS : 54934684, Roll : 5.57, Pitch : -3.94, Yaw : 359.7, Alt : 49.2099990845, Lat : 49.2835715, Lng : -123.1150186, Q1 : 0.998226583004, Q2 : 0.0485079027712, Q3 : -0.0344941392541, Q4 : -0.00093084864784}
2019-04-14 01:34:51.81: SIM {TimeUS : 55034644, Roll : 5.87, Pitch : -4.14, Yaw : 359.71, Alt : 49.2099990845, Lat : 49.2835718, Lng : -123.115018, Q1 : 0.998032212257, Q2 : 0.0511533468962, Q3 : -0.0362577289343, Q4 : -0.000658383360133}
2019-04-14 01:34:51.91: SIM {TimeUS : 55134604, Roll : 6.18, Pitch : -4.35, Yaw : 359.71, Alt : 49.2200012207, Lat : 49.2835721, Lng : -123.1150173, Q1 : 0.997821986675, Q2 : 0.0538357682526, Q3 : -0.0381163693964, Q4 : -0.000423171557486}
2019-04-14 01:34:52.01: SIM {TimeUS : 55234564, Roll : 6.44, Pitch : -4.55, Yaw : 359.71, Alt : 49.2299995422, Lat : 49.2835725, Lng : -123.1150165, Q1 : 0.9976323843, Q2 : 0.0560909807682, Q3 : -0.0397915653884, Q4 : -0.000219975685468}
2019-04-14 01:34:52.11: SIM {TimeUS : 55334524, Roll : 6.64, Pitch : -4.68, Yaw : 359.72, Alt : 49.2299995422, Lat : 49.2835728, Lng : -123.1150155, Q1 : 0.997485280037, Q2 : 0.057837318629, Q3 : -0.0409634299576, Q4 : -2.50957782555e-05}
2019-04-14 01:34:52.21: SIM {TimeUS : 55435317, Roll : 6.79, Pitch : -4.77, Yaw : 359.73, Alt : 49.2400016785, Lat : 49.2835733, Lng : -123.1150145, Q1 : 0.997379720211, Q2 : 0.0590718388557, Q3 : -0.0417630262673, Q4 : 0.000132423316245}
2019-04-14 01:34:52.31: SIM {TimeUS : 55535277, Roll : 6.88, Pitch : -4.85, Yaw : 359.73, Alt : 49.2400016785, Lat : 49.2835739, Lng : -123.1150134, Q1 : 0.99730181694, Q2 : 0.0599335767329, Q3 : -0.0423911325634, Q4 : 0.00023299480381}
2019-04-14 01:34:52.41: SIM {TimeUS : 55635237, Roll : 6.99, Pitch : -4.91, Yaw : 359.73, Alt : 49.25, Lat : 49.2835745, Lng : -123.1150122, Q1 : 0.997224152088, Q2 : 0.0608342885971, Q3 : -0.04293140769, Q4 : 0.000304738205159}
2019-04-14 01:34:52.51: SIM {TimeUS : 55735197, Roll : 7.19, Pitch : -4.95, Yaw : 359.74, Alt : 49.25, Lat : 49.2835751, Lng : -123.1150109, Q1 : 0.997097969055, Q2 : 0.0626157447696, Q3 : -0.0432972721756, Q4 : 0.000529441400431}
2019-04-14 01:34:52.61: SIM {TimeUS : 55835157, Roll : 7.62, Pitch : -4.84, Yaw : 0.06, Alt : 49.2599983215, Lat : 49.2835757, Lng : -123.1150095, Q1 : 0.996892094612, Q2 : 0.0664588660002, Q3 : -0.0421651676297, Q4 : 0.00338360993192}
2019-04-14 01:34:52.71: SIM {TimeUS : 55935117, Roll : 8.24, Pitch : -4.64, Yaw : 1.32, Alt : 49.2599983215, Lat : 49.2835764, Lng : -123.1150081, Q1 : 0.996491611004, Q2 : 0.0723277181387, Q3 : -0.0395450480282, Q4 : 0.0144705306739}
2019-04-14 01:34:52.81: SIM {TimeUS : 56035077, Roll : 8.83, Pitch : -4.68, Yaw : 4.08, Alt : 49.2599983215, Lat : 49.283577, Lng : -123.1150065, Q1 : 0.995453476906, Q2 : 0.0783519297838, Q3 : -0.0379549786448, Q4 : 0.0386366173625}
2019-04-14 01:34:52.91: SIM {TimeUS : 56135037, Roll : 9.12, Pitch : -5.23, Yaw : 8.4, Alt : 49.2599983215, Lat : 49.2835776, Lng : -123.1150049, Q1 : 0.992844641209, Q2 : 0.0826231837273, Q3 : -0.0395476408303, Q4 : 0.0766095668077}
2019-04-14 01:34:53.01: SIM {TimeUS : 56234997, Roll : 8.94, Pitch : -6.31, Yaw : 14.12, Alt : 49.2599983215, Lat : 49.2835785, Lng : -123.1150031, Q1 : 0.987358212471, Q2 : 0.0840467810631, Q3 : -0.0448916330934, Q4 : 0.126667737961}
2019-04-14 01:34:53.11: SIM {TimeUS : 56334957, Roll : 8.16, Pitch : -7.77, Yaw : 21.0, Alt : 49.2700004578, Lat : 49.2835792, Lng : -123.1150012, Q1 : 0.977615475655, Q2 : 0.0821911096573, Q3 : -0.053530048579, Q4 : 0.186137676239}
2019-04-14 01:34:53.21: SIM {TimeUS : 56434917, Roll : 6.77, Pitch : -9.4, Yaw : 28.78, Alt : 49.2700004578, Lat : 49.2835799, Lng : -123.1149991, Q1 : 0.962457835674, Q2 : 0.0774154886603, Q3 : -0.0645779743791, Q4 : 0.252014815807}
2019-04-14 01:34:53.31: SIM {TimeUS : 56534877, Roll : 4.85, Pitch : -10.96, Yaw : 37.22, Alt : 49.2700004578, Lat : 49.2835806, Lng : -123.114997, Q1 : 0.941233873367, Q2 : 0.0704239904881, Q3 : -0.0770071446896, Q4 : 0.321230620146}
2019-04-14 01:34:53.41: SIM {TimeUS : 56634837, Roll : 2.35, Pitch : -12.23, Yaw : 45.98, Alt : 49.2700004578, Lat : 49.2835814, Lng : -123.1149947, Q1 : 0.914266943932, Q2 : 0.0604054257274, Q3 : -0.0901026502252, Q4 : 0.39031869173}
2019-04-14 01:34:53.51: SIM {TimeUS : 56734797, Roll : -0.73, Pitch : -13.0, Yaw : 54.39, Alt : 49.2700004578, Lat : 49.2835824, Lng : -123.1149924, Q1 : 0.884035646915, Q2 : 0.0461237579584, Q3 : -0.103657111526, Q4 : 0.453441113234}
2019-04-14 01:34:53.61: SIM {TimeUS : 56834757, Roll : -3.87, Pitch : -13.22, Yaw : 61.54, Alt : 49.2700004578, Lat : 49.2835832, Lng : -123.1149899, Q1 : 0.855016767979, Q2 : 0.0299869962037, Q3 : -0.11604834348, Q4 : 0.504559099674}
2019-04-14 01:34:53.71: SIM {TimeUS : 56934717, Roll : -6.43, Pitch : -13.02, Yaw : 66.77, Alt : 49.2700004578, Lat : 49.2835843, Lng : -123.1149874, Q1 : 0.83177626133, Q2 : 0.0157609209418, Q3 : -0.12523946166, Q4 : 0.540569067001}
2019-04-14 01:34:53.81: SIM {TimeUS : 57034677, Roll : -7.97, Pitch : -12.71, Yaw : 69.9, Alt : 49.2700004578, Lat : 49.2835854, Lng : -123.1149849, Q1 : 0.817038834095, Q2 : 0.00659796455875, Q3 : -0.130139127374, Q4 : 0.56166523695}
2019-04-14 01:34:53.91: SIM {TimeUS : 57134637, Roll : -8.43, Pitch : -12.53, Yaw : 71.1, Alt : 49.2700004578, Lat : 49.2835867, Lng : -123.1149823, Q1 : 0.811204016209, Q2 : 0.00382272969, Q3 : -0.131106987596, Q4 : 0.569863498211}
2019-04-14 01:34:54.01: SIM {TimeUS : 57234597, Roll : -7.96, Pitch : -12.62, Yaw : 70.71, Alt : 49.2700004578, Lat : 49.2835879, Lng : -123.1149796, Q1 : 0.813066899776, Q2 : 0.00719403894618, Q3 : -0.129399374127, Q4 : 0.567561686039}
2019-04-14 01:34:54.11: SIM {TimeUS : 57334557, Roll : -6.78, Pitch : -13.0, Yaw : 69.1, Alt : 49.2700004578, Lat : 49.2835893, Lng : -123.1149768, Q1 : 0.82065486908, Q2 : 0.0157260838896, Q3 : -0.126451179385, Q4 : 0.557035386562}
2019-04-14 01:34:54.21: SIM {TimeUS : 57434517, Roll : -5.15, Pitch : -13.63, Yaw : 66.63, Alt : 49.2700004578, Lat : 49.283591, Lng : -123.1149741, Q1 : 0.831845462322, Q2 : 0.0278352405876, Q3 : -0.123578041792, Q4 : 0.540358006954}
2019-04-14 01:34:54.31: SIM {TimeUS : 57535310, Roll : -3.26, Pitch : -14.37, Yaw : 63.57, Alt : 49.2799987793, Lat : 49.2835925, Lng : -123.1149712, Q1 : 0.844876408577, Q2 : 0.0418440587819, Q3 : -0.121190935373, Q4 : 0.519370436668}
2019-04-14 01:34:54.41: SIM {TimeUS : 57635270, Roll : -1.35, Pitch : -15.05, Yaw : 60.29, Alt : 49.2799987793, Lat : 49.283594, Lng : -123.1149683, Q1 : 0.858005106449, Q2 : 0.0556445010006, Q3 : -0.119201667607, Q4 : 0.496509671211}
2019-04-14 01:34:54.51: SIM {TimeUS : 57735230, Roll : 0.41, Pitch : -15.56, Yaw : 57.09, Alt : 49.2799987793, Lat : 49.2835958, Lng : -123.1149653, Q1 : 0.870080292225, Q2 : 0.0678539350629, Q3 : -0.117210000753, Q4 : 0.473938822746}
2019-04-14 01:34:54.61: SIM {TimeUS : 57835190, Roll : 1.9, Pitch : -15.83, Yaw : 54.31, Alt : 49.2799987793, Lat : 49.2835974, Lng : -123.1149621, Q1 : 0.880115866661, Q2 : 0.0775431320071, Q3 : -0.115016415715, Q4 : 0.454042255878}
2019-04-14 01:34:54.71: SIM {TimeUS : 57935150, Roll : 2.99, Pitch : -15.92, Yaw : 52.18, Alt : 49.2799987793, Lat : 49.283599, Lng : -123.1149588, Q1 : 0.887540876865, Q2 : 0.0841659754515, Q3 : -0.112965077162, Q4 : 0.438664078712}
2019-04-14 01:34:54.81: SIM {TimeUS : 58035110, Roll : 3.61, Pitch : -15.9, Yaw : 50.83, Alt : 49.2799987793, Lat : 49.2836007, Lng : -123.1149554, Q1 : 0.892200410366, Q2 : 0.0875368341804, Q3 : -0.111468173563, Q4 : 0.428824692965}
2019-04-14 01:34:54.91: SIM {TimeUS : 58135070, Roll : 3.73, Pitch : -15.85, Yaw : 50.28, Alt : 49.2799987793, Lat : 49.2836025, Lng : -123.1149519, Q1 : 0.894206941128, Q2 : 0.087773039937, Q3 : -0.111096575856, Q4 : 0.424673318863}
2019-04-14 01:34:55.01: SIM {TimeUS : 58235030, Roll : 3.42, Pitch : -15.82, Yaw : 50.45, Alt : 49.2799987793, Lat : 49.2836041, Lng : -123.1149482, Q1 : 0.893843233585, Q2 : 0.0854232385755, Q3 : -0.111884430051, Q4 : 0.425710082054}
2019-04-14 01:34:55.11: SIM {TimeUS : 58334990, Roll : 2.8, Pitch : -15.84, Yaw : 51.2, Alt : 49.2799987793, Lat : 49.2836057, Lng : -123.1149445, Q1 : 0.891479194164, Q2 : 0.0814536437392, Q3 : -0.113806791604, Q4 : 0.430903911591}
2019-04-14 01:34:55.21: SIM {TimeUS : 58434950, Roll : 1.98, Pitch : -15.93, Yaw : 52.34, Alt : 49.2799987793, Lat : 49.2836074, Lng : -123.1149406, Q1 : 0.887629389763, Q2 : 0.0764824524522, Q3 : -0.11681034416, Q4 : 0.43888476491}
2019-04-14 01:34:55.31: SIM {TimeUS : 58534910, Roll : 1.08, Pitch : -16.06, Yaw : 53.68, Alt : 49.2799987793, Lat : 49.2836092, Lng : -123.1149367, Q1 : 0.882854521275, Q2 : 0.0714623257518, Q3 : -0.120425827801, Q4 : 0.448284238577}
2019-04-14 01:34:55.41: SIM {TimeUS : 58634870, Roll : 0.24, Pitch : -16.18, Yaw : 55.05, Alt : 49.2799987793, Lat : 49.283611, Lng : -123.1149327, Q1 : 0.877807736397, Q2 : 0.066986605525, Q3 : -0.123864002526, Q4 : 0.457847207785}
2019-04-14 01:34:55.51: SIM {TimeUS : 58734830, Roll : -0.46, Pitch : -16.28, Yaw : 56.29, Alt : 49.2900009155, Lat : 49.2836128, Lng : -123.1149286, Q1 : 0.8731097579, Q2 : 0.0632544159889, Q3 : -0.126777678728, Q4 : 0.466482192278}
2019-04-14 01:34:55.61: SIM {TimeUS : 58834790, Roll : -1.02, Pitch : -16.36, Yaw : 57.29, Alt : 49.2900009155, Lat : 49.2836146, Lng : -123.1149245, Q1 : 0.86923712492, Q2 : 0.0604493096471, Q3 : -0.129115268588, Q4 : 0.4733941257}
2019-04-14 01:34:55.71: SIM {TimeUS : 58934750, Roll : -1.38, Pitch : -16.42, Yaw : 57.97, Alt : 49.2900009155, Lat : 49.2836164, Lng : -123.1149203, Q1 : 0.86650788784, Q2 : 0.0587683133781, Q3 : -0.130725875497, Q4 : 0.478143423796}
2019-04-14 01:34:55.81: SIM {TimeUS : 59034710, Roll : -1.53, Pitch : -16.48, Yaw : 58.33, Alt : 49.2900009155, Lat : 49.2836183, Lng : -123.114916, Q1 : 0.865049123764, Q2 : 0.0582848154008, Q3 : -0.131602808833, Q4 : 0.480597198009}
2019-04-14 01:34:55.91: SIM {TimeUS : 59134670, Roll : -1.49, Pitch : -16.52, Yaw : 58.37, Alt : 49.2900009155, Lat : 49.2836201, Lng : -123.1149117, Q1 : 0.864821732044, Q2 : 0.0588173381984, Q3 : -0.131738200784, Q4 : 0.480904400349}
2019-04-14 01:34:56.01: SIM {TimeUS : 59234630, Roll : -1.29, Pitch : -16.55, Yaw : 58.14, Alt : 49.2900009155, Lat : 49.2836221, Lng : -123.1149075, Q1 : 0.865631699562, Q2 : 0.0602221079171, Q3 : -0.131255447865, Q4 : 0.479402840137}
2019-04-14 01:34:56.11: SIM {TimeUS : 59334590, Roll : -0.97, Pitch : -16.58, Yaw : 57.72, Alt : 49.2900009155, Lat : 49.2836241, Lng : -123.1149032, Q1 : 0.867188990116, Q2 : 0.0622861608863, Q3 : -0.130377858877, Q4 : 0.47655570507}
2019-04-14 01:34:56.21: SIM {TimeUS : 59434550, Roll : -0.59, Pitch : -16.61, Yaw : 57.18, Alt : 49.2900009155, Lat : 49.2836261, Lng : -123.1148988, Q1 : 0.86917835474, Q2 : 0.0646453276277, Q3 : -0.129351690412, Q4 : 0.47288274765}
2019-04-14 01:34:56.31: SIM {TimeUS : 59534510, Roll : -0.2, Pitch : -16.65, Yaw : 56.6, Alt : 49.2900009155, Lat : 49.283628, Lng : -123.1148944, Q1 : 0.871291100979, Q2 : 0.0670643821359, Q3 : -0.128340065479, Q4 : 0.468916803598}
2019-04-14 01:34:56.41: SIM {TimeUS : 59635303, Roll : 0.14, Pitch : -16.69, Yaw : 56.05, Alt : 49.2900009155, Lat : 49.2836302, Lng : -123.1148898, Q1 : 0.87328517437, Q2 : 0.0692988410592, Q3 : -0.127526819706, Q4 : 0.465088844299}
2019-04-14 01:34:56.51: SIM {TimeUS : 59735263, Roll : 0.41, Pitch : -16.71, Yaw : 55.59, Alt : 49.2900009155, Lat : 49.2836322, Lng : -123.1148853, Q1 : 0.874967038631, Q2 : 0.0709533542395, Q3 : -0.126933217049, Q4 : 0.46182924509}
2019-04-14 01:34:56.61: SIM {TimeUS : 59835223, Roll : 0.59, Pitch : -16.74, Yaw : 55.24, Alt : 49.2900009155, Lat : 49.2836342, Lng : -123.1148808, Q1 : 0.876220107079, Q2 : 0.0720539838076, Q3 : -0.126662820578, Q4 : 0.459350794554}
2019-04-14 01:34:56.71: SIM {TimeUS : 59935183, Roll : 0.67, Pitch : -16.79, Yaw : 55.02, Alt : 49.2900009155, Lat : 49.2836363, Lng : -123.1148762, Q1 : 0.876979887486, Q2 : 0.0726035237312, Q3 : -0.1268016994, Q4 : 0.457773298025}
2019-04-14 01:34:56.81: SIM {TimeUS : 60035143, Roll : 0.66, Pitch : -16.84, Yaw : 54.94, Alt : 49.2900009155, Lat : 49.2836384, Lng : -123.1148715, Q1 : 0.877252161503, Q2 : 0.0726497098804, Q3 : -0.127293199301, Q4 : 0.457107365131}
2019-04-14 01:34:56.91: SIM {TimeUS : 60135103, Roll : 0.56, Pitch : -16.89, Yaw : 54.98, Alt : 49.2900009155, Lat : 49.2836405, Lng : -123.1148668, Q1 : 0.877122700214, Q2 : 0.0721511244774, Q3 : -0.128007158637, Q4 : 0.457235366106}
2019-04-14 01:34:57.01: SIM {TimeUS : 60235063, Roll : 0.42, Pitch : -16.92, Yaw : 55.1, Alt : 49.2999992371, Lat : 49.2836425, Lng : -123.1148621, Q1 : 0.876682579517, Q2 : 0.0713015794754, Q3 : -0.128791868687, Q4 : 0.457991749048}
2019-04-14 01:34:57.11: SIM {TimeUS : 60335023, Roll : 0.24, Pitch : -16.95, Yaw : 55.28, Alt : 49.2999992371, Lat : 49.2836445, Lng : -123.1148573, Q1 : 0.876030266285, Q2 : 0.0702760592103, Q3 : -0.129615813494, Q4 : 0.459164500237}
2019-04-14 01:34:57.21: SIM {TimeUS : 60434983, Roll : 0.09, Pitch : -16.99, Yaw : 55.49, Alt : 49.2999992371, Lat : 49.2836467, Lng : -123.1148525, Q1 : 0.875244319439, Q2 : 0.0694876462221, Q3 : -0.130392193794, Q4 : 0.460561364889}
2019-04-14 01:34:57.31: SIM {TimeUS : 60534943, Roll : -0.03, Pitch : -17.03, Yaw : 55.69, Alt : 49.2999992371, Lat : 49.2836488, Lng : -123.1148477, Q1 : 0.874451398849, Q2 : 0.0689083263278, Q3 : -0.131085216999, Q4 : 0.461955726147}
2019-04-14 01:34:57.41: SIM {TimeUS : 60634903, Roll : -0.13, Pitch : -17.07, Yaw : 55.87, Alt : 49.2999992371, Lat : 49.283651, Lng : -123.1148429, Q1 : 0.873737454414, Q2 : 0.0685689747334, Q3 : -0.131716087461, Q4 : 0.463176071644}
2019-04-14 01:34:57.51: SIM {TimeUS : 60734863, Roll : -0.18, Pitch : -17.12, Yaw : 56.01, Alt : 49.2999992371, Lat : 49.283653, Lng : -123.114838, Q1 : 0.873168826103, Q2 : 0.0685255303979, Q3 : -0.132178321481, Q4 : 0.46412217617}
2019-04-14 01:34:57.61: SIM {TimeUS : 60834823, Roll : -0.2, Pitch : -17.15, Yaw : 56.09, Alt : 49.2999992371, Lat : 49.2836553, Lng : -123.1148331, Q1 : 0.872811675072, Q2 : 0.0685482621193, Q3 : -0.132479146123, Q4 : 0.46470451355}
2019-04-14 01:34:57.71: SIM {TimeUS : 60934783, Roll : -0.21, Pitch : -17.17, Yaw : 56.12, Alt : 49.2999992371, Lat : 49.2836574, Lng : -123.1148282, Q1 : 0.872691214085, Q2 : 0.0685623511672, Q3 : -0.132613316178, Q4 : 0.464890241623}
2019-04-14 01:34:57.81: SIM {TimeUS : 61034743, Roll : -0.2, Pitch : -17.18, Yaw : 56.09, Alt : 49.2999992371, Lat : 49.2836597, Lng : -123.1148233, Q1 : 0.872773528099, Q2 : 0.0686405524611, Q3 : -0.132669880986, Q4 : 0.464708030224}
2019-04-14 01:34:57.91: SIM {TimeUS : 61134703, Roll : -0.16, Pitch : -17.18, Yaw : 56.03, Alt : 49.3100013733, Lat : 49.2836619, Lng : -123.1148183, Q1 : 0.873005449772, Q2 : 0.0689177587628, Q3 : -0.1325827986, Q4 : 0.4642560184}
2019-04-14 01:34:58.01: SIM {TimeUS : 61234663, Roll : -0.11, Pitch : -17.2, Yaw : 55.93, Alt : 49.3100013733, Lat : 49.283664, Lng : -123.1148134, Q1 : 0.873335421085, Q2 : 0.0693056732416, Q3 : -0.132540360093, Q4 : 0.463589310646}
2019-04-14 01:34:58.11: SIM {TimeUS : 61334623, Roll : -0.02, Pitch : -17.24, Yaw : 55.82, Alt : 49.3100013733, Lat : 49.2836663, Lng : -123.1148084, Q1 : 0.873690128326, Q2 : 0.0699475035071, Q3 : -0.132584348321, Q4 : 0.462811380625}
2019-04-14 01:34:58.21: SIM {TimeUS : 61434583, Roll : 0.05, Pitch : -17.3, Yaw : 55.71, Alt : 49.3100013733, Lat : 49.2836685, Lng : -123.1148034, Q1 : 0.874024569988, Q2 : 0.0707186609507, Q3 : -0.132765516639, Q4 : 0.462010025978}
2019-04-14 01:34:58.31: SIM {TimeUS : 61534543, Roll : 0.12, Pitch : -17.34, Yaw : 55.6, Alt : 49.3100013733, Lat : 49.2836706, Lng : -123.1147983, Q1 : 0.874361336231, Q2 : 0.0713090077043, Q3 : -0.132827833295, Q4 : 0.461263537407}
2019-04-14 01:34:58.41: SIM {TimeUS : 61634503, Roll : 0.18, Pitch : -17.34, Yaw : 55.51, Alt : 49.3100013733, Lat : 49.283673, Lng : -123.1147933, Q1 : 0.874678552151, Q2 : 0.0716573297977, Q3 : -0.132727131248, Q4 : 0.46063670516}
2019-04-14 01:34:58.51: SIM {TimeUS : 61735296, Roll : 0.2, Pitch : -17.35, Yaw : 55.44, Alt : 49.3100013733, Lat : 49.2836753, Lng : -123.1147882, Q1 : 0.874932229519, Q2 : 0.07178016752, Q3 : -0.132723107934, Q4 : 0.4601367414}
2019-04-14 01:34:58.61: SIM {TimeUS : 61835256, Roll : 0.2, Pitch : -17.37, Yaw : 55.4, Alt : 49.3100013733, Lat : 49.2836774, Lng : -123.1147831, Q1 : 0.875094950199, Q2 : 0.0717519372702, Q3 : -0.132932111621, Q4 : 0.459771186113}
2019-04-14 01:34:58.71: SIM {TimeUS : 61935216, Roll : 0.18, Pitch : -17.39, Yaw : 55.38, Alt : 49.3100013733, Lat : 49.2836797, Lng : -123.114778, Q1 : 0.875163376331, Q2 : 0.0717235207558, Q3 : -0.133153408766, Q4 : 0.459581285715}
2019-04-14 01:34:58.81: SIM {TimeUS : 62035176, Roll : 0.16, Pitch : -17.42, Yaw : 55.37, Alt : 49.3100013733, Lat : 49.283682, Lng : -123.1147728, Q1 : 0.875159919262, Q2 : 0.0716795399785, Q3 : -0.13347941637, Q4 : 0.459500133991}
2019-04-14 01:34:58.91: SIM {TimeUS : 62135136, Roll : 0.14, Pitch : -17.45, Yaw : 55.38, Alt : 49.3100013733, Lat : 49.2836843, Lng : -123.1147676, Q1 : 0.875115036964, Q2 : 0.0716190561652, Q3 : -0.133777037263, Q4 : 0.459508627653}
2019-04-14 01:34:59.01: SIM {TimeUS : 62235096, Roll : 0.13, Pitch : -17.48, Yaw : 55.39, Alt : 49.3100013733, Lat : 49.2836865, Lng : -123.1147625, Q1 : 0.875034689903, Q2 : 0.0716385543346, Q3 : -0.134028822184, Q4 : 0.459585160017}
2019-04-14 01:34:59.11: SIM {TimeUS : 62335056, Roll : 0.11, Pitch : -17.49, Yaw : 55.41, Alt : 49.3100013733, Lat : 49.2836888, Lng : -123.1147573, Q1 : 0.874959468842, Q2 : 0.0716132372618, Q3 : -0.134176641703, Q4 : 0.459689110518}
2019-04-14 01:34:59.21: SIM {TimeUS : 62435016, Roll : 0.11, Pitch : -17.51, Yaw : 55.43, Alt : 49.3199996948, Lat : 49.2836912, Lng : -123.1147522, Q1 : 0.874877095222, Q2 : 0.0717129781842, Q3 : -0.13431096077, Q4 : 0.459791153669}
2019-04-14 01:34:59.31: SIM {TimeUS : 62534976, Roll : 0.12, Pitch : -17.53, Yaw : 55.44, Alt : 49.3199996948, Lat : 49.2836935, Lng : -123.114747, Q1 : 0.874801576138, Q2 : 0.07186049968, Q3 : -0.13447073102, Q4 : 0.459865152836}
2019-04-14 01:34:59.41: SIM {TimeUS : 62634936, Roll : 0.11, Pitch : -17.57, Yaw : 55.44, Alt : 49.3199996948, Lat : 49.2836957, Lng : -123.1147418, Q1 : 0.874742627144, Q2 : 0.071966804564, Q3 : -0.134793817997, Q4 : 0.459866046906}
2019-04-14 01:34:59.51: SIM {TimeUS : 62734896, Roll : 0.08, Pitch : -17.62, Yaw : 55.44, Alt : 49.3199996948, Lat : 49.283698, Lng : -123.1147366, Q1 : 0.874716877937, Q2 : 0.0718902423978, Q3 : -0.135261341929, Q4 : 0.459789663553}
2019-04-14 01:34:59.61: SIM {TimeUS : 62834856, Roll : 0.05, Pitch : -17.66, Yaw : 55.43, Alt : 49.3199996948, Lat : 49.2837004, Lng : -123.1147314, Q1 : 0.87471228838, Q2 : 0.0718706846237, Q3 : -0.135701388121, Q4 : 0.459671765566}
2019-04-14 01:34:59.71: SIM {TimeUS : 62934816, Roll : 0.06, Pitch : -17.69, Yaw : 55.42, Alt : 49.3199996948, Lat : 49.2837027, Lng : -123.1147261, Q1 : 0.874728918076, Q2 : 0.0720495507121, Q3 : -0.135906681418, Q4 : 0.459551483393}
2019-04-14 01:34:59.81: SIM {TimeUS : 63034776, Roll : 0.09, Pitch : -17.69, Yaw : 55.4, Alt : 49.3199996948, Lat : 49.2837051, Lng : -123.1147209, Q1 : 0.87479197979, Q2 : 0.0722563266754, Q3 : -0.135809868574, Q4 : 0.459427624941}
2019-04-14 01:34:59.91: SIM {TimeUS : 63134736, Roll : 0.12, Pitch : -17.67, Yaw : 55.37, Alt : 49.3199996948, Lat : 49.2837074, Lng : -123.1147156, Q1 : 0.874902486801, Q2 : 0.0723629295826, Q3 : -0.135504364967, Q4 : 0.45929056406}
2019-04-14 01:35:00.01: SIM {TimeUS : 63234696, Roll : 0.14, Pitch : -17.65, Yaw : 55.34, Alt : 49.3199996948, Lat : 49.2837097, Lng : -123.1147103, Q1 : 0.875021755695, Q2 : 0.0723540186882, Q3 : -0.135326325893, Q4 : 0.459117263556}
2019-04-14 01:35:00.11: SIM {TimeUS : 63334656, Roll : 0.14, Pitch : -17.63, Yaw : 55.32, Alt : 49.3199996948, Lat : 49.283712, Lng : -123.114705, Q1 : 0.875146150589, Q2 : 0.0722629353404, Q3 : -0.135224610567, Q4 : 0.45892444253}
2019-04-14 01:35:00.21: SIM {TimeUS : 63434616, Roll : 0.14, Pitch : -17.63, Yaw : 55.29, Alt : 49.3199996948, Lat : 49.2837144, Lng : -123.1146997, Q1 : 0.875262260437, Q2 : 0.0721898525953, Q3 : -0.135187625885, Q4 : 0.458725363016}
2019-04-14 01:35:00.31: SIM {TimeUS : 63534576, Roll : 0.12, Pitch : -17.65, Yaw : 55.27, Alt : 49.3199996948, Lat : 49.2837168, Lng : -123.1146944, Q1 : 0.875344872475, Q2 : 0.0721398517489, Q3 : -0.135412737727, Q4 : 0.458509117365}
2019-04-14 01:35:00.41: SIM {TimeUS : 63634536, Roll : 0.12, Pitch : -17.68, Yaw : 55.24, Alt : 49.3199996948, Lat : 49.2837192, Lng : -123.114689, Q1 : 0.875398278236, Q2 : 0.0722038969398, Q3 : -0.135735079646, Q4 : 0.458301782608}
2019-04-14 01:35:00.51: SIM {TimeUS : 63734496, Roll : 0.11, Pitch : -17.74, Yaw : 55.22, Alt : 49.3199996948, Lat : 49.2837216, Lng : -123.1146837, Q1 : 0.87541359663, Q2 : 0.0723363086581, Q3 : -0.136205375195, Q4 : 0.458112061024}
2019-04-14 01:35:00.61: SIM {TimeUS : 63835289, Roll : 0.11, Pitch : -17.8, Yaw : 55.21, Alt : 49.3199996948, Lat : 49.2837239, Lng : -123.1146783, Q1 : 0.875410854816, Q2 : 0.0725743547082, Q3 : -0.136645853519, Q4 : 0.457948416471}
2019-04-14 01:35:00.71: SIM {TimeUS : 63935249, Roll : 0.13, Pitch : -17.82, Yaw : 55.19, Alt : 49.3300018311, Lat : 49.2837263, Lng : -123.114673, Q1 : 0.875432789326, Q2 : 0.0727649629116, Q3 : -0.13675327599, Q4 : 0.457844167948}
2019-04-14 01:35:00.81: SIM {TimeUS : 64035209, Roll : 0.13, Pitch : -17.83, Yaw : 55.18, Alt : 49.3300018311, Lat : 49.2837287, Lng : -123.1146676, Q1 : 0.875460326672, Q2 : 0.0728576332331, Q3 : -0.136866733432, Q4 : 0.457742899656}
2019-04-14 01:35:00.91: SIM {TimeUS : 64135169, Roll : 0.13, Pitch : -17.84, Yaw : 55.17, Alt : 49.3300018311, Lat : 49.2837311, Lng : -123.1146623, Q1 : 0.875492215157, Q2 : 0.0728849768639, Q3 : -0.136953264475, Q4 : 0.45765158534}
2019-04-14 01:35:01.01: SIM {TimeUS : 64235129, Roll : 0.15, Pitch : -17.84, Yaw : 55.16, Alt : 49.3300018311, Lat : 49.2837334, Lng : -123.1146569, Q1 : 0.875529587269, Q2 : 0.0729667916894, Q3 : -0.136836141348, Q4 : 0.457602113485}
2019-04-14 01:35:01.11: SIM {TimeUS : 64335089, Roll : 0.17, Pitch : -17.84, Yaw : 55.15, Alt : 49.3300018311, Lat : 49.2837358, Lng : -123.1146515, Q1 : 0.875541448593, Q2 : 0.0731593519449, Q3 : -0.136799529195, Q4 : 0.457559615374}
2019-04-14 01:35:01.21: SIM {TimeUS : 64435049, Roll : 0.18, Pitch : -17.87, Yaw : 55.14, Alt : 49.3300018311, Lat : 49.2837382, Lng : -123.114646, Q1 : 0.87554204464, Q2 : 0.0733060389757, Q3 : -0.136935576797, Q4 : 0.457494288683}
2019-04-14 01:35:01.31: SIM {TimeUS : 64535009, Roll : 0.18, Pitch : -17.88, Yaw : 55.13, Alt : 49.3300018311, Lat : 49.2837406, Lng : -123.1146407, Q1 : 0.875551581383, Q2 : 0.073368370533, Q3 : -0.13709436357, Q4 : 0.457418501377}
2019-04-14 01:35:01.41: SIM {TimeUS : 64634969, Roll : 0.18, Pitch : -17.89, Yaw : 55.12, Alt : 49.3300018311, Lat : 49.283743, Lng : -123.1146353, Q1 : 0.875585198402, Q2 : 0.0733705163002, Q3 : -0.137126103044, Q4 : 0.457344204187}
2019-04-14 01:35:01.51: SIM {TimeUS : 64734929, Roll : 0.17, Pitch : -17.9, Yaw : 55.11, Alt : 49.3300018311, Lat : 49.2837454, Lng : -123.1146299, Q1 : 0.875618994236, Q2 : 0.0733527168632, Q3 : -0.137210786343, Q4 : 0.457256942987}
2019-04-14 01:35:01.61: SIM {TimeUS : 64834889, Roll : 0.15, Pitch : -17.92, Yaw : 55.1, Alt : 49.3300018311, Lat : 49.2837478, Lng : -123.1146245, Q1 : 0.875647366047, Q2 : 0.0732636973262, Q3 : -0.137500822544, Q4 : 0.457129865885}
2019-04-14 01:35:01.71: SIM {TimeUS : 64934849, Roll : 0.12, Pitch : -17.96, Yaw : 55.09, Alt : 49.3300018311, Lat : 49.2837503, Lng : -123.1146191, Q1 : 0.875667452812, Q2 : 0.0731500908732, Q3 : -0.13795645535, Q4 : 0.456972241402}
2019-04-14 01:35:01.81: SIM {TimeUS : 65034809, Roll : 0.1, Pitch : -17.97, Yaw : 55.08, Alt : 49.3300018311, Lat : 49.2837527, Lng : -123.1146136, Q1 : 0.875716269016, Q2 : 0.073051340878, Q3 : -0.138102099299, Q4 : 0.456850469112}
2019-04-14 01:35:01.91: SIM {TimeUS : 65134769, Roll : 0.11, Pitch : -17.96, Yaw : 55.07, Alt : 49.3300018311, Lat : 49.2837551, Lng : -123.1146082, Q1 : 0.875783443451, Q2 : 0.0730308294296, Q3 : -0.137967050076, Q4 : 0.456765770912}
2019-04-14 01:35:02.01: SIM {TimeUS : 65234729, Roll : 0.13, Pitch : -17.94, Yaw : 55.05, Alt : 49.3300018311, Lat : 49.2837576, Lng : -123.1146028, Q1 : 0.875841319561, Q2 : 0.0731315761805, Q3 : -0.137786030769, Q4 : 0.456693351269}
2019-04-14 01:35:02.11: SIM {TimeUS : 65334689, Roll : 0.15, Pitch : -17.95, Yaw : 55.04, Alt : 49.3300018311, Lat : 49.28376, Lng : -123.1145973, Q1 : 0.875877201557, Q2 : 0.0733024030924, Q3 : -0.137772753835, Q4 : 0.456601083279}
2019-04-14 01:35:02.21: SIM {TimeUS : 65434649, Roll : 0.15, Pitch : -17.97, Yaw : 55.02, Alt : 49.3400001526, Lat : 49.2837624, Lng : -123.1145919, Q1 : 0.875913500786, Q2 : 0.0733547285199, Q3 : -0.137887939811, Q4 : 0.456488281488}
2019-04-14 01:35:02.31: SIM {TimeUS : 65534609, Roll : 0.13, Pitch : -17.98, Yaw : 55.01, Alt : 49.3400001526, Lat : 49.2837649, Lng : -123.1145864, Q1 : 0.875957250595, Q2 : 0.0732654556632, Q3 : -0.138083964586, Q4 : 0.456359446049}
2019-04-14 01:35:02.41: SIM {TimeUS : 65634569, Roll : 0.12, Pitch : -18.0, Yaw : 55.0, Alt : 49.3400001526, Lat : 49.2837673, Lng : -123.1145809, Q1 : 0.87599003315, Q2 : 0.0732356384397, Q3 : -0.13828869164, Q4 : 0.456239312887}
2019-04-14 01:35:02.51: SIM {TimeUS : 65734529, Roll : 0.13, Pitch : -18.02, Yaw : 54.99, Alt : 49.3400001526, Lat : 49.2837697, Lng : -123.1145755, Q1 : 0.87601339817, Q2 : 0.0733461752534, Q3 : -0.138425126672, Q4 : 0.456135332584}
2019-04-14 01:35:02.61: SIM {TimeUS : 65835322, Roll : 0.14, Pitch : -18.04, Yaw : 54.97, Alt : 49.3400001526, Lat : 49.2837721, Lng : -123.1145699, Q1 : 0.876037716866, Q2 : 0.0734723135829, Q3 : -0.138503223658, Q4 : 0.456044495106}
2019-04-14 01:35:02.71: SIM {TimeUS : 65935282, Roll : 0.16, Pitch : -18.04, Yaw : 54.96, Alt : 49.3400001526, Lat : 49.2837746, Lng : -123.1145645, Q1 : 0.87604790926, Q2 : 0.0736551135778, Q3 : -0.138501018286, Q4 : 0.45599603653}
2019-04-14 01:35:02.81: SIM {TimeUS : 66035242, Roll : 0.17, Pitch : -18.06, Yaw : 54.96, Alt : 49.3400001526, Lat : 49.283777, Lng : -123.114559, Q1 : 0.876047790051, Q2 : 0.0737746357918, Q3 : -0.138574615121, Q4 : 0.455954730511}
2019-04-14 01:35:02.91: SIM {TimeUS : 66135202, Roll : 0.18, Pitch : -18.07, Yaw : 54.95, Alt : 49.3400001526, Lat : 49.2837794, Lng : -123.1145535, Q1 : 0.876043796539, Q2 : 0.0738952830434, Q3 : -0.138659492135, Q4 : 0.455917030573}
2019-04-14 01:35:03.01: SIM {TimeUS : 66235162, Roll : 0.19, Pitch : -18.09, Yaw : 54.95, Alt : 49.3400001526, Lat : 49.2837819, Lng : -123.114548, Q1 : 0.876036524773, Q2 : 0.074041955173, Q3 : -0.138727024198, Q4 : 0.455886602402}
2019-04-14 01:35:03.11: SIM {TimeUS : 66335122, Roll : 0.22, Pitch : -18.1, Yaw : 54.95, Alt : 49.3400001526, Lat : 49.2837843, Lng : -123.1145425, Q1 : 0.876016676426, Q2 : 0.0742955207825, Q3 : -0.138720199466, Q4 : 0.455885648727}
2019-04-14 01:35:03.21: SIM {TimeUS : 66435082, Roll : 0.25, Pitch : -18.12, Yaw : 54.94, Alt : 49.3400001526, Lat : 49.2837868, Lng : -123.114537, Q1 : 0.875985562801, Q2 : 0.0746169984341, Q3 : -0.138692900538, Q4 : 0.455901235342}
2019-04-14 01:35:03.31: SIM {TimeUS : 66535042, Roll : 0.25, Pitch : -18.11, Yaw : 54.94, Alt : 49.3400001526, Lat : 49.2837893, Lng : -123.1145315, Q1 : 0.875996589661, Q2 : 0.0746000483632, Q3 : -0.138683378696, Q4 : 0.455885767937}
2019-04-14 01:35:03.41: SIM {TimeUS : 66635002, Roll : 0.22, Pitch : -18.12, Yaw : 54.94, Alt : 49.3499984741, Lat : 49.2837917, Lng : -123.114526, Q1 : 0.876018166542, Q2 : 0.0744094401598, Q3 : -0.138868644834, Q4 : 0.455818980932}
2019-04-14 01:35:03.51: SIM {TimeUS : 66734962, Roll : 0.19, Pitch : -18.14, Yaw : 54.93, Alt : 49.3499984741, Lat : 49.2837942, Lng : -123.1145205, Q1 : 0.876031339169, Q2 : 0.0742470994592, Q3 : -0.139160677791, Q4 : 0.455731004477}
