2019-04-14 02:27:25.80: SIM {TimeUS : 40816167, Roll : 0.0, Pitch : 0.0, Yaw : 0.0, Alt : 30.1000003815, Lat : 49.28357, Lng : -123.11502, Q1 : 1.0, Q2 : 0.0, Q3 : 0.0, Q4 : 0.0}
2019-04-14 02:27:25.91: SIM {TimeUS : 40935286, Roll : 0.0, Pitch : 0.0, Yaw : 0.0, Alt : 30.1000003815, Lat : 49.28357, Lng : -123.11502, Q1 : 1.0, Q2 : 0.0, Q3 : 0.0, Q4 : 0.0}
2019-04-14 02:27:26.01: SIM {TimeUS : 41035246, Roll : 0.0, Pitch : 0.0, Yaw : 0.0, Alt : 30.1000003815, Lat : 49.28357, Lng : -123.11502, Q1 : 1.0, Q2 : 0.0, Q3 : 0.0, Q4 : 0.0}
2019-04-14 02:27:26.11: SIM {TimeUS : 41135206, Roll : 0.0, Pitch : 0.0, Yaw : 0.0, Alt : 30.1000003815, Lat : 49.28357, Lng : -123.11502, Q1 : 1.0, Q2 : 0.0, Q3 : 0.0, Q4 : 0.0}
2019-04-14 02:27:26.21: SIM {TimeUS : 41235166, Roll : 0.0, Pitch : 0.0, Yaw : 0.0, Alt : 30.1000003815, Lat : 49.28357, Lng : -123.11502, Q1 : 1.0, Q2 : 0.0, Q3 : 0.0, Q4 : 0.0}
2019-04-14 02:27:26.31: SIM {TimeUS : 41335126, Roll : 0.0, Pitch : 0.0, Yaw : 0.0, Alt : 30.1000003815, Lat : 49.28357, Lng : -123.11502, Q1 : 1.0, Q2 : 0.0, Q3 : 0.0, Q4 : 0.0}
2019-04-14 02:27:26.41: SIM {TimeUS : 41435086, Roll : 0.0, Pitch : 0.0, Yaw : 0.0, Alt : 30.1000003815, Lat : 49.28357, Lng : -123.11502, Q1 : 1.0, Q2 : 0.0, Q3 : 0.0, Q4 : 0.0}
2019-04-14 02:27:26.51: SIM {TimeUS : 41535046, Roll : 0.0, Pitch : 0.0, Yaw : 0.0, Alt : 30.1000003815, Lat : 49.28357, Lng : -123.11502, Q1 : 1.0, Q2 : 0.0, Q3 : 0.0, Q4 : 0.0}
2019-04-14 02:27:26.61: SIM {TimeUS : 41635006, Roll : 0.0, Pitch : 0.0, Yaw : 0.0, Alt : 30.1000003815, Lat : 49.28357, Lng : -123.11502, Q1 : 1.0, Q2 : 0.0, Q3 : 0.0, Q4 : 0.0}
2019-04-14 02:27:26.71: SIM {TimeUS : 41734966, Roll : 0.0, Pitch : 0.0, Yaw : 0.0, Alt : 30.1000003815, Lat : 49.28357, Lng : -123.11502, Q1 : 1.0, Q2 : 0.0, Q3 : 0.0, Q4 : 0.0}
2019-04-14 02:27:26.81: SIM {TimeUS : 41834926, Roll : 0.0, Pitch : 0.0, Yaw : 0.0, Alt : 30.1000003815, Lat : 49.28357, Lng : -123.11502, Q1 : 1.0, Q2 : 0.0, Q3 : 0.0, Q4 : 0.0}
2019-04-14 02:27:26.91: SIM {TimeUS : 41934886, Roll : 0.0, Pitch : 0.0, Yaw : 0.0, Alt : 30.1000003815, Lat : 49.28357, Lng : -123.11502, Q1 : 1.0, Q2 : 0.0, Q3 : 0.0, Q4 : 0.0}
2019-04-14 02:27:27.01: SIM {TimeUS : 42034846, Roll : 0.0, Pitch : 0.0, Yaw : 0.0, Alt : 30.1000003815, Lat : 49.28357, Lng : -123.11502, Q1 : 1.0, Q2 : 0.0, Q3 : 0.0, Q4 : 0.0}
2019-04-14 02:27:27.11: SIM {TimeUS : 42134806, Roll : 0.0, Pitch : 0.0, Yaw : 0.0, Alt : 30.1000003815, Lat : 49.28357, Lng : -123.11502, Q1 : 1.0, Q2 : 0.0, Q3 : 0.0, Q4 : 0.0}
2019-04-14 02:27:27.21: SIM {TimeUS : 42234766, Roll : 0.0, Pitch : 0.0, Yaw : 0.0, Alt : 30.1000003815, Lat : 49.28357, Lng : -123.11502, Q1 : 1.0, Q2 : 0.0, Q3 : 0.0, Q4 : 0.0}
2019-04-14 02:27:27.31: SIM {TimeUS : 42334726, Roll : 0.0, Pitch : 0.0, Yaw : 0.0, Alt : 30.1000003815, Lat : 49.28357, Lng : -123.11502, Q1 : 1.0, Q2 : 0.0, Q3 : 0.0, Q4 : 0.0}
2019-04-14 02:27:27.41: SIM {TimeUS : 42434686, Roll : 0.0, Pitch : 0.0, Yaw : 0.0, Alt : 30.1000003815, Lat : 49.28357, Lng : -123.11502, Q1 : 1.0, Q2 : 0.0, Q3 : 0.0, Q4 : 0.0}
2019-04-14 02:27:27.51: SIM {TimeUS : 42534646, Roll : 0.0, Pitch : 0.0, Yaw : 0.0, Alt : 30.1000003815, Lat : 49.28357, Lng : -123.11502, Q1 : 1.0, Q2 : 0.0, Q3 : 0.0, Q4 : 0.0}
2019-04-14 02:27:27.61: SIM {TimeUS : 42634606, Roll : 0.0, Pitch : 0.0, Yaw : 0.0, Alt : 30.1000003815, Lat : 49.28357, Lng : -123.11502, Q1 : 1.0, Q2 : 0.0, Q3 : 0.0, Q4 : 0.0}
2019-04-14 02:27:27.71: SIM {TimeUS : 42734566, Roll : 0.0, Pitch : 0.0, Yaw : 0.0, Alt : 30.1000003815, Lat : 49.28357, Lng : -123.11502, Q1 : 1.0, Q2 : 0.0, Q3 : 0.0, Q4 : 0.0}
2019-04-14 02:27:27.81: SIM {TimeUS : 42834526, Roll : 0.0, Pitch : 0.0, Yaw : 0.0, Alt : 30.1000003815, Lat : 49.28357, Lng : -123.11502, Q1 : 1.0, Q2 : 0.0, Q3 : 0.0, Q4 : 0.0}
2019-04-14 02:27:27.91: SIM {TimeUS : 42935319, Roll : 0.0, Pitch : 0.0, Yaw : 0.0, Alt : 30.1000003815, Lat : 49.28357, Lng : -123.11502, Q1 : 1.0, Q2 : 0.0, Q3 : 0.0, Q4 : 0.0}
2019-04-14 02:27:28.01: SIM {TimeUS : 43035279, Roll : 0.0, Pitch : 0.0, Yaw : 0.0, Alt : 30.1000003815, Lat : 49.28357, Lng : -123.11502, Q1 : 1.0, Q2 : 0.0, Q3 : 0.0, Q4 : 0.0}
2019-04-14 02:27:28.11: SIM {TimeUS : 43135239, Roll : 0.0, Pitch : 0.0, Yaw : 360.0, Alt : 30.1000003815, Lat : 49.28357, Lng : -123.11502, Q1 : 1.0, Q2 : 0.0, Q3 : 0.0, Q4 : -1.17322046175e-11}
2019-04-14 02:27:28.21: SIM {TimeUS : 43235199, Roll : 0.0, Pitch : 0.0, Yaw : 0.0, Alt : 30.1000003815, Lat : 49.28357, Lng : -123.11502, Q1 : 1.0, Q2 : 0.0, Q3 : 0.0, Q4 : 2.90170977524e-11}
2019-04-14 02:27:28.31: SIM {TimeUS : 43335159, Roll : 0.0, Pitch : 0.0, Yaw : 360.0, Alt : 30.1000003815, Lat : 49.28357, Lng : -123.11502, Q1 : 1.0, Q2 : 0.0, Q3 : 0.0, Q4 : -1.45012350572e-07}
2019-04-14 02:27:28.41: SIM {TimeUS : 43435119, Roll : 0.0, Pitch : 0.0, Yaw : 359.99, Alt : 30.1000003815, Lat : 49.28357, Lng : -123.11502, Q1 : 1.0, Q2 : 0.0, Q3 : 0.0, Q4 : -2.95616018775e-07}
2019-04-14 02:27:28.51: SIM {TimeUS : 43535079, Roll : 0.0, Pitch : 0.0, Yaw : 359.99, Alt : 30.1000003815, Lat : 49.28357, Lng : -123.11502, Q1 : 1.0, Q2 : 0.0, Q3 : 0.0, Q4 : -5.16107945714e-07}
2019-04-14 02:27:28.61: SIM {TimeUS : 43635039, Roll : 0.0, Pitch : 0.0, Yaw : 359.99, Alt : 30.1000003815, Lat : 49.28357, Lng : -123.11502, Q1 : 1.0, Q2 : 0.0, Q3 : 0.0, Q4 : -6.85874681494e-07}
2019-04-14 02:27:28.71: SIM {TimeUS : 43734999, Roll : 0.0, Pitch : 0.0, Yaw : 359.99, Alt : 30.1000003815, Lat : 49.28357, Lng : -123.11502, Q1 : 1.0, Q2 : 0.0, Q3 : 0.0, Q4 : -9.15212581276e-07}
2019-04-14 02:27:28.81: SIM {TimeUS : 43834959, Roll : 0.0, Pitch : 0.0, Yaw : 359.99, Alt : 30.1000003815, Lat : 49.28357, Lng : -123.11502, Q1 : 1.0, Q2 : 0.0, Q3 : 0.0, Q4 : -1.08332926629e-06}
2019-04-14 02:27:28.91: SIM {TimeUS : 43934919, Roll : 0.0, Pitch : 0.0, Yaw : 359.99, Alt : 30.1000003815, Lat : 49.28357, Lng : -123.11502, Q1 : 1.0, Q2 : 0.0, Q3 : 0.0, Q4 : -1.2358807453e-06}
2019-04-14 02:27:29.01: SIM {TimeUS : 44034879, Roll : 0.0, Pitch : 0.0, Yaw : 359.99, Alt : 30.1100006104, Lat : 49.28357, Lng : -123.11502, Q1 : 1.0, Q2 : 0.0, Q3 : 0.0, Q4 : -1.443619567e-06}
2019-04-14 02:27:29.11: SIM {TimeUS : 44134839, Roll : 0.0, Pitch : 0.0, Yaw : 359.99, Alt : 30.1399993896, Lat : 49.28357, Lng : -123.11502, Q1 : 1.0, Q2 : 0.0, Q3 : 0.0, Q4 : -1.63373181294e-06}
2019-04-14 02:27:29.21: SIM {TimeUS : 44234799, Roll : 0.0, Pitch : 0.0, Yaw : 359.99, Alt : 30.1599998474, Lat : 49.28357, Lng : -123.11502, Q1 : 1.0, Q2 : 0.0, Q3 : 0.0, Q4 : -1.8525294081e-06}
2019-04-14 02:27:29.31: SIM {TimeUS : 44334759, Roll : 0.0, Pitch : 0.0, Yaw : 359.99, Alt : 30.2000007629, Lat : 49.28357, Lng : -123.11502, Q1 : 1.0, Q2 : 0.0, Q3 : 0.0, Q4 : -2.00012550522e-06}
2019-04-14 02:27:29.41: SIM {TimeUS : 44434719, Roll : -0.08, Pitch : -0.08, Yaw : 359.99, Alt : 30.25, Lat : 49.28357, Lng : -123.11502, Q1 : 0.999999403954, Q2 : -0.000768076162785, Q3 : -0.000740190385841, Q4 : -1.07625373857e-05}
2019-04-14 02:27:29.51: SIM {TimeUS : 44534679, Roll : -0.38, Pitch : -0.32, Yaw : 359.99, Alt : 30.3400001526, Lat : 49.28357, Lng : -123.11502, Q1 : 0.999990522861, Q2 : -0.00332622439601, Q3 : -0.0028095736634, Q4 : -4.84954362037e-05}
2019-04-14 02:27:29.61: SIM {TimeUS : 44634639, Roll : -0.69, Pitch : -0.55, Yaw : 359.99, Alt : 30.4899997711, Lat : 49.28357, Lng : -123.11502, Q1 : 0.99996984005, Q2 : -0.00610525067896, Q3 : -0.0048020365648, Q4 : -0.000111876084702}
2019-04-14 02:27:29.71: SIM {TimeUS : 44734599, Roll : -0.87, Pitch : -0.68, Yaw : 359.98, Alt : 30.6499996185, Lat : 49.28357, Lng : -123.11502, Q1 : 0.999952971935, Q2 : -0.00762420333922, Q3 : -0.00598722836003, Q4 : -0.000189901445992}
2019-04-14 02:27:29.81: SIM {TimeUS : 44834559, Roll : -0.85, Pitch : -0.7, Yaw : 359.97, Alt : 30.7999992371, Lat : 49.28357, Lng : -123.11502, Q1 : 0.999953269958, Q2 : -0.00747441407293, Q3 : -0.00612838938832, Q4 : -0.000267711468041}
2019-04-14 02:27:29.91: SIM {TimeUS : 44934519, Roll : -0.69, Pitch : -0.6, Yaw : 359.96, Alt : 30.9599990845, Lat : 49.28357, Lng : -123.1150201, Q1 : 0.999967694283, Q2 : -0.00604796689004, Q3 : -0.00528815342113, Q4 : -0.000340165250236}
2019-04-14 02:27:30.01: SIM {TimeUS : 45035312, Roll : -0.44, Pitch : -0.43, Yaw : 359.95, Alt : 31.1100006104, Lat : 49.2835701, Lng : -123.1150201, Q1 : 0.999985098839, Q2 : -0.00391012663022, Q3 : -0.00379520491697, Q4 : -0.000401322526159}
2019-04-14 02:27:30.11: SIM {TimeUS : 45135272, Roll : -0.2, Pitch : -0.24, Yaw : 359.94, Alt : 31.2700004578, Lat : 49.2835701, Lng : -123.1150202, Q1 : 0.999996125698, Q2 : -0.00175402476452, Q3 : -0.00211520749144, Q4 : -0.000448708946351}
2019-04-14 02:27:30.21: SIM {TimeUS : 45235232, Roll : -0.02, Pitch : -0.06, Yaw : 359.94, Alt : 31.4400005341, Lat : 49.2835702, Lng : -123.1150203, Q1 : 0.999999701977, Q2 : -0.000187045370694, Q3 : -0.000609607785009, Q4 : -0.00048335181782}
2019-04-14 02:27:30.31: SIM {TimeUS : 45335192, Roll : 0.06, Pitch : 0.05, Yaw : 359.94, Alt : 31.6100006104, Lat : 49.2835702, Lng : -123.1150204, Q1 : 0.999999582767, Q2 : 0.000586638227105, Q3 : 0.000464981101686, Q4 : -0.000508601253387}
2019-04-14 02:27:30.41: SIM {TimeUS : 45435152, Roll : 0.07, Pitch : 0.12, Yaw : 359.94, Alt : 31.7900009155, Lat : 49.2835703, Lng : -123.1150204, Q1 : 0.99999910593, Q2 : 0.00063748867251, Q3 : 0.00105995498598, Q4 : -0.000519235734828}
2019-04-14 02:27:30.51: SIM {TimeUS : 45535112, Roll : 0.05, Pitch : 0.15, Yaw : 359.93, Alt : 31.9799995422, Lat : 49.2835703, Lng : -123.1150205, Q1 : 0.999998867512, Q2 : 0.000510805519298, Q3 : 0.00131439173128, Q4 : -0.000532824371476}
2019-04-14 02:27:30.61: SIM {TimeUS : 45635072, Roll : 0.04, Pitch : 0.14, Yaw : 359.93, Alt : 32.1599998474, Lat : 49.2835703, Lng : -123.1150206, Q1 : 0.999998927116, Q2 : 0.000404038641136, Q3 : 0.00128135294653, Q4 : -0.00053463113727}
2019-04-14 02:27:30.71: SIM {TimeUS : 45735032, Roll : 0.04, Pitch : 0.14, Yaw : 359.93, Alt : 32.3499984741, Lat : 49.2835703, Lng : -123.1150206, Q1 : 0.999999046326, Q2 : 0.0003731486795, Q3 : 0.00122486217879, Q4 : -0.000527326075826}
2019-04-14 02:27:30.81: SIM {TimeUS : 45834992, Roll : 0.05, Pitch : 0.14, Yaw : 359.94, Alt : 32.5499992371, Lat : 49.2835703, Lng : -123.1150206, Q1 : 0.999998986721, Q2 : 0.000470066122944, Q3 : 0.00123233802151, Q4 : -0.000509760633577}
2019-04-14 02:27:30.91: SIM {TimeUS : 45934952, Roll : 0.08, Pitch : 0.12, Yaw : 359.94, Alt : 32.7400016785, Lat : 49.2835703, Lng : -123.1150207, Q1 : 0.999999046326, Q2 : 0.000745149096474, Q3 : 0.00105119182263, Q4 : -0.000487882003654}
2019-04-14 02:27:31.01: SIM {TimeUS : 46034912, Roll : 0.12, Pitch : 0.09, Yaw : 359.94, Alt : 32.9399986267, Lat : 49.2835703, Lng : -123.1150207, Q1 : 0.999998986721, Q2 : 0.00105096946936, Q3 : 0.000813155435026, Q4 : -0.000457481015474}
2019-04-14 02:27:31.11: SIM {TimeUS : 46134872, Roll : 0.15, Pitch : 0.09, Yaw : 359.94, Alt : 33.1399993896, Lat : 49.2835704, Lng : -123.1150207, Q1 : 0.999998688698, Q2 : 0.00131107738707, Q3 : 0.000811806763522, Q4 : -0.000437634938862}
2019-04-14 02:27:31.21: SIM {TimeUS : 46234832, Roll : 0.16, Pitch : 0.09, Yaw : 359.95, Alt : 33.3499984741, Lat : 49.2835704, Lng : -123.1150208, Q1 : 0.999998450279, Q2 : 0.00148022919893, Q3 : 0.000850884069223, Q4 : -0.000423788966145}
2019-04-14 02:27:31.31: SIM {TimeUS : 46334792, Roll : 0.17, Pitch : 0.11, Yaw : 359.95, Alt : 33.5499992371, Lat : 49.2835704, Lng : -123.1150208, Q1 : 0.999998211861, Q2 : 0.00156467035413, Q3 : 0.000992969493382, Q4 : -0.000414142821683}
2019-04-14 02:27:31.41: SIM {TimeUS : 46434752, Roll : 0.17, Pitch : 0.12, Yaw : 359.95, Alt : 33.7599983215, Lat : 49.2835704, Lng : -123.1150208, Q1 : 0.999998152256, Q2 : 0.00151754391845, Q3 : 0.00108696473762, Q4 : -0.000409719476011}
2019-04-14 02:27:31.51: SIM {TimeUS : 46534712, Roll : 0.15, Pitch : 0.12, Yaw : 359.95, Alt : 33.9700012207, Lat : 49.2835704, Lng : -123.1150208, Q1 : 0.99999833107, Q2 : 0.00134650745895, Q3 : 0.00111583666876, Q4 : -0.000417282950366}
2019-04-14 02:27:31.61: SIM {TimeUS : 46634672, Roll : 0.12, Pitch : 0.12, Yaw : 359.95, Alt : 34.1800003052, Lat : 49.2835704, Lng : -123.1150208, Q1 : 0.999998629093, Q2 : 0.00112861243542, Q3 : 0.00111638626549, Q4 : -0.00043215599726}
2019-04-14 02:27:31.71: SIM {TimeUS : 46734632, Roll : 0.1, Pitch : 0.12, Yaw : 359.94, Alt : 34.3899993896, Lat : 49.2835704, Lng : -123.1150208, Q1 : 0.999998867512, Q2 : 0.000922390143387, Q3 : 0.00107038696297, Q4 : -0.000457123416709}
2019-04-14 02:27:31.81: SIM {TimeUS : 46834592, Roll : 0.09, Pitch : 0.08, Yaw : 359.94, Alt : 34.5999984741, Lat : 49.2835704, Lng : -123.1150208, Q1 : 0.999999284744, Q2 : 0.000837594619952, Q3 : 0.000742971373256, Q4 : -0.000491282262374}
2019-04-14 02:27:31.91: SIM {TimeUS : 46934552, Roll : 0.09, Pitch : 0.04, Yaw : 359.93, Alt : 34.8199996948, Lat : 49.2835704, Lng : -123.1150208, Q1 : 0.999999463558, Q2 : 0.000786514021456, Q3 : 0.000435393420048, Q4 : -0.000528972188476}
2019-04-14 02:27:32.01: SIM {TimeUS : 47034512, Roll : 0.07, Pitch : 0.03, Yaw : 359.93, Alt : 35.0299987793, Lat : 49.2835704, Lng : -123.1150207, Q1 : 0.999999582767, Q2 : 0.000632853421848, Q3 : 0.000282377499389, Q4 : -0.000568477262277}
2019-04-14 02:27:32.11: SIM {TimeUS : 47135305, Roll : 0.06, Pitch : 0.02, Yaw : 359.93, Alt : 35.25, Lat : 49.2835704, Lng : -123.1150207, Q1 : 0.999999642372, Q2 : 0.000528424861841, Q3 : 0.000239177315962, Q4 : -0.00060443446273}
2019-04-14 02:27:32.21: SIM {TimeUS : 47235265, Roll : 0.05, Pitch : 0.02, Yaw : 359.92, Alt : 35.4700012207, Lat : 49.2835704, Lng : -123.1150207, Q1 : 0.999999642372, Q2 : 0.000519694003742, Q3 : 0.000229438664974, Q4 : -0.000629837741144}
2019-04-14 02:27:32.31: SIM {TimeUS : 47335225, Roll : 0.03, Pitch : 0.0, Yaw : 359.92, Alt : 35.6899986267, Lat : 49.2835704, Lng : -123.1150207, Q1 : 0.999999701977, Q2 : 0.000296726851957, Q3 : 2.24822761083e-05, Q4 : -0.000650333124213}
2019-04-14 02:27:32.41: SIM {TimeUS : 47435185, Roll : 0.0, Pitch : -0.03, Yaw : 359.92, Alt : 35.9099998474, Lat : 49.2835704, Lng : -123.1150207, Q1 : 0.999999701977, Q2 : -7.46619698475e-05, Q3 : -0.000288615556201, Q4 : -0.000669702130836}
2019-04-14 02:27:32.51: SIM {TimeUS : 47535145, Roll : -0.05, Pitch : -0.05, Yaw : 359.92, Alt : 36.1300010681, Lat : 49.2835704, Lng : -123.1150207, Q1 : 0.999999523163, Q2 : -0.000441439653514, Q3 : -0.00049809156917, Q4 : -0.000693042413332}
2019-04-14 02:27:32.61: SIM {TimeUS : 47635105, Roll : -0.08, Pitch : -0.06, Yaw : 359.91, Alt : 36.3499984741, Lat : 49.2835704, Lng : -123.1150207, Q1 : 0.999999284744, Q2 : -0.000719562580343, Q3 : -0.00060737185413, Q4 : -0.000715896254405}
2019-04-14 02:27:32.71: SIM {TimeUS : 47735065, Roll : -0.08, Pitch : -0.06, Yaw : 359.91, Alt : 36.5699996948, Lat : 49.2835704, Lng : -123.1150206, Q1 : 0.99999922514, Q2 : -0.00077074219007, Q3 : -0.000594756100327, Q4 : -0.00073542620521}
2019-04-14 02:27:32.81: SIM {TimeUS : 47835025, Roll : -0.08, Pitch : -0.06, Yaw : 359.91, Alt : 36.7999992371, Lat : 49.2835704, Lng : -123.1150206, Q1 : 0.99999922514, Q2 : -0.000776937231421, Q3 : -0.000577398750465, Q4 : -0.000753615109716}
2019-04-14 02:27:32.91: SIM {TimeUS : 47934985, Roll : -0.07, Pitch : -0.05, Yaw : 359.91, Alt : 37.0200004578, Lat : 49.2835704, Lng : -123.1150206, Q1 : 0.999999344349, Q2 : -0.00068816752173, Q3 : -0.000461587565951, Q4 : -0.000775875232648}
2019-04-14 02:27:33.01: SIM {TimeUS : 48034945, Roll : -0.06, Pitch : -0.04, Yaw : 359.9, Alt : 37.2400016785, Lat : 49.2835704, Lng : -123.1150206, Q1 : 0.999999463558, Q2 : -0.000538943510037, Q3 : -0.000393161637476, Q4 : -0.0007974152104}
2019-04-14 02:27:33.11: SIM {TimeUS : 48134905, Roll : -0.06, Pitch : -0.04, Yaw : 359.9, Alt : 37.4700012207, Lat : 49.2835704, Lng : -123.1150206, Q1 : 0.999999403954, Q2 : -0.000550642376766, Q3 : -0.000429558858741, Q4 : -0.000817936670501}
2019-04-14 02:27:33.21: SIM {TimeUS : 48234865, Roll : -0.07, Pitch : -0.03, Yaw : 359.9, Alt : 37.6899986267, Lat : 49.2835704, Lng : -123.1150206, Q1 : 0.999999403954, Q2 : -0.000639287114609, Q3 : -0.00028637831565, Q4 : -0.000843711371999}
2019-04-14 02:27:33.31: SIM {TimeUS : 48334825, Roll : -0.09, Pitch : 0.0, Yaw : 359.9, Alt : 37.9199981689, Lat : 49.2835704, Lng : -123.1150206, Q1 : 0.99999922514, Q2 : -0.000841518223751, Q3 : -7.29306048015e-05, Q4 : -0.000872504722793}
2019-04-14 02:27:33.41: SIM {TimeUS : 48434785, Roll : -0.09, Pitch : 0.01, Yaw : 359.89, Alt : 38.1500015259, Lat : 49.2835704, Lng : -123.1150206, Q1 : 0.99999922514, Q2 : -0.000864759669639, Q3 : 9.25951026147e-05, Q4 : -0.000892274314538}
2019-04-14 02:27:33.51: SIM {TimeUS : 48534745, Roll : -0.07, Pitch : 0.04, Yaw : 359.89, Alt : 38.3800010681, Lat : 49.2835704, Lng : -123.1150206, Q1 : 0.999999284744, Q2 : -0.00067818374373, Q3 : 0.000370325695258, Q4 : -0.000910416070838}
2019-04-14 02:27:33.61: SIM {TimeUS : 48634705, Roll : -0.05, Pitch : 0.03, Yaw : 359.89, Alt : 38.5999984741, Lat : 49.2835704, Lng : -123.1150206, Q1 : 0.999999403954, Q2 : -0.000491021724883, Q3 : 0.000333899166435, Q4 : -0.000930288922973}
2019-04-14 02:27:33.71: SIM {TimeUS : 48734665, Roll : -0.03, Pitch : 0.02, Yaw : 359.89, Alt : 38.8300018311, Lat : 49.2835704, Lng : -123.1150206, Q1 : 0.999999463558, Q2 : -0.0002739415213, Q3 : 0.000194648906472, Q4 : -0.000948252272792}
2019-04-14 02:27:33.81: SIM {TimeUS : 48834625, Roll : 0.0, Pitch : 0.03, Yaw : 359.88, Alt : 39.0600013733, Lat : 49.2835704, Lng : -123.1150206, Q1 : 0.999999523163, Q2 : 3.14406065627e-06, Q3 : 0.000264564499957, Q4 : -0.000962141493801}
2019-04-14 02:27:33.91: SIM {TimeUS : 48934585, Roll : 0.03, Pitch : 0.05, Yaw : 359.88, Alt : 39.2900009155, Lat : 49.2835704, Lng : -123.1150206, Q1 : 0.999999403954, Q2 : 0.000317238474963, Q3 : 0.000439207127783, Q4 : -0.000977545510978}
2019-04-14 02:27:34.01: SIM {TimeUS : 49034545, Roll : 0.06, Pitch : 0.07, Yaw : 359.88, Alt : 39.5200004578, Lat : 49.2835706, Lng : -123.1150206, Q1 : 0.99999910593, Q2 : 0.000599137041718, Q3 : 0.000637166202068, Q4 : -0.000997321680188}
2019-04-14 02:27:34.11: SIM {TimeUS : 49134505, Roll : 0.06, Pitch : 0.09, Yaw : 359.88, Alt : 39.75, Lat : 49.2835706, Lng : -123.1150206, Q1 : 0.999998927116, Q2 : 0.000596613448579, Q3 : 0.00085160654271, Q4 : -0.00101353938226}
2019-04-14 02:27:34.21: SIM {TimeUS : 49235298, Roll : 0.02, Pitch : 0.12, Yaw : 359.88, Alt : 39.9799995422, Lat : 49.2835706, Lng : -123.1150206, Q1 : 0.999998867512, Q2 : 0.000235509491176, Q3 : 0.00105567509308, Q4 : -0.00104592298158}
2019-04-14 02:27:34.31: SIM {TimeUS : 49335258, Roll : 0.0, Pitch : 0.11, Yaw : 359.87, Alt : 40.2200012207, Lat : 49.2835706, Lng : -123.1150206, Q1 : 0.999998867512, Q2 : -7.41530384403e-05, Q3 : 0.00103442557156, Q4 : -0.00106681394391}
2019-04-14 02:27:34.41: SIM {TimeUS : 49435218, Roll : -0.03, Pitch : 0.09, Yaw : 359.87, Alt : 40.4500007629, Lat : 49.2835706, Lng : -123.1150206, Q1 : 0.999998986721, Q2 : -0.000322075939039, Q3 : 0.000855234276969, Q4 : -0.00109087338205}
2019-04-14 02:27:34.51: SIM {TimeUS : 49535178, Roll : -0.04, Pitch : 0.08, Yaw : 359.87, Alt : 40.6800003052, Lat : 49.2835706, Lng : -123.1150206, Q1 : 0.999998986721, Q2 : -0.000434986694017, Q3 : 0.000758174748626, Q4 : -0.00111675320659}
2019-04-14 02:27:34.61: SIM {TimeUS : 49635138, Roll : -0.04, Pitch : 0.1, Yaw : 359.86, Alt : 40.9099998474, Lat : 49.2835706, Lng : -123.1150206, Q1 : 0.999998867512, Q2 : -0.000348409987055, Q3 : 0.000913740193937, Q4 : -0.00114449986722}
2019-04-14 02:27:34.71: SIM {TimeUS : 49735098, Roll : 0.0, Pitch : 0.13, Yaw : 359.86, Alt : 41.1399993896, Lat : 49.2835706, Lng : -123.1150207, Q1 : 0.999998569489, Q2 : 1.99396090466e-05, Q3 : 0.00119737361092, Q4 : -0.00117438775487}
2019-04-14 02:27:34.81: SIM {TimeUS : 49835058, Roll : 0.05, Pitch : 0.15, Yaw : 359.86, Alt : 41.3800010681, Lat : 49.2835706, Lng : -123.1150207, Q1 : 0.999998211861, Q2 : 0.000460297800601, Q3 : 0.00136720295995, Q4 : -0.00120579183567}
2019-04-14 02:27:34.91: SIM {TimeUS : 49935018, Roll : 0.08, Pitch : 0.12, Yaw : 359.85, Alt : 41.6100006104, Lat : 49.2835706, Lng : -123.1150207, Q1 : 0.99999833107, Q2 : 0.000755508372094, Q3 : 0.00112020364031, Q4 : -0.00124296383001}
2019-04-14 02:27:35.01: SIM {TimeUS : 50034978, Roll : 0.08, Pitch : 0.07, Yaw : 359.85, Alt : 41.8400001526, Lat : 49.2835706, Lng : -123.1150207, Q1 : 0.999998629093, Q2 : 0.000769970414694, Q3 : 0.000680597382598, Q4 : -0.0012804105645}
2019-04-14 02:27:35.11: SIM {TimeUS : 50134938, Roll : 0.05, Pitch : 0.04, Yaw : 359.84, Alt : 42.0800018311, Lat : 49.2835706, Lng : -123.1150207, Q1 : 0.999998986721, Q2 : 0.00044914719183, Q3 : 0.000363921368262, Q4 : -0.00131159066223}
2019-04-14 02:27:35.21: SIM {TimeUS : 50234898, Roll : 0.0, Pitch : 0.03, Yaw : 359.84, Alt : 42.3100013733, Lat : 49.2835706, Lng : -123.1150207, Q1 : 0.999999046326, Q2 : 1.31968874939e-06, Q3 : 0.000303543842165, Q4 : -0.00133530038875}
2019-04-14 02:27:35.31: SIM {TimeUS : 50334858, Roll : -0.03, Pitch : 0.06, Yaw : 359.84, Alt : 42.5499992371, Lat : 49.2835706, Lng : -123.1150207, Q1 : 0.999998927116, Q2 : -0.000310807168717, Q3 : 0.000572184857447, Q4 : -0.00134494621307}
2019-04-14 02:27:35.41: SIM {TimeUS : 50434818, Roll : -0.05, Pitch : 0.09, Yaw : 359.84, Alt : 42.7799987793, Lat : 49.2835704, Lng : -123.1150207, Q1 : 0.999998688698, Q2 : -0.000463429983938, Q3 : 0.000792479724623, Q4 : -0.00135033566039}
2019-04-14 02:27:35.51: SIM {TimeUS : 50534778, Roll : -0.05, Pitch : 0.08, Yaw : 359.84, Alt : 43.0200004578, Lat : 49.2835704, Lng : -123.1150206, Q1 : 0.999998688698, Q2 : -0.000442359072622, Q3 : 0.000761485600378, Q4 : -0.00135530263651}
2019-04-14 02:27:35.61: SIM {TimeUS : 50634738, Roll : -0.05, Pitch : 0.07, Yaw : 359.84, Alt : 43.25, Lat : 49.2835704, Lng : -123.1150206, Q1 : 0.999998748302, Q2 : -0.000457425718196, Q3 : 0.00064488267526, Q4 : -0.00136452505831}
2019-04-14 02:27:35.71: SIM {TimeUS : 50734698, Roll : -0.04, Pitch : 0.05, Yaw : 359.84, Alt : 43.4900016785, Lat : 49.2835704, Lng : -123.1150206, Q1 : 0.999998867512, Q2 : -0.000389300199458, Q3 : 0.000473059189972, Q4 : -0.0013775358675}
2019-04-14 02:27:35.81: SIM {TimeUS : 50834658, Roll : -0.02, Pitch : 0.03, Yaw : 359.84, Alt : 43.7200012207, Lat : 49.2835704, Lng : -123.1150206, Q1 : 0.999998986721, Q2 : -0.000184253018233, Q3 : 0.00033542708843, Q4 : -0.0013962945668}
2019-04-14 02:27:35.91: SIM {TimeUS : 50934618, Roll : 0.0, Pitch : 0.02, Yaw : 359.83, Alt : 43.9599990845, Lat : 49.2835704, Lng : -123.1150206, Q1 : 0.999998986721, Q2 : 4.83101894133e-06, Q3 : 0.000257467443589, Q4 : -0.0014174192911}
2019-04-14 02:27:36.01: SIM {TimeUS : 51034578, Roll : 0.0, Pitch : 0.0, Yaw : 359.83, Alt : 44.1899986267, Lat : 49.2835704, Lng : -123.1150206, Q1 : 0.999998986721, Q2 : -2.01689613277e-06, Q3 : 7.95741289039e-05, Q4 : -0.00143571966328}
2019-04-14 02:27:36.11: SIM {TimeUS : 51134538, Roll : -0.01, Pitch : -0.02, Yaw : 359.83, Alt : 44.4300003052, Lat : 49.2835704, Lng : -123.1150206, Q1 : 0.999998927116, Q2 : -0.000101354504295, Q3 : -0.000217900174903, Q4 : -0.00146183196921}
2019-04-14 02:27:36.21: SIM {TimeUS : 51234498, Roll : -0.01, Pitch : -0.04, Yaw : 359.82, Alt : 44.6599998474, Lat : 49.2835704, Lng : -123.1150206, Q1 : 0.999998807907, Q2 : -0.000174732296728, Q3 : -0.000373497692635, Q4 : -0.00149781932123}
2019-04-14 02:27:36.31: SIM {TimeUS : 51335291, Roll : -0.01, Pitch : -0.04, Yaw : 359.82, Alt : 44.9000015259, Lat : 49.2835704, Lng : -123.1150206, Q1 : 0.999998748302, Q2 : -0.000152863489348, Q3 : -0.000428865663707, Q4 : -0.0015312761534}
2019-04-14 02:27:36.41: SIM {TimeUS : 51435251, Roll : -0.02, Pitch : -0.04, Yaw : 359.82, Alt : 45.1399993896, Lat : 49.2835704, Lng : -123.1150206, Q1 : 0.999998629093, Q2 : -0.000243334288825, Q3 : -0.000427436141763, Q4 : -0.00156261981465}
2019-04-14 02:27:36.51: SIM {TimeUS : 51535211, Roll : -0.05, Pitch : -0.04, Yaw : 359.81, Alt : 45.3699989319, Lat : 49.2835704, Lng : -123.1150206, Q1 : 0.999998509884, Q2 : -0.000466808793135, Q3 : -0.000358227291144, Q4 : -0.00159741635434}
2019-04-14 02:27:36.61: SIM {TimeUS : 51635171, Roll : -0.08, Pitch : -0.03, Yaw : 359.81, Alt : 45.6100006104, Lat : 49.2835703, Lng : -123.1150206, Q1 : 0.99999833107, Q2 : -0.000763439340517, Q3 : -0.000280790700344, Q4 : -0.00162991229445}
2019-04-14 02:27:36.71: SIM {TimeUS : 51735131, Roll : -0.1, Pitch : -0.02, Yaw : 359.8, Alt : 45.8400001526, Lat : 49.2835703, Lng : -123.1150206, Q1 : 0.999998152256, Q2 : -0.000935481977649, Q3 : -0.000201194256078, Q4 : -0.00166035594884}
2019-04-14 02:27:36.81: SIM {TimeUS : 51835091, Roll : -0.1, Pitch : 0.0, Yaw : 359.8, Alt : 46.0699996948, Lat : 49.2835703, Lng : -123.1150206, Q1 : 0.999998152256, Q2 : -0.000941243954003, Q3 : -6.86460334691e-05, Q4 : -0.00168932240922}
2019-04-14 02:27:36.91: SIM {TimeUS : 51935051, Roll : -0.09, Pitch : 0.01, Yaw : 359.8, Alt : 46.2999992371, Lat : 49.2835703, Lng : -123.1150206, Q1 : 0.999998211861, Q2 : -0.000805399555247, Q3 : 0.00014341721544, Q4 : -0.00171499862336}
2019-04-14 02:27:37.01: SIM {TimeUS : 52035011, Roll : -0.06, Pitch : 0.02, Yaw : 359.8, Alt : 46.5200004578, Lat : 49.2835703, Lng : -123.1150206, Q1 : 0.99999833107, Q2 : -0.000579345331062, Q3 : 0.00025767905754, Q4 : -0.00173504534177}
2019-04-14 02:27:37.11: SIM {TimeUS : 52134971, Roll : -0.04, Pitch : 0.02, Yaw : 359.79, Alt : 46.7400016785, Lat : 49.2835703, Lng : -123.1150206, Q1 : 0.99999833107, Q2 : -0.000406302366173, Q3 : 0.000208585799555, Q4 : -0.00175377342384}
2019-04-14 02:27:37.21: SIM {TimeUS : 52234931, Roll : -0.03, Pitch : 0.0, Yaw : 359.79, Alt : 46.9500007629, Lat : 49.2835703, Lng : -123.1150206, Q1 : 0.999998390675, Q2 : -0.00032407179242, Q3 : 2.45568353421e-05, Q4 : -0.00177527603228}
2019-04-14 02:27:37.31: SIM {TimeUS : 52334891, Roll : -0.01, Pitch : -0.02, Yaw : 359.79, Alt : 47.1599998474, Lat : 49.2835703, Lng : -123.1150206, Q1 : 0.99999833107, Q2 : -0.000171662017237, Q3 : -0.000243606817094, Q4 : -0.00179485254921}
2019-04-14 02:27:37.41: SIM {TimeUS : 52434851, Roll : 0.0, Pitch : -0.05, Yaw : 359.79, Alt : 47.3600006104, Lat : 49.2835703, Lng : -123.1150206, Q1 : 0.999998211861, Q2 : 2.16974785872e-05, Q3 : -0.000498990586493, Q4 : -0.00181668251753}
2019-04-14 02:27:37.51: SIM {TimeUS : 52534811, Roll : 0.0, Pitch : -0.08, Yaw : 359.78, Alt : 47.5499992371, Lat : 49.2835703, Lng : -123.1150206, Q1 : 0.999998033047, Q2 : 7.49263708713e-05, Q3 : -0.000724374083802, Q4 : -0.00183801481035}
2019-04-14 02:27:37.61: SIM {TimeUS : 52634771, Roll : 0.0, Pitch : -0.12, Yaw : 359.78, Alt : 47.7200012207, Lat : 49.2835703, Lng : -123.1150206, Q1 : 0.999997735023, Q2 : 6.72712412779e-05, Q3 : -0.00105973763857, Q4 : -0.00185815710574}
2019-04-14 02:27:37.71: SIM {TimeUS : 52734731, Roll : 0.02, Pitch : -0.14, Yaw : 359.78, Alt : 47.8899993896, Lat : 49.2835703, Lng : -123.1150206, Q1 : 0.999997377396, Q2 : 0.000224347240874, Q3 : -0.00130873022135, Q4 : -0.00187898532022}
2019-04-14 02:27:37.81: SIM {TimeUS : 52834691, Roll : 0.05, Pitch : -0.15, Yaw : 359.78, Alt : 48.0499992371, Lat : 49.2835703, Lng : -123.1150206, Q1 : 0.999997198582, Q2 : 0.000458790571429, Q3 : -0.0013433782151, Q4 : -0.0019034469733}
2019-04-14 02:27:37.91: SIM {TimeUS : 52934651, Roll : 0.07, Pitch : -0.13, Yaw : 359.77, Alt : 48.1899986267, Lat : 49.2835704, Lng : -123.1150206, Q1 : 0.999997198582, Q2 : 0.000665456871502, Q3 : -0.00117910420522, Q4 : -0.00193423393648}
2019-04-14 02:27:38.01: SIM {TimeUS : 53034611, Roll : 0.08, Pitch : -0.1, Yaw : 359.77, Alt : 48.3300018311, Lat : 49.2835704, Lng : -123.1150206, Q1 : 0.999997437, Q2 : 0.000717664486729, Q3 : -0.000898959464394, Q4 : -0.00196534302086}
2019-04-14 02:27:38.11: SIM {TimeUS : 53134571, Roll : 0.08, Pitch : -0.07, Yaw : 359.77, Alt : 48.4500007629, Lat : 49.2835704, Lng : -123.1150206, Q1 : 0.999997496605, Q2 : 0.000750942330342, Q3 : -0.00064419512637, Q4 : -0.00199459283613}
2019-04-14 02:27:38.21: SIM {TimeUS : 53234531, Roll : 0.07, Pitch : -0.06, Yaw : 359.76, Alt : 48.5499992371, Lat : 49.2835704, Lng : -123.1150206, Q1 : 0.99999755621, Q2 : 0.000653873430565, Q3 : -0.000572607736103, Q4 : -0.00202299049124}
2019-04-14 02:27:38.31: SIM {TimeUS : 53335324, Roll : 0.04, Pitch : -0.05, Yaw : 359.76, Alt : 48.6500015259, Lat : 49.2835704, Lng : -123.1150206, Q1 : 0.999997735023, Q2 : 0.00039313788875, Q3 : -0.000470968254376, Q4 : -0.00204443046823}
2019-04-14 02:27:38.41: SIM {TimeUS : 53435284, Roll : 0.01, Pitch : -0.03, Yaw : 359.76, Alt : 48.7299995422, Lat : 49.2835704, Lng : -123.1150206, Q1 : 0.999997794628, Q2 : 0.000168024140294, Q3 : -0.000323101266986, Q4 : -0.00206556473859}
2019-04-14 02:27:38.51: SIM {TimeUS : 53535244, Roll : 0.0, Pitch : -0.02, Yaw : 359.76, Alt : 48.8100013733, Lat : 49.2835704, Lng : -123.1150206, Q1 : 0.999997794628, Q2 : 6.76186346027e-06, Q3 : -0.000185398253961, Q4 : -0.0020891756285}
2019-04-14 02:27:38.61: SIM {TimeUS : 53635204, Roll : 0.0, Pitch : 0.0, Yaw : 359.75, Alt : 48.8699989319, Lat : 49.2835704, Lng : -123.1150206, Q1 : 0.999997735023, Q2 : -4.23667370342e-05, Q3 : 1.72085274244e-05, Q4 : -0.00211830274202}
2019-04-14 02:27:38.71: SIM {TimeUS : 53735164, Roll : 0.01, Pitch : 0.03, Yaw : 359.75, Alt : 48.9199981689, Lat : 49.2835704, Lng : -123.1150206, Q1 : 0.999997675419, Q2 : 0.000125033926452, Q3 : 0.00029497774085, Q4 : -0.00214408594184}
2019-04-14 02:27:38.81: SIM {TimeUS : 53835124, Roll : 0.04, Pitch : 0.05, Yaw : 359.75, Alt : 48.9700012207, Lat : 49.2835704, Lng : -123.1150206, Q1 : 0.999997437, Q2 : 0.000350657588569, Q3 : 0.000503174145706, Q4 : -0.00217451434582}
2019-04-14 02:27:38.91: SIM {TimeUS : 53935084, Roll : 0.11, Pitch : 0.0, Yaw : 359.74, Alt : 49.0099983215, Lat : 49.2835704, Lng : -123.1150206, Q1 : 0.999997019768, Q2 : 0.00103896972723, Q3 : 2.35264724324e-05, Q4 : -0.00221259938553}
2019-04-14 02:27:39.01: SIM {TimeUS : 54035044, Roll : 0.34, Pitch : -0.17, Yaw : 359.74, Alt : 49.0499992371, Lat : 49.2835704, Lng : -123.1150206, Q1 : 0.999991774559, Q2 : 0.00298431189731, Q3 : -0.0015614629956, Q4 : -0.00224598171189}
2019-04-14 02:27:39.11: SIM {TimeUS : 54135004, Roll : 0.77, Pitch : -0.53, Yaw : 359.73, Alt : 49.0699996948, Lat : 49.2835706, Lng : -123.1150206, Q1 : 0.999963700771, Q2 : 0.00676995888352, Q3 : -0.00464604841545, Q4 : -0.00227573583834}
2019-04-14 02:27:39.21: SIM {TimeUS : 54234964, Roll : 1.42, Pitch : -1.02, Yaw : 359.72, Alt : 49.0999984741, Lat : 49.2835706, Lng : -123.1150206, Q1 : 0.999880433083, Q2 : 0.0123961828649, Q3 : -0.00895203463733, Q4 : -0.00229220674373}
2019-04-14 02:27:39.31: SIM {TimeUS : 54334924, Roll : 2.22, Pitch : -1.59, Yaw : 359.7, Alt : 49.1199989319, Lat : 49.2835706, Lng : -123.1150205, Q1 : 0.999712944031, Q2 : 0.0193495564163, Q3 : -0.0139439590275, Q4 : -0.00227646389976}
2019-04-14 02:27:39.41: SIM {TimeUS : 54434884, Roll : 3.07, Pitch : -2.19, Yaw : 359.68, Alt : 49.1399993896, Lat : 49.2835707, Lng : -123.1150204, Q1 : 0.999455153942, Q2 : 0.0267607271671, Q3 : -0.019195895642, Q4 : -0.00221332046203}
2019-04-14 02:27:39.51: SIM {TimeUS : 54534844, Roll : 3.84, Pitch : -2.72, Yaw : 359.66, Alt : 49.1599998474, Lat : 49.2835707, Lng : -123.1150203, Q1 : 0.999151349068, Q2 : 0.0334963016212, Q3 : -0.0238800644875, Q4 : -0.00207862909883}
2019-04-14 02:27:39.61: SIM {TimeUS : 54634804, Roll : 4.44, Pitch : -3.13, Yaw : 359.66, Alt : 49.1699981689, Lat : 49.2835708, Lng : -123.11502, Q1 : 0.998873233795, Q2 : 0.0386929474771, Q3 : -0.0274164732546, Q4 : -0.00187085801736}
2019-04-14 02:27:39.71: SIM {TimeUS : 54734764, Roll : 4.87, Pitch : -3.43, Yaw : 359.66, Alt : 49.1800003052, Lat : 49.2835709, Lng : -123.1150198, Q1 : 0.998647272587, Q2 : 0.0424054302275, Q3 : -0.0300478115678, Q4 : -0.0016225904692}
2019-04-14 02:27:39.81: SIM {TimeUS : 54834724, Roll : 5.19, Pitch : -3.66, Yaw : 359.67, Alt : 49.1899986267, Lat : 49.2835712, Lng : -123.1150194, Q1 : 0.9984588027, Q2 : 0.0452478900552, Q3 : -0.0321076624095, Q4 : -0.00135169446003}
2019-04-14 02:27:39.91: SIM {TimeUS : 54934684, Roll : 5.49, Pitch : -3.87, Yaw : 359.69, Alt : 49.2000007629, Lat : 49.2835714, Lng : -123.1150189, Q1 : 0.998280704021, Q2 : 0.0478046052158, Q3 : -0.033900141716, Q4 : -0.00106527970638}
2019-04-14 02:27:40.01: SIM {TimeUS : 55034644, Roll : 5.78, Pitch : -4.06, Yaw : 359.7, Alt : 49.2099990845, Lat : 49.2835716, Lng : -123.1150183, Q1 : 0.998097240925, Q2 : 0.0503479093313, Q3 : -0.0355872139335, Q4 : -0.000780106405728}
2019-04-14 02:27:40.11: SIM {TimeUS : 55134604, Roll : 6.09, Pitch : -4.28, Yaw : 359.71, Alt : 49.2200012207, Lat : 49.283572, Lng : -123.1150175, Q1 : 0.997891247272, Q2 : 0.0530031137168, Q3 : -0.0374639034271, Q4 : -0.000521462294273}
2019-04-14 02:27:40.21: SIM {TimeUS : 55234564, Roll : 6.36, Pitch : -4.48, Yaw : 359.71, Alt : 49.2299995422, Lat : 49.2835724, Lng : -123.1150168, Q1 : 0.997693657875, Q2 : 0.0553846247494, Q3 : -0.0392400622368, Q4 : -0.000290884781862}
2019-04-14 02:27:40.31: SIM {TimeUS : 55334524, Roll : 6.58, Pitch : -4.63, Yaw : 359.72, Alt : 49.2299995422, Lat : 49.2835727, Lng : -123.1150159, Q1 : 0.997532129288, Q2 : 0.0573211498559, Q3 : -0.0405460447073, Q4 : -7.45333964005e-05}
2019-04-14 02:27:40.41: SIM {TimeUS : 55435317, Roll : 6.74, Pitch : -4.74, Yaw : 359.73, Alt : 49.2400016785, Lat : 49.2835733, Lng : -123.1150149, Q1 : 0.997413218021, Q2 : 0.0587197802961, Q3 : -0.0414590016007, Q4 : 0.000110370274342}
2019-04-14 02:27:40.51: SIM {TimeUS : 55535277, Roll : 6.85, Pitch : -4.83, Yaw : 359.73, Alt : 49.2400016785, Lat : 49.2835738, Lng : -123.1150138, Q1 : 0.997326850891, Q2 : 0.0596507824957, Q3 : -0.0422009006143, Q4 : 0.000238731008722}
2019-04-14 02:27:40.61: SIM {TimeUS : 55635237, Roll : 6.95, Pitch : -4.89, Yaw : 359.74, Alt : 49.25, Lat : 49.2835743, Lng : -123.1150126, Q1 : 0.997248351574, Q2 : 0.0605446361005, Q3 : -0.0427781492472, Q4 : 0.000333379372023}
2019-04-14 02:27:40.71: SIM {TimeUS : 55735197, Roll : 7.11, Pitch : -4.96, Yaw : 359.74, Alt : 49.25, Lat : 49.2835749, Lng : -123.1150114, Q1 : 0.997137486935, Q2 : 0.0619361922145, Q3 : -0.0433655567467, Q4 : 0.00043312238995}
2019-04-14 02:27:40.81: SIM {TimeUS : 55835157, Roll : 7.46, Pitch : -4.91, Yaw : 359.9, Alt : 49.2599983215, Lat : 49.2835755, Lng : -123.11501, Q1 : 0.996964395046, Q2 : 0.0649975538254, Q3 : -0.0428209267557, Q4 : 0.00192880281247}
2019-04-14 02:27:40.91: SIM {TimeUS : 55935117, Roll : 8.03, Pitch : -4.7, Yaw : 0.77, Alt : 49.2599983215, Lat : 49.2835761, Lng : -123.1150086, Q1 : 0.996659040451, Q2 : 0.0702609494328, Q3 : -0.0405097082257, Q4 : 0.00964700989425}
2019-04-14 02:27:41.01: SIM {TimeUS : 56035077, Roll : 8.64, Pitch : -4.63, Yaw : 3.01, Alt : 49.2599983215, Lat : 49.2835768, Lng : -123.1150071, Q1 : 0.99591177702, Q2 : 0.0763844922185, Q3 : -0.0383210331202, Q4 : 0.0292686969042}
2019-04-14 02:27:41.11: SIM {TimeUS : 56135037, Roll : 9.05, Pitch : -5.01, Yaw : 6.83, Alt : 49.2599983215, Lat : 49.2835775, Lng : -123.1150055, Q1 : 0.993942677975, Q2 : 0.0813622921705, Q3 : -0.0388408564031, Q4 : 0.0628456622362}
2019-04-14 02:27:41.21: SIM {TimeUS : 56234997, Roll : 9.04, Pitch : -5.93, Yaw : 12.12, Alt : 49.2599983215, Lat : 49.2835782, Lng : -123.1150037, Q1 : 0.989543735981, Q2 : 0.0837958604097, Q3 : -0.0429974757135, Q4 : 0.109236709774}
2019-04-14 02:27:41.31: SIM {TimeUS : 56334957, Roll : 8.46, Pitch : -7.28, Yaw : 18.65, Alt : 49.2700004578, Lat : 49.2835788, Lng : -123.1150017, Q1 : 0.981327414513, Q2 : 0.0829917937517, Q3 : -0.0506063550711, Q4 : 0.165975734591}
2019-04-14 02:27:41.41: SIM {TimeUS : 56434917, Roll : 7.27, Pitch : -8.87, Yaw : 26.17, Alt : 49.2700004578, Lat : 49.2835797, Lng : -123.1149998, Q1 : 0.968029141426, Q2 : 0.0790971517563, Q3 : -0.060894370079, Q4 : 0.230119839311}
2019-04-14 02:27:41.51: SIM {TimeUS : 56534877, Roll : 5.51, Pitch : -10.47, Yaw : 34.43, Alt : 49.2700004578, Lat : 49.2835804, Lng : -123.1149977, Q1 : 0.948802947998, Q2 : 0.0727785751224, Q3 : -0.0729425102472, Q4 : 0.298589527607}
2019-04-14 02:27:41.61: SIM {TimeUS : 56634837, Roll : 3.22, Pitch : -11.85, Yaw : 43.13, Alt : 49.2700004578, Lat : 49.2835812, Lng : -123.1149955, Q1 : 0.923562765121, Q2 : 0.0640023723245, Q3 : -0.0857167094946, Q4 : 0.368222951889}
2019-04-14 02:27:41.71: SIM {TimeUS : 56734797, Roll : 0.29, Pitch : -12.8, Yaw : 51.75, Alt : 49.2700004578, Lat : 49.283582, Lng : -123.1149932, Q1 : 0.893980383873, Q2 : 0.0509817302227, Q3 : -0.0992020070553, Q4 : 0.434003412724}
2019-04-14 02:27:41.81: SIM {TimeUS : 56834757, Roll : -2.9, Pitch : -13.19, Yaw : 59.39, Alt : 49.2700004578, Lat : 49.283583, Lng : -123.1149908, Q1 : 0.864057838917, Q2 : 0.0350307114422, Q3 : -0.112198136747, Q4 : 0.489477753639}
2019-04-14 02:27:41.91: SIM {TimeUS : 56934717, Roll : -5.71, Pitch : -13.09, Yaw : 65.28, Alt : 49.2700004578, Lat : 49.283584, Lng : -123.1149883, Q1 : 0.83856511116, Q2 : 0.0197616722435, Q3 : -0.122581422329, Q4 : 0.530463755131}
2019-04-14 02:27:42.01: SIM {TimeUS : 57034677, Roll : -7.59, Pitch : -12.78, Yaw : 69.08, Alt : 49.2700004578, Lat : 49.283585, Lng : -123.1149858, Q1 : 0.820957899094, Q2 : 0.008773971349, Q3 : -0.128874838352, Q4 : 0.556185603142}
2019-04-14 02:27:42.11: SIM {TimeUS : 57134637, Roll : -8.39, Pitch : -12.55, Yaw : 70.87, Alt : 49.2700004578, Lat : 49.2835862, Lng : -123.1149832, Q1 : 0.812331616879, Q2 : 0.00397954462096, Q3 : -0.131020322442, Q4 : 0.568273901939}
2019-04-14 02:27:42.21: SIM {TimeUS : 57234597, Roll : -8.19, Pitch : -12.55, Yaw : 70.95, Alt : 49.2700004578, Lat : 49.2835876, Lng : -123.1149805, Q1 : 0.811901688576, Q2 : 0.00549206417054, Q3 : -0.130065739155, Q4 : 0.569094359875}
2019-04-14 02:27:42.31: SIM {TimeUS : 57334557, Roll : -7.21, Pitch : -12.85, Yaw : 69.7, Alt : 49.2700004578, Lat : 49.283589, Lng : -123.1149778, Q1 : 0.817866444588, Q2 : 0.0125201717019, Q3 : -0.127391666174, Q4 : 0.560989379883}
2019-04-14 02:27:42.41: SIM {TimeUS : 57434517, Roll : -5.7, Pitch : -13.41, Yaw : 67.47, Alt : 49.2700004578, Lat : 49.2835904, Lng : -123.1149751, Q1 : 0.828093826771, Q2 : 0.0236572455615, Q3 : -0.124457225204, Q4 : 0.546087324619}
2019-04-14 02:27:42.51: SIM {TimeUS : 57535310, Roll : -3.87, Pitch : -14.13, Yaw : 64.56, Alt : 49.2799987793, Lat : 49.283592, Lng : -123.1149722, Q1 : 0.840726613998, Q2 : 0.0373062156141, Q3 : -0.121895194054, Q4 : 0.526240050793}
2019-04-14 02:27:42.61: SIM {TimeUS : 57635270, Roll : -1.95, Pitch : -14.85, Yaw : 61.33, Alt : 49.2799987793, Lat : 49.2835935, Lng : -123.1149693, Q1 : 0.853915452957, Q2 : 0.0513411797583, Q3 : -0.119804628193, Q4 : 0.503824770451}
2019-04-14 02:27:42.71: SIM {TimeUS : 57735230, Roll : -0.11, Pitch : -15.41, Yaw : 58.08, Alt : 49.2799987793, Lat : 49.2835952, Lng : -123.1149663, Q1 : 0.866429686546, Q2 : 0.0642327666283, Q3 : -0.117781922221, Q4 : 0.480937838554}
2019-04-14 02:27:42.81: SIM {TimeUS : 57835190, Roll : 1.49, Pitch : -15.76, Yaw : 55.13, Alt : 49.2799987793, Lat : 49.2835969, Lng : -123.1149632, Q1 : 0.877172648907, Q2 : 0.0748883038759, Q3 : -0.115579068661, Q4 : 0.460001468658}
2019-04-14 02:27:42.91: SIM {TimeUS : 57935150, Roll : 2.72, Pitch : -15.9, Yaw : 52.78, Alt : 49.2799987793, Lat : 49.2835986, Lng : -123.11496, Q1 : 0.885437846184, Q2 : 0.0825760662556, Q3 : -0.113428235054, Q4 : 0.443074554205}
2019-04-14 02:27:43.01: SIM {TimeUS : 58035110, Roll : 3.48, Pitch : -15.9, Yaw : 51.18, Alt : 49.2799987793, Lat : 49.2836001, Lng : -123.1149566, Q1 : 0.890962064266, Q2 : 0.0869446769357, Q3 : -0.111709736288, Q4 : 0.43144890666}
2019-04-14 02:27:43.11: SIM {TimeUS : 58135070, Roll : 3.75, Pitch : -15.86, Yaw : 50.39, Alt : 49.2799987793, Lat : 49.2836019, Lng : -123.1149531, Q1 : 0.893780648708, Q2 : 0.0880441889167, Q3 : -0.110968790948, Q4 : 0.425547033548}
2019-04-14 02:27:43.21: SIM {TimeUS : 58235030, Roll : 3.56, Pitch : -15.81, Yaw : 50.35, Alt : 49.2799987793, Lat : 49.2836036, Lng : -123.1149495, Q1 : 0.894126653671, Q2 : 0.08636149019, Q3 : -0.111322522163, Q4 : 0.425072431564}
2019-04-14 02:27:43.31: SIM {TimeUS : 58334990, Roll : 3.03, Pitch : -15.81, Yaw : 50.94, Alt : 49.2799987793, Lat : 49.2836053, Lng : -123.1149458, Q1 : 0.892331182957, Q2 : 0.0828426927328, Q3 : -0.112853437662, Q4 : 0.429122626781}
2019-04-14 02:27:43.41: SIM {TimeUS : 58434950, Roll : 2.26, Pitch : -15.88, Yaw : 51.98, Alt : 49.2799987793, Lat : 49.2836069, Lng : -123.114942, Q1 : 0.88887834549, Q2 : 0.0780917853117, Q3 : -0.115602821112, Q4 : 0.436386227608}
2019-04-14 02:27:43.51: SIM {TimeUS : 58534910, Roll : 1.37, Pitch : -16.0, Yaw : 53.28, Alt : 49.2799987793, Lat : 49.2836086, Lng : -123.1149381, Q1 : 0.884311139584, Q2 : 0.0730607956648, Q3 : -0.119126833975, Q4 : 0.445493847132}
2019-04-14 02:27:43.61: SIM {TimeUS : 58634870, Roll : 0.51, Pitch : -16.13, Yaw : 54.66, Alt : 49.2799987793, Lat : 49.2836104, Lng : -123.1149341, Q1 : 0.879276633263, Q2 : 0.0683987438679, Q3 : -0.122649841011, Q4 : 0.455138742924}
2019-04-14 02:27:43.71: SIM {TimeUS : 58734830, Roll : -0.25, Pitch : -16.24, Yaw : 55.95, Alt : 49.2799987793, Lat : 49.2836122, Lng : -123.11493, Q1 : 0.874409735203, Q2 : 0.0643712952733, Q3 : -0.125801965594, Q4 : 0.464152783155}
2019-04-14 02:27:43.81: SIM {TimeUS : 58834790, Roll : -0.87, Pitch : -16.33, Yaw : 57.03, Alt : 49.2900009155, Lat : 49.283614, Lng : -123.1149259, Q1 : 0.870236098766, Q2 : 0.0611961074173, Q3 : -0.128457978368, Q4 : 0.471638321877}
2019-04-14 02:27:43.91: SIM {TimeUS : 58934750, Roll : -1.3, Pitch : -16.4, Yaw : 57.82, Alt : 49.2900009155, Lat : 49.2836158, Lng : -123.1149218, Q1 : 0.867131233215, Q2 : 0.0591167099774, Q3 : -0.130370229483, Q4 : 0.477066338062}
2019-04-14 02:27:44.01: SIM {TimeUS : 59034710, Roll : -1.52, Pitch : -16.47, Yaw : 58.28, Alt : 49.2900009155, Lat : 49.2836177, Lng : -123.1149176, Q1 : 0.865272939205, Q2 : 0.0582301281393, Q3 : -0.131532266736, Q4 : 0.480220019817}
2019-04-14 02:27:44.11: SIM {TimeUS : 59134670, Roll : -1.54, Pitch : -16.5, Yaw : 58.41, Alt : 49.2900009155, Lat : 49.2836195, Lng : -123.1149133, Q1 : 0.864698946476, Q2 : 0.0583674460649, Q3 : -0.131785511971, Q4 : 0.481166899204}
2019-04-14 02:27:44.21: SIM {TimeUS : 59234630, Roll : -1.38, Pitch : -16.53, Yaw : 58.25, Alt : 49.2900009155, Lat : 49.2836214, Lng : -123.114909, Q1 : 0.865228056908, Q2 : 0.0595414601266, Q3 : -0.131410419941, Q4 : 0.480173498392}
2019-04-14 02:27:44.31: SIM {TimeUS : 59334590, Roll : -1.08, Pitch : -16.56, Yaw : 57.88, Alt : 49.2900009155, Lat : 49.2836235, Lng : -123.1149047, Q1 : 0.86659181118, Q2 : 0.0615242905915, Q3 : -0.130610689521, Q4 : 0.47767585516}
2019-04-14 02:27:44.41: SIM {TimeUS : 59434550, Roll : -0.71, Pitch : -16.6, Yaw : 57.37, Alt : 49.2900009155, Lat : 49.2836255, Lng : -123.1149002, Q1 : 0.868487656116, Q2 : 0.0639047250152, Q3 : -0.129631415009, Q4 : 0.474174141884}
2019-04-14 02:27:44.51: SIM {TimeUS : 59534510, Roll : -0.31, Pitch : -16.64, Yaw : 56.79, Alt : 49.2900009155, Lat : 49.2836274, Lng : -123.1148959, Q1 : 0.870599865913, Q2 : 0.0664109066129, Q3 : -0.128610312939, Q4 : 0.470217943192}
2019-04-14 02:27:44.61: SIM {TimeUS : 59635303, Roll : 0.05, Pitch : -16.68, Yaw : 56.22, Alt : 49.2900009155, Lat : 49.2836294, Lng : -123.1148914, Q1 : 0.872666656971, Q2 : 0.0687803551555, Q3 : -0.127759128809, Q4 : 0.466261506081}
2019-04-14 02:27:44.71: SIM {TimeUS : 59735263, Roll : 0.35, Pitch : -16.72, Yaw : 55.72, Alt : 49.2900009155, Lat : 49.2836315, Lng : -123.1148868, Q1 : 0.874463558197, Q2 : 0.0706519037485, Q3 : -0.127112030983, Q4 : 0.4627789855}
2019-04-14 02:27:44.81: SIM {TimeUS : 59835223, Roll : 0.56, Pitch : -16.75, Yaw : 55.33, Alt : 49.2900009155, Lat : 49.2836335, Lng : -123.1148824, Q1 : 0.875856339931, Q2 : 0.0719726681709, Q3 : -0.126758173108, Q4 : 0.460030406713}
2019-04-14 02:27:44.91: SIM {TimeUS : 59935183, Roll : 0.67, Pitch : -16.78, Yaw : 55.07, Alt : 49.2900009155, Lat : 49.2836355, Lng : -123.1148777, Q1 : 0.876777768135, Q2 : 0.0727013200521, Q3 : -0.126729086041, Q4 : 0.458164870739}
2019-04-14 02:27:45.01: SIM {TimeUS : 60035143, Roll : 0.69, Pitch : -16.82, Yaw : 54.95, Alt : 49.2900009155, Lat : 49.2836377, Lng : -123.1148731, Q1 : 0.87720990181, Q2 : 0.0728476345539, Q3 : -0.127036124468, Q4 : 0.45722848177}
2019-04-14 02:27:45.11: SIM {TimeUS : 60135103, Roll : 0.61, Pitch : -16.86, Yaw : 54.95, Alt : 49.2900009155, Lat : 49.2836397, Lng : -123.1148685, Q1 : 0.877208292484, Q2 : 0.0724129378796, Q3 : -0.127666294575, Q4 : 0.457125127316}
2019-04-14 02:27:45.21: SIM {TimeUS : 60235063, Roll : 0.47, Pitch : -16.89, Yaw : 55.05, Alt : 49.2900009155, Lat : 49.2836418, Lng : -123.1148637, Q1 : 0.876864135265, Q2 : 0.0715115815401, Q3 : -0.128401875496, Q4 : 0.457720816135}
2019-04-14 02:27:45.31: SIM {TimeUS : 60335023, Roll : 0.29, Pitch : -16.93, Yaw : 55.22, Alt : 49.2999992371, Lat : 49.2836439, Lng : -123.114859, Q1 : 0.876255273819, Q2 : 0.0704698562622, Q3 : -0.129280388355, Q4 : 0.458799809217}
2019-04-14 02:27:45.41: SIM {TimeUS : 60434983, Roll : 0.12, Pitch : -16.97, Yaw : 55.43, Alt : 49.2999992371, Lat : 49.283646, Lng : -123.1148542, Q1 : 0.875483810902, Q2 : 0.0695998296142, Q3 : -0.13016192615, Q4 : 0.460154265165}
2019-04-14 02:27:45.51: SIM {TimeUS : 60534943, Roll : -0.01, Pitch : -17.01, Yaw : 55.64, Alt : 49.2999992371, Lat : 49.2836481, Lng : -123.1148494, Q1 : 0.874671697617, Q2 : 0.0689645707607, Q3 : -0.130922317505, Q4 : 0.461576282978}
2019-04-14 02:27:45.61: SIM {TimeUS : 60634903, Roll : -0.1, Pitch : -17.06, Yaw : 55.83, Alt : 49.2999992371, Lat : 49.2836503, Lng : -123.1148446, Q1 : 0.873912096024, Q2 : 0.0686663836241, Q3 : -0.131519332528, Q4 : 0.462887942791}
2019-04-14 02:27:45.71: SIM {TimeUS : 60734863, Roll : -0.15, Pitch : -17.1, Yaw : 55.98, Alt : 49.2999992371, Lat : 49.2836524, Lng : -123.1148397, Q1 : 0.873292684555, Q2 : 0.0686299055815, Q3 : -0.131979078054, Q4 : 0.463930308819}
2019-04-14 02:27:45.81: SIM {TimeUS : 60834823, Roll : -0.19, Pitch : -17.14, Yaw : 56.07, Alt : 49.2999992371, Lat : 49.2836546, Lng : -123.1148348, Q1 : 0.872874259949, Q2 : 0.0686229914427, Q3 : -0.132378533483, Q4 : 0.464604496956}
2019-04-14 02:27:45.91: SIM {TimeUS : 60934783, Roll : -0.21, Pitch : -17.17, Yaw : 56.12, Alt : 49.2999992371, Lat : 49.2836566, Lng : -123.1148299, Q1 : 0.872686266899, Q2 : 0.0686197504401, Q3 : -0.132634311914, Q4 : 0.464885115623}
2019-04-14 02:27:46.01: SIM {TimeUS : 61034743, Roll : -0.21, Pitch : -17.18, Yaw : 56.11, Alt : 49.2999992371, Lat : 49.2836589, Lng : -123.114825, Q1 : 0.872718930244, Q2 : 0.0686070695519, Q3 : -0.132764592767, Q4 : 0.464788466692}
2019-04-14 02:27:46.11: SIM {TimeUS : 61134703, Roll : -0.19, Pitch : -17.19, Yaw : 56.05, Alt : 49.2999992371, Lat : 49.283661, Lng : -123.11482, Q1 : 0.872914731503, Q2 : 0.0687606930733, Q3 : -0.132784456015, Q4 : 0.464392155409}
2019-04-14 02:27:46.21: SIM {TimeUS : 61234663, Roll : -0.14, Pitch : -17.21, Yaw : 55.96, Alt : 49.3100013733, Lat : 49.2836633, Lng : -123.1148151, Q1 : 0.873227238655, Q2 : 0.0690932944417, Q3 : -0.13275411725, Q4 : 0.46376362443}
2019-04-14 02:27:46.31: SIM {TimeUS : 61334623, Roll : -0.06, Pitch : -17.25, Yaw : 55.85, Alt : 49.3100013733, Lat : 49.2836655, Lng : -123.1148101, Q1 : 0.873580694199, Q2 : 0.0697566941381, Q3 : -0.132759124041, Q4 : 0.462996542454}
2019-04-14 02:27:46.41: SIM {TimeUS : 61434583, Roll : 0.02, Pitch : -17.3, Yaw : 55.74, Alt : 49.3100013733, Lat : 49.2836676, Lng : -123.1148051, Q1 : 0.873930454254, Q2 : 0.0705401077867, Q3 : -0.132899746299, Q4 : 0.46217674017}
2019-04-14 02:27:46.51: SIM {TimeUS : 61534543, Roll : 0.1, Pitch : -17.34, Yaw : 55.62, Alt : 49.3100013733, Lat : 49.28367, Lng : -123.1148001, Q1 : 0.87428933382, Q2 : 0.0711489990354, Q3 : -0.132956475019, Q4 : 0.46138766408}
2019-04-14 02:27:46.61: SIM {TimeUS : 61634503, Roll : 0.16, Pitch : -17.34, Yaw : 55.52, Alt : 49.3100013733, Lat : 49.2836722, Lng : -123.114795, Q1 : 0.874645233154, Q2 : 0.0715235769749, Q3 : -0.132790848613, Q4 : 0.460702419281}
2019-04-14 02:27:46.71: SIM {TimeUS : 61735296, Roll : 0.19, Pitch : -17.34, Yaw : 55.45, Alt : 49.3100013733, Lat : 49.2836744, Lng : -123.1147899, Q1 : 0.874939858913, Q2 : 0.0716853141785, Q3 : -0.132703378797, Q4 : 0.46014264226}
2019-04-14 02:27:46.81: SIM {TimeUS : 61835256, Roll : 0.2, Pitch : -17.36, Yaw : 55.39, Alt : 49.3100013733, Lat : 49.2836767, Lng : -123.1147848, Q1 : 0.87513756752, Q2 : 0.0717217549682, Q3 : -0.132845208049, Q4 : 0.459719866514}
2019-04-14 02:27:46.91: SIM {TimeUS : 61935216, Roll : 0.2, Pitch : -17.38, Yaw : 55.36, Alt : 49.3100013733, Lat : 49.283679, Lng : -123.1147797, Q1 : 0.87522482872, Q2 : 0.0717722848058, Q3 : -0.133034780622, Q4 : 0.459490954876}
2019-04-14 02:27:47.01: SIM {TimeUS : 62035176, Roll : 0.18, Pitch : -17.41, Yaw : 55.36, Alt : 49.3100013733, Lat : 49.2836813, Lng : -123.1147746, Q1 : 0.875235557556, Q2 : 0.0717445388436, Q3 : -0.13328948617, Q4 : 0.459401100874}
2019-04-14 02:27:47.11: SIM {TimeUS : 62135136, Roll : 0.16, Pitch : -17.43, Yaw : 55.36, Alt : 49.3100013733, Lat : 49.2836834, Lng : -123.1147695, Q1 : 0.875191986561, Q2 : 0.0716920047998, Q3 : -0.133525028825, Q4 : 0.459423929453}
2019-04-14 02:27:47.21: SIM {TimeUS : 62235096, Roll : 0.15, Pitch : -17.45, Yaw : 55.38, Alt : 49.3100013733, Lat : 49.2836858, Lng : -123.1147643, Q1 : 0.875099599361, Q2 : 0.0716894343495, Q3 : -0.133767873049, Q4 : 0.45952963829}
2019-04-14 02:27:47.31: SIM {TimeUS : 62335056, Roll : 0.13, Pitch : -17.47, Yaw : 55.4, Alt : 49.3100013733, Lat : 49.2836881, Lng : -123.1147592, Q1 : 0.875007927418, Q2 : 0.0716329738498, Q3 : -0.133941888809, Q4 : 0.459662348032}
2019-04-14 02:27:47.41: SIM {TimeUS : 62435016, Roll : 0.12, Pitch : -17.49, Yaw : 55.42, Alt : 49.3100013733, Lat : 49.2836904, Lng : -123.114754, Q1 : 0.874898314476, Q2 : 0.0717092528939, Q3 : -0.134164303541, Q4 : 0.459794133902}
2019-04-14 02:27:47.51: SIM {TimeUS : 62534976, Roll : 0.12, Pitch : -17.52, Yaw : 55.44, Alt : 49.3199996948, Lat : 49.2836926, Lng : -123.1147488, Q1 : 0.87480276823, Q2 : 0.0718312636018, Q3 : -0.134370863438, Q4 : 0.459896624088}
2019-04-14 02:27:47.61: SIM {TimeUS : 62634936, Roll : 0.11, Pitch : -17.56, Yaw : 55.45, Alt : 49.3199996948, Lat : 49.2836949, Lng : -123.1147436, Q1 : 0.874731302261, Q2 : 0.0718828290701, Q3 : -0.134718254209, Q4 : 0.459922850132}
2019-04-14 02:27:47.71: SIM {TimeUS : 62734896, Roll : 0.07, Pitch : -17.6, Yaw : 55.45, Alt : 49.3199996948, Lat : 49.2836973, Lng : -123.1147384, Q1 : 0.874696433544, Q2 : 0.0717879235744, Q3 : -0.135182440281, Q4 : 0.459867835045}
2019-04-14 02:27:47.81: SIM {TimeUS : 62834856, Roll : 0.05, Pitch : -17.65, Yaw : 55.44, Alt : 49.3199996948, Lat : 49.2836996, Lng : -123.1147331, Q1 : 0.874687194824, Q2 : 0.0717615634203, Q3 : -0.135611087084, Q4 : 0.459763228893}
2019-04-14 02:27:47.91: SIM {TimeUS : 62934816, Roll : 0.05, Pitch : -17.68, Yaw : 55.43, Alt : 49.3199996948, Lat : 49.283702, Lng : -123.1147279, Q1 : 0.874701201916, Q2 : 0.0719341114163, Q3 : -0.135843992233, Q4 : 0.459640860558}
2019-04-14 02:27:48.01: SIM {TimeUS : 63034776, Roll : 0.08, Pitch : -17.68, Yaw : 55.41, Alt : 49.3199996948, Lat : 49.2837042, Lng : -123.1147227, Q1 : 0.874765872955, Q2 : 0.0721597149968, Q3 : -0.135753184557, Q4 : 0.459509193897}
2019-04-14 02:27:48.11: SIM {TimeUS : 63134736, Roll : 0.12, Pitch : -17.66, Yaw : 55.38, Alt : 49.3199996948, Lat : 49.2837065, Lng : -123.1147174, Q1 : 0.874877810478, Q2 : 0.0723039507866, Q3 : -0.135452315211, Q4 : 0.459362208843}
2019-04-14 02:27:48.21: SIM {TimeUS : 63234696, Roll : 0.14, Pitch : -17.65, Yaw : 55.35, Alt : 49.3199996948, Lat : 49.2837089, Lng : -123.1147121, Q1 : 0.874993622303, Q2 : 0.0723497718573, Q3 : -0.135316491127, Q4 : 0.45917442441}
2019-04-14 02:27:48.31: SIM {TimeUS : 63334656, Roll : 0.13, Pitch : -17.64, Yaw : 55.32, Alt : 49.3199996948, Lat : 49.2837113, Lng : -123.1147068, Q1 : 0.875119566917, Q2 : 0.0722759068012, Q3 : -0.135279923677, Q4 : 0.458956807852}
2019-04-14 02:27:48.41: SIM {TimeUS : 63434616, Roll : 0.13, Pitch : -17.63, Yaw : 55.29, Alt : 49.3199996948, Lat : 49.2837137, Lng : -123.1147015, Q1 : 0.875243782997, Q2 : 0.0721833705902, Q3 : -0.135266765952, Q4 : 0.458738267422}
2019-04-14 02:27:48.51: SIM {TimeUS : 63534576, Roll : 0.12, Pitch : -17.65, Yaw : 55.27, Alt : 49.3199996948, Lat : 49.283716, Lng : -123.1146962, Q1 : 0.875338256359, Q2 : 0.0721571519971, Q3 : -0.135439217091, Q4 : 0.458511143923}
2019-04-14 02:27:48.61: SIM {TimeUS : 63634536, Roll : 0.12, Pitch : -17.68, Yaw : 55.24, Alt : 49.3199996948, Lat : 49.2837184, Lng : -123.1146909, Q1 : 0.87540602684, Q2 : 0.0722183808684, Q3 : -0.135696619749, Q4 : 0.45829603076}
2019-04-14 02:27:48.71: SIM {TimeUS : 63734496, Roll : 0.11, Pitch : -17.73, Yaw : 55.22, Alt : 49.3199996948, Lat : 49.2837208, Lng : -123.1146855, Q1 : 0.875435233116, Q2 : 0.0723439976573, Q3 : -0.136116176844, Q4 : 0.458095997572}
2019-04-14 02:27:48.81: SIM {TimeUS : 63835289, Roll : 0.11, Pitch : -17.78, Yaw : 55.2, Alt : 49.3199996948, Lat : 49.283723, Lng : -123.1146802, Q1 : 0.875441431999, Q2 : 0.0725544095039, Q3 : -0.136541619897, Q4 : 0.457924127579}
2019-04-14 02:27:48.91: SIM {TimeUS : 63935249, Roll : 0.13, Pitch : -17.8, Yaw : 55.19, Alt : 49.3199996948, Lat : 49.2837254, Lng : -123.1146748, Q1 : 0.87547069788, Q2 : 0.0727049335837, Q3 : -0.136645555496, Q4 : 0.457813441753}
2019-04-14 02:27:49.01: SIM {TimeUS : 64035209, Roll : 0.13, Pitch : -17.82, Yaw : 55.17, Alt : 49.3300018311, Lat : 49.2837278, Lng : -123.1146695, Q1 : 0.875503003597, Q2 : 0.072769716382, Q3 : -0.136765435338, Q4 : 0.457705497742}
2019-04-14 02:27:49.11: SIM {TimeUS : 64135169, Roll : 0.13, Pitch : -17.83, Yaw : 55.16, Alt : 49.3300018311, Lat : 49.2837302, Lng : -123.1146641, Q1 : 0.875535070896, Q2 : 0.0727954879403, Q3 : -0.136863037944, Q4 : 0.457610845566}
2019-04-14 02:27:49.21: SIM {TimeUS : 64235129, Roll : 0.14, Pitch : -17.82, Yaw : 55.15, Alt : 49.3300018311, Lat : 49.2837326, Lng : -123.1146587, Q1 : 0.875571548939, Q2 : 0.0728704109788, Q3 : -0.136739626527, Q4 : 0.457565993071}
2019-04-14 02:27:49.31: SIM {TimeUS : 64335089, Roll : 0.17, Pitch : -17.83, Yaw : 55.15, Alt : 49.3300018311, Lat : 49.2837351, Lng : -123.1146534, Q1 : 0.8755813241, Q2 : 0.0730681493878, Q3 : -0.136684849858, Q4 : 0.457532078028}
2019-04-14 02:27:49.41: SIM {TimeUS : 64435049, Roll : 0.18, Pitch : -17.85, Yaw : 55.14, Alt : 49.3300018311, Lat : 49.2837375, Lng : -123.114648, Q1 : 0.875573933125, Q2 : 0.073240570724, Q3 : -0.1368406564, Q4 : 0.457472085953}
2019-04-14 02:27:49.51: SIM {TimeUS : 64535009, Roll : 0.18, Pitch : -17.88, Yaw : 55.13, Alt : 49.3300018311, Lat : 49.2837399, Lng : -123.1146426, Q1 : 0.875572681427, Q2 : 0.0733363032341, Q3 : -0.137017101049, Q4 : 0.457406401634}
2019-04-14 02:27:49.61: SIM {TimeUS : 64634969, Roll : 0.18, Pitch : -17.88, Yaw : 55.12, Alt : 49.3300018311, Lat : 49.2837423, Lng : -123.1146372, Q1 : 0.87559980154, Q2 : 0.0733538344502, Q3 : -0.137032240629, Q4 : 0.457347154617}
2019-04-14 02:27:49.71: SIM {TimeUS : 64734929, Roll : 0.18, Pitch : -17.88, Yaw : 55.12, Alt : 49.3300018311, Lat : 49.2837447, Lng : -123.1146318, Q1 : 0.875630915165, Q2 : 0.0733182802796, Q3 : -0.137113720179, Q4 : 0.457268834114}
2019-04-14 02:27:49.81: SIM {TimeUS : 64834889, Roll : 0.15, Pitch : -17.91, Yaw : 55.11, Alt : 49.3300018311, Lat : 49.2837471, Lng : -123.1146264, Q1 : 0.875656485558, Q2 : 0.0732205808163, Q3 : -0.137399837375, Q4 : 0.457149624825}
2019-04-14 02:27:49.91: SIM {TimeUS : 64934849, Roll : 0.12, Pitch : -17.95, Yaw : 55.09, Alt : 49.3300018311, Lat : 49.2837495, Lng : -123.1146209, Q1 : 0.875670731068, Q2 : 0.0731369107962, Q3 : -0.137866601348, Q4 : 0.45699518919}
2019-04-14 02:27:50.01: SIM {TimeUS : 65034809, Roll : 0.11, Pitch : -17.96, Yaw : 55.08, Alt : 49.3300018311, Lat : 49.2837519, Lng : -123.1146155, Q1 : 0.875715076923, Q2 : 0.0730799287558, Q3 : -0.13799802959, Q4 : 0.456879615784}
2019-04-14 02:27:50.11: SIM {TimeUS : 65134769, Roll : 0.12, Pitch : -17.95, Yaw : 55.07, Alt : 49.3300018311, Lat : 49.2837543, Lng : -123.1146101, Q1 : 0.875776827335, Q2 : 0.0730746239424, Q3 : -0.137884661555, Q4 : 0.45679628849}
2019-04-14 02:27:50.21: SIM {TimeUS : 65234729, Roll : 0.14, Pitch : -17.94, Yaw : 55.05, Alt : 49.3300018311, Lat : 49.2837567, Lng : -123.1146046, Q1 : 0.875832438469, Q2 : 0.0731682628393, Q3 : -0.137717023492, Q4 : 0.456725358963}
2019-04-14 02:27:50.31: SIM {TimeUS : 65334689, Roll : 0.15, Pitch : -17.95, Yaw : 55.04, Alt : 49.3300018311, Lat : 49.2837592, Lng : -123.1145992, Q1 : 0.875871777534, Q2 : 0.0732873752713, Q3 : -0.137754321098, Q4 : 0.456619441509}
2019-04-14 02:27:50.41: SIM {TimeUS : 65434649, Roll : 0.14, Pitch : -17.97, Yaw : 55.02, Alt : 49.3300018311, Lat : 49.2837616, Lng : -123.1145937, Q1 : 0.875911533833, Q2 : 0.0732796266675, Q3 : -0.137968689203, Q4 : 0.45647969842}
2019-04-14 02:27:50.51: SIM {TimeUS : 65534609, Roll : 0.12, Pitch : -17.99, Yaw : 55.01, Alt : 49.3400001526, Lat : 49.283764, Lng : -123.1145883, Q1 : 0.875955462456, Q2 : 0.0731672570109, Q3 : -0.13824352622, Q4 : 0.456330299377}
2019-04-14 02:27:50.61: SIM {TimeUS : 65634569, Roll : 0.1, Pitch : -18.01, Yaw : 55.0, Alt : 49.3400001526, Lat : 49.2837665, Lng : -123.1145828, Q1 : 0.875999629498, Q2 : 0.0730983093381, Q3 : -0.138442769647, Q4 : 0.456196159124}
2019-04-14 02:27:50.71: SIM {TimeUS : 65734529, Roll : 0.11, Pitch : -18.03, Yaw : 54.98, Alt : 49.3400001526, Lat : 49.2837689, Lng : -123.1145773, Q1 : 0.876034617424, Q2 : 0.0731974393129, Q3 : -0.138559281826, Q4 : 0.456077694893}
2019-04-14 02:27:50.81: SIM {TimeUS : 65835322, Roll : 0.12, Pitch : -18.04, Yaw : 54.97, Alt : 49.3400001526, Lat : 49.2837714, Lng : -123.1145718, Q1 : 0.876061737537, Q2 : 0.0733730643988, Q3 : -0.138614460826, Q4 : 0.455980628729}
2019-04-14 02:27:50.91: SIM {TimeUS : 65935282, Roll : 0.15, Pitch : -18.05, Yaw : 54.96, Alt : 49.3400001526, Lat : 49.2837738, Lng : -123.1145664, Q1 : 0.876070976257, Q2 : 0.0736339315772, Q3 : -0.138589322567, Q4 : 0.455928355455}
2019-04-14 02:27:51.01: SIM {TimeUS : 66035242, Roll : 0.17, Pitch : -18.07, Yaw : 54.95, Alt : 49.3400001526, Lat : 49.2837763, Lng : -123.1145609, Q1 : 0.876070737839, Q2 : 0.073809966445, Q3 : -0.138627186418, Q4 : 0.455888837576}
2019-04-14 02:27:51.11: SIM {TimeUS : 66135202, Roll : 0.19, Pitch : -18.08, Yaw : 54.94, Alt : 49.3400001526, Lat : 49.2837787, Lng : -123.1145554, Q1 : 0.876066207886, Q2 : 0.0739781782031, Q3 : -0.138690546155, Q4 : 0.455851048231}
2019-04-14 02:27:51.21: SIM {TimeUS : 66235162, Roll : 0.2, Pitch : -18.1, Yaw : 54.94, Alt : 49.3400001526, Lat : 49.2837812, Lng : -123.1145499, Q1 : 0.876059830189, Q2 : 0.0741417780519, Q3 : -0.13875874877, Q4 : 0.455815941095}
2019-04-14 02:27:51.31: SIM {TimeUS : 66335122, Roll : 0.22, Pitch : -18.11, Yaw : 54.93, Alt : 49.3400001526, Lat : 49.2837836, Lng : -123.1145444, Q1 : 0.876052498817, Q2 : 0.0743510723114, Q3 : -0.138767659664, Q4 : 0.45579329133}
2019-04-14 02:27:51.41: SIM {TimeUS : 66435082, Roll : 0.25, Pitch : -18.13, Yaw : 54.93, Alt : 49.3400001526, Lat : 49.2837861, Lng : -123.1145389, Q1 : 0.876039743423, Q2 : 0.074594438076, Q3 : -0.13879956305, Q4 : 0.455768287182}
2019-04-14 02:27:51.51: SIM {TimeUS : 66535042, Roll : 0.24, Pitch : -18.12, Yaw : 54.92, Alt : 49.3400001526, Lat : 49.2837885, Lng : -123.1145334, Q1 : 0.876070618629, Q2 : 0.074503429234, Q3 : -0.138824537396, Q4 : 0.455716311932}
2019-04-14 02:27:51.61: SIM {TimeUS : 66635002, Roll : 0.21, Pitch : -18.13, Yaw : 54.92, Alt : 49.3400001526, Lat : 49.283791, Lng : -123.1145279, Q1 : 0.876109182835, Q2 : 0.074281707406, Q3 : -0.138992711902, Q4 : 0.455627053976}
2019-04-14 02:27:51.71: SIM {TimeUS : 66734962, Roll : 0.18, Pitch : -18.15, Yaw : 54.91, Alt : 49.3499984741, Lat : 49.2837934, Lng : -123.1145224, Q1 : 0.876128137112, Q2 : 0.0741264149547, Q3 : -0.139273911715, Q4 : 0.455529987812}
