2019-04-14 02:22:24.10: SIM {TimeUS : 40116447, Roll : 0.0, Pitch : 0.0, Yaw : 0.0, Alt : 30.1000003815, Lat : 49.28357, Lng : -123.11502, Q1 : 1.0, Q2 : 0.0, Q3 : 0.0, Q4 : 0.0}
2019-04-14 02:22:24.21: SIM {TimeUS : 40235566, Roll : 0.0, Pitch : 0.0, Yaw : 0.0, Alt : 30.1000003815, Lat : 49.28357, Lng : -123.11502, Q1 : 1.0, Q2 : 0.0, Q3 : 0.0, Q4 : 0.0}
2019-04-14 02:22:24.31: SIM {TimeUS : 40335526, Roll : 0.0, Pitch : 0.0, Yaw : 0.0, Alt : 30.1000003815, Lat : 49.28357, Lng : -123.11502, Q1 : 1.0, Q2 : 0.0, Q3 : 0.0, Q4 : 0.0}
2019-04-14 02:22:24.41: SIM {TimeUS : 40435486, Roll : 0.0, Pitch : 0.0, Yaw : 0.0, Alt : 30.1000003815, Lat : 49.28357, Lng : -123.11502, Q1 : 1.0, Q2 : 0.0, Q3 : 0.0, Q4 : 0.0}
2019-04-14 02:22:24.51: SIM {TimeUS : 40535446, Roll : 0.0, Pitch : 0.0, Yaw : 0.0, Alt : 30.1000003815, Lat : 49.28357, Lng : -123.11502, Q1 : 1.0, Q2 : 0.0, Q3 : 0.0, Q4 : 0.0}
2019-04-14 02:22:24.61: SIM {TimeUS : 40635406, Roll : 0.0, Pitch : 0.0, Yaw : 0.0, Alt : 30.1000003815, Lat : 49.28357, Lng : -123.11502, Q1 : 1.0, Q2 : 0.0, Q3 : 0.0, Q4 : 0.0}
2019-04-14 02:22:24.71: SIM {TimeUS : 40735366, Roll : 0.0, Pitch : 0.0, Yaw : 0.0, Alt : 30.1000003815, Lat : 49.28357, Lng : -123.11502, Q1 : 1.0, Q2 : 0.0, Q3 : 0.0, Q4 : 0.0}
2019-04-14 02:22:24.81: SIM {TimeUS : 40835326, Roll : 0.0, Pitch : 0.0, Yaw : 0.0, Alt : 30.1000003815, Lat : 49.28357, Lng : -123.11502, Q1 : 1.0, Q2 : 0.0, Q3 : 0.0, Q4 : 0.0}
2019-04-14 02:22:24.91: SIM {TimeUS : 40935286, Roll : 0.0, Pitch : 0.0, Yaw : 0.0, Alt : 30.1000003815, Lat : 49.28357, Lng : -123.11502, Q1 : 1.0, Q2 : 0.0, Q3 : 0.0, Q4 : 0.0}
2019-04-14 02:22:25.01: SIM {TimeUS : 41035246, Roll : 0.0, Pitch : 0.0, Yaw : 0.0, Alt : 30.1000003815, Lat : 49.28357, Lng : -123.11502, Q1 : 1.0, Q2 : 0.0, Q3 : 0.0, Q4 : 0.0}
2019-04-14 02:22:25.11: SIM {TimeUS : 41135206, Roll : 0.0, Pitch : 0.0, Yaw : 0.0, Alt : 30.1000003815, Lat : 49.28357, Lng : -123.11502, Q1 : 1.0, Q2 : 0.0, Q3 : 0.0, Q4 : 0.0}
2019-04-14 02:22:25.21: SIM {TimeUS : 41235166, Roll : 0.0, Pitch : 0.0, Yaw : 0.0, Alt : 30.1000003815, Lat : 49.28357, Lng : -123.11502, Q1 : 1.0, Q2 : 0.0, Q3 : 0.0, Q4 : 0.0}
2019-04-14 02:22:25.31: SIM {TimeUS : 41335126, Roll : 0.0, Pitch : 0.0, Yaw : 0.0, Alt : 30.1000003815, Lat : 49.28357, Lng : -123.11502, Q1 : 1.0, Q2 : 0.0, Q3 : 0.0, Q4 : 0.0}
2019-04-14 02:22:25.41: SIM {TimeUS : 41435086, Roll : 0.0, Pitch : 0.0, Yaw : 0.0, Alt : 30.1000003815, Lat : 49.28357, Lng : -123.11502, Q1 : 1.0, Q2 : 0.0, Q3 : 0.0, Q4 : 0.0}
2019-04-14 02:22:25.51: SIM {TimeUS : 41535046, Roll : 0.0, Pitch : 0.0, Yaw : 0.0, Alt : 30.1000003815, Lat : 49.28357, Lng : -123.11502, Q1 : 1.0, Q2 : 0.0, Q3 : 0.0, Q4 : 0.0}
2019-04-14 02:22:25.61: SIM {TimeUS : 41635006, Roll : 0.0, Pitch : 0.0, Yaw : 0.0, Alt : 30.1000003815, Lat : 49.28357, Lng : -123.11502, Q1 : 1.0, Q2 : 0.0, Q3 : 0.0, Q4 : 0.0}
2019-04-14 02:22:25.71: SIM {TimeUS : 41734966, Roll : 0.0, Pitch : 0.0, Yaw : 0.0, Alt : 30.1000003815, Lat : 49.28357, Lng : -123.11502, Q1 : 1.0, Q2 : 0.0, Q3 : 0.0, Q4 : 0.0}
2019-04-14 02:22:25.81: SIM {TimeUS : 41834926, Roll : 0.0, Pitch : 0.0, Yaw : 0.0, Alt : 30.1000003815, Lat : 49.28357, Lng : -123.11502, Q1 : 1.0, Q2 : 0.0, Q3 : 0.0, Q4 : 0.0}
2019-04-14 02:22:25.91: SIM {TimeUS : 41934886, Roll : 0.0, Pitch : 0.0, Yaw : 0.0, Alt : 30.1000003815, Lat : 49.28357, Lng : -123.11502, Q1 : 1.0, Q2 : 0.0, Q3 : 0.0, Q4 : 0.0}
2019-04-14 02:22:26.01: SIM {TimeUS : 42034846, Roll : 0.0, Pitch : 0.0, Yaw : 0.0, Alt : 30.1000003815, Lat : 49.28357, Lng : -123.11502, Q1 : 1.0, Q2 : 0.0, Q3 : 0.0, Q4 : 0.0}
2019-04-14 02:22:26.11: SIM {TimeUS : 42134806, Roll : 0.0, Pitch : 0.0, Yaw : 0.0, Alt : 30.1000003815, Lat : 49.28357, Lng : -123.11502, Q1 : 1.0, Q2 : 0.0, Q3 : 0.0, Q4 : 0.0}
2019-04-14 02:22:26.22: SIM {TimeUS : 42235599, Roll : 0.0, Pitch : 0.0, Yaw : 0.0, Alt : 30.1000003815, Lat : 49.28357, Lng : -123.11502, Q1 : 1.0, Q2 : 0.0, Q3 : 0.0, Q4 : 0.0}
2019-04-14 02:22:26.31: SIM {TimeUS : 42335559, Roll : 0.0, Pitch : 0.0, Yaw : 0.0, Alt : 30.1000003815, Lat : 49.28357, Lng : -123.11502, Q1 : 1.0, Q2 : 0.0, Q3 : 0.0, Q4 : 0.0}
2019-04-14 02:22:26.41: SIM {TimeUS : 42435519, Roll : 0.0, Pitch : 0.0, Yaw : 0.0, Alt : 30.1000003815, Lat : 49.28357, Lng : -123.11502, Q1 : 1.0, Q2 : 0.0, Q3 : 0.0, Q4 : 7.85094975142e-11}
2019-04-14 02:22:26.51: SIM {TimeUS : 42535479, Roll : 0.0, Pitch : 0.0, Yaw : 360.0, Alt : 30.1000003815, Lat : 49.28357, Lng : -123.11502, Q1 : 1.0, Q2 : 0.0, Q3 : 0.0, Q4 : -3.19978958885e-08}
2019-04-14 02:22:26.61: SIM {TimeUS : 42635439, Roll : 0.0, Pitch : 0.0, Yaw : 359.99, Alt : 30.1000003815, Lat : 49.28357, Lng : -123.11502, Q1 : 1.0, Q2 : 0.0, Q3 : 0.0, Q4 : -2.09446127997e-07}
2019-04-14 02:22:26.71: SIM {TimeUS : 42735399, Roll : 0.0, Pitch : 0.0, Yaw : 359.99, Alt : 30.1000003815, Lat : 49.28357, Lng : -123.11502, Q1 : 1.0, Q2 : 0.0, Q3 : 0.0, Q4 : -3.93458805092e-07}
2019-04-14 02:22:26.81: SIM {TimeUS : 42835359, Roll : 0.0, Pitch : 0.0, Yaw : 359.99, Alt : 30.1000003815, Lat : 49.28357, Lng : -123.11502, Q1 : 1.0, Q2 : 0.0, Q3 : 0.0, Q4 : -6.33320780707e-07}
2019-04-14 02:22:26.91: SIM {TimeUS : 42935319, Roll : 0.0, Pitch : 0.0, Yaw : 359.99, Alt : 30.1000003815, Lat : 49.28357, Lng : -123.11502, Q1 : 1.0, Q2 : 0.0, Q3 : 0.0, Q4 : -8.36322215036e-07}
2019-04-14 02:22:27.01: SIM {TimeUS : 43035279, Roll : 0.0, Pitch : 0.0, Yaw : 359.99, Alt : 30.1000003815, Lat : 49.28357, Lng : -123.11502, Q1 : 1.0, Q2 : 0.0, Q3 : 0.0, Q4 : -1.02553497072e-06}
2019-04-14 02:22:27.11: SIM {TimeUS : 43135239, Roll : 0.0, Pitch : 0.0, Yaw : 359.99, Alt : 30.1000003815, Lat : 49.28357, Lng : -123.11502, Q1 : 1.0, Q2 : 0.0, Q3 : 0.0, Q4 : -1.2507498468e-06}
2019-04-14 02:22:27.21: SIM {TimeUS : 43235199, Roll : 0.0, Pitch : 0.0, Yaw : 359.99, Alt : 30.1000003815, Lat : 49.28357, Lng : -123.11502, Q1 : 1.0, Q2 : 0.0, Q3 : 0.0, Q4 : -1.4435470348e-06}
2019-04-14 02:22:27.31: SIM {TimeUS : 43335159, Roll : 0.0, Pitch : 0.0, Yaw : 359.99, Alt : 30.1200008392, Lat : 49.28357, Lng : -123.11502, Q1 : 1.0, Q2 : 0.0, Q3 : 0.0, Q4 : -1.65164180999e-06}
2019-04-14 02:22:27.41: SIM {TimeUS : 43435119, Roll : 0.0, Pitch : 0.0, Yaw : 359.99, Alt : 30.1399993896, Lat : 49.28357, Lng : -123.11502, Q1 : 1.0, Q2 : 0.0, Q3 : 0.0, Q4 : -1.88731166872e-06}
2019-04-14 02:22:27.51: SIM {TimeUS : 43535079, Roll : 0.0, Pitch : 0.0, Yaw : 359.99, Alt : 30.1800003052, Lat : 49.28357, Lng : -123.11502, Q1 : 1.0, Q2 : 0.0, Q3 : 0.0, Q4 : -2.11045698961e-06}
2019-04-14 02:22:27.61: SIM {TimeUS : 43635039, Roll : 0.0, Pitch : 0.0, Yaw : 359.99, Alt : 30.2099990845, Lat : 49.28357, Lng : -123.11502, Q1 : 1.0, Q2 : -5.65526033824e-06, Q3 : -5.64536640013e-06, Q4 : -2.32056208915e-06}
2019-04-14 02:22:27.71: SIM {TimeUS : 43734999, Roll : -0.17, Pitch : -0.17, Yaw : 359.99, Alt : 30.2700004578, Lat : 49.28357, Lng : -123.11502, Q1 : 0.999997615814, Q2 : -0.00156223739032, Q3 : -0.00153151422273, Q4 : -1.50830837811e-05}
2019-04-14 02:22:27.81: SIM {TimeUS : 43834959, Roll : -0.49, Pitch : -0.44, Yaw : 359.99, Alt : 30.3899993896, Lat : 49.28357, Lng : -123.11502, Q1 : 0.999982893467, Q2 : -0.00435511115938, Q3 : -0.00390565651469, Q4 : -5.72894168727e-05}
2019-04-14 02:22:27.91: SIM {TimeUS : 43934919, Roll : -0.76, Pitch : -0.63, Yaw : 359.99, Alt : 30.5400009155, Lat : 49.28357, Lng : -123.11502, Q1 : 0.999962806702, Q2 : -0.0066377222538, Q3 : -0.00550992693752, Q4 : -0.000123519625049}
2019-04-14 02:22:28.01: SIM {TimeUS : 44034879, Roll : -0.85, Pitch : -0.68, Yaw : 359.98, Alt : 30.7000007629, Lat : 49.28357, Lng : -123.11502, Q1 : 0.99995392561, Q2 : -0.0075015835464, Q3 : -0.00598497781903, Q4 : -0.000202944807825}
2019-04-14 02:22:28.11: SIM {TimeUS : 44134839, Roll : -0.8, Pitch : -0.63, Yaw : 359.97, Alt : 30.8500003815, Lat : 49.28357, Lng : -123.1150201, Q1 : 0.999960362911, Q2 : -0.00699618412182, Q3 : -0.00550054106861, Q4 : -0.00028359197313}
2019-04-14 02:22:28.21: SIM {TimeUS : 44234799, Roll : -0.64, Pitch : -0.5, Yaw : 359.96, Alt : 31.0100002289, Lat : 49.2835701, Lng : -123.1150201, Q1 : 0.999974727631, Q2 : -0.00559202861041, Q3 : -0.00437773484737, Q4 : -0.000359572994057}
2019-04-14 02:22:28.32: SIM {TimeUS : 44335592, Roll : -0.42, Pitch : -0.33, Yaw : 359.95, Alt : 31.1599998474, Lat : 49.2835701, Lng : -123.1150202, Q1 : 0.999988615513, Q2 : -0.00371133559383, Q3 : -0.00295412121341, Q4 : -0.000426190992584}
2019-04-14 02:22:28.41: SIM {TimeUS : 44435552, Roll : -0.19, Pitch : -0.19, Yaw : 359.94, Alt : 31.3199996948, Lat : 49.2835702, Lng : -123.1150203, Q1 : 0.999996900558, Q2 : -0.00172376306728, Q3 : -0.00173299794551, Q4 : -0.000477848079754}
2019-04-14 02:22:28.51: SIM {TimeUS : 44535512, Roll : -0.02, Pitch : -0.08, Yaw : 359.94, Alt : 31.4899997711, Lat : 49.2835702, Lng : -123.1150204, Q1 : 0.999999582767, Q2 : -0.000224986579269, Q3 : -0.000723400095012, Q4 : -0.000516775646247}
2019-04-14 02:22:28.61: SIM {TimeUS : 44635472, Roll : 0.05, Pitch : 0.0, Yaw : 359.93, Alt : 31.6700000763, Lat : 49.2835702, Lng : -123.1150205, Q1 : 0.999999701977, Q2 : 0.000490332429763, Q3 : -1.13035384857e-05, Q4 : -0.000543750764336}
2019-04-14 02:22:28.71: SIM {TimeUS : 44735432, Roll : 0.07, Pitch : 0.04, Yaw : 359.93, Alt : 31.8500003815, Lat : 49.2835703, Lng : -123.1150205, Q1 : 0.999999523163, Q2 : 0.00068104674574, Q3 : 0.000380171026336, Q4 : -0.000552263285499}
2019-04-14 02:22:28.81: SIM {TimeUS : 44835392, Roll : 0.07, Pitch : 0.06, Yaw : 359.93, Alt : 32.0299987793, Lat : 49.2835703, Lng : -123.1150206, Q1 : 0.999999463558, Q2 : 0.000656553194858, Q3 : 0.000545463466551, Q4 : -0.000557078688871}
2019-04-14 02:22:28.91: SIM {TimeUS : 44935352, Roll : 0.06, Pitch : 0.05, Yaw : 359.93, Alt : 32.2200012207, Lat : 49.2835703, Lng : -123.1150207, Q1 : 0.999999523163, Q2 : 0.000603975902777, Q3 : 0.000504633877426, Q4 : -0.000552575977053}
2019-04-14 02:22:29.01: SIM {TimeUS : 45035312, Roll : 0.07, Pitch : 0.04, Yaw : 359.93, Alt : 32.4099998474, Lat : 49.2835703, Lng : -123.1150207, Q1 : 0.999999523163, Q2 : 0.000667477957904, Q3 : 0.000385378312785, Q4 : -0.000544676964637}
2019-04-14 02:22:29.11: SIM {TimeUS : 45135272, Roll : 0.1, Pitch : 0.03, Yaw : 359.93, Alt : 32.5999984741, Lat : 49.2835703, Lng : -123.1150208, Q1 : 0.999999403954, Q2 : 0.000885291316081, Q3 : 0.000326081324602, Q4 : -0.000529406534042}
2019-04-14 02:22:29.21: SIM {TimeUS : 45235232, Roll : 0.12, Pitch : 0.05, Yaw : 359.94, Alt : 32.7999992371, Lat : 49.2835703, Lng : -123.1150208, Q1 : 0.999999165535, Q2 : 0.00107152340934, Q3 : 0.00049465126358, Q4 : -0.000513537263032}
2019-04-14 02:22:29.31: SIM {TimeUS : 45335192, Roll : 0.13, Pitch : 0.08, Yaw : 359.94, Alt : 33.0, Lat : 49.2835704, Lng : -123.1150208, Q1 : 0.999998867512, Q2 : 0.00121531786863, Q3 : 0.000734783243388, Q4 : -0.000504581141286}
2019-04-14 02:22:29.41: SIM {TimeUS : 45435152, Roll : 0.13, Pitch : 0.12, Yaw : 359.94, Alt : 33.2000007629, Lat : 49.2835704, Lng : -123.1150209, Q1 : 0.999998509884, Q2 : 0.00120479951147, Q3 : 0.0011075095972, Q4 : -0.000507869350258}
2019-04-14 02:22:29.51: SIM {TimeUS : 45535112, Roll : 0.15, Pitch : 0.16, Yaw : 359.93, Alt : 33.4000015259, Lat : 49.2835704, Lng : -123.1150209, Q1 : 0.999997854233, Q2 : 0.00134662399068, Q3 : 0.0014668822987, Q4 : -0.000526489748154}
2019-04-14 02:22:29.61: SIM {TimeUS : 45635072, Roll : 0.17, Pitch : 0.19, Yaw : 359.93, Alt : 33.6100006104, Lat : 49.2835704, Lng : -123.1150209, Q1 : 0.999997258186, Q2 : 0.00152332358994, Q3 : 0.00169324572198, Q4 : -0.000547309929971}
2019-04-14 02:22:29.71: SIM {TimeUS : 45735032, Roll : 0.18, Pitch : 0.2, Yaw : 359.93, Alt : 33.8100013733, Lat : 49.2835704, Lng : -123.1150209, Q1 : 0.999996960163, Q2 : 0.00163719023112, Q3 : 0.0017622045707, Q4 : -0.000567603681702}
2019-04-14 02:22:29.81: SIM {TimeUS : 45834992, Roll : 0.18, Pitch : 0.19, Yaw : 359.93, Alt : 34.0200004578, Lat : 49.2835706, Lng : -123.1150209, Q1 : 0.999997138977, Q2 : 0.00158087455202, Q3 : 0.00170815142337, Q4 : -0.000591471907683}
2019-04-14 02:22:29.91: SIM {TimeUS : 45934952, Roll : 0.16, Pitch : 0.15, Yaw : 359.92, Alt : 34.2299995422, Lat : 49.2835706, Lng : -123.1150209, Q1 : 0.999997854233, Q2 : 0.00145250197966, Q3 : 0.00135876273271, Q4 : -0.000620162347332}
2019-04-14 02:22:30.01: SIM {TimeUS : 46034912, Roll : 0.13, Pitch : 0.09, Yaw : 359.92, Alt : 34.4500007629, Lat : 49.2835706, Lng : -123.1150209, Q1 : 0.999998688698, Q2 : 0.00119211443234, Q3 : 0.000858630810399, Q4 : -0.000635547854472}
2019-04-14 02:22:30.11: SIM {TimeUS : 46134872, Roll : 0.09, Pitch : 0.06, Yaw : 359.92, Alt : 34.6599998474, Lat : 49.2835706, Lng : -123.1150209, Q1 : 0.99999922514, Q2 : 0.000866694550496, Q3 : 0.000534089340363, Q4 : -0.000648102373816}
2019-04-14 02:22:30.21: SIM {TimeUS : 46234832, Roll : 0.07, Pitch : 0.04, Yaw : 359.92, Alt : 34.8699989319, Lat : 49.2835706, Lng : -123.1150209, Q1 : 0.999999463558, Q2 : 0.000664779450744, Q3 : 0.000425511185313, Q4 : -0.000665874569677}
2019-04-14 02:22:30.31: SIM {TimeUS : 46334792, Roll : 0.06, Pitch : 0.05, Yaw : 359.92, Alt : 35.0900001526, Lat : 49.2835706, Lng : -123.1150209, Q1 : 0.999999463558, Q2 : 0.000596157449763, Q3 : 0.000480518181575, Q4 : -0.000685380073264}
2019-04-14 02:22:30.42: SIM {TimeUS : 46435585, Roll : 0.05, Pitch : 0.05, Yaw : 359.91, Alt : 35.3100013733, Lat : 49.2835706, Lng : -123.1150208, Q1 : 0.999999523163, Q2 : 0.000523383903783, Q3 : 0.000486564240418, Q4 : -0.00070261512883}
2019-04-14 02:22:30.51: SIM {TimeUS : 46535545, Roll : 0.04, Pitch : 0.05, Yaw : 359.91, Alt : 35.5299987793, Lat : 49.2835706, Lng : -123.1150208, Q1 : 0.999999523163, Q2 : 0.000406609411584, Q3 : 0.000447720696684, Q4 : -0.000718212220818}
2019-04-14 02:22:30.61: SIM {TimeUS : 46635505, Roll : 0.03, Pitch : 0.05, Yaw : 359.91, Alt : 35.7400016785, Lat : 49.2835706, Lng : -123.1150208, Q1 : 0.999999582767, Q2 : 0.000271834433079, Q3 : 0.000468826183351, Q4 : -0.000732972344849}
2019-04-14 02:22:30.71: SIM {TimeUS : 46735465, Roll : 0.01, Pitch : 0.06, Yaw : 359.91, Alt : 35.9599990845, Lat : 49.2835706, Lng : -123.1150208, Q1 : 0.999999523163, Q2 : 0.000162661308423, Q3 : 0.000603853666689, Q4 : -0.000751096056774}
2019-04-14 02:22:30.81: SIM {TimeUS : 46835425, Roll : 0.0, Pitch : 0.06, Yaw : 359.91, Alt : 36.1800003052, Lat : 49.2835704, Lng : -123.1150208, Q1 : 0.999999523163, Q2 : 5.68565774302e-05, Q3 : 0.000576598162297, Q4 : -0.000768528727349}
2019-04-14 02:22:30.91: SIM {TimeUS : 46935385, Roll : 0.0, Pitch : 0.05, Yaw : 359.9, Alt : 36.4099998474, Lat : 49.2835704, Lng : -123.1150207, Q1 : 0.999999582767, Q2 : -3.12421652779e-05, Q3 : 0.000446043064585, Q4 : -0.000790833088104}
2019-04-14 02:22:31.01: SIM {TimeUS : 47035345, Roll : -0.01, Pitch : 0.03, Yaw : 359.9, Alt : 36.6300010681, Lat : 49.2835704, Lng : -123.1150207, Q1 : 0.999999582767, Q2 : -0.000122973055113, Q3 : 0.00031553892768, Q4 : -0.000815254810732}
2019-04-14 02:22:31.11: SIM {TimeUS : 47135305, Roll : -0.02, Pitch : 0.01, Yaw : 359.9, Alt : 36.8499984741, Lat : 49.2835704, Lng : -123.1150207, Q1 : 0.999999642372, Q2 : -0.000196324792341, Q3 : 0.000155589805217, Q4 : -0.000843631394673}
2019-04-14 02:22:31.21: SIM {TimeUS : 47235265, Roll : -0.01, Pitch : 0.0, Yaw : 359.9, Alt : 37.0800018311, Lat : 49.2835704, Lng : -123.1150207, Q1 : 0.999999582767, Q2 : -0.000128361658426, Q3 : 2.85463829641e-05, Q4 : -0.000872622593306}
2019-04-14 02:22:31.31: SIM {TimeUS : 47335225, Roll : -0.01, Pitch : -0.01, Yaw : 359.89, Alt : 37.2999992371, Lat : 49.2835704, Lng : -123.1150207, Q1 : 0.999999582767, Q2 : -0.000153500324814, Q3 : -0.00016731415235, Q4 : -0.000896818528417}
2019-04-14 02:22:31.41: SIM {TimeUS : 47435185, Roll : -0.03, Pitch : -0.05, Yaw : 359.89, Alt : 37.5299987793, Lat : 49.2835704, Lng : -123.1150207, Q1 : 0.999999463558, Q2 : -0.000331805815222, Q3 : -0.00045639288146, Q4 : -0.000915754935704}
2019-04-14 02:22:31.51: SIM {TimeUS : 47535145, Roll : -0.06, Pitch : -0.07, Yaw : 359.89, Alt : 37.75, Lat : 49.2835704, Lng : -123.1150207, Q1 : 0.999999165535, Q2 : -0.000580842723139, Q3 : -0.00068199459929, Q4 : -0.000936264463235}
2019-04-14 02:22:31.61: SIM {TimeUS : 47635105, Roll : -0.09, Pitch : -0.09, Yaw : 359.89, Alt : 37.9799995422, Lat : 49.2835704, Lng : -123.1150207, Q1 : 0.999998867512, Q2 : -0.000864980858751, Q3 : -0.000788311299402, Q4 : -0.000956934702117}
2019-04-14 02:22:31.71: SIM {TimeUS : 47735065, Roll : -0.12, Pitch : -0.09, Yaw : 359.88, Alt : 38.2099990845, Lat : 49.2835704, Lng : -123.1150206, Q1 : 0.999998629093, Q2 : -0.00105618708767, Q3 : -0.000825283525046, Q4 : -0.000977778341621}
2019-04-14 02:22:31.81: SIM {TimeUS : 47835025, Roll : -0.12, Pitch : -0.08, Yaw : 359.88, Alt : 38.4300003052, Lat : 49.2835704, Lng : -123.1150206, Q1 : 0.999998569489, Q2 : -0.00111906242091, Q3 : -0.000778432295192, Q4 : -0.000994002562948}
2019-04-14 02:22:31.91: SIM {TimeUS : 47934985, Roll : -0.11, Pitch : -0.06, Yaw : 359.88, Alt : 38.6599998474, Lat : 49.2835704, Lng : -123.1150206, Q1 : 0.999998748302, Q2 : -0.00101932731923, Q3 : -0.000597504724283, Q4 : -0.00100593827665}
2019-04-14 02:22:32.01: SIM {TimeUS : 48034945, Roll : -0.08, Pitch : -0.06, Yaw : 359.88, Alt : 38.8899993896, Lat : 49.2835704, Lng : -123.1150206, Q1 : 0.999999046326, Q2 : -0.000776638917159, Q3 : -0.000549087591935, Q4 : -0.00101670972072}
2019-04-14 02:22:32.11: SIM {TimeUS : 48134905, Roll : -0.06, Pitch : -0.06, Yaw : 359.88, Alt : 39.1199989319, Lat : 49.2835704, Lng : -123.1150206, Q1 : 0.999999165535, Q2 : -0.00060048076557, Q3 : -0.000534905702807, Q4 : -0.00103710463736}
2019-04-14 02:22:32.21: SIM {TimeUS : 48234865, Roll : -0.05, Pitch : -0.04, Yaw : 359.87, Alt : 39.3499984741, Lat : 49.2835704, Lng : -123.1150206, Q1 : 0.99999922514, Q2 : -0.000502998882439, Q3 : -0.000376925279852, Q4 : -0.00105226889718}
2019-04-14 02:22:32.31: SIM {TimeUS : 48334825, Roll : -0.06, Pitch : -0.01, Yaw : 359.87, Alt : 39.5800018311, Lat : 49.2835704, Lng : -123.1150206, Q1 : 0.99999922514, Q2 : -0.000609153823461, Q3 : -8.68547213031e-05, Q4 : -0.00107297685463}
2019-04-14 02:22:32.41: SIM {TimeUS : 48434785, Roll : -0.07, Pitch : 0.02, Yaw : 359.87, Alt : 39.8100013733, Lat : 49.2835704, Lng : -123.1150206, Q1 : 0.999999165535, Q2 : -0.000628156529274, Q3 : 0.000185149998288, Q4 : -0.00109835690819}
2019-04-14 02:22:32.52: SIM {TimeUS : 48535578, Roll : -0.05, Pitch : 0.05, Yaw : 359.86, Alt : 40.0499992371, Lat : 49.2835704, Lng : -123.1150206, Q1 : 0.99999910593, Q2 : -0.000503796618432, Q3 : 0.000514402112458, Q4 : -0.00113446672913}
2019-04-14 02:22:32.61: SIM {TimeUS : 48635538, Roll : -0.03, Pitch : 0.06, Yaw : 359.86, Alt : 40.2799987793, Lat : 49.2835704, Lng : -123.1150207, Q1 : 0.99999910593, Q2 : -0.000310258474201, Q3 : 0.000563387060538, Q4 : -0.00116610550322}
2019-04-14 02:22:32.71: SIM {TimeUS : 48735498, Roll : 0.0, Pitch : 0.06, Yaw : 359.86, Alt : 40.5099983215, Lat : 49.2835704, Lng : -123.1150207, Q1 : 0.999999165535, Q2 : -4.94337546115e-05, Q3 : 0.000523771625012, Q4 : -0.00119250977878}
2019-04-14 02:22:32.81: SIM {TimeUS : 48835458, Roll : 0.03, Pitch : 0.07, Yaw : 359.86, Alt : 40.7400016785, Lat : 49.2835704, Lng : -123.1150207, Q1 : 0.999999046326, Q2 : 0.000262995745288, Q3 : 0.000619003316388, Q4 : -0.00121632649098}
2019-04-14 02:22:32.91: SIM {TimeUS : 48935418, Roll : 0.07, Pitch : 0.09, Yaw : 359.85, Alt : 40.9700012207, Lat : 49.2835706, Lng : -123.1150207, Q1 : 0.999998629093, Q2 : 0.000694242480677, Q3 : 0.000858753162902, Q4 : -0.00123708241154}
2019-04-14 02:22:33.01: SIM {TimeUS : 49035378, Roll : 0.1, Pitch : 0.12, Yaw : 359.85, Alt : 41.2099990845, Lat : 49.2835706, Lng : -123.1150207, Q1 : 0.999998211861, Q2 : 0.000930371345021, Q3 : 0.00109764758963, Q4 : -0.00125747511629}
2019-04-14 02:22:33.11: SIM {TimeUS : 49135338, Roll : 0.08, Pitch : 0.14, Yaw : 359.85, Alt : 41.4399986267, Lat : 49.2835706, Lng : -123.1150207, Q1 : 0.999998092651, Q2 : 0.000773834821302, Q3 : 0.00125817558728, Q4 : -0.00126407924108}
2019-04-14 02:22:33.21: SIM {TimeUS : 49235298, Roll : 0.03, Pitch : 0.15, Yaw : 359.85, Alt : 41.6699981689, Lat : 49.2835706, Lng : -123.1150207, Q1 : 0.999998211861, Q2 : 0.000332579598762, Q3 : 0.00134553259704, Q4 : -0.00126628170256}
2019-04-14 02:22:33.31: SIM {TimeUS : 49335258, Roll : 0.0, Pitch : 0.15, Yaw : 359.85, Alt : 41.9099998474, Lat : 49.2835706, Lng : -123.1150207, Q1 : 0.999998271465, Q2 : -8.37760744616e-05, Q3 : 0.00134699372575, Q4 : -0.00127697631251}
2019-04-14 02:22:33.41: SIM {TimeUS : 49435218, Roll : -0.02, Pitch : 0.12, Yaw : 359.85, Alt : 42.1399993896, Lat : 49.2835706, Lng : -123.1150207, Q1 : 0.999998569489, Q2 : -0.000195736458409, Q3 : 0.00109857926145, Q4 : -0.00129296479281}
2019-04-14 02:22:33.51: SIM {TimeUS : 49535178, Roll : -0.01, Pitch : 0.08, Yaw : 359.84, Alt : 42.3800010681, Lat : 49.2835706, Lng : -123.1150207, Q1 : 0.999998867512, Q2 : -0.000169869948877, Q3 : 0.000768372265156, Q4 : -0.00131055677775}
2019-04-14 02:22:33.61: SIM {TimeUS : 49635138, Roll : 0.0, Pitch : 0.08, Yaw : 359.84, Alt : 42.6100006104, Lat : 49.2835706, Lng : -123.1150207, Q1 : 0.999998807907, Q2 : -6.02574000368e-05, Q3 : 0.000768931000493, Q4 : -0.0013399545569}
2019-04-14 02:22:33.71: SIM {TimeUS : 49735098, Roll : 0.02, Pitch : 0.11, Yaw : 359.84, Alt : 42.8499984741, Lat : 49.2835706, Lng : -123.1150207, Q1 : 0.999998509884, Q2 : 0.000237996922806, Q3 : 0.000992814428173, Q4 : -0.00138087314554}
2019-04-14 02:22:33.81: SIM {TimeUS : 49835058, Roll : 0.07, Pitch : 0.14, Yaw : 359.83, Alt : 43.0800018311, Lat : 49.2835706, Lng : -123.1150207, Q1 : 0.999997973442, Q2 : 0.000688888307195, Q3 : 0.00123957451433, Q4 : -0.00141652277671}
2019-04-14 02:22:33.91: SIM {TimeUS : 49935018, Roll : 0.11, Pitch : 0.13, Yaw : 359.83, Alt : 43.3199996948, Lat : 49.2835706, Lng : -123.1150207, Q1 : 0.999997675419, Q2 : 0.00104845885653, Q3 : 0.00120400777087, Q4 : -0.00145213620272}
2019-04-14 02:22:34.01: SIM {TimeUS : 50034978, Roll : 0.12, Pitch : 0.11, Yaw : 359.83, Alt : 43.5499992371, Lat : 49.2835704, Lng : -123.1150207, Q1 : 0.999997854233, Q2 : 0.00105105608236, Q3 : 0.00102159159724, Q4 : -0.00148315692786}
2019-04-14 02:22:34.11: SIM {TimeUS : 50134938, Roll : 0.07, Pitch : 0.1, Yaw : 359.82, Alt : 43.7900009155, Lat : 49.2835704, Lng : -123.1150207, Q1 : 0.999998271465, Q2 : 0.000680897326674, Q3 : 0.000898484082427, Q4 : -0.00149329705164}
2019-04-14 02:22:34.21: SIM {TimeUS : 50234898, Roll : 0.01, Pitch : 0.09, Yaw : 359.82, Alt : 44.0200004578, Lat : 49.2835704, Lng : -123.1150207, Q1 : 0.999998569489, Q2 : 0.000160035546287, Q3 : 0.000806386698969, Q4 : -0.00149966427125}
2019-04-14 02:22:34.31: SIM {TimeUS : 50334858, Roll : -0.02, Pitch : 0.09, Yaw : 359.82, Alt : 44.2599983215, Lat : 49.2835704, Lng : -123.1150207, Q1 : 0.999998509884, Q2 : -0.000215482781641, Q3 : 0.00079620530596, Q4 : -0.00151071406435}
2019-04-14 02:22:34.41: SIM {TimeUS : 50434818, Roll : -0.04, Pitch : 0.08, Yaw : 359.82, Alt : 44.5, Lat : 49.2835704, Lng : -123.1150206, Q1 : 0.999998509884, Q2 : -0.000392278889194, Q3 : 0.000705534301233, Q4 : -0.00152705702931}
2019-04-14 02:22:34.51: SIM {TimeUS : 50534778, Roll : -0.03, Pitch : 0.05, Yaw : 359.82, Alt : 44.7299995422, Lat : 49.2835704, Lng : -123.1150206, Q1 : 0.999998629093, Q2 : -0.000345147767803, Q3 : 0.000484673480969, Q4 : -0.00155528099276}
2019-04-14 02:22:34.61: SIM {TimeUS : 50635571, Roll : -0.04, Pitch : 0.03, Yaw : 359.81, Alt : 44.9700012207, Lat : 49.2835704, Lng : -123.1150206, Q1 : 0.999998629093, Q2 : -0.000365912419511, Q3 : 0.000275057245744, Q4 : -0.00159334309865}
2019-04-14 02:22:34.71: SIM {TimeUS : 50735531, Roll : -0.03, Pitch : 0.01, Yaw : 359.81, Alt : 45.2099990845, Lat : 49.2835704, Lng : -123.1150206, Q1 : 0.999998629093, Q2 : -0.000321620347677, Q3 : 8.84927430889e-05, Q4 : -0.00163246691227}
2019-04-14 02:22:34.81: SIM {TimeUS : 50835491, Roll : -0.02, Pitch : 0.0, Yaw : 359.8, Alt : 45.4399986267, Lat : 49.2835703, Lng : -123.1150206, Q1 : 0.999998629093, Q2 : -0.000183122465387, Q3 : -7.94989409769e-06, Q4 : -0.00166852376424}
2019-04-14 02:22:34.91: SIM {TimeUS : 50935451, Roll : -0.01, Pitch : 0.0, Yaw : 359.8, Alt : 45.6800003052, Lat : 49.2835703, Lng : -123.1150206, Q1 : 0.999998569489, Q2 : -0.000140438278322, Q3 : 4.21473032475e-06, Q4 : -0.00170572358184}
2019-04-14 02:22:35.01: SIM {TimeUS : 51035411, Roll : -0.01, Pitch : 0.0, Yaw : 359.8, Alt : 45.9099998474, Lat : 49.2835703, Lng : -123.1150206, Q1 : 0.999998450279, Q2 : -0.000161983145517, Q3 : -9.17913257581e-06, Q4 : -0.00174320081715}
2019-04-14 02:22:35.11: SIM {TimeUS : 51135371, Roll : -0.02, Pitch : -0.01, Yaw : 359.79, Alt : 46.1399993896, Lat : 49.2835703, Lng : -123.1150206, Q1 : 0.999998390675, Q2 : -0.000191309198271, Q3 : -0.000159513336257, Q4 : -0.00178024615161}
2019-04-14 02:22:35.21: SIM {TimeUS : 51235331, Roll : -0.02, Pitch : -0.03, Yaw : 359.79, Alt : 46.3600006104, Lat : 49.2835703, Lng : -123.1150206, Q1 : 0.99999833107, Q2 : -0.000184668504517, Q3 : -0.000269983982434, Q4 : -0.00181504478678}
2019-04-14 02:22:35.31: SIM {TimeUS : 51335291, Roll : -0.01, Pitch : -0.03, Yaw : 359.78, Alt : 46.5900001526, Lat : 49.2835703, Lng : -123.1150206, Q1 : 0.999998211861, Q2 : -0.00013349740766, Q3 : -0.000326612149365, Q4 : -0.00184481078759}
2019-04-14 02:22:35.41: SIM {TimeUS : 51435251, Roll : -0.02, Pitch : -0.03, Yaw : 359.78, Alt : 46.7999992371, Lat : 49.2835703, Lng : -123.1150205, Q1 : 0.999998211861, Q2 : -0.000177977315616, Q3 : -0.000338630779879, Q4 : -0.00187164859381}
2019-04-14 02:22:35.51: SIM {TimeUS : 51535211, Roll : -0.04, Pitch : -0.03, Yaw : 359.78, Alt : 47.0099983215, Lat : 49.2835703, Lng : -123.1150205, Q1 : 0.999998092651, Q2 : -0.000370990601368, Q3 : -0.00030485651223, Q4 : -0.00189590349328}
2019-04-14 02:22:35.61: SIM {TimeUS : 51635171, Roll : -0.07, Pitch : -0.03, Yaw : 359.78, Alt : 47.2200012207, Lat : 49.2835703, Lng : -123.1150205, Q1 : 0.999997913837, Q2 : -0.000672392256092, Q3 : -0.000267694733338, Q4 : -0.00191757630091}
2019-04-14 02:22:35.71: SIM {TimeUS : 51735131, Roll : -0.1, Pitch : -0.02, Yaw : 359.77, Alt : 47.4099998474, Lat : 49.2835703, Lng : -123.1150205, Q1 : 0.999997675419, Q2 : -0.000905786000658, Q3 : -0.000244729861151, Q4 : -0.00194014131557}
2019-04-14 02:22:35.81: SIM {TimeUS : 51835091, Roll : -0.11, Pitch : -0.02, Yaw : 359.77, Alt : 47.5999984741, Lat : 49.2835703, Lng : -123.1150205, Q1 : 0.99999755621, Q2 : -0.000983955222182, Q3 : -0.000174515138497, Q4 : -0.0019571876619}
2019-04-14 02:22:35.91: SIM {TimeUS : 51935051, Roll : -0.14, Pitch : -0.03, Yaw : 359.77, Alt : 47.7700004578, Lat : 49.2835703, Lng : -123.1150205, Q1 : 0.999997258186, Q2 : -0.00124828249682, Q3 : -0.000272036588285, Q4 : -0.00197023549117}
2019-04-14 02:22:36.01: SIM {TimeUS : 52035011, Roll : -0.16, Pitch : -0.04, Yaw : 359.77, Alt : 47.9399986267, Lat : 49.2835703, Lng : -123.1150205, Q1 : 0.999997019768, Q2 : -0.00139803229831, Q3 : -0.000382974074455, Q4 : -0.0019824069459}
2019-04-14 02:22:36.11: SIM {TimeUS : 52134971, Roll : -0.15, Pitch : -0.05, Yaw : 359.77, Alt : 48.0900001526, Lat : 49.2835703, Lng : -123.1150205, Q1 : 0.999996960163, Q2 : -0.00136060733348, Q3 : -0.000445578130893, Q4 : -0.0019964564126}
2019-04-14 02:22:36.21: SIM {TimeUS : 52234931, Roll : -0.13, Pitch : -0.05, Yaw : 359.76, Alt : 48.2299995422, Lat : 49.2835703, Lng : -123.1150205, Q1 : 0.999997138977, Q2 : -0.00121207453776, Q3 : -0.00046951440163, Q4 : -0.00201580044813}
2019-04-14 02:22:36.31: SIM {TimeUS : 52334891, Roll : -0.1, Pitch : -0.05, Yaw : 359.76, Alt : 48.3600006104, Lat : 49.2835703, Lng : -123.1150205, Q1 : 0.999997377396, Q2 : -0.000929533212911, Q3 : -0.000514014740475, Q4 : -0.002040886553}
2019-04-14 02:22:36.41: SIM {TimeUS : 52434851, Roll : -0.06, Pitch : -0.06, Yaw : 359.76, Alt : 48.4799995422, Lat : 49.2835703, Lng : -123.1150205, Q1 : 0.99999755621, Q2 : -0.000564367393963, Q3 : -0.000566869217437, Q4 : -0.00207143207081}
2019-04-14 02:22:36.51: SIM {TimeUS : 52534811, Roll : -0.03, Pitch : -0.07, Yaw : 359.75, Alt : 48.5800018311, Lat : 49.2835703, Lng : -123.1150206, Q1 : 0.999997496605, Q2 : -0.000344954751199, Q3 : -0.000637001707219, Q4 : -0.00210790080018}
2019-04-14 02:22:36.62: SIM {TimeUS : 52635604, Roll : -0.03, Pitch : -0.07, Yaw : 359.75, Alt : 48.6699981689, Lat : 49.2835703, Lng : -123.1150206, Q1 : 0.999997377396, Q2 : -0.000336533179507, Q3 : -0.000694015878253, Q4 : -0.00213813665323}
2019-04-14 02:22:36.71: SIM {TimeUS : 52735564, Roll : -0.01, Pitch : -0.07, Yaw : 359.75, Alt : 48.75, Lat : 49.2835703, Lng : -123.1150206, Q1 : 0.999997437, Q2 : -0.000147510188981, Q3 : -0.000618403253611, Q4 : -0.00216272426769}
2019-04-14 02:22:36.81: SIM {TimeUS : 52835524, Roll : 0.01, Pitch : -0.05, Yaw : 359.74, Alt : 48.8199996948, Lat : 49.2835703, Lng : -123.1150206, Q1 : 0.999997496605, Q2 : 8.77702841535e-05, Q3 : -0.000494174484629, Q4 : -0.00218645250425}
2019-04-14 02:22:36.91: SIM {TimeUS : 52935484, Roll : 0.03, Pitch : -0.03, Yaw : 359.74, Alt : 48.8800010681, Lat : 49.2835703, Lng : -123.1150206, Q1 : 0.999997496605, Q2 : 0.000291298725642, Q3 : -0.000288403389277, Q4 : -0.00221525039524}
2019-04-14 02:22:37.01: SIM {TimeUS : 53035444, Roll : 0.04, Pitch : -0.01, Yaw : 359.74, Alt : 48.9399986267, Lat : 49.2835703, Lng : -123.1150206, Q1 : 0.999997377396, Q2 : 0.000435208989074, Q3 : -0.000134357484058, Q4 : -0.00224567926489}
2019-04-14 02:22:37.11: SIM {TimeUS : 53135404, Roll : 0.12, Pitch : -0.04, Yaw : 359.73, Alt : 48.9799995422, Lat : 49.2835703, Lng : -123.1150206, Q1 : 0.999996721745, Q2 : 0.00105603924021, Q3 : -0.000430654239608, Q4 : -0.00227858987637}
2019-04-14 02:22:37.21: SIM {TimeUS : 53235364, Roll : 0.34, Pitch : -0.21, Yaw : 359.73, Alt : 49.0200004578, Lat : 49.2835703, Lng : -123.1150206, Q1 : 0.999991059303, Q2 : 0.00297866179608, Q3 : -0.00190864014439, Q4 : -0.0023095223587}
2019-04-14 02:22:37.31: SIM {TimeUS : 53335324, Roll : 0.77, Pitch : -0.53, Yaw : 359.72, Alt : 49.0499992371, Lat : 49.2835703, Lng : -123.1150206, Q1 : 0.999963581562, Q2 : 0.00672978069633, Q3 : -0.00469391373917, Q4 : -0.00233587133698}
2019-04-14 02:22:37.41: SIM {TimeUS : 53435284, Roll : 1.41, Pitch : -0.98, Yaw : 359.71, Alt : 49.0800018311, Lat : 49.2835703, Lng : -123.1150206, Q1 : 0.999883949757, Q2 : 0.0123299444094, Q3 : -0.00863208808005, Q4 : -0.00235377834179}
2019-04-14 02:22:37.51: SIM {TimeUS : 53535244, Roll : 2.2, Pitch : -1.53, Yaw : 359.7, Alt : 49.1100006104, Lat : 49.2835704, Lng : -123.1150206, Q1 : 0.999722719193, Q2 : 0.0192167256027, Q3 : -0.0134074017406, Q4 : -0.00234045996331}
2019-04-14 02:22:37.61: SIM {TimeUS : 53635204, Roll : 3.05, Pitch : -2.1, Yaw : 359.68, Alt : 49.1300010681, Lat : 49.2835704, Lng : -123.1150205, Q1 : 0.999474048615, Q2 : 0.0265961047262, Q3 : -0.0184145830572, Q4 : -0.00227637239732}
2019-04-14 02:22:37.71: SIM {TimeUS : 53735164, Roll : 3.84, Pitch : -2.61, Yaw : 359.66, Alt : 49.1399993896, Lat : 49.2835706, Lng : -123.1150203, Q1 : 0.999175488949, Q2 : 0.033465590328, Q3 : -0.0228851232678, Q4 : -0.00214911135845}
2019-04-14 02:22:37.81: SIM {TimeUS : 53835124, Roll : 4.47, Pitch : -3.01, Yaw : 359.65, Alt : 49.1599998474, Lat : 49.2835707, Lng : -123.1150201, Q1 : 0.998889863491, Q2 : 0.0389379858971, Q3 : -0.0264411028475, Q4 : -0.00195509521291}
2019-04-14 02:22:37.91: SIM {TimeUS : 53935084, Roll : 4.92, Pitch : -3.34, Yaw : 359.65, Alt : 49.1699981689, Lat : 49.2835709, Lng : -123.1150199, Q1 : 0.998649537563, Q2 : 0.0428971387446, Q3 : -0.0292569324374, Q4 : -0.00171799666714}
2019-04-14 02:22:38.01: SIM {TimeUS : 54035044, Roll : 5.24, Pitch : -3.59, Yaw : 359.66, Alt : 49.1899986267, Lat : 49.283571, Lng : -123.1150195, Q1 : 0.998461604118, Q2 : 0.0456422567368, Q3 : -0.0314507931471, Q4 : -0.00145386089571}
2019-04-14 02:22:38.11: SIM {TimeUS : 54135004, Roll : 5.5, Pitch : -3.83, Yaw : 359.67, Alt : 49.2000007629, Lat : 49.2835713, Lng : -123.115019, Q1 : 0.998285770416, Q2 : 0.0479386895895, Q3 : -0.033556997776, Q4 : -0.00118611822836}
2019-04-14 02:22:38.21: SIM {TimeUS : 54234964, Roll : 5.78, Pitch : -4.07, Yaw : 359.69, Alt : 49.2099990845, Lat : 49.2835715, Lng : -123.1150184, Q1 : 0.998094677925, Q2 : 0.0503580346704, Q3 : -0.0356423892081, Q4 : -0.000902488827705}
2019-04-14 02:22:38.31: SIM {TimeUS : 54334924, Roll : 6.1, Pitch : -4.3, Yaw : 359.69, Alt : 49.2099990845, Lat : 49.2835719, Lng : -123.1150177, Q1 : 0.997879981995, Q2 : 0.0530821606517, Q3 : -0.0376487374306, Q4 : -0.000621309445705}
2019-04-14 02:22:38.41: SIM {TimeUS : 54434884, Roll : 6.39, Pitch : -4.51, Yaw : 359.7, Alt : 49.2200012207, Lat : 49.2835721, Lng : -123.1150169, Q1 : 0.997671961784, Q2 : 0.0556262917817, Q3 : -0.0394500307739, Q4 : -0.000353125185939}
2019-04-14 02:22:38.51: SIM {TimeUS : 54534844, Roll : 6.63, Pitch : -4.66, Yaw : 359.71, Alt : 49.2299995422, Lat : 49.2835726, Lng : -123.115016, Q1 : 0.997496366501, Q2 : 0.0577604584396, Q3 : -0.0408004559577, Q4 : -0.00012365137809}
2019-04-14 02:22:38.61: SIM {TimeUS : 54634804, Roll : 6.8, Pitch : -4.77, Yaw : 359.72, Alt : 49.2299995422, Lat : 49.2835731, Lng : -123.115015, Q1 : 0.997374236584, Q2 : 0.0592167787254, Q3 : -0.0416902042925, Q4 : 6.4798463427e-05}
2019-04-14 02:22:38.72: SIM {TimeUS : 54735597, Roll : 6.92, Pitch : -4.85, Yaw : 359.72, Alt : 49.2400016785, Lat : 49.2835735, Lng : -123.1150139, Q1 : 0.997281014919, Q2 : 0.0602337755263, Q3 : -0.0424551144242, Q4 : 0.000196684704861}
2019-04-14 02:22:38.81: SIM {TimeUS : 54835557, Roll : 7.02, Pitch : -4.93, Yaw : 359.72, Alt : 49.2400016785, Lat : 49.283574, Lng : -123.1150128, Q1 : 0.997198462486, Q2 : 0.0611237995327, Q3 : -0.0431168414652, Q4 : 0.000280417763861}
2019-04-14 02:22:38.91: SIM {TimeUS : 54935517, Roll : 7.16, Pitch : -5.0, Yaw : 359.72, Alt : 49.25, Lat : 49.2835746, Lng : -123.1150116, Q1 : 0.99709624052, Q2 : 0.0623458810151, Q3 : -0.0437258630991, Q4 : 0.000364130421076}
2019-04-14 02:22:39.01: SIM {TimeUS : 55035477, Roll : 7.47, Pitch : -4.94, Yaw : 359.88, Alt : 49.25, Lat : 49.2835752, Lng : -123.1150102, Q1 : 0.996946275234, Q2 : 0.0650738701224, Q3 : -0.0431298650801, Q4 : 0.00184119504411}
2019-04-14 02:22:39.11: SIM {TimeUS : 55135437, Roll : 8.01, Pitch : -4.75, Yaw : 0.76, Alt : 49.25, Lat : 49.2835759, Lng : -123.1150088, Q1 : 0.996655762196, Q2 : 0.0701047852635, Q3 : -0.0408836454153, Q4 : 0.00954683497548}
2019-04-14 02:22:39.21: SIM {TimeUS : 55235397, Roll : 8.61, Pitch : -4.69, Yaw : 3.0, Alt : 49.2599983215, Lat : 49.2835765, Lng : -123.1150072, Q1 : 0.995916426182, Q2 : 0.076088540256, Q3 : -0.0388691946864, Q4 : 0.0291593167931}
2019-04-14 02:22:39.31: SIM {TimeUS : 55335357, Roll : 9.02, Pitch : -5.06, Yaw : 6.82, Alt : 49.2599983215, Lat : 49.2835773, Lng : -123.1150056, Q1 : 0.993957102299, Q2 : 0.0810510665178, Q3 : -0.0392837449908, Q4 : 0.0627438351512}
2019-04-14 02:22:39.41: SIM {TimeUS : 55435317, Roll : 9.0, Pitch : -5.93, Yaw : 12.12, Alt : 49.2599983215, Lat : 49.283578, Lng : -123.1150039, Q1 : 0.989582359791, Q2 : 0.0834141075611, Q3 : -0.0430639944971, Q4 : 0.109152786434}
2019-04-14 02:22:39.51: SIM {TimeUS : 55535277, Roll : 8.41, Pitch : -7.24, Yaw : 18.65, Alt : 49.2599983215, Lat : 49.2835787, Lng : -123.115002, Q1 : 0.981398761272, Q2 : 0.0825046077371, Q3 : -0.0502889677882, Q4 : 0.165892809629}
2019-04-14 02:22:39.61: SIM {TimeUS : 55635237, Roll : 7.23, Pitch : -8.8, Yaw : 26.17, Alt : 49.2599983215, Lat : 49.2835794, Lng : -123.115, Q1 : 0.968130469322, Q2 : 0.0785744562745, Q3 : -0.0603507645428, Q4 : 0.230015724897}
2019-04-14 02:22:39.71: SIM {TimeUS : 55735197, Roll : 5.48, Pitch : -10.37, Yaw : 34.41, Alt : 49.2599983215, Lat : 49.2835802, Lng : -123.1149979, Q1 : 0.948939859867, Q2 : 0.072278007865, Q3 : -0.0722018033266, Q4 : 0.298455923796}
2019-04-14 02:22:39.81: SIM {TimeUS : 55835157, Roll : 3.2, Pitch : -11.74, Yaw : 43.11, Alt : 49.2700004578, Lat : 49.2835811, Lng : -123.1149957, Q1 : 0.923744976521, Q2 : 0.0634906589985, Q3 : -0.0848769322038, Q4 : 0.368048995733}
2019-04-14 02:22:39.91: SIM {TimeUS : 55935117, Roll : 0.28, Pitch : -12.67, Yaw : 51.72, Alt : 49.2700004578, Lat : 49.2835818, Lng : -123.1149934, Q1 : 0.894221842289, Q2 : 0.0503627918661, Q3 : -0.0982908532023, Q4 : 0.433785438538}
2019-04-14 02:22:40.01: SIM {TimeUS : 56035077, Roll : -2.9, Pitch : -13.04, Yaw : 59.35, Alt : 49.2700004578, Lat : 49.2835828, Lng : -123.114991, Q1 : 0.864367306232, Q2 : 0.034293487668, Q3 : -0.111127354205, Q4 : 0.489227771759}
2019-04-14 02:22:40.11: SIM {TimeUS : 56135037, Roll : -5.69, Pitch : -12.95, Yaw : 65.23, Alt : 49.2700004578, Lat : 49.2835837, Lng : -123.1149885, Q1 : 0.838897824287, Q2 : 0.0191972386092, Q3 : -0.121532775462, Q4 : 0.530199706554}
2019-04-14 02:22:40.21: SIM {TimeUS : 56234997, Roll : -7.56, Pitch : -12.7, Yaw : 69.02, Alt : 49.2700004578, Lat : 49.2835849, Lng : -123.1149859, Q1 : 0.821276009083, Q2 : 0.00856249872595, Q3 : -0.12810254097, Q4 : 0.555897653103}
2019-04-14 02:22:40.31: SIM {TimeUS : 56334957, Roll : -8.35, Pitch : -12.53, Yaw : 70.81, Alt : 49.2700004578, Lat : 49.2835861, Lng : -123.1149834, Q1 : 0.812621831894, Q2 : 0.00404944131151, Q3 : -0.130728721619, Q4 : 0.567925512791}
2019-04-14 02:22:40.41: SIM {TimeUS : 56434917, Roll : -8.16, Pitch : -12.59, Yaw : 70.9, Alt : 49.2700004578, Lat : 49.2835873, Lng : -123.1149808, Q1 : 0.812169492245, Q2 : 0.00579302571714, Q3 : -0.130211681128, Q4 : 0.56867569685}
2019-04-14 02:22:40.51: SIM {TimeUS : 56534877, Roll : -7.18, Pitch : -12.93, Yaw : 69.64, Alt : 49.2700004578, Lat : 49.2835887, Lng : -123.114978, Q1 : 0.818103075027, Q2 : 0.013099398464, Q3 : -0.127876952291, Q4 : 0.560520470142}
2019-04-14 02:22:40.61: SIM {TimeUS : 56634837, Roll : -5.65, Pitch : -13.51, Yaw : 67.41, Alt : 49.2700004578, Lat : 49.2835902, Lng : -123.1149754, Q1 : 0.828318178654, Q2 : 0.0244429241866, Q3 : -0.124964945018, Q4 : 0.545596301556}
2019-04-14 02:22:40.71: SIM {TimeUS : 56734797, Roll : -3.81, Pitch : -14.22, Yaw : 64.52, Alt : 49.2799987793, Lat : 49.2835917, Lng : -123.1149725, Q1 : 0.840830624104, Q2 : 0.0381243377924, Q3 : -0.12227883935, Q4 : 0.525926172733}
2019-04-14 02:22:40.82: SIM {TimeUS : 56835590, Roll : -1.85, Pitch : -14.93, Yaw : 61.26, Alt : 49.2799987793, Lat : 49.2835934, Lng : -123.1149697, Q1 : 0.854093372822, Q2 : 0.0524204261601, Q3 : -0.119999244809, Q4 : 0.503365457058}
2019-04-14 02:22:40.91: SIM {TimeUS : 56935550, Roll : 0.0, Pitch : -15.47, Yaw : 58.01, Alt : 49.2799987793, Lat : 49.283595, Lng : -123.1149667, Q1 : 0.866577923298, Q2 : 0.0652584433556, Q3 : -0.117792800069, Q4 : 0.480529844761}
2019-04-14 02:22:41.01: SIM {TimeUS : 57035510, Roll : 1.58, Pitch : -15.78, Yaw : 55.08, Alt : 49.2799987793, Lat : 49.2835966, Lng : -123.1149636, Q1 : 0.877304911613, Q2 : 0.0756344497204, Q3 : -0.115426264703, Q4 : 0.459665447474}
2019-04-14 02:22:41.11: SIM {TimeUS : 57135470, Roll : 2.77, Pitch : -15.88, Yaw : 52.74, Alt : 49.2799987793, Lat : 49.2835983, Lng : -123.1149603, Q1 : 0.885575592518, Q2 : 0.082876868546, Q3 : -0.113099105656, Q4 : 0.442827165127}
2019-04-14 02:22:41.21: SIM {TimeUS : 57235430, Roll : 3.49, Pitch : -15.84, Yaw : 51.16, Alt : 49.2799987793, Lat : 49.2836, Lng : -123.114957, Q1 : 0.891113519669, Q2 : 0.0867234766483, Q3 : -0.111272320151, Q4 : 0.431293606758}
2019-04-14 02:22:41.31: SIM {TimeUS : 57335390, Roll : 3.71, Pitch : -15.77, Yaw : 50.39, Alt : 49.2799987793, Lat : 49.2836017, Lng : -123.1149535, Q1 : 0.893930077553, Q2 : 0.0874402299523, Q3 : -0.110415421426, Q4 : 0.425501704216}
2019-04-14 02:22:41.41: SIM {TimeUS : 57435350, Roll : 3.5, Pitch : -15.74, Yaw : 50.36, Alt : 49.2799987793, Lat : 49.2836033, Lng : -123.1149499, Q1 : 0.894228696823, Q2 : 0.0856322497129, Q3 : -0.110975041986, Q4 : 0.425096154213}
2019-04-14 02:22:41.51: SIM {TimeUS : 57535310, Roll : 2.94, Pitch : -15.78, Yaw : 50.95, Alt : 49.2799987793, Lat : 49.283605, Lng : -123.1149461, Q1 : 0.892373740673, Q2 : 0.0820156559348, Q3 : -0.112960986793, Q4 : 0.429164737463}
2019-04-14 02:22:41.61: SIM {TimeUS : 57635270, Roll : 2.15, Pitch : -15.89, Yaw : 52.0, Alt : 49.2900009155, Lat : 49.2836067, Lng : -123.1149423, Q1 : 0.888860166073, Q2 : 0.0773007646203, Q3 : -0.1160717085, Q4 : 0.436439603567}
2019-04-14 02:22:41.71: SIM {TimeUS : 57735230, Roll : 1.25, Pitch : -16.03, Yaw : 53.3, Alt : 49.2900009155, Lat : 49.2836085, Lng : -123.1149384, Q1 : 0.88426977396, Q2 : 0.0722544640303, Q3 : -0.11975146085, Q4 : 0.445539951324}
2019-04-14 02:22:41.81: SIM {TimeUS : 57835190, Roll : 0.39, Pitch : -16.17, Yaw : 54.68, Alt : 49.2900009155, Lat : 49.2836102, Lng : -123.1149344, Q1 : 0.879228234291, Q2 : 0.0676164999604, Q3 : -0.123410768807, Q4 : 0.455143392086}
2019-04-14 02:22:41.91: SIM {TimeUS : 57935150, Roll : -0.35, Pitch : -16.3, Yaw : 55.96, Alt : 49.2900009155, Lat : 49.2836118, Lng : -123.1149304, Q1 : 0.874350130558, Q2 : 0.0638178959489, Q3 : -0.12670570612, Q4 : 0.46409574151}
2019-04-14 02:22:42.01: SIM {TimeUS : 58035110, Roll : -0.94, Pitch : -16.41, Yaw : 57.04, Alt : 49.2900009155, Lat : 49.2836136, Lng : -123.1149263, Q1 : 0.870179176331, Q2 : 0.0610187426209, Q3 : -0.129308342934, Q4 : 0.471533983946}
2019-04-14 02:22:42.11: SIM {TimeUS : 58135070, Roll : -1.33, Pitch : -16.48, Yaw : 57.81, Alt : 49.2900009155, Lat : 49.2836156, Lng : -123.1149221, Q1 : 0.867103338242, Q2 : 0.0591972544789, Q3 : -0.131076812744, Q4 : 0.476913422346}
2019-04-14 02:22:42.21: SIM {TimeUS : 58235030, Roll : -1.52, Pitch : -16.5, Yaw : 58.25, Alt : 49.2900009155, Lat : 49.2836174, Lng : -123.1149179, Q1 : 0.865325033665, Q2 : 0.058389198035, Q3 : -0.131799951196, Q4 : 0.480033427477}
2019-04-14 02:22:42.31: SIM {TimeUS : 58334990, Roll : -1.49, Pitch : -16.5, Yaw : 58.37, Alt : 49.2900009155, Lat : 49.2836193, Lng : -123.1149137, Q1 : 0.864811480045, Q2 : 0.0587094798684, Q3 : -0.131621733308, Q4 : 0.480967789888}
2019-04-14 02:22:42.41: SIM {TimeUS : 58434950, Roll : -1.32, Pitch : -16.5, Yaw : 58.21, Alt : 49.2900009155, Lat : 49.2836213, Lng : -123.1149093, Q1 : 0.865391612053, Q2 : 0.0598259344697, Q3 : -0.131003335118, Q4 : 0.479954570532}
2019-04-14 02:22:42.51: SIM {TimeUS : 58534910, Roll : -1.02, Pitch : -16.53, Yaw : 57.84, Alt : 49.2900009155, Lat : 49.2836232, Lng : -123.1149051, Q1 : 0.866768717766, Q2 : 0.0617681443691, Q3 : -0.130136549473, Q4 : 0.477452784777}
2019-04-14 02:22:42.61: SIM {TimeUS : 58634870, Roll : -0.64, Pitch : -16.55, Yaw : 57.33, Alt : 49.2900009155, Lat : 49.2836251, Lng : -123.1149007, Q1 : 0.86865657568, Q2 : 0.0641904398799, Q3 : -0.129019781947, Q4 : 0.473992884159}
2019-04-14 02:22:42.71: SIM {TimeUS : 58734830, Roll : -0.25, Pitch : -16.58, Yaw : 56.76, Alt : 49.2900009155, Lat : 49.2836272, Lng : -123.1148963, Q1 : 0.870756745338, Q2 : 0.0666349306703, Q3 : -0.127935260534, Q4 : 0.47007983923}
2019-04-14 02:22:42.81: SIM {TimeUS : 58834790, Roll : 0.08, Pitch : -16.63, Yaw : 56.2, Alt : 49.2900009155, Lat : 49.2836292, Lng : -123.1148918, Q1 : 0.872787833214, Q2 : 0.0687843263149, Q3 : -0.127248436213, Q4 : 0.466173768044}
2019-04-14 02:22:42.92: SIM {TimeUS : 58935583, Roll : 0.35, Pitch : -16.69, Yaw : 55.7, Alt : 49.2900009155, Lat : 49.2836312, Lng : -123.1148873, Q1 : 0.874557733536, Q2 : 0.0705261081457, Q3 : -0.126916766167, Q4 : 0.462673693895}
2019-04-14 02:22:43.01: SIM {TimeUS : 59035543, Roll : 0.53, Pitch : -16.75, Yaw : 55.32, Alt : 49.2900009155, Lat : 49.2836333, Lng : -123.1148827, Q1 : 0.875899136066, Q2 : 0.0717379674315, Q3 : -0.126920521259, Q4 : 0.459940910339}
2019-04-14 02:22:43.11: SIM {TimeUS : 59135503, Roll : 0.61, Pitch : -16.8, Yaw : 55.08, Alt : 49.2900009155, Lat : 49.2836353, Lng : -123.1148781, Q1 : 0.876785576344, Q2 : 0.0722982883453, Q3 : -0.127107769251, Q4 : 0.458108752966}
2019-04-14 02:22:43.21: SIM {TimeUS : 59235463, Roll : 0.63, Pitch : -16.85, Yaw : 54.96, Alt : 49.2900009155, Lat : 49.2836375, Lng : -123.1148734, Q1 : 0.877183496952, Q2 : 0.0724574550986, Q3 : -0.127458766103, Q4 : 0.457223445177}
2019-04-14 02:22:43.31: SIM {TimeUS : 59335423, Roll : 0.58, Pitch : -16.88, Yaw : 54.97, Alt : 49.2900009155, Lat : 49.2836395, Lng : -123.1148688, Q1 : 0.877151608467, Q2 : 0.072199203074, Q3 : -0.127916112542, Q4 : 0.457197785378}
2019-04-14 02:22:43.41: SIM {TimeUS : 59435383, Roll : 0.47, Pitch : -16.91, Yaw : 55.07, Alt : 49.2900009155, Lat : 49.2836415, Lng : -123.1148641, Q1 : 0.876775562763, Q2 : 0.0716489851475, Q3 : -0.128476515412, Q4 : 0.457848072052}
2019-04-14 02:22:43.51: SIM {TimeUS : 59535343, Roll : 0.35, Pitch : -16.93, Yaw : 55.24, Alt : 49.2900009155, Lat : 49.2836437, Lng : -123.1148594, Q1 : 0.876145839691, Q2 : 0.0710292086005, Q3 : -0.129041269422, Q4 : 0.458989828825}
2019-04-14 02:22:43.61: SIM {TimeUS : 59635303, Roll : 0.23, Pitch : -16.96, Yaw : 55.44, Alt : 49.2900009155, Lat : 49.2836457, Lng : -123.1148546, Q1 : 0.875376284122, Q2 : 0.0704058781266, Q3 : -0.129648581147, Q4 : 0.460380941629}
2019-04-14 02:22:43.71: SIM {TimeUS : 59735263, Roll : 0.09, Pitch : -16.99, Yaw : 55.65, Alt : 49.2999992371, Lat : 49.2836479, Lng : -123.1148497, Q1 : 0.8745855093, Q2 : 0.0697327703238, Q3 : -0.130261510611, Q4 : 0.461811035872}
2019-04-14 02:22:43.81: SIM {TimeUS : 59835223, Roll : -0.02, Pitch : -17.02, Yaw : 55.84, Alt : 49.2999992371, Lat : 49.28365, Lng : -123.114845, Q1 : 0.873866081238, Q2 : 0.0691401064396, Q3 : -0.130895525217, Q4 : 0.463081121445}
2019-04-14 02:22:43.91: SIM {TimeUS : 59935183, Roll : -0.12, Pitch : -17.06, Yaw : 55.98, Alt : 49.2999992371, Lat : 49.2836522, Lng : -123.1148401, Q1 : 0.873291432858, Q2 : 0.0686967894435, Q3 : -0.131518393755, Q4 : 0.464053601027}
2019-04-14 02:22:44.01: SIM {TimeUS : 60035143, Roll : -0.19, Pitch : -17.11, Yaw : 56.08, Alt : 49.2999992371, Lat : 49.2836543, Lng : -123.1148351, Q1 : 0.872896134853, Q2 : 0.0684771388769, Q3 : -0.132093146443, Q4 : 0.464666187763}
2019-04-14 02:22:44.11: SIM {TimeUS : 60135103, Roll : -0.24, Pitch : -17.14, Yaw : 56.12, Alt : 49.2999992371, Lat : 49.2836565, Lng : -123.1148303, Q1 : 0.872726619244, Q2 : 0.0682509690523, Q3 : -0.132523909211, Q4 : 0.464895159006}
2019-04-14 02:22:44.21: SIM {TimeUS : 60235063, Roll : -0.26, Pitch : -17.16, Yaw : 56.11, Alt : 49.2999992371, Lat : 49.2836586, Lng : -123.1148254, Q1 : 0.872762262821, Q2 : 0.0681778565049, Q3 : -0.13274769485, Q4 : 0.464775145054}
2019-04-14 02:22:44.31: SIM {TimeUS : 60335023, Roll : -0.24, Pitch : -17.17, Yaw : 56.05, Alt : 49.2999992371, Lat : 49.2836609, Lng : -123.1148204, Q1 : 0.872965574265, Q2 : 0.0682978481054, Q3 : -0.13281865418, Q4 : 0.464355140924}
2019-04-14 02:22:44.41: SIM {TimeUS : 60434983, Roll : -0.19, Pitch : -17.2, Yaw : 55.96, Alt : 49.2999992371, Lat : 49.2836631, Lng : -123.1148155, Q1 : 0.873268544674, Q2 : 0.0686685815454, Q3 : -0.132906511426, Q4 : 0.463705211878}
2019-04-14 02:22:44.51: SIM {TimeUS : 60534943, Roll : -0.12, Pitch : -17.24, Yaw : 55.85, Alt : 49.2999992371, Lat : 49.2836652, Lng : -123.1148105, Q1 : 0.87362742424, Q2 : 0.0692221671343, Q3 : -0.132969558239, Q4 : 0.462928235531}
2019-04-14 02:22:44.61: SIM {TimeUS : 60634903, Roll : -0.03, Pitch : -17.28, Yaw : 55.74, Alt : 49.2999992371, Lat : 49.2836675, Lng : -123.1148055, Q1 : 0.87399494648, Q2 : 0.0699532553554, Q3 : -0.133003354073, Q4 : 0.462114214897}
2019-04-14 02:22:44.71: SIM {TimeUS : 60734863, Roll : 0.06, Pitch : -17.33, Yaw : 55.62, Alt : 49.3100013733, Lat : 49.2836697, Lng : -123.1148004, Q1 : 0.874328076839, Q2 : 0.0707774236798, Q3 : -0.133052244782, Q4 : 0.461343735456}
2019-04-14 02:22:44.81: SIM {TimeUS : 60834823, Roll : 0.13, Pitch : -17.37, Yaw : 55.53, Alt : 49.3100013733, Lat : 49.2836719, Lng : -123.1147954, Q1 : 0.874633312225, Q2 : 0.0713819861412, Q3 : -0.133086070418, Q4 : 0.460661828518}
2019-04-14 02:22:44.91: SIM {TimeUS : 60934783, Roll : 0.16, Pitch : -17.38, Yaw : 55.45, Alt : 49.3100013733, Lat : 49.2836742, Lng : -123.1147903, Q1 : 0.874909996986, Q2 : 0.0715768188238, Q3 : -0.133132711053, Q4 : 0.460092395544}
2019-04-14 02:22:45.02: SIM {TimeUS : 61035576, Roll : 0.15, Pitch : -17.39, Yaw : 55.39, Alt : 49.3100013733, Lat : 49.2836765, Lng : -123.1147852, Q1 : 0.875129938126, Q2 : 0.071472838521, Q3 : -0.133247643709, Q4 : 0.459656715393}
2019-04-14 02:22:45.11: SIM {TimeUS : 61135536, Roll : 0.15, Pitch : -17.38, Yaw : 55.36, Alt : 49.3100013733, Lat : 49.2836787, Lng : -123.1147801, Q1 : 0.875265777111, Q2 : 0.0714251250029, Q3 : -0.133215799928, Q4 : 0.459414660931}
2019-04-14 02:22:45.21: SIM {TimeUS : 61235496, Roll : 0.15, Pitch : -17.39, Yaw : 55.35, Alt : 49.3100013733, Lat : 49.2836809, Lng : -123.114775, Q1 : 0.875310122967, Q2 : 0.0714141651988, Q3 : -0.133270680904, Q4 : 0.459315955639}
2019-04-14 02:22:45.31: SIM {TimeUS : 61335456, Roll : 0.16, Pitch : -17.42, Yaw : 55.35, Alt : 49.3100013733, Lat : 49.2836833, Lng : -123.1147699, Q1 : 0.875253796577, Q2 : 0.0716155469418, Q3 : -0.133453443646, Q4 : 0.459338903427}
2019-04-14 02:22:45.41: SIM {TimeUS : 61435416, Roll : 0.17, Pitch : -17.47, Yaw : 55.37, Alt : 49.3100013733, Lat : 49.2836856, Lng : -123.1147647, Q1 : 0.875128686428, Q2 : 0.0718984529376, Q3 : -0.13382178545, Q4 : 0.459425926208}
2019-04-14 02:22:45.51: SIM {TimeUS : 61535376, Roll : 0.16, Pitch : -17.5, Yaw : 55.39, Alt : 49.3100013733, Lat : 49.2836878, Lng : -123.1147596, Q1 : 0.875009655952, Q2 : 0.0720080286264, Q3 : -0.134104952216, Q4 : 0.459552884102}
2019-04-14 02:22:45.61: SIM {TimeUS : 61635336, Roll : 0.14, Pitch : -17.52, Yaw : 55.41, Alt : 49.3100013733, Lat : 49.2836901, Lng : -123.1147544, Q1 : 0.874916493893, Q2 : 0.0719514191151, Q3 : -0.134287029505, Q4 : 0.459685862064}
2019-04-14 02:22:45.71: SIM {TimeUS : 61735296, Roll : 0.11, Pitch : -17.54, Yaw : 55.42, Alt : 49.3100013733, Lat : 49.2836925, Lng : -123.1147492, Q1 : 0.874853551388, Q2 : 0.0717511922121, Q3 : -0.134538173676, Q4 : 0.459763556719}
2019-04-14 02:22:45.81: SIM {TimeUS : 61835256, Roll : 0.07, Pitch : -17.56, Yaw : 55.44, Alt : 49.3199996948, Lat : 49.2836948, Lng : -123.1147439, Q1 : 0.87481033802, Q2 : 0.0715524926782, Q3 : -0.134854674339, Q4 : 0.459784001112}
2019-04-14 02:22:45.91: SIM {TimeUS : 61935216, Roll : 0.05, Pitch : -17.57, Yaw : 55.44, Alt : 49.3199996948, Lat : 49.2836971, Lng : -123.1147388, Q1 : 0.874789535999, Q2 : 0.0714980363846, Q3 : -0.135043442249, Q4 : 0.459776639938}
2019-04-14 02:22:46.01: SIM {TimeUS : 62035176, Roll : 0.04, Pitch : -17.59, Yaw : 55.43, Alt : 49.3199996948, Lat : 49.2836993, Lng : -123.1147335, Q1 : 0.874797224998, Q2 : 0.0714943483472, Q3 : -0.13522811234, Q4 : 0.459708273411}
2019-04-14 02:22:46.11: SIM {TimeUS : 62135136, Roll : 0.04, Pitch : -17.6, Yaw : 55.42, Alt : 49.3199996948, Lat : 49.2837016, Lng : -123.1147283, Q1 : 0.874843239784, Q2 : 0.0715221613646, Q3 : -0.135314643383, Q4 : 0.45959097147}
2019-04-14 02:22:46.21: SIM {TimeUS : 62235096, Roll : 0.05, Pitch : -17.61, Yaw : 55.39, Alt : 49.3199996948, Lat : 49.283704, Lng : -123.1147231, Q1 : 0.874917805195, Q2 : 0.0715972185135, Q3 : -0.135386928916, Q4 : 0.459416031837}
2019-04-14 02:22:46.31: SIM {TimeUS : 62335056, Roll : 0.07, Pitch : -17.62, Yaw : 55.37, Alt : 49.3199996948, Lat : 49.2837064, Lng : -123.1147178, Q1 : 0.875007390976, Q2 : 0.0717485025525, Q3 : -0.135411560535, Q4 : 0.459214448929}
2019-04-14 02:22:46.41: SIM {TimeUS : 62435016, Roll : 0.1, Pitch : -17.64, Yaw : 55.34, Alt : 49.3199996948, Lat : 49.2837087, Lng : -123.1147125, Q1 : 0.875086665154, Q2 : 0.0719900950789, Q3 : -0.135428845882, Q4 : 0.45902043581}
2019-04-14 02:22:46.51: SIM {TimeUS : 62534976, Roll : 0.13, Pitch : -17.67, Yaw : 55.31, Alt : 49.3199996948, Lat : 49.2837111, Lng : -123.1147073, Q1 : 0.875139415264, Q2 : 0.0723792985082, Q3 : -0.135513499379, Q4 : 0.458833694458}
2019-04-14 02:22:46.61: SIM {TimeUS : 62634936, Roll : 0.16, Pitch : -17.71, Yaw : 55.28, Alt : 49.3199996948, Lat : 49.2837133, Lng : -123.114702, Q1 : 0.875179469585, Q2 : 0.0727174207568, Q3 : -0.135755181313, Q4 : 0.458632349968}
2019-04-14 02:22:46.71: SIM {TimeUS : 62734896, Roll : 0.16, Pitch : -17.76, Yaw : 55.26, Alt : 49.3199996948, Lat : 49.2837157, Lng : -123.1146967, Q1 : 0.875222504139, Q2 : 0.0728716254234, Q3 : -0.136109083891, Q4 : 0.458420842886}
2019-04-14 02:22:46.81: SIM {TimeUS : 62834856, Roll : 0.15, Pitch : -17.8, Yaw : 55.24, Alt : 49.3199996948, Lat : 49.283718, Lng : -123.1146914, Q1 : 0.875262022018, Q2 : 0.0729535594583, Q3 : -0.136482730508, Q4 : 0.458221197128}
2019-04-14 02:22:46.91: SIM {TimeUS : 62934816, Roll : 0.16, Pitch : -17.83, Yaw : 55.22, Alt : 49.3199996948, Lat : 49.2837205, Lng : -123.114686, Q1 : 0.875299036503, Q2 : 0.0730932801962, Q3 : -0.136666879058, Q4 : 0.458073347807}
2019-04-14 02:22:47.01: SIM {TimeUS : 63034776, Roll : 0.18, Pitch : -17.83, Yaw : 55.2, Alt : 49.3199996948, Lat : 49.2837229, Lng : -123.1146807, Q1 : 0.875345528126, Q2 : 0.0732330232859, Q3 : -0.136633560061, Q4 : 0.457972049713}
2019-04-14 02:22:47.11: SIM {TimeUS : 63135569, Roll : 0.19, Pitch : -17.8, Yaw : 55.19, Alt : 49.3199996948, Lat : 49.2837253, Lng : -123.1146752, Q1 : 0.875420689583, Q2 : 0.0731970891356, Q3 : -0.136375486851, Q4 : 0.457911044359}
2019-04-14 02:22:47.21: SIM {TimeUS : 63235529, Roll : 0.18, Pitch : -17.77, Yaw : 55.18, Alt : 49.3199996948, Lat : 49.2837277, Lng : -123.11467, Q1 : 0.87548905611, Q2 : 0.0730181261897, Q3 : -0.136201128364, Q4 : 0.457860827446}
2019-04-14 02:22:47.31: SIM {TimeUS : 63335489, Roll : 0.17, Pitch : -17.76, Yaw : 55.18, Alt : 49.3199996948, Lat : 49.28373, Lng : -123.1146646, Q1 : 0.875543653965, Q2 : 0.0728112533689, Q3 : -0.136134669185, Q4 : 0.457809150219}
2019-04-14 02:22:47.41: SIM {TimeUS : 63435449, Roll : 0.16, Pitch : -17.75, Yaw : 55.17, Alt : 49.3300018311, Lat : 49.2837324, Lng : -123.1146592, Q1 : 0.87557798624, Q2 : 0.0727022215724, Q3 : -0.136146083474, Q4 : 0.457757413387}
2019-04-14 02:22:47.51: SIM {TimeUS : 63535409, Roll : 0.15, Pitch : -17.77, Yaw : 55.17, Alt : 49.3300018311, Lat : 49.2837348, Lng : -123.1146538, Q1 : 0.87558722496, Q2 : 0.0727103576064, Q3 : -0.136310741305, Q4 : 0.457689464092}
2019-04-14 02:22:47.61: SIM {TimeUS : 63635369, Roll : 0.15, Pitch : -17.79, Yaw : 55.16, Alt : 49.3300018311, Lat : 49.2837372, Lng : -123.1146485, Q1 : 0.875582695007, Q2 : 0.0728363990784, Q3 : -0.13647505641, Q4 : 0.457629084587}
2019-04-14 02:22:47.71: SIM {TimeUS : 63735329, Roll : 0.15, Pitch : -17.83, Yaw : 55.15, Alt : 49.3300018311, Lat : 49.2837395, Lng : -123.1146431, Q1 : 0.875569343567, Q2 : 0.072946600616, Q3 : -0.136790901423, Q4 : 0.457542836666}
2019-04-14 02:22:47.81: SIM {TimeUS : 63835289, Roll : 0.14, Pitch : -17.88, Yaw : 55.14, Alt : 49.3300018311, Lat : 49.2837419, Lng : -123.1146377, Q1 : 0.875550150871, Q2 : 0.0730740502477, Q3 : -0.137173488736, Q4 : 0.457444578409}
2019-04-14 02:22:47.91: SIM {TimeUS : 63935249, Roll : 0.14, Pitch : -17.91, Yaw : 55.13, Alt : 49.3300018311, Lat : 49.2837443, Lng : -123.1146323, Q1 : 0.875548660755, Q2 : 0.0731657296419, Q3 : -0.137480154634, Q4 : 0.457340687513}
2019-04-14 02:22:48.01: SIM {TimeUS : 64035209, Roll : 0.13, Pitch : -17.94, Yaw : 55.12, Alt : 49.3300018311, Lat : 49.2837467, Lng : -123.1146268, Q1 : 0.87556797266, Q2 : 0.0731874927878, Q3 : -0.137772858143, Q4 : 0.457212239504}
2019-04-14 02:22:48.11: SIM {TimeUS : 64135169, Roll : 0.12, Pitch : -17.97, Yaw : 55.11, Alt : 49.3300018311, Lat : 49.2837491, Lng : -123.1146214, Q1 : 0.875604391098, Q2 : 0.073174238205, Q3 : -0.137981504202, Q4 : 0.457081526518}
2019-04-14 02:22:48.21: SIM {TimeUS : 64235129, Roll : 0.13, Pitch : -17.96, Yaw : 55.09, Alt : 49.3300018311, Lat : 49.2837515, Lng : -123.114616, Q1 : 0.875664055347, Q2 : 0.0732394307852, Q3 : -0.137889936566, Q4 : 0.456984579563}
2019-04-14 02:22:48.31: SIM {TimeUS : 64335089, Roll : 0.16, Pitch : -17.97, Yaw : 55.07, Alt : 49.3300018311, Lat : 49.283754, Lng : -123.1146106, Q1 : 0.875703692436, Q2 : 0.0734698846936, Q3 : -0.137842431664, Q4 : 0.456885874271}
2019-04-14 02:22:48.41: SIM {TimeUS : 64435049, Roll : 0.17, Pitch : -17.99, Yaw : 55.06, Alt : 49.3300018311, Lat : 49.2837564, Lng : -123.1146051, Q1 : 0.875739693642, Q2 : 0.0736319348216, Q3 : -0.137945741415, Q4 : 0.456759572029}
2019-04-14 02:22:48.51: SIM {TimeUS : 64535009, Roll : 0.19, Pitch : -17.99, Yaw : 55.04, Alt : 49.3300018311, Lat : 49.2837588, Lng : -123.1145997, Q1 : 0.875790774822, Q2 : 0.0737305209041, Q3 : -0.137944549322, Q4 : 0.456646054983}
2019-04-14 02:22:48.61: SIM {TimeUS : 64634969, Roll : 0.2, Pitch : -17.98, Yaw : 55.03, Alt : 49.3300018311, Lat : 49.2837612, Lng : -123.1145942, Q1 : 0.875857234001, Q2 : 0.073766797781, Q3 : -0.137809410691, Q4 : 0.456553578377}
2019-04-14 02:22:48.71: SIM {TimeUS : 64734929, Roll : 0.21, Pitch : -17.97, Yaw : 55.01, Alt : 49.3300018311, Lat : 49.2837637, Lng : -123.1145888, Q1 : 0.875915169716, Q2 : 0.0737750530243, Q3 : -0.137722536922, Q4 : 0.456467300653}
2019-04-14 02:22:48.81: SIM {TimeUS : 64834889, Roll : 0.19, Pitch : -17.99, Yaw : 55.0, Alt : 49.3400001526, Lat : 49.2837661, Lng : -123.1145833, Q1 : 0.875948309898, Q2 : 0.0737102180719, Q3 : -0.137900307775, Q4 : 0.45636048913}
2019-04-14 02:22:48.91: SIM {TimeUS : 64934849, Roll : 0.16, Pitch : -18.02, Yaw : 54.99, Alt : 49.3400001526, Lat : 49.2837685, Lng : -123.1145778, Q1 : 0.875954926014, Q2 : 0.0736199915409, Q3 : -0.138286739588, Q4 : 0.456245362759}
2019-04-14 02:22:49.01: SIM {TimeUS : 65034809, Roll : 0.14, Pitch : -18.03, Yaw : 54.99, Alt : 49.3400001526, Lat : 49.283771, Lng : -123.1145724, Q1 : 0.875980496407, Q2 : 0.0734762698412, Q3 : -0.138443216681, Q4 : 0.456172049046}
2019-04-14 02:22:49.12: SIM {TimeUS : 65135602, Roll : 0.15, Pitch : -18.02, Yaw : 54.98, Alt : 49.3400001526, Lat : 49.2837734, Lng : -123.1145668, Q1 : 0.876009881496, Q2 : 0.0734660178423, Q3 : -0.138324797153, Q4 : 0.456153154373}
2019-04-14 02:22:49.21: SIM {TimeUS : 65235562, Roll : 0.16, Pitch : -18.01, Yaw : 54.98, Alt : 49.3400001526, Lat : 49.2837759, Lng : -123.1145614, Q1 : 0.87602943182, Q2 : 0.0735509395599, Q3 : -0.138180673122, Q4 : 0.456145614386}
2019-04-14 02:22:49.31: SIM {TimeUS : 65335522, Roll : 0.18, Pitch : -18.01, Yaw : 54.97, Alt : 49.3400001526, Lat : 49.2837783, Lng : -123.1145559, Q1 : 0.876043796539, Q2 : 0.0736329481006, Q3 : -0.138144150376, Q4 : 0.45611590147}
2019-04-14 02:22:49.41: SIM {TimeUS : 65435482, Roll : 0.16, Pitch : -18.02, Yaw : 54.97, Alt : 49.3400001526, Lat : 49.2837808, Lng : -123.1145504, Q1 : 0.876058936119, Q2 : 0.073602296412, Q3 : -0.138300091028, Q4 : 0.456044435501}
2019-04-14 02:22:49.51: SIM {TimeUS : 65535442, Roll : 0.14, Pitch : -18.04, Yaw : 54.96, Alt : 49.3400001526, Lat : 49.2837832, Lng : -123.1145449, Q1 : 0.876074910164, Q2 : 0.0735004767776, Q3 : -0.138583779335, Q4 : 0.455944031477}
2019-04-14 02:22:49.61: SIM {TimeUS : 65635402, Roll : 0.13, Pitch : -18.07, Yaw : 54.95, Alt : 49.3400001526, Lat : 49.2837857, Lng : -123.1145394, Q1 : 0.876094937325, Q2 : 0.0734822899103, Q3 : -0.138833463192, Q4 : 0.455832511187}
2019-04-14 02:22:49.71: SIM {TimeUS : 65735362, Roll : 0.13, Pitch : -18.09, Yaw : 54.94, Alt : 49.3400001526, Lat : 49.2837883, Lng : -123.1145339, Q1 : 0.876108884811, Q2 : 0.0735858604312, Q3 : -0.139016747475, Q4 : 0.455733180046}
2019-04-14 02:22:49.81: SIM {TimeUS : 65835322, Roll : 0.14, Pitch : -18.11, Yaw : 54.93, Alt : 49.3400001526, Lat : 49.2837907, Lng : -123.1145284, Q1 : 0.876123309135, Q2 : 0.0737207531929, Q3 : -0.139130592346, Q4 : 0.455648839474}
2019-04-14 02:22:49.91: SIM {TimeUS : 65935282, Roll : 0.16, Pitch : -18.12, Yaw : 54.92, Alt : 49.3400001526, Lat : 49.2837932, Lng : -123.1145229, Q1 : 0.876143097878, Q2 : 0.0739187151194, Q3 : -0.139103040099, Q4 : 0.455587059259}
2019-04-14 02:22:50.01: SIM {TimeUS : 66035242, Roll : 0.18, Pitch : -18.14, Yaw : 54.91, Alt : 49.3400001526, Lat : 49.2837956, Lng : -123.1145173, Q1 : 0.876154363155, Q2 : 0.0740975514054, Q3 : -0.139158368111, Q4 : 0.455519527197}
