2019-04-14 01:54:42.80: SIM {TimeUS : 40216407, Roll : 0.0, Pitch : 0.0, Yaw : 0.0, Alt : 30.1000003815, Lat : 49.28357, Lng : -123.11502, Q1 : 1.0, Q2 : 0.0, Q3 : 0.0, Q4 : 0.0}
2019-04-14 01:54:42.91: SIM {TimeUS : 40335526, Roll : 0.0, Pitch : 0.0, Yaw : 0.0, Alt : 30.1000003815, Lat : 49.28357, Lng : -123.11502, Q1 : 1.0, Q2 : 0.0, Q3 : 0.0, Q4 : 0.0}
2019-04-14 01:54:43.01: SIM {TimeUS : 40435486, Roll : 0.0, Pitch : 0.0, Yaw : 0.0, Alt : 30.1000003815, Lat : 49.28357, Lng : -123.11502, Q1 : 1.0, Q2 : 0.0, Q3 : 0.0, Q4 : 0.0}
2019-04-14 01:54:43.11: SIM {TimeUS : 40535446, Roll : 0.0, Pitch : 0.0, Yaw : 0.0, Alt : 30.1000003815, Lat : 49.28357, Lng : -123.11502, Q1 : 1.0, Q2 : 0.0, Q3 : 0.0, Q4 : 0.0}
2019-04-14 01:54:43.21: SIM {TimeUS : 40635406, Roll : 0.0, Pitch : 0.0, Yaw : 0.0, Alt : 30.1000003815, Lat : 49.28357, Lng : -123.11502, Q1 : 1.0, Q2 : 0.0, Q3 : 0.0, Q4 : 0.0}
2019-04-14 01:54:43.31: SIM {TimeUS : 40735366, Roll : 0.0, Pitch : 0.0, Yaw : 0.0, Alt : 30.1000003815, Lat : 49.28357, Lng : -123.11502, Q1 : 1.0, Q2 : 0.0, Q3 : 0.0, Q4 : 0.0}
2019-04-14 01:54:43.41: SIM {TimeUS : 40835326, Roll : 0.0, Pitch : 0.0, Yaw : 0.0, Alt : 30.1000003815, Lat : 49.28357, Lng : -123.11502, Q1 : 1.0, Q2 : 0.0, Q3 : 0.0, Q4 : 0.0}
2019-04-14 01:54:43.51: SIM {TimeUS : 40935286, Roll : 0.0, Pitch : 0.0, Yaw : 0.0, Alt : 30.1000003815, Lat : 49.28357, Lng : -123.11502, Q1 : 1.0, Q2 : 0.0, Q3 : 0.0, Q4 : 0.0}
2019-04-14 01:54:43.61: SIM {TimeUS : 41035246, Roll : 0.0, Pitch : 0.0, Yaw : 0.0, Alt : 30.1000003815, Lat : 49.28357, Lng : -123.11502, Q1 : 1.0, Q2 : 0.0, Q3 : 0.0, Q4 : 0.0}
2019-04-14 01:54:43.71: SIM {TimeUS : 41135206, Roll : 0.0, Pitch : 0.0, Yaw : 0.0, Alt : 30.1000003815, Lat : 49.28357, Lng : -123.11502, Q1 : 1.0, Q2 : 0.0, Q3 : 0.0, Q4 : 0.0}
2019-04-14 01:54:43.81: SIM {TimeUS : 41235166, Roll : 0.0, Pitch : 0.0, Yaw : 0.0, Alt : 30.1000003815, Lat : 49.28357, Lng : -123.11502, Q1 : 1.0, Q2 : 0.0, Q3 : 0.0, Q4 : 0.0}
2019-04-14 01:54:43.91: SIM {TimeUS : 41335126, Roll : 0.0, Pitch : 0.0, Yaw : 0.0, Alt : 30.1000003815, Lat : 49.28357, Lng : -123.11502, Q1 : 1.0, Q2 : 0.0, Q3 : 0.0, Q4 : 0.0}
2019-04-14 01:54:44.01: SIM {TimeUS : 41435086, Roll : 0.0, Pitch : 0.0, Yaw : 0.0, Alt : 30.1000003815, Lat : 49.28357, Lng : -123.11502, Q1 : 1.0, Q2 : 0.0, Q3 : 0.0, Q4 : 0.0}
2019-04-14 01:54:44.11: SIM {TimeUS : 41535046, Roll : 0.0, Pitch : 0.0, Yaw : 0.0, Alt : 30.1000003815, Lat : 49.28357, Lng : -123.11502, Q1 : 1.0, Q2 : 0.0, Q3 : 0.0, Q4 : 0.0}
2019-04-14 01:54:44.21: SIM {TimeUS : 41635006, Roll : 0.0, Pitch : 0.0, Yaw : 0.0, Alt : 30.1000003815, Lat : 49.28357, Lng : -123.11502, Q1 : 1.0, Q2 : 0.0, Q3 : 0.0, Q4 : 0.0}
2019-04-14 01:54:44.31: SIM {TimeUS : 41734966, Roll : 0.0, Pitch : 0.0, Yaw : 0.0, Alt : 30.1000003815, Lat : 49.28357, Lng : -123.11502, Q1 : 1.0, Q2 : 0.0, Q3 : 0.0, Q4 : 0.0}
2019-04-14 01:54:44.41: SIM {TimeUS : 41834926, Roll : 0.0, Pitch : 0.0, Yaw : 0.0, Alt : 30.1000003815, Lat : 49.28357, Lng : -123.11502, Q1 : 1.0, Q2 : 0.0, Q3 : 0.0, Q4 : 0.0}
2019-04-14 01:54:44.51: SIM {TimeUS : 41934886, Roll : 0.0, Pitch : 0.0, Yaw : 0.0, Alt : 30.1000003815, Lat : 49.28357, Lng : -123.11502, Q1 : 1.0, Q2 : 0.0, Q3 : 0.0, Q4 : 0.0}
2019-04-14 01:54:44.61: SIM {TimeUS : 42034846, Roll : 0.0, Pitch : 0.0, Yaw : 0.0, Alt : 30.1000003815, Lat : 49.28357, Lng : -123.11502, Q1 : 1.0, Q2 : 0.0, Q3 : 0.0, Q4 : 0.0}
2019-04-14 01:54:44.71: SIM {TimeUS : 42134806, Roll : 0.0, Pitch : 0.0, Yaw : 0.0, Alt : 30.1000003815, Lat : 49.28357, Lng : -123.11502, Q1 : 1.0, Q2 : 0.0, Q3 : 0.0, Q4 : 0.0}
2019-04-14 01:54:44.81: SIM {TimeUS : 42234766, Roll : 0.0, Pitch : 0.0, Yaw : 0.0, Alt : 30.1000003815, Lat : 49.28357, Lng : -123.11502, Q1 : 1.0, Q2 : 0.0, Q3 : 0.0, Q4 : 0.0}
2019-04-14 01:54:44.91: SIM {TimeUS : 42335559, Roll : 0.0, Pitch : 0.0, Yaw : 0.0, Alt : 30.1000003815, Lat : 49.28357, Lng : -123.11502, Q1 : 1.0, Q2 : 0.0, Q3 : 0.0, Q4 : 0.0}
2019-04-14 01:54:45.01: SIM {TimeUS : 42435519, Roll : 0.0, Pitch : 0.0, Yaw : 0.0, Alt : 30.1000003815, Lat : 49.28357, Lng : -123.11502, Q1 : 1.0, Q2 : 0.0, Q3 : 0.0, Q4 : 0.0}
2019-04-14 01:54:45.11: SIM {TimeUS : 42535479, Roll : 0.0, Pitch : 0.0, Yaw : 360.0, Alt : 30.1000003815, Lat : 49.28357, Lng : -123.11502, Q1 : 1.0, Q2 : 0.0, Q3 : 0.0, Q4 : -1.4079991513e-12}
2019-04-14 01:54:45.21: SIM {TimeUS : 42635439, Roll : 0.0, Pitch : 0.0, Yaw : 0.0, Alt : 30.1000003815, Lat : 49.28357, Lng : -123.11502, Q1 : 1.0, Q2 : 0.0, Q3 : 0.0, Q4 : 2.27504577677e-11}
2019-04-14 01:54:45.31: SIM {TimeUS : 42735399, Roll : 0.0, Pitch : 0.0, Yaw : 360.0, Alt : 30.1000003815, Lat : 49.28357, Lng : -123.11502, Q1 : 1.0, Q2 : 0.0, Q3 : 0.0, Q4 : -1.51769285139e-07}
2019-04-14 01:54:45.41: SIM {TimeUS : 42835359, Roll : 0.0, Pitch : 0.0, Yaw : 359.99, Alt : 30.1000003815, Lat : 49.28357, Lng : -123.11502, Q1 : 1.0, Q2 : 0.0, Q3 : 0.0, Q4 : -3.19486787248e-07}
2019-04-14 01:54:45.51: SIM {TimeUS : 42935319, Roll : 0.0, Pitch : 0.0, Yaw : 359.99, Alt : 30.1000003815, Lat : 49.28357, Lng : -123.11502, Q1 : 1.0, Q2 : 0.0, Q3 : 0.0, Q4 : -5.3840341252e-07}
2019-04-14 01:54:45.61: SIM {TimeUS : 43035279, Roll : 0.0, Pitch : 0.0, Yaw : 359.99, Alt : 30.1000003815, Lat : 49.28357, Lng : -123.11502, Q1 : 1.0, Q2 : 0.0, Q3 : 0.0, Q4 : -7.1894589837e-07}
2019-04-14 01:54:45.71: SIM {TimeUS : 43135239, Roll : 0.0, Pitch : 0.0, Yaw : 359.99, Alt : 30.1000003815, Lat : 49.28357, Lng : -123.11502, Q1 : 1.0, Q2 : 0.0, Q3 : 0.0, Q4 : -9.28150143409e-07}
2019-04-14 01:54:45.81: SIM {TimeUS : 43235199, Roll : 0.0, Pitch : 0.0, Yaw : 359.99, Alt : 30.1000003815, Lat : 49.28357, Lng : -123.11502, Q1 : 1.0, Q2 : 0.0, Q3 : 0.0, Q4 : -1.12912380246e-06}
2019-04-14 01:54:45.91: SIM {TimeUS : 43335159, Roll : 0.0, Pitch : 0.0, Yaw : 359.99, Alt : 30.1000003815, Lat : 49.28357, Lng : -123.11502, Q1 : 1.0, Q2 : 0.0, Q3 : 0.0, Q4 : -1.31314436658e-06}
2019-04-14 01:54:46.01: SIM {TimeUS : 43435119, Roll : 0.0, Pitch : 0.0, Yaw : 359.99, Alt : 30.1100006104, Lat : 49.28357, Lng : -123.11502, Q1 : 1.0, Q2 : 0.0, Q3 : 0.0, Q4 : -1.50896858031e-06}
2019-04-14 01:54:46.11: SIM {TimeUS : 43535079, Roll : 0.0, Pitch : 0.0, Yaw : 359.99, Alt : 30.1399993896, Lat : 49.28357, Lng : -123.11502, Q1 : 1.0, Q2 : 0.0, Q3 : 0.0, Q4 : -1.71556064288e-06}
2019-04-14 01:54:46.21: SIM {TimeUS : 43635039, Roll : 0.0, Pitch : 0.0, Yaw : 359.99, Alt : 30.1599998474, Lat : 49.28357, Lng : -123.11502, Q1 : 1.0, Q2 : 0.0, Q3 : 0.0, Q4 : -1.98239013116e-06}
2019-04-14 01:54:46.31: SIM {TimeUS : 43734999, Roll : 0.0, Pitch : 0.0, Yaw : 359.99, Alt : 30.2000007629, Lat : 49.28357, Lng : -123.11502, Q1 : 1.0, Q2 : 0.0, Q3 : 0.0, Q4 : -2.21721143134e-06}
2019-04-14 01:54:46.41: SIM {TimeUS : 43834959, Roll : -0.1, Pitch : -0.08, Yaw : 359.99, Alt : 30.25, Lat : 49.28357, Lng : -123.11502, Q1 : 0.999999284744, Q2 : -0.000912581046578, Q3 : -0.000736632093322, Q4 : -8.90277988219e-06}
2019-04-14 01:54:46.51: SIM {TimeUS : 43934919, Roll : -0.4, Pitch : -0.33, Yaw : 359.99, Alt : 30.3400001526, Lat : 49.28357, Lng : -123.11502, Q1 : 0.999989330769, Q2 : -0.00357799394988, Q3 : -0.00292596663348, Q4 : -4.22274424636e-05}
2019-04-14 01:54:46.61: SIM {TimeUS : 44034879, Roll : -0.69, Pitch : -0.59, Yaw : 359.99, Alt : 30.4899997711, Lat : 49.28357, Lng : -123.11502, Q1 : 0.99996817112, Q2 : -0.00607418408617, Q3 : -0.00516585819423, Q4 : -0.000104244609247}
2019-04-14 01:54:46.71: SIM {TimeUS : 44134839, Roll : -0.84, Pitch : -0.74, Yaw : 359.98, Alt : 30.6499996185, Lat : 49.28357, Lng : -123.11502, Q1 : 0.999951899052, Q2 : -0.00737263914198, Q3 : -0.00646782666445, Q4 : -0.000187114768778}
2019-04-14 01:54:46.81: SIM {TimeUS : 44234799, Roll : -0.84, Pitch : -0.75, Yaw : 359.97, Alt : 30.7999992371, Lat : 49.28357, Lng : -123.11502, Q1 : 0.999951303005, Q2 : -0.00734357722104, Q3 : -0.00658105127513, Q4 : -0.000282093184069}
2019-04-14 01:54:46.91: SIM {TimeUS : 44334759, Roll : -0.7, Pitch : -0.63, Yaw : 359.96, Alt : 30.9599990845, Lat : 49.28357, Lng : -123.1150201, Q1 : 0.999965369701, Q2 : -0.00616291025653, Q3 : -0.00557909626514, Q4 : -0.000374497147277}
2019-04-14 01:54:47.01: SIM {TimeUS : 44435552, Roll : -0.47, Pitch : -0.46, Yaw : 359.94, Alt : 31.1100006104, Lat : 49.2835701, Lng : -123.1150202, Q1 : 0.99998319149, Q2 : -0.00411654124036, Q3 : -0.00405313447118, Q4 : -0.000455635978142}
2019-04-14 01:54:47.11: SIM {TimeUS : 44535512, Roll : -0.23, Pitch : -0.26, Yaw : 359.94, Alt : 31.2700004578, Lat : 49.2835701, Lng : -123.1150203, Q1 : 0.999995112419, Q2 : -0.00203181034885, Q3 : -0.00231250445358, Q4 : -0.000518368906341}
2019-04-14 01:54:47.21: SIM {TimeUS : 44635472, Roll : -0.06, Pitch : -0.08, Yaw : 359.93, Alt : 31.4400005341, Lat : 49.2835702, Lng : -123.1150204, Q1 : 0.999999403954, Q2 : -0.000528028409462, Q3 : -0.000778919784352, Q4 : -0.000562696310226}
2019-04-14 01:54:47.31: SIM {TimeUS : 44735432, Roll : 0.03, Pitch : 0.02, Yaw : 359.93, Alt : 31.6100006104, Lat : 49.2835702, Lng : -123.1150204, Q1 : 0.999999761581, Q2 : 0.000315277458867, Q3 : 0.000200137932552, Q4 : -0.000593427219428}
2019-04-14 01:54:47.41: SIM {TimeUS : 44835392, Roll : 0.06, Pitch : 0.06, Yaw : 359.93, Alt : 31.7900009155, Lat : 49.2835703, Lng : -123.1150205, Q1 : 0.999999463558, Q2 : 0.000593022734392, Q3 : 0.00057368009584, Q4 : -0.000611103721894}
2019-04-14 01:54:47.51: SIM {TimeUS : 44935352, Roll : 0.06, Pitch : 0.05, Yaw : 359.92, Alt : 31.9799995422, Lat : 49.2835703, Lng : -123.1150206, Q1 : 0.999999523163, Q2 : 0.000584256020375, Q3 : 0.000511326245032, Q4 : -0.000615876866505}
2019-04-14 01:54:47.61: SIM {TimeUS : 45035312, Roll : 0.06, Pitch : 0.03, Yaw : 359.93, Alt : 32.1599998474, Lat : 49.2835703, Lng : -123.1150206, Q1 : 0.999999582767, Q2 : 0.000582041917369, Q3 : 0.000301814056002, Q4 : -0.000609222683124}
2019-04-14 01:54:47.71: SIM {TimeUS : 45135272, Roll : 0.08, Pitch : 0.02, Yaw : 359.93, Alt : 32.3499984741, Lat : 49.2835703, Lng : -123.1150207, Q1 : 0.999999582767, Q2 : 0.000706037099008, Q3 : 0.000210421829252, Q4 : -0.0005929521285}
2019-04-14 01:54:47.81: SIM {TimeUS : 45235232, Roll : 0.09, Pitch : 0.04, Yaw : 359.93, Alt : 32.5499992371, Lat : 49.2835703, Lng : -123.1150207, Q1 : 0.999999403954, Q2 : 0.000856681668665, Q3 : 0.000422292767325, Q4 : -0.00055701227393}
2019-04-14 01:54:47.91: SIM {TimeUS : 45335192, Roll : 0.1, Pitch : 0.09, Yaw : 359.94, Alt : 32.7400016785, Lat : 49.2835703, Lng : -123.1150208, Q1 : 0.99999910593, Q2 : 0.000945254636463, Q3 : 0.000812272017356, Q4 : -0.00051190785598}
2019-04-14 01:54:48.01: SIM {TimeUS : 45435152, Roll : 0.11, Pitch : 0.14, Yaw : 359.94, Alt : 32.9399986267, Lat : 49.2835704, Lng : -123.1150208, Q1 : 0.999998688698, Q2 : 0.000965490238741, Q3 : 0.00122911762446, Q4 : -0.000473486114061}
2019-04-14 01:54:48.11: SIM {TimeUS : 45535112, Roll : 0.12, Pitch : 0.18, Yaw : 359.94, Alt : 33.1399993896, Lat : 49.2835704, Lng : -123.1150208, Q1 : 0.999997913837, Q2 : 0.00112315849401, Q3 : 0.00163809477817, Q4 : -0.000448629347375}
2019-04-14 01:54:48.21: SIM {TimeUS : 45635072, Roll : 0.16, Pitch : 0.2, Yaw : 359.94, Alt : 33.3499984741, Lat : 49.2835704, Lng : -123.1150209, Q1 : 0.999997258186, Q2 : 0.00140146689955, Q3 : 0.00182498025242, Q4 : -0.000441978161689}
2019-04-14 01:54:48.31: SIM {TimeUS : 45735032, Roll : 0.18, Pitch : 0.21, Yaw : 359.94, Alt : 33.5499992371, Lat : 49.2835704, Lng : -123.1150209, Q1 : 0.999996840954, Q2 : 0.00162492669187, Q3 : 0.00186207436491, Q4 : -0.000448360660812}
2019-04-14 01:54:48.41: SIM {TimeUS : 45834992, Roll : 0.19, Pitch : 0.2, Yaw : 359.94, Alt : 33.7599983215, Lat : 49.2835704, Lng : -123.1150209, Q1 : 0.999996781349, Q2 : 0.00169673061464, Q3 : 0.00182812102139, Q4 : -0.000461797550088}
2019-04-14 01:54:48.51: SIM {TimeUS : 45934952, Roll : 0.19, Pitch : 0.17, Yaw : 359.94, Alt : 33.9700012207, Lat : 49.2835704, Lng : -123.1150209, Q1 : 0.999997317791, Q2 : 0.00166339450516, Q3 : 0.00153514754493, Q4 : -0.000485962402308}
2019-04-14 01:54:48.61: SIM {TimeUS : 46034912, Roll : 0.17, Pitch : 0.13, Yaw : 359.94, Alt : 34.1800003052, Lat : 49.2835706, Lng : -123.1150209, Q1 : 0.999998092651, Q2 : 0.00150180316996, Q3 : 0.0011536719976, Q4 : -0.000506620446686}
2019-04-14 01:54:48.71: SIM {TimeUS : 46134872, Roll : 0.14, Pitch : 0.1, Yaw : 359.93, Alt : 34.3899993896, Lat : 49.2835706, Lng : -123.1150209, Q1 : 0.999998688698, Q2 : 0.00122876896057, Q3 : 0.000887478352524, Q4 : -0.000528326607309}
2019-04-14 01:54:48.81: SIM {TimeUS : 46234832, Roll : 0.11, Pitch : 0.08, Yaw : 359.93, Alt : 34.5999984741, Lat : 49.2835706, Lng : -123.1150209, Q1 : 0.99999910593, Q2 : 0.000972096400801, Q3 : 0.0007358310977, Q4 : -0.000559010892175}
2019-04-14 01:54:48.91: SIM {TimeUS : 46334792, Roll : 0.09, Pitch : 0.08, Yaw : 359.93, Alt : 34.8199996948, Lat : 49.2835704, Lng : -123.1150209, Q1 : 0.99999922514, Q2 : 0.000854688056279, Q3 : 0.000699753523804, Q4 : -0.00060144579038}
2019-04-14 01:54:49.01: SIM {TimeUS : 46434752, Roll : 0.08, Pitch : 0.06, Yaw : 359.92, Alt : 35.0299987793, Lat : 49.2835704, Lng : -123.1150208, Q1 : 0.999999403954, Q2 : 0.000739769660868, Q3 : 0.000541810877621, Q4 : -0.000640387821477}
2019-04-14 01:54:49.11: SIM {TimeUS : 46535545, Roll : 0.06, Pitch : 0.04, Yaw : 359.92, Alt : 35.25, Lat : 49.2835704, Lng : -123.1150208, Q1 : 0.999999523163, Q2 : 0.000567403563764, Q3 : 0.00039598334115, Q4 : -0.000675658113323}
2019-04-14 01:54:49.21: SIM {TimeUS : 46635505, Roll : 0.04, Pitch : 0.04, Yaw : 359.91, Alt : 35.4700012207, Lat : 49.2835704, Lng : -123.1150208, Q1 : 0.999999642372, Q2 : 0.000371152505977, Q3 : 0.000361466023605, Q4 : -0.000707171682734}
2019-04-14 01:54:49.31: SIM {TimeUS : 46735465, Roll : 0.02, Pitch : 0.04, Yaw : 359.91, Alt : 35.6899986267, Lat : 49.2835704, Lng : -123.1150208, Q1 : 0.999999642372, Q2 : 0.00017672420654, Q3 : 0.000424156052759, Q4 : -0.00073619018076}
2019-04-14 01:54:49.41: SIM {TimeUS : 46835425, Roll : 0.0, Pitch : 0.03, Yaw : 359.91, Alt : 35.9099998474, Lat : 49.2835704, Lng : -123.1150208, Q1 : 0.999999701977, Q2 : 8.19914203021e-05, Q3 : 0.000297844671877, Q4 : -0.00075489433948}
2019-04-14 01:54:49.51: SIM {TimeUS : 46935385, Roll : 0.0, Pitch : 0.02, Yaw : 359.91, Alt : 36.1300010681, Lat : 49.2835704, Lng : -123.1150207, Q1 : 0.999999701977, Q2 : 5.40060354979e-05, Q3 : 0.000174680666532, Q4 : -0.00076989736408}
2019-04-14 01:54:49.61: SIM {TimeUS : 47035345, Roll : 0.0, Pitch : 0.0, Yaw : 359.9, Alt : 36.3499984741, Lat : 49.2835704, Lng : -123.1150207, Q1 : 0.999999701977, Q2 : -3.43830151905e-06, Q3 : 7.8526987636e-05, Q4 : -0.00078985147411}
2019-04-14 01:54:49.71: SIM {TimeUS : 47135305, Roll : 0.0, Pitch : 0.0, Yaw : 359.9, Alt : 36.5699996948, Lat : 49.2835704, Lng : -123.1150207, Q1 : 0.999999701977, Q2 : 8.1427015175e-07, Q3 : 2.86860504275e-05, Q4 : -0.000810862402432}
2019-04-14 01:54:49.81: SIM {TimeUS : 47235265, Roll : 0.01, Pitch : 0.0, Yaw : 359.9, Alt : 36.7900009155, Lat : 49.2835704, Lng : -123.1150207, Q1 : 0.999999642372, Q2 : 0.000106645551568, Q3 : -5.8500940213e-05, Q4 : -0.000830477103591}
2019-04-14 01:54:49.91: SIM {TimeUS : 47335225, Roll : 0.0, Pitch : -0.02, Yaw : 359.9, Alt : 37.0200004578, Lat : 49.2835704, Lng : -123.1150207, Q1 : 0.999999642372, Q2 : 1.07016267066e-05, Q3 : -0.000223687864491, Q4 : -0.000849669158924}
2019-04-14 01:54:50.01: SIM {TimeUS : 47435185, Roll : -0.03, Pitch : -0.05, Yaw : 359.89, Alt : 37.2400016785, Lat : 49.2835704, Lng : -123.1150207, Q1 : 0.999999463558, Q2 : -0.00029603447183, Q3 : -0.000516440893989, Q4 : -0.000874493387528}
2019-04-14 01:54:50.11: SIM {TimeUS : 47535145, Roll : -0.07, Pitch : -0.08, Yaw : 359.89, Alt : 37.4700012207, Lat : 49.2835704, Lng : -123.1150207, Q1 : 0.99999910593, Q2 : -0.000684308179189, Q3 : -0.000772609608248, Q4 : -0.000900310347788}
2019-04-14 01:54:50.21: SIM {TimeUS : 47635105, Roll : -0.11, Pitch : -0.1, Yaw : 359.89, Alt : 37.6899986267, Lat : 49.2835704, Lng : -123.1150206, Q1 : 0.999998629093, Q2 : -0.00101393926889, Q3 : -0.0009130378603, Q4 : -0.000928964349441}
2019-04-14 01:54:50.31: SIM {TimeUS : 47735065, Roll : -0.13, Pitch : -0.11, Yaw : 359.88, Alt : 37.9199981689, Lat : 49.2835704, Lng : -123.1150206, Q1 : 0.999998390675, Q2 : -0.00119391514454, Q3 : -0.000968171923887, Q4 : -0.000962746737059}
2019-04-14 01:54:50.41: SIM {TimeUS : 47835025, Roll : -0.13, Pitch : -0.1, Yaw : 359.88, Alt : 38.1500015259, Lat : 49.2835704, Lng : -123.1150206, Q1 : 0.999998390675, Q2 : -0.00122118450236, Q3 : -0.000883068772964, Q4 : -0.000998938456178}
2019-04-14 01:54:50.51: SIM {TimeUS : 47934985, Roll : -0.11, Pitch : -0.06, Yaw : 359.88, Alt : 38.3699989319, Lat : 49.2835704, Lng : -123.1150206, Q1 : 0.999998748302, Q2 : -0.00104592216667, Q3 : -0.000588343886193, Q4 : -0.00102764053736}
2019-04-14 01:54:50.61: SIM {TimeUS : 48034945, Roll : -0.08, Pitch : -0.04, Yaw : 359.87, Alt : 38.5999984741, Lat : 49.2835704, Lng : -123.1150206, Q1 : 0.999999046326, Q2 : -0.000776765926275, Q3 : -0.000397586059989, Q4 : -0.00105447333772}
2019-04-14 01:54:50.71: SIM {TimeUS : 48134905, Roll : -0.07, Pitch : -0.03, Yaw : 359.87, Alt : 38.8300018311, Lat : 49.2835704, Lng : -123.1150206, Q1 : 0.999999165535, Q2 : -0.000651778827887, Q3 : -0.000344989064615, Q4 : -0.00108865043148}
2019-04-14 01:54:50.81: SIM {TimeUS : 48234865, Roll : -0.07, Pitch : -0.01, Yaw : 359.87, Alt : 39.0600013733, Lat : 49.2835704, Lng : -123.1150206, Q1 : 0.999999165535, Q2 : -0.000625607848633, Q3 : -0.000167878402863, Q4 : -0.00111543340608}
2019-04-14 01:54:50.91: SIM {TimeUS : 48334825, Roll : -0.08, Pitch : 0.0, Yaw : 359.86, Alt : 39.2900009155, Lat : 49.2835704, Lng : -123.1150206, Q1 : 0.99999910593, Q2 : -0.000751633779146, Q3 : 3.72046888515e-05, Q4 : -0.00113471178338}
2019-04-14 01:54:51.01: SIM {TimeUS : 48434785, Roll : -0.08, Pitch : 0.02, Yaw : 359.86, Alt : 39.5200004578, Lat : 49.2835704, Lng : -123.1150206, Q1 : 0.999999046326, Q2 : -0.0007508196868, Q3 : 0.000199995862204, Q4 : -0.00114678021055}
2019-04-14 01:54:51.11: SIM {TimeUS : 48534745, Roll : -0.07, Pitch : 0.04, Yaw : 359.86, Alt : 39.75, Lat : 49.2835704, Lng : -123.1150206, Q1 : 0.999999046326, Q2 : -0.00061445456231, Q3 : 0.000426695798524, Q4 : -0.00115397921763}
2019-04-14 01:54:51.21: SIM {TimeUS : 48635538, Roll : -0.04, Pitch : 0.04, Yaw : 359.86, Alt : 39.9799995422, Lat : 49.2835704, Lng : -123.1150206, Q1 : 0.999999165535, Q2 : -0.000390207540477, Q3 : 0.000402275763918, Q4 : -0.00115029676817}
2019-04-14 01:54:51.31: SIM {TimeUS : 48735498, Roll : -0.01, Pitch : 0.03, Yaw : 359.86, Alt : 40.2099990845, Lat : 49.2835706, Lng : -123.1150207, Q1 : 0.999999284744, Q2 : -0.000117001400213, Q3 : 0.000314828299452, Q4 : -0.00114716019016}
2019-04-14 01:54:51.41: SIM {TimeUS : 48835458, Roll : 0.02, Pitch : 0.05, Yaw : 359.86, Alt : 40.4500007629, Lat : 49.2835706, Lng : -123.1150207, Q1 : 0.99999922514, Q2 : 0.0002049444156, Q3 : 0.000436247617472, Q4 : -0.00114339927677}
2019-04-14 01:54:51.51: SIM {TimeUS : 48935418, Roll : 0.07, Pitch : 0.08, Yaw : 359.86, Alt : 40.6800003052, Lat : 49.2835706, Lng : -123.1150207, Q1 : 0.999998867512, Q2 : 0.000619318627287, Q3 : 0.000752875756007, Q4 : -0.00114432221744}
2019-04-14 01:54:51.61: SIM {TimeUS : 49035378, Roll : 0.1, Pitch : 0.12, Yaw : 359.86, Alt : 40.9099998474, Lat : 49.2835706, Lng : -123.1150207, Q1 : 0.99999833107, Q2 : 0.000899244623724, Q3 : 0.00107503193431, Q4 : -0.00115292018745}
2019-04-14 01:54:51.71: SIM {TimeUS : 49135338, Roll : 0.09, Pitch : 0.14, Yaw : 359.86, Alt : 41.1399993896, Lat : 49.2835706, Lng : -123.1150207, Q1 : 0.999998152256, Q2 : 0.000810017692856, Q3 : 0.00130022771191, Q4 : -0.00115540670231}
2019-04-14 01:54:51.81: SIM {TimeUS : 49235298, Roll : 0.04, Pitch : 0.16, Yaw : 359.86, Alt : 41.3800010681, Lat : 49.2835706, Lng : -123.1150207, Q1 : 0.999998152256, Q2 : 0.000380914338166, Q3 : 0.0014554701047, Q4 : -0.00116793543566}
2019-04-14 01:54:51.91: SIM {TimeUS : 49335258, Roll : 0.0, Pitch : 0.17, Yaw : 359.86, Alt : 41.6100006104, Lat : 49.2835706, Lng : -123.1150207, Q1 : 0.999998152256, Q2 : -1.46608645082e-05, Q3 : 0.00152765540406, Q4 : -0.00118590996135}
2019-04-14 01:54:52.01: SIM {TimeUS : 49435218, Roll : -0.02, Pitch : 0.15, Yaw : 359.86, Alt : 41.8400001526, Lat : 49.2835706, Lng : -123.1150207, Q1 : 0.999998390675, Q2 : -0.000209386635106, Q3 : 0.00132247293368, Q4 : -0.00120706658345}
2019-04-14 01:54:52.11: SIM {TimeUS : 49535178, Roll : -0.02, Pitch : 0.11, Yaw : 359.85, Alt : 42.0800018311, Lat : 49.2835706, Lng : -123.1150207, Q1 : 0.999998688698, Q2 : -0.000242113688728, Q3 : 0.00102087657433, Q4 : -0.00123449927196}
2019-04-14 01:54:52.21: SIM {TimeUS : 49635138, Roll : -0.01, Pitch : 0.11, Yaw : 359.85, Alt : 42.3100013733, Lat : 49.2835706, Lng : -123.1150207, Q1 : 0.999998688698, Q2 : -0.000138300529215, Q3 : 0.000984148238786, Q4 : -0.00127378688194}
2019-04-14 01:54:52.31: SIM {TimeUS : 49735098, Roll : 0.02, Pitch : 0.12, Yaw : 359.84, Alt : 42.5499992371, Lat : 49.2835706, Lng : -123.1150207, Q1 : 0.999998509884, Q2 : 0.000202644339879, Q3 : 0.00111409032252, Q4 : -0.00132606434636}
2019-04-14 01:54:52.41: SIM {TimeUS : 49835058, Roll : 0.07, Pitch : 0.14, Yaw : 359.84, Alt : 42.7799987793, Lat : 49.2835706, Lng : -123.1150207, Q1 : 0.999998092651, Q2 : 0.000679828226566, Q3 : 0.00123011972755, Q4 : -0.00137549452484}
2019-04-14 01:54:52.51: SIM {TimeUS : 49935018, Roll : 0.11, Pitch : 0.12, Yaw : 359.83, Alt : 43.0200004578, Lat : 49.2835706, Lng : -123.1150207, Q1 : 0.999997794628, Q2 : 0.00104119791649, Q3 : 0.00111905380618, Q4 : -0.0014266994549}
2019-04-14 01:54:52.61: SIM {TimeUS : 50034978, Roll : 0.11, Pitch : 0.1, Yaw : 359.83, Alt : 43.25, Lat : 49.2835706, Lng : -123.1150207, Q1 : 0.999997973442, Q2 : 0.0010418810416, Q3 : 0.000887734640855, Q4 : -0.00147427199408}
2019-04-14 01:54:52.71: SIM {TimeUS : 50134938, Roll : 0.07, Pitch : 0.08, Yaw : 359.82, Alt : 43.4900016785, Lat : 49.2835704, Lng : -123.1150207, Q1 : 0.999998390675, Q2 : 0.000676510680933, Q3 : 0.000720426498447, Q4 : -0.00149829790462}
2019-04-14 01:54:52.81: SIM {TimeUS : 50234898, Roll : 0.01, Pitch : 0.07, Yaw : 359.82, Alt : 43.7200012207, Lat : 49.2835704, Lng : -123.1150207, Q1 : 0.999998629093, Q2 : 0.000161151998327, Q3 : 0.000670756737236, Q4 : -0.00151633610949}
2019-04-14 01:54:52.91: SIM {TimeUS : 50334858, Roll : -0.02, Pitch : 0.08, Yaw : 359.82, Alt : 43.9599990845, Lat : 49.2835704, Lng : -123.1150207, Q1 : 0.999998509884, Q2 : -0.000198242021725, Q3 : 0.000769386126194, Q4 : -0.00153815001249}
2019-04-14 01:54:53.01: SIM {TimeUS : 50434818, Roll : -0.04, Pitch : 0.09, Yaw : 359.82, Alt : 44.1899986267, Lat : 49.2835704, Lng : -123.1150207, Q1 : 0.999998390675, Q2 : -0.000367515429389, Q3 : 0.0008140867576, Q4 : -0.00155725958757}
2019-04-14 01:54:53.11: SIM {TimeUS : 50534778, Roll : -0.03, Pitch : 0.08, Yaw : 359.81, Alt : 44.4300003052, Lat : 49.2835704, Lng : -123.1150206, Q1 : 0.999998450279, Q2 : -0.000344526139088, Q3 : 0.000710720370989, Q4 : -0.00157128379215}
2019-04-14 01:54:53.21: SIM {TimeUS : 50634738, Roll : -0.04, Pitch : 0.06, Yaw : 359.81, Alt : 44.6599998474, Lat : 49.2835704, Lng : -123.1150206, Q1 : 0.999998509884, Q2 : -0.000367879780242, Q3 : 0.000567377370317, Q4 : -0.00158674223348}
2019-04-14 01:54:53.31: SIM {TimeUS : 50735531, Roll : -0.03, Pitch : 0.04, Yaw : 359.81, Alt : 44.9000015259, Lat : 49.2835704, Lng : -123.1150206, Q1 : 0.999998569489, Q2 : -0.000323077605572, Q3 : 0.000383251317544, Q4 : -0.00160265387967}
2019-04-14 01:54:53.41: SIM {TimeUS : 50835491, Roll : -0.02, Pitch : 0.02, Yaw : 359.81, Alt : 45.1399993896, Lat : 49.2835704, Lng : -123.1150206, Q1 : 0.999998629093, Q2 : -0.000199595655431, Q3 : 0.000199522168259, Q4 : -0.00162496708799}
2019-04-14 01:54:53.51: SIM {TimeUS : 50935451, Roll : -0.02, Pitch : 0.01, Yaw : 359.81, Alt : 45.3699989319, Lat : 49.2835703, Lng : -123.1150206, Q1 : 0.999998629093, Q2 : -0.000176115063368, Q3 : 9.2651702289e-05, Q4 : -0.00164842361119}
2019-04-14 01:54:53.61: SIM {TimeUS : 51035411, Roll : -0.02, Pitch : 0.0, Yaw : 359.8, Alt : 45.6100006104, Lat : 49.2835703, Lng : -123.1150206, Q1 : 0.999998569489, Q2 : -0.000232604841585, Q3 : -6.01011342951e-05, Q4 : -0.00167451624293}
2019-04-14 01:54:53.71: SIM {TimeUS : 51135371, Roll : -0.03, Pitch : -0.03, Yaw : 359.8, Alt : 45.8400001526, Lat : 49.2835703, Lng : -123.1150206, Q1 : 0.999998450279, Q2 : -0.000309211725835, Q3 : -0.00028107201797, Q4 : -0.00170283566695}
2019-04-14 01:54:53.81: SIM {TimeUS : 51235331, Roll : -0.03, Pitch : -0.04, Yaw : 359.8, Alt : 46.0699996948, Lat : 49.2835703, Lng : -123.1150206, Q1 : 0.99999833107, Q2 : -0.000344237254467, Q3 : -0.00040479094605, Q4 : -0.00173233030364}
2019-04-14 01:54:53.91: SIM {TimeUS : 51335291, Roll : -0.03, Pitch : -0.04, Yaw : 359.79, Alt : 46.2999992371, Lat : 49.2835703, Lng : -123.1150206, Q1 : 0.99999833107, Q2 : -0.000270191958407, Q3 : -0.000432238623034, Q4 : -0.00176227593329}
2019-04-14 01:54:54.01: SIM {TimeUS : 51435251, Roll : -0.03, Pitch : -0.04, Yaw : 359.79, Alt : 46.5200004578, Lat : 49.2835703, Lng : -123.1150206, Q1 : 0.999998271465, Q2 : -0.000277754559647, Q3 : -0.000395100272726, Q4 : -0.00179046427365}
2019-04-14 01:54:54.11: SIM {TimeUS : 51535211, Roll : -0.05, Pitch : -0.03, Yaw : 359.79, Alt : 46.7400016785, Lat : 49.2835703, Lng : -123.1150206, Q1 : 0.999998152256, Q2 : -0.000452679232694, Q3 : -0.000336370576406, Q4 : -0.00182399759069}
2019-04-14 01:54:54.21: SIM {TimeUS : 51635171, Roll : -0.08, Pitch : -0.03, Yaw : 359.78, Alt : 46.9500007629, Lat : 49.2835703, Lng : -123.1150206, Q1 : 0.999997913837, Q2 : -0.000744212709833, Q3 : -0.000312677439069, Q4 : -0.00186020229012}
2019-04-14 01:54:54.31: SIM {TimeUS : 51735131, Roll : -0.1, Pitch : -0.03, Yaw : 359.78, Alt : 47.1599998474, Lat : 49.2835703, Lng : -123.1150205, Q1 : 0.999997735023, Q2 : -0.000937008706387, Q3 : -0.000315657205647, Q4 : -0.0018940953305}
2019-04-14 01:54:54.41: SIM {TimeUS : 51835091, Roll : -0.11, Pitch : -0.02, Yaw : 359.77, Alt : 47.3600006104, Lat : 49.2835703, Lng : -123.1150205, Q1 : 0.999997615814, Q2 : -0.000962182122748, Q3 : -0.000242358393734, Q4 : -0.00192756869365}
2019-04-14 01:54:54.51: SIM {TimeUS : 51935051, Roll : -0.09, Pitch : 0.0, Yaw : 359.77, Alt : 47.5499992371, Lat : 49.2835703, Lng : -123.1150205, Q1 : 0.999997735023, Q2 : -0.000835007522255, Q3 : -6.50932488497e-05, Q4 : -0.00195978558622}
2019-04-14 01:54:54.61: SIM {TimeUS : 52035011, Roll : -0.09, Pitch : -0.01, Yaw : 359.77, Alt : 47.7200012207, Lat : 49.2835703, Lng : -123.1150205, Q1 : 0.999997675419, Q2 : -0.000850496289786, Q3 : -9.24264604691e-05, Q4 : -0.00198616227135}
2019-04-14 01:54:54.71: SIM {TimeUS : 52134971, Roll : -0.1, Pitch : -0.03, Yaw : 359.76, Alt : 47.8899993896, Lat : 49.2835703, Lng : -123.1150206, Q1 : 0.999997496605, Q2 : -0.000923576124478, Q3 : -0.000261071952991, Q4 : -0.00200867187232}
2019-04-14 01:54:54.81: SIM {TimeUS : 52234931, Roll : -0.1, Pitch : -0.04, Yaw : 359.76, Alt : 48.0499992371, Lat : 49.2835703, Lng : -123.1150206, Q1 : 0.999997377396, Q2 : -0.000957657059189, Q3 : -0.000425189966336, Q4 : -0.00203041196801}
2019-04-14 01:54:54.91: SIM {TimeUS : 52334891, Roll : -0.09, Pitch : -0.06, Yaw : 359.76, Alt : 48.1899986267, Lat : 49.2835703, Lng : -123.1150206, Q1 : 0.999997377396, Q2 : -0.000849441625178, Q3 : -0.00054520968115, Q4 : -0.00205351714976}
2019-04-14 01:54:55.01: SIM {TimeUS : 52434851, Roll : -0.07, Pitch : -0.07, Yaw : 359.76, Alt : 48.3199996948, Lat : 49.2835703, Lng : -123.1150206, Q1 : 0.999997437, Q2 : -0.000620443199296, Q3 : -0.000625468266662, Q4 : -0.00207434571348}
2019-04-14 01:54:55.11: SIM {TimeUS : 52534811, Roll : -0.04, Pitch : -0.08, Yaw : 359.76, Alt : 48.4399986267, Lat : 49.2835703, Lng : -123.1150206, Q1 : 0.999997496605, Q2 : -0.000435366353486, Q3 : -0.000706641469151, Q4 : -0.00209338054992}
2019-04-14 01:54:55.21: SIM {TimeUS : 52634771, Roll : -0.04, Pitch : -0.08, Yaw : 359.75, Alt : 48.5499992371, Lat : 49.2835703, Lng : -123.1150206, Q1 : 0.999997377396, Q2 : -0.000365114276065, Q3 : -0.000776670698542, Q4 : -0.00211252109148}
2019-04-14 01:54:55.31: SIM {TimeUS : 52735564, Roll : -0.01, Pitch : -0.08, Yaw : 359.75, Alt : 48.6500015259, Lat : 49.2835703, Lng : -123.1150206, Q1 : 0.999997437, Q2 : -0.000131064167363, Q3 : -0.000720374519005, Q4 : -0.00213232147507}
2019-04-14 01:54:55.41: SIM {TimeUS : 52835524, Roll : 0.01, Pitch : -0.06, Yaw : 359.75, Alt : 48.7299995422, Lat : 49.2835703, Lng : -123.1150206, Q1 : 0.999997496605, Q2 : 0.00016513268929, Q3 : -0.000566555187106, Q4 : -0.00215288740583}
2019-04-14 01:54:55.51: SIM {TimeUS : 52935484, Roll : 0.05, Pitch : -0.04, Yaw : 359.75, Alt : 48.8100013733, Lat : 49.2835703, Lng : -123.1150206, Q1 : 0.999997496605, Q2 : 0.000441846903414, Q3 : -0.000377489253879, Q4 : -0.00217634136789}
2019-04-14 01:54:55.61: SIM {TimeUS : 53035444, Roll : 0.06, Pitch : -0.02, Yaw : 359.74, Alt : 48.8699989319, Lat : 49.2835703, Lng : -123.1150206, Q1 : 0.999997437, Q2 : 0.000530358753167, Q3 : -0.000207111268537, Q4 : -0.00220422446728}
2019-04-14 01:54:55.71: SIM {TimeUS : 53135404, Roll : 0.06, Pitch : -0.01, Yaw : 359.74, Alt : 48.9199981689, Lat : 49.2835703, Lng : -123.1150206, Q1 : 0.999997317791, Q2 : 0.000578978506383, Q3 : -0.000112647525384, Q4 : -0.00223563541658}
2019-04-14 01:54:55.81: SIM {TimeUS : 53235364, Roll : 0.06, Pitch : -0.02, Yaw : 359.74, Alt : 48.9700012207, Lat : 49.2835703, Lng : -123.1150207, Q1 : 0.999997258186, Q2 : 0.000548563024495, Q3 : -0.000217338063521, Q4 : -0.0022686177399}
2019-04-14 01:54:55.91: SIM {TimeUS : 53335324, Roll : 0.06, Pitch : -0.04, Yaw : 359.73, Alt : 49.0099983215, Lat : 49.2835703, Lng : -123.1150207, Q1 : 0.999997079372, Q2 : 0.000583020562772, Q3 : -0.000432965636719, Q4 : -0.00230082706548}
2019-04-14 01:54:56.01: SIM {TimeUS : 53435284, Roll : 0.2, Pitch : -0.14, Yaw : 359.73, Alt : 49.0499992371, Lat : 49.2835703, Lng : -123.1150207, Q1 : 0.999994874001, Q2 : 0.001790390932, Q3 : -0.00128684658557, Q4 : -0.00233519123867}
2019-04-14 01:54:56.11: SIM {TimeUS : 53535244, Roll : 0.55, Pitch : -0.39, Yaw : 359.72, Alt : 49.0800018311, Lat : 49.2835703, Lng : -123.1150207, Q1 : 0.999979496002, Q2 : 0.00486044120044, Q3 : -0.00343586620875, Q4 : -0.00236635142937}
2019-04-14 01:54:56.21: SIM {TimeUS : 53635204, Roll : 1.14, Pitch : -0.78, Yaw : 359.71, Alt : 49.0999984741, Lat : 49.2835703, Lng : -123.1150207, Q1 : 0.999923765659, Q2 : 0.00997200235724, Q3 : -0.00688244402409, Q4 : -0.00238381861709}
2019-04-14 01:54:56.31: SIM {TimeUS : 53735164, Roll : 1.92, Pitch : -1.29, Yaw : 359.7, Alt : 49.1199989319, Lat : 49.2835704, Lng : -123.1150206, Q1 : 0.999792635441, Q2 : 0.0167640876025, Q3 : -0.0113182570785, Q4 : -0.00237472751178}
2019-04-14 01:54:56.41: SIM {TimeUS : 53835124, Roll : 2.8, Pitch : -1.87, Yaw : 359.68, Alt : 49.1399993896, Lat : 49.2835704, Lng : -123.1150205, Q1 : 0.999564886093, Q2 : 0.0244111120701, Q3 : -0.016392391175, Q4 : -0.00232633459382}
2019-04-14 01:54:56.51: SIM {TimeUS : 53935084, Roll : 3.63, Pitch : -2.45, Yaw : 359.66, Alt : 49.1599998474, Lat : 49.2835706, Lng : -123.1150204, Q1 : 0.999265909195, Q2 : 0.0316459164023, Q3 : -0.021474480629, Q4 : -0.00222839927301}
2019-04-14 01:54:56.61: SIM {TimeUS : 54035044, Roll : 4.29, Pitch : -2.93, Yaw : 359.65, Alt : 49.1699981689, Lat : 49.2835707, Lng : -123.1150202, Q1 : 0.998967885971, Q2 : 0.0373715609312, Q3 : -0.0257338415831, Q4 : -0.00206917431206}
2019-04-14 01:54:56.71: SIM {TimeUS : 54135004, Roll : 4.76, Pitch : -3.31, Yaw : 359.64, Alt : 49.1800003052, Lat : 49.2835708, Lng : -123.11502, Q1 : 0.998715519905, Q2 : 0.041479177773, Q3 : -0.0290401447564, Q4 : -0.00186407100409}
2019-04-14 01:54:56.81: SIM {TimeUS : 54234964, Roll : 5.1, Pitch : -3.6, Yaw : 359.65, Alt : 49.1899986267, Lat : 49.2835709, Lng : -123.1150196, Q1 : 0.998513996601, Q2 : 0.0444294326007, Q3 : -0.0315162427723, Q4 : -0.00161072344054}
2019-04-14 01:54:56.91: SIM {TimeUS : 54334924, Roll : 5.39, Pitch : -3.81, Yaw : 359.66, Alt : 49.2000007629, Lat : 49.2835712, Lng : -123.1150192, Q1 : 0.998340666294, Q2 : 0.0469094701111, Q3 : -0.0333721712232, Q4 : -0.00132433720864}
2019-04-14 01:54:57.01: SIM {TimeUS : 54434884, Roll : 5.68, Pitch : -4.01, Yaw : 359.68, Alt : 49.2099990845, Lat : 49.2835715, Lng : -123.1150186, Q1 : 0.998157024384, Q2 : 0.0494509860873, Q3 : -0.0351580120623, Q4 : -0.0010207783198}
2019-04-14 01:54:57.11: SIM {TimeUS : 54534844, Roll : 6.0, Pitch : -4.23, Yaw : 359.69, Alt : 49.2200012207, Lat : 49.2835718, Lng : -123.1150179, Q1 : 0.997947096825, Q2 : 0.0522679127753, Q3 : -0.0370014458895, Q4 : -0.000729424471501}
2019-04-14 01:54:57.21: SIM {TimeUS : 54634804, Roll : 6.31, Pitch : -4.43, Yaw : 359.7, Alt : 49.2299995422, Lat : 49.2835721, Lng : -123.1150172, Q1 : 0.997736692429, Q2 : 0.0549408234656, Q3 : -0.0387662611902, Q4 : -0.0004506224941}
2019-04-14 01:54:57.31: SIM {TimeUS : 54734764, Roll : 6.55, Pitch : -4.62, Yaw : 359.71, Alt : 49.2299995422, Lat : 49.2835725, Lng : -123.1150163, Q1 : 0.997553706169, Q2 : 0.0570566728711, Q3 : -0.0403872765601, Q4 : -0.000200885609956}
2019-04-14 01:54:57.41: SIM {TimeUS : 54835557, Roll : 6.74, Pitch : -4.76, Yaw : 359.72, Alt : 49.2400016785, Lat : 49.2835729, Lng : -123.1150154, Q1 : 0.997406959534, Q2 : 0.0586806498468, Q3 : -0.0416648574173, Q4 : 2.94261189993e-05}
2019-04-14 01:54:57.51: SIM {TimeUS : 54935517, Roll : 6.88, Pitch : -4.86, Yaw : 359.73, Alt : 49.2400016785, Lat : 49.2835733, Lng : -123.1150143, Q1 : 0.997299253941, Q2 : 0.0598835945129, Q3 : -0.042521674186, Q4 : 0.000222208807827}
2019-04-14 01:54:57.61: SIM {TimeUS : 55035477, Roll : 6.97, Pitch : -4.92, Yaw : 359.73, Alt : 49.25, Lat : 49.2835739, Lng : -123.1150132, Q1 : 0.997228682041, Q2 : 0.0607030615211, Q3 : -0.0430115759373, Q4 : 0.000347916182363}
2019-04-14 01:54:57.71: SIM {TimeUS : 55135437, Roll : 7.08, Pitch : -4.98, Yaw : 359.73, Alt : 49.25, Lat : 49.2835745, Lng : -123.115012, Q1 : 0.997146308422, Q2 : 0.0616461113095, Q3 : -0.043575938791, Q4 : 0.000407731015002}
2019-04-14 01:54:57.81: SIM {TimeUS : 55235397, Roll : 7.31, Pitch : -4.98, Yaw : 359.79, Alt : 49.25, Lat : 49.2835751, Lng : -123.1150107, Q1 : 0.997023046017, Q2 : 0.0636304467916, Q3 : -0.0435334891081, Q4 : 0.00103156513069}
2019-04-14 01:54:57.91: SIM {TimeUS : 55335357, Roll : 7.78, Pitch : -4.81, Yaw : 0.36, Alt : 49.2599983215, Lat : 49.2835758, Lng : -123.1150093, Q1 : 0.996799409389, Q2 : 0.0679320916533, Q3 : -0.0417145192623, Q4 : 0.00600847415626}
2019-04-14 01:54:58.01: SIM {TimeUS : 55435317, Roll : 8.4, Pitch : -4.64, Yaw : 2.1, Alt : 49.2599983215, Lat : 49.2835764, Lng : -123.1150078, Q1 : 0.996269404888, Q2 : 0.0739355757833, Q3 : -0.0390930585563, Q4 : 0.0212730076164}
2019-04-14 01:54:58.11: SIM {TimeUS : 55535277, Roll : 8.89, Pitch : -4.84, Yaw : 5.41, Alt : 49.2599983215, Lat : 49.283577, Lng : -123.1150062, Q1 : 0.994827628136, Q2 : 0.0794240683317, Q3 : -0.0384700857103, Q4 : 0.0502981245518}
2019-04-14 01:54:58.21: SIM {TimeUS : 55635237, Roll : 9.05, Pitch : -5.56, Yaw : 10.24, Alt : 49.2599983215, Lat : 49.2835777, Lng : -123.1150045, Q1 : 0.991384506226, Q2 : 0.0828204900026, Q3 : -0.0411824807525, Q4 : 0.0927447080612}
2019-04-14 01:54:58.31: SIM {TimeUS : 55735197, Roll : 8.69, Pitch : -6.76, Yaw : 16.4, Alt : 49.2599983215, Lat : 49.2835785, Lng : -123.1150026, Q1 : 0.984565079212, Q2 : 0.0832834169269, Q3 : -0.0474763289094, Q4 : 0.146429210901}
2019-04-14 01:54:58.41: SIM {TimeUS : 55835157, Roll : 7.73, Pitch : -8.28, Yaw : 23.62, Alt : 49.2700004578, Lat : 49.2835793, Lng : -123.1150007, Q1 : 0.973046243191, Q2 : 0.0805764123797, Q3 : -0.0567649975419, Q4 : 0.208485633135}
2019-04-14 01:54:58.51: SIM {TimeUS : 55935117, Roll : 6.16, Pitch : -9.87, Yaw : 31.66, Alt : 49.2700004578, Lat : 49.28358, Lng : -123.1149986, Q1 : 0.955851733685, Q2 : 0.0749556645751, Q3 : -0.0680695027113, Q4 : 0.275854408741}
2019-04-14 01:54:58.61: SIM {TimeUS : 56035077, Roll : 4.05, Pitch : -11.31, Yaw : 40.25, Alt : 49.2700004578, Lat : 49.2835807, Lng : -123.1149964, Q1 : 0.932579576969, Q2 : 0.0669371634722, Q3 : -0.0803791955113, Q4 : 0.345476359129}
2019-04-14 01:54:58.71: SIM {TimeUS : 56135037, Roll : 1.31, Pitch : -12.41, Yaw : 48.98, Alt : 49.2700004578, Lat : 49.2835816, Lng : -123.1149942, Q1 : 0.904123723507, Q2 : 0.0551827773452, Q3 : -0.0936919599771, Q4 : 0.41320335865}
2019-04-14 01:54:58.81: SIM {TimeUS : 56234997, Roll : -1.86, Pitch : -13.0, Yaw : 57.03, Alt : 49.2700004578, Lat : 49.2835824, Lng : -123.1149918, Q1 : 0.873798310757, Q2 : 0.0398216359317, Q3 : -0.107232511044, Q4 : 0.472643584013}
2019-04-14 01:54:58.91: SIM {TimeUS : 56334957, Roll : -4.87, Pitch : -13.08, Yaw : 63.55, Alt : 49.2700004578, Lat : 49.2835835, Lng : -123.1149893, Q1 : 0.846345484257, Q2 : 0.0240432359278, Q3 : -0.119050137699, Q4 : 0.518602311611}
2019-04-14 01:54:59.01: SIM {TimeUS : 56434917, Roll : -7.1, Pitch : -12.86, Yaw : 68.04, Alt : 49.2700004578, Lat : 49.2835844, Lng : -123.1149868, Q1 : 0.825886726379, Q2 : 0.0115720024332, Q3 : -0.12713085115, Q4 : 0.549194812775}
2019-04-14 01:54:59.11: SIM {TimeUS : 56534877, Roll : -8.24, Pitch : -12.63, Yaw : 70.46, Alt : 49.2700004578, Lat : 49.2835856, Lng : -123.1149843, Q1 : 0.814307749271, Q2 : 0.00492982100695, Q3 : -0.130864158273, Q4 : 0.565467238426}
2019-04-14 01:54:59.21: SIM {TimeUS : 56634837, Roll : -8.33, Pitch : -12.58, Yaw : 71.07, Alt : 49.2700004578, Lat : 49.283587, Lng : -123.1149816, Q1 : 0.811346232891, Q2 : 0.00471367221326, Q3 : -0.130921021104, Q4 : 0.569697082043}
2019-04-14 01:54:59.31: SIM {TimeUS : 56734797, Roll : -7.55, Pitch : -12.8, Yaw : 70.21, Alt : 49.2700004578, Lat : 49.2835883, Lng : -123.114979, Q1 : 0.81542879343, Q2 : 0.0104144364595, Q3 : -0.128711357713, Q4 : 0.564270138741}
2019-04-14 01:54:59.41: SIM {TimeUS : 56834757, Roll : -6.16, Pitch : -13.3, Yaw : 68.26, Alt : 49.2700004578, Lat : 49.2835897, Lng : -123.1149763, Q1 : 0.82446873188, Q2 : 0.0206784550101, Q3 : -0.125730007887, Q4 : 0.55137616396}
2019-04-14 01:54:59.51: SIM {TimeUS : 56935550, Roll : -4.4, Pitch : -13.97, Yaw : 65.53, Alt : 49.2799987793, Lat : 49.2835913, Lng : -123.1149735, Q1 : 0.836543262005, Q2 : 0.0337633937597, Q3 : -0.122860237956, Q4 : 0.532879710197}
2019-04-14 01:54:59.61: SIM {TimeUS : 57035510, Roll : -2.48, Pitch : -14.66, Yaw : 62.38, Alt : 49.2799987793, Lat : 49.2835928, Lng : -123.1149706, Q1 : 0.84969073534, Q2 : 0.0476696677506, Q3 : -0.120317138731, Q4 : 0.511152684689}
2019-04-14 01:54:59.71: SIM {TimeUS : 57135470, Roll : -0.6, Pitch : -15.25, Yaw : 59.1, Alt : 49.2799987793, Lat : 49.2835945, Lng : -123.1149676, Q1 : 0.862554967403, Q2 : 0.0608813948929, Q3 : -0.118058688939, Q4 : 0.488215714693}
2019-04-14 01:54:59.81: SIM {TimeUS : 57235430, Roll : 1.05, Pitch : -15.65, Yaw : 56.03, Alt : 49.2799987793, Lat : 49.2835962, Lng : -123.1149646, Q1 : 0.873964250088, Q2 : 0.0720415860415, Q3 : -0.115907229483, Q4 : 0.466435462236}
2019-04-14 01:54:59.91: SIM {TimeUS : 57335390, Roll : 2.37, Pitch : -15.83, Yaw : 53.47, Alt : 49.2799987793, Lat : 49.2835977, Lng : -123.1149614, Q1 : 0.883095562458, Q2 : 0.0803069844842, Q3 : -0.113730147481, Q4 : 0.448060840368}
2019-04-14 01:55:00.01: SIM {TimeUS : 57435350, Roll : 3.24, Pitch : -15.85, Yaw : 51.62, Alt : 49.2799987793, Lat : 49.2835995, Lng : -123.114958, Q1 : 0.889537990093, Q2 : 0.0853168442845, Q3 : -0.111915834248, Q4 : 0.43464705348}
2019-04-14 01:55:00.11: SIM {TimeUS : 57535310, Roll : 3.63, Pitch : -15.8, Yaw : 50.58, Alt : 49.2799987793, Lat : 49.2836012, Lng : -123.1149546, Q1 : 0.893227994442, Q2 : 0.0871603116393, Q3 : -0.110818475485, Q4 : 0.426926374435}
2019-04-14 01:55:00.21: SIM {TimeUS : 57635270, Roll : 3.57, Pitch : -15.76, Yaw : 50.31, Alt : 49.2799987793, Lat : 49.2836029, Lng : -123.114951, Q1 : 0.894329667091, Q2 : 0.0862416103482, Q3 : -0.110898017883, Q4 : 0.424780488014}
2019-04-14 01:55:00.31: SIM {TimeUS : 57735230, Roll : 3.13, Pitch : -15.76, Yaw : 50.71, Alt : 49.2799987793, Lat : 49.2836044, Lng : -123.1149473, Q1 : 0.89315778017, Q2 : 0.0832488462329, Q3 : -0.112300269306, Q4 : 0.427466392517}
2019-04-14 01:55:00.41: SIM {TimeUS : 57835190, Roll : 2.44, Pitch : -15.84, Yaw : 51.62, Alt : 49.2900009155, Lat : 49.2836062, Lng : -123.1149435, Q1 : 0.890141487122, Q2 : 0.0790424793959, Q3 : -0.11488584429, Q4 : 0.433822184801}
2019-04-14 01:55:00.51: SIM {TimeUS : 57935150, Roll : 1.6, Pitch : -15.99, Yaw : 52.85, Alt : 49.2900009155, Lat : 49.2836079, Lng : -123.1149397, Q1 : 0.885826289654, Q2 : 0.0743383318186, Q3 : -0.118390031159, Q4 : 0.44245839119}
2019-04-14 01:55:00.61: SIM {TimeUS : 58035110, Roll : 0.73, Pitch : -16.15, Yaw : 54.22, Alt : 49.2900009155, Lat : 49.2836096, Lng : -123.1149357, Q1 : 0.880852401257, Q2 : 0.0697099715471, Q3 : -0.122204378247, Q4 : 0.452001869678}
2019-04-14 01:55:00.71: SIM {TimeUS : 58135070, Roll : -0.08, Pitch : -16.31, Yaw : 55.55, Alt : 49.2900009155, Lat : 49.2836114, Lng : -123.1149317, Q1 : 0.875862598419, Q2 : 0.0655147135258, Q3 : -0.125868305564, Q4 : 0.461226344109}
2019-04-14 01:55:00.81: SIM {TimeUS : 58235030, Roll : -0.75, Pitch : -16.41, Yaw : 56.7, Alt : 49.2900009155, Lat : 49.2836132, Lng : -123.1149276, Q1 : 0.871450841427, Q2 : 0.062042016536, Q3 : -0.12872043252, Q4 : 0.469207137823}
2019-04-14 01:55:00.91: SIM {TimeUS : 58334990, Roll : -1.21, Pitch : -16.45, Yaw : 57.58, Alt : 49.2900009155, Lat : 49.283615, Lng : -123.1149235, Q1 : 0.868031620979, Q2 : 0.059695251286, Q3 : -0.130484297872, Q4 : 0.47532248497}
2019-04-14 01:55:01.01: SIM {TimeUS : 58434950, Roll : -1.48, Pitch : -16.46, Yaw : 58.13, Alt : 49.2900009155, Lat : 49.2836169, Lng : -123.1149193, Q1 : 0.865849077702, Q2 : 0.0583935007453, Q3 : -0.131369933486, Q4 : 0.479205071926}
2019-04-14 01:55:01.11: SIM {TimeUS : 58534910, Roll : -1.52, Pitch : -16.48, Yaw : 58.36, Alt : 49.2900009155, Lat : 49.2836187, Lng : -123.114915, Q1 : 0.864911675453, Q2 : 0.0584063045681, Q3 : -0.131539568305, Q4 : 0.480847030878}
2019-04-14 01:55:01.21: SIM {TimeUS : 58634870, Roll : -1.36, Pitch : -16.48, Yaw : 58.29, Alt : 49.2900009155, Lat : 49.2836207, Lng : -123.1149108, Q1 : 0.865128576756, Q2 : 0.059508446604, Q3 : -0.130931809545, Q4 : 0.480487465858}
2019-04-14 01:55:01.31: SIM {TimeUS : 58734830, Roll : -1.08, Pitch : -16.48, Yaw : 57.98, Alt : 49.2900009155, Lat : 49.2836226, Lng : -123.1149065, Q1 : 0.866272866726, Q2 : 0.0612850487232, Q3 : -0.129929497838, Q4 : 0.478470265865}
2019-04-14 01:55:01.41: SIM {TimeUS : 58834790, Roll : -0.75, Pitch : -16.51, Yaw : 57.51, Alt : 49.2900009155, Lat : 49.2836245, Lng : -123.1149021, Q1 : 0.868022441864, Q2 : 0.0634208768606, Q3 : -0.129048973322, Q4 : 0.475248634815}
2019-04-14 01:55:01.51: SIM {TimeUS : 58934750, Roll : -0.4, Pitch : -16.57, Yaw : 56.95, Alt : 49.2900009155, Lat : 49.2836266, Lng : -123.1148977, Q1 : 0.870063960552, Q2 : 0.0656905472279, Q3 : -0.128381878138, Q4 : 0.471372008324}
2019-04-14 01:55:01.61: SIM {TimeUS : 59035543, Roll : -0.06, Pitch : -16.66, Yaw : 56.37, Alt : 49.2900009155, Lat : 49.2836286, Lng : -123.1148932, Q1 : 0.872130334377, Q2 : 0.0679071322083, Q3 : -0.127979710698, Q4 : 0.467331290245}
2019-04-14 01:55:01.71: SIM {TimeUS : 59135503, Roll : 0.2, Pitch : -16.71, Yaw : 55.86, Alt : 49.2900009155, Lat : 49.2836306, Lng : -123.1148887, Q1 : 0.874000549316, Q2 : 0.0696895420551, Q3 : -0.127586200833, Q4 : 0.463668227196}
2019-04-14 01:55:01.81: SIM {TimeUS : 59235463, Roll : 0.42, Pitch : -16.76, Yaw : 55.44, Alt : 49.2900009155, Lat : 49.2836327, Lng : -123.1148842, Q1 : 0.875510454178, Q2 : 0.0710619911551, Q3 : -0.12731423974, Q4 : 0.460676372051}
2019-04-14 01:55:01.91: SIM {TimeUS : 59335423, Roll : 0.56, Pitch : -16.8, Yaw : 55.14, Alt : 49.2900009155, Lat : 49.2836347, Lng : -123.1148796, Q1 : 0.876563251019, Q2 : 0.0719884485006, Q3 : -0.127239301801, Q4 : 0.458546310663}
2019-04-14 01:55:02.01: SIM {TimeUS : 59435383, Roll : 0.63, Pitch : -16.83, Yaw : 54.98, Alt : 49.2900009155, Lat : 49.2836367, Lng : -123.114875, Q1 : 0.877133011818, Q2 : 0.0724760740995, Q3 : -0.127346158028, Q4 : 0.457348763943}
2019-04-14 01:55:02.11: SIM {TimeUS : 59535343, Roll : 0.63, Pitch : -16.86, Yaw : 54.94, Alt : 49.2900009155, Lat : 49.2836389, Lng : -123.1148703, Q1 : 0.877262353897, Q2 : 0.0724727138877, Q3 : -0.127584114671, Q4 : 0.457034856081}
2019-04-14 01:55:02.21: SIM {TimeUS : 59635303, Roll : 0.56, Pitch : -16.88, Yaw : 55.01, Alt : 49.2900009155, Lat : 49.2836409, Lng : -123.1148655, Q1 : 0.877010643482, Q2 : 0.0721117705107, Q3 : -0.127991721034, Q4 : 0.45746088028}
2019-04-14 01:55:02.31: SIM {TimeUS : 59735263, Roll : 0.43, Pitch : -16.91, Yaw : 55.15, Alt : 49.2900009155, Lat : 49.2836431, Lng : -123.1148609, Q1 : 0.876472651958, Q2 : 0.0714249461889, Q3 : -0.128574326634, Q4 : 0.458435148001}
2019-04-14 01:55:02.41: SIM {TimeUS : 59835223, Roll : 0.29, Pitch : -16.94, Yaw : 55.35, Alt : 49.2999992371, Lat : 49.2836451, Lng : -123.1148561, Q1 : 0.875752270222, Q2 : 0.0706396475434, Q3 : -0.129272997379, Q4 : 0.459735304117}
2019-04-14 01:55:02.51: SIM {TimeUS : 59935183, Roll : 0.14, Pitch : -16.98, Yaw : 55.56, Alt : 49.2999992371, Lat : 49.2836473, Lng : -123.1148513, Q1 : 0.874948740005, Q2 : 0.069921053946, Q3 : -0.130060851574, Q4 : 0.461150616407}
2019-04-14 01:55:02.61: SIM {TimeUS : 60035143, Roll : 0.0, Pitch : -17.02, Yaw : 55.76, Alt : 49.2999992371, Lat : 49.2836493, Lng : -123.1148465, Q1 : 0.874175727367, Q2 : 0.0692890062928, Q3 : -0.130839005113, Q4 : 0.462490051985}
2019-04-14 01:55:02.71: SIM {TimeUS : 60135103, Roll : -0.12, Pitch : -17.06, Yaw : 55.92, Alt : 49.2999992371, Lat : 49.2836515, Lng : -123.1148417, Q1 : 0.873538553715, Q2 : 0.0686278194189, Q3 : -0.131568714976, Q4 : 0.463584214449}
2019-04-14 01:55:02.81: SIM {TimeUS : 60235063, Roll : -0.23, Pitch : -17.08, Yaw : 56.04, Alt : 49.2999992371, Lat : 49.2836536, Lng : -123.1148368, Q1 : 0.873102366924, Q2 : 0.0680148974061, Q3 : -0.132105529308, Q4 : 0.464342951775}
2019-04-14 01:55:02.91: SIM {TimeUS : 60335023, Roll : -0.3, Pitch : -17.11, Yaw : 56.1, Alt : 49.2999992371, Lat : 49.2836558, Lng : -123.1148319, Q1 : 0.872863411903, Q2 : 0.0676814168692, Q3 : -0.132555633783, Q4 : 0.464712440968}
2019-04-14 01:55:03.01: SIM {TimeUS : 60434983, Roll : -0.31, Pitch : -17.15, Yaw : 56.11, Alt : 49.2999992371, Lat : 49.2836579, Lng : -123.114827, Q1 : 0.87280523777, Q2 : 0.0677521079779, Q3 : -0.132868409157, Q4 : 0.464722126722}
2019-04-14 01:55:03.11: SIM {TimeUS : 60534943, Roll : -0.27, Pitch : -17.19, Yaw : 56.07, Alt : 49.2999992371, Lat : 49.2836602, Lng : -123.114822, Q1 : 0.872901380062, Q2 : 0.0681948140264, Q3 : -0.133061766624, Q4 : 0.464421391487}
2019-04-14 01:55:03.21: SIM {TimeUS : 60634903, Roll : -0.19, Pitch : -17.23, Yaw : 55.99, Alt : 49.2999992371, Lat : 49.2836624, Lng : -123.1148171, Q1 : 0.873130559921, Q2 : 0.068892583251, Q3 : -0.133090555668, Q4 : 0.463879108429}
2019-04-14 01:55:03.31: SIM {TimeUS : 60734863, Roll : -0.09, Pitch : -17.27, Yaw : 55.88, Alt : 49.2999992371, Lat : 49.2836645, Lng : -123.1148121, Q1 : 0.873445212841, Q2 : 0.0696820020676, Q3 : -0.133084669709, Q4 : 0.463169902563}
2019-04-14 01:55:03.41: SIM {TimeUS : 60834823, Roll : 0.0, Pitch : -17.31, Yaw : 55.77, Alt : 49.3100013733, Lat : 49.2836668, Lng : -123.1148071, Q1 : 0.873820483685, Q2 : 0.0703411847353, Q3 : -0.133049175143, Q4 : 0.462372034788}
2019-04-14 01:55:03.51: SIM {TimeUS : 60934783, Roll : 0.05, Pitch : -17.33, Yaw : 55.65, Alt : 49.3100013733, Lat : 49.2836689, Lng : -123.1148021, Q1 : 0.8742172122, Q2 : 0.070753082633, Q3 : -0.133023425937, Q4 : 0.461565881968}
2019-04-14 01:55:03.61: SIM {TimeUS : 61034743, Roll : 0.08, Pitch : -17.33, Yaw : 55.55, Alt : 49.3100013733, Lat : 49.2836712, Lng : -123.114797, Q1 : 0.874603807926, Q2 : 0.0709135532379, Q3 : -0.132966548204, Q4 : 0.46082469821}
2019-04-14 01:55:03.71: SIM {TimeUS : 61135536, Roll : 0.12, Pitch : -17.32, Yaw : 55.46, Alt : 49.3100013733, Lat : 49.2836735, Lng : -123.1147919, Q1 : 0.874929308891, Q2 : 0.0710814669728, Q3 : -0.132833585143, Q4 : 0.460218816996}
2019-04-14 01:55:03.81: SIM {TimeUS : 61235496, Roll : 0.16, Pitch : -17.33, Yaw : 55.4, Alt : 49.3100013733, Lat : 49.2836758, Lng : -123.1147868, Q1 : 0.875153541565, Q2 : 0.0712823197246, Q3 : -0.132764443755, Q4 : 0.459781140089}
2019-04-14 01:55:03.91: SIM {TimeUS : 61335456, Roll : 0.19, Pitch : -17.36, Yaw : 55.37, Alt : 49.3100013733, Lat : 49.283678, Lng : -123.1147818, Q1 : 0.875243008137, Q2 : 0.0716511234641, Q3 : -0.132900878787, Q4 : 0.45951411128}
2019-04-14 01:55:04.01: SIM {TimeUS : 61435416, Roll : 0.22, Pitch : -17.42, Yaw : 55.35, Alt : 49.3100013733, Lat : 49.2836803, Lng : -123.1147766, Q1 : 0.875222742558, Q2 : 0.0720620825887, Q3 : -0.133273392916, Q4 : 0.459380507469}
2019-04-14 01:55:04.11: SIM {TimeUS : 61535376, Roll : 0.21, Pitch : -17.46, Yaw : 55.35, Alt : 49.3100013733, Lat : 49.2836826, Lng : -123.1147715, Q1 : 0.875171840191, Q2 : 0.0721988379955, Q3 : -0.133595019579, Q4 : 0.459362506866}
2019-04-14 01:55:04.21: SIM {TimeUS : 61635336, Roll : 0.2, Pitch : -17.47, Yaw : 55.36, Alt : 49.3100013733, Lat : 49.2836849, Lng : -123.1147664, Q1 : 0.875116467476, Q2 : 0.0721159800887, Q3 : -0.13371232152, Q4 : 0.45944699645}
2019-04-14 01:55:04.31: SIM {TimeUS : 61735296, Roll : 0.17, Pitch : -17.48, Yaw : 55.39, Alt : 49.3100013733, Lat : 49.2836871, Lng : -123.1147612, Q1 : 0.875039100647, Q2 : 0.0719507858157, Q3 : -0.133859395981, Q4 : 0.459577322006}
2019-04-14 01:55:04.41: SIM {TimeUS : 61835256, Roll : 0.12, Pitch : -17.49, Yaw : 55.41, Alt : 49.3100013733, Lat : 49.2836894, Lng : -123.1147561, Q1 : 0.874953091145, Q2 : 0.0716798081994, Q3 : -0.134168207645, Q4 : 0.459693342447}
2019-04-14 01:55:04.51: SIM {TimeUS : 61935216, Roll : 0.09, Pitch : -17.51, Yaw : 55.43, Alt : 49.3199996948, Lat : 49.2836917, Lng : -123.1147509, Q1 : 0.874865114689, Q2 : 0.0715264081955, Q3 : -0.134435385466, Q4 : 0.459806680679}
2019-04-14 01:55:04.61: SIM {TimeUS : 62035176, Roll : 0.06, Pitch : -17.53, Yaw : 55.45, Alt : 49.3199996948, Lat : 49.2836939, Lng : -123.1147457, Q1 : 0.874800443649, Q2 : 0.071426153183, Q3 : -0.134702309966, Q4 : 0.459867119789}
2019-04-14 01:55:04.71: SIM {TimeUS : 62135136, Roll : 0.04, Pitch : -17.55, Yaw : 55.45, Alt : 49.3199996948, Lat : 49.2836963, Lng : -123.1147405, Q1 : 0.874767005444, Q2 : 0.0713907778263, Q3 : -0.134915664792, Q4 : 0.4598736763}
2019-04-14 01:55:04.81: SIM {TimeUS : 62235096, Roll : 0.05, Pitch : -17.58, Yaw : 55.45, Alt : 49.3199996948, Lat : 49.2836986, Lng : -123.1147352, Q1 : 0.874758422375, Q2 : 0.0715055540204, Q3 : -0.135075345635, Q4 : 0.459825277328}
2019-04-14 01:55:04.91: SIM {TimeUS : 62335056, Roll : 0.07, Pitch : -17.59, Yaw : 55.43, Alt : 49.3199996948, Lat : 49.283701, Lng : -123.11473, Q1 : 0.874786257744, Q2 : 0.0716888681054, Q3 : -0.13514636457, Q4 : 0.459722965956}
2019-04-14 01:55:05.01: SIM {TimeUS : 62435016, Roll : 0.1, Pitch : -17.62, Yaw : 55.41, Alt : 49.3199996948, Lat : 49.2837033, Lng : -123.1147248, Q1 : 0.874830305576, Q2 : 0.0719842687249, Q3 : -0.135203912854, Q4 : 0.459576010704}
2019-04-14 01:55:05.11: SIM {TimeUS : 62534976, Roll : 0.13, Pitch : -17.64, Yaw : 55.38, Alt : 49.3199996948, Lat : 49.2837057, Lng : -123.1147195, Q1 : 0.874889910221, Q2 : 0.0722893550992, Q3 : -0.135315865278, Q4 : 0.459381729364}
2019-04-14 01:55:05.21: SIM {TimeUS : 62634936, Roll : 0.14, Pitch : -17.68, Yaw : 55.35, Alt : 49.3199996948, Lat : 49.283708, Lng : -123.1147142, Q1 : 0.874962687492, Q2 : 0.0724930986762, Q3 : -0.135572522879, Q4 : 0.459135144949}
2019-04-14 01:55:05.31: SIM {TimeUS : 62734896, Roll : 0.13, Pitch : -17.72, Yaw : 55.32, Alt : 49.3199996948, Lat : 49.2837102, Lng : -123.114709, Q1 : 0.875042140484, Q2 : 0.0725886449218, Q3 : -0.135905891657, Q4 : 0.458870112896}
2019-04-14 01:55:05.41: SIM {TimeUS : 62834856, Roll : 0.12, Pitch : -17.76, Yaw : 55.29, Alt : 49.3199996948, Lat : 49.2837126, Lng : -123.1147037, Q1 : 0.875122070312, Q2 : 0.0726285651326, Q3 : -0.136269465089, Q4 : 0.458603441715}
2019-04-14 01:55:05.51: SIM {TimeUS : 62934816, Roll : 0.13, Pitch : -17.78, Yaw : 55.26, Alt : 49.3199996948, Lat : 49.283715, Lng : -123.1146984, Q1 : 0.875203669071, Q2 : 0.0727380663157, Q3 : -0.136448606849, Q4 : 0.458377033472}
2019-04-14 01:55:05.61: SIM {TimeUS : 63034776, Roll : 0.15, Pitch : -17.79, Yaw : 55.23, Alt : 49.3199996948, Lat : 49.2837174, Lng : -123.1146931, Q1 : 0.87528938055, Q2 : 0.0728847756982, Q3 : -0.136427789927, Q4 : 0.458196252584}
2019-04-14 01:55:05.71: SIM {TimeUS : 63134736, Roll : 0.17, Pitch : -17.77, Yaw : 55.21, Alt : 49.3199996948, Lat : 49.2837198, Lng : -123.1146877, Q1 : 0.875387310982, Q2 : 0.0729304775596, Q3 : -0.136246696115, Q4 : 0.458055734634}
2019-04-14 01:55:05.81: SIM {TimeUS : 63235529, Roll : 0.17, Pitch : -17.75, Yaw : 55.19, Alt : 49.3199996948, Lat : 49.2837222, Lng : -123.1146824, Q1 : 0.875479757786, Q2 : 0.0728166773915, Q3 : -0.136080101132, Q4 : 0.45794659853}
2019-04-14 01:55:05.91: SIM {TimeUS : 63335489, Roll : 0.16, Pitch : -17.73, Yaw : 55.18, Alt : 49.3199996948, Lat : 49.2837245, Lng : -123.114677, Q1 : 0.875559568405, Q2 : 0.0726437941194, Q3 : -0.135939702392, Q4 : 0.457863152027}
2019-04-14 01:55:06.01: SIM {TimeUS : 63435449, Roll : 0.15, Pitch : -17.71, Yaw : 55.18, Alt : 49.3199996948, Lat : 49.2837269, Lng : -123.1146717, Q1 : 0.875606536865, Q2 : 0.0725383684039, Q3 : -0.135874465108, Q4 : 0.457809537649}
2019-04-14 01:55:06.11: SIM {TimeUS : 63535409, Roll : 0.15, Pitch : -17.73, Yaw : 55.17, Alt : 49.3300018311, Lat : 49.2837293, Lng : -123.1146663, Q1 : 0.875614821911, Q2 : 0.0725385844707, Q3 : -0.136007100344, Q4 : 0.457754224539}
2019-04-14 01:55:06.21: SIM {TimeUS : 63635369, Roll : 0.15, Pitch : -17.75, Yaw : 55.17, Alt : 49.3300018311, Lat : 49.2837317, Lng : -123.1146609, Q1 : 0.8756057024, Q2 : 0.0726435482502, Q3 : -0.136171460152, Q4 : 0.4577062428}
2019-04-14 01:55:06.31: SIM {TimeUS : 63735329, Roll : 0.14, Pitch : -17.8, Yaw : 55.16, Alt : 49.3300018311, Lat : 49.283734, Lng : -123.1146555, Q1 : 0.875574588776, Q2 : 0.072761207819, Q3 : -0.136571273208, Q4 : 0.457627862692}
2019-04-14 01:55:06.41: SIM {TimeUS : 63835289, Roll : 0.13, Pitch : -17.85, Yaw : 55.15, Alt : 49.3300018311, Lat : 49.2837364, Lng : -123.1146502, Q1 : 0.87553781271, Q2 : 0.0729168057442, Q3 : -0.137024655938, Q4 : 0.457537889481}
2019-04-14 01:55:06.51: SIM {TimeUS : 63935249, Roll : 0.13, Pitch : -17.89, Yaw : 55.15, Alt : 49.3300018311, Lat : 49.2837388, Lng : -123.1146448, Q1 : 0.875525653362, Q2 : 0.0730411559343, Q3 : -0.137334167957, Q4 : 0.457448542118}
2019-04-14 01:55:06.61: SIM {TimeUS : 64035209, Roll : 0.12, Pitch : -17.92, Yaw : 55.14, Alt : 49.3300018311, Lat : 49.2837412, Lng : -123.1146394, Q1 : 0.875534653664, Q2 : 0.0730765461922, Q3 : -0.137620553374, Q4 : 0.457339584827}
2019-04-14 01:55:06.71: SIM {TimeUS : 64135169, Roll : 0.11, Pitch : -17.94, Yaw : 55.12, Alt : 49.3300018311, Lat : 49.2837436, Lng : -123.114634, Q1 : 0.875561952591, Q2 : 0.0730846077204, Q3 : -0.137794867158, Q4 : 0.457233548164}
2019-04-14 01:55:06.81: SIM {TimeUS : 64235129, Roll : 0.13, Pitch : -17.93, Yaw : 55.11, Alt : 49.3300018311, Lat : 49.283746, Lng : -123.1146286, Q1 : 0.875613629818, Q2 : 0.073174700141, Q3 : -0.137664228678, Q4 : 0.457159519196}
2019-04-14 01:55:06.91: SIM {TimeUS : 64335089, Roll : 0.16, Pitch : -17.93, Yaw : 55.1, Alt : 49.3300018311, Lat : 49.2837484, Lng : -123.1146231, Q1 : 0.875652313232, Q2 : 0.0734072104096, Q3 : -0.137561321259, Q4 : 0.457079082727}
2019-04-14 01:55:07.01: SIM {TimeUS : 64435049, Roll : 0.18, Pitch : -17.95, Yaw : 55.08, Alt : 49.3300018311, Lat : 49.2837509, Lng : -123.1146177, Q1 : 0.875689089298, Q2 : 0.0735751986504, Q3 : -0.137603491545, Q4 : 0.456968992949}
2019-04-14 01:55:07.11: SIM {TimeUS : 64535009, Roll : 0.2, Pitch : -17.96, Yaw : 55.06, Alt : 49.3300018311, Lat : 49.2837533, Lng : -123.1146123, Q1 : 0.875734567642, Q2 : 0.0737113505602, Q3 : -0.137611180544, Q4 : 0.456857532263}
2019-04-14 01:55:07.21: SIM {TimeUS : 64634969, Roll : 0.21, Pitch : -17.95, Yaw : 55.05, Alt : 49.3300018311, Lat : 49.2837557, Lng : -123.1146068, Q1 : 0.875796496868, Q2 : 0.0737491324544, Q3 : -0.13753798604, Q4 : 0.456754714251}
2019-04-14 01:55:07.31: SIM {TimeUS : 64734929, Roll : 0.21, Pitch : -17.95, Yaw : 55.03, Alt : 49.3300018311, Lat : 49.2837582, Lng : -123.1146014, Q1 : 0.875858187675, Q2 : 0.0737126395106, Q3 : -0.13752913475, Q4 : 0.456645041704}
2019-04-14 01:55:07.41: SIM {TimeUS : 64834889, Roll : 0.19, Pitch : -17.96, Yaw : 55.02, Alt : 49.3400001526, Lat : 49.2837606, Lng : -123.1145959, Q1 : 0.875904023647, Q2 : 0.0735919848084, Q3 : -0.137734979391, Q4 : 0.456514418125}
2019-04-14 01:55:07.51: SIM {TimeUS : 64934849, Roll : 0.15, Pitch : -18.0, Yaw : 55.01, Alt : 49.3400001526, Lat : 49.283763, Lng : -123.1145905, Q1 : 0.87592279911, Q2 : 0.073482170701, Q3 : -0.138143330812, Q4 : 0.456372737885}
2019-04-14 01:55:07.61: SIM {TimeUS : 65034809, Roll : 0.14, Pitch : -18.0, Yaw : 55.0, Alt : 49.3400001526, Lat : 49.2837655, Lng : -123.114585, Q1 : 0.875962197781, Q2 : 0.0733553320169, Q3 : -0.138270273805, Q4 : 0.456279039383}
2019-04-14 01:55:07.71: SIM {TimeUS : 65134769, Roll : 0.15, Pitch : -17.99, Yaw : 54.99, Alt : 49.3400001526, Lat : 49.2837679, Lng : -123.1145796, Q1 : 0.876005530357, Q2 : 0.073366753757, Q3 : -0.138123974204, Q4 : 0.456238299608}
2019-04-14 01:55:07.81: SIM {TimeUS : 65235562, Roll : 0.17, Pitch : -17.98, Yaw : 54.99, Alt : 49.3400001526, Lat : 49.2837703, Lng : -123.114574, Q1 : 0.876039326191, Q2 : 0.0734661594033, Q3 : -0.137949764729, Q4 : 0.456210136414}
2019-04-14 01:55:07.91: SIM {TimeUS : 65335522, Roll : 0.18, Pitch : -17.98, Yaw : 54.98, Alt : 49.3400001526, Lat : 49.2837728, Lng : -123.1145686, Q1 : 0.876056849957, Q2 : 0.0735732018948, Q3 : -0.137959063053, Q4 : 0.456156462431}
2019-04-14 01:55:08.01: SIM {TimeUS : 65435482, Roll : 0.17, Pitch : -18.0, Yaw : 54.97, Alt : 49.3400001526, Lat : 49.2837752, Lng : -123.1145631, Q1 : 0.876073539257, Q2 : 0.0735513344407, Q3 : -0.138124972582, Q4 : 0.456077754498}
2019-04-14 01:55:08.11: SIM {TimeUS : 65535442, Roll : 0.14, Pitch : -18.02, Yaw : 54.96, Alt : 49.3400001526, Lat : 49.2837776, Lng : -123.1145576, Q1 : 0.876093506813, Q2 : 0.0734227001667, Q3 : -0.138403475285, Q4 : 0.455975621939}
2019-04-14 01:55:08.21: SIM {TimeUS : 65635402, Roll : 0.13, Pitch : -18.05, Yaw : 54.95, Alt : 49.3400001526, Lat : 49.2837801, Lng : -123.1145521, Q1 : 0.876104354858, Q2 : 0.0734199211001, Q3 : -0.138661876321, Q4 : 0.455876678228}
2019-04-14 01:55:08.31: SIM {TimeUS : 65735362, Roll : 0.14, Pitch : -18.08, Yaw : 54.94, Alt : 49.3400001526, Lat : 49.2837825, Lng : -123.1145466, Q1 : 0.876105546951, Q2 : 0.073586538434, Q3 : -0.13884152472, Q4 : 0.455792844296}
2019-04-14 01:55:08.41: SIM {TimeUS : 65835322, Roll : 0.15, Pitch : -18.1, Yaw : 54.93, Alt : 49.3400001526, Lat : 49.2837849, Lng : -123.1145411, Q1 : 0.876108944416, Q2 : 0.0737672820687, Q3 : -0.138968423009, Q4 : 0.455718487501}
2019-04-14 01:55:08.51: SIM {TimeUS : 65935282, Roll : 0.18, Pitch : -18.11, Yaw : 54.92, Alt : 49.3400001526, Lat : 49.2837874, Lng : -123.1145356, Q1 : 0.876119792461, Q2 : 0.0739727392793, Q3 : -0.138943091035, Q4 : 0.455672025681}
2019-04-14 01:55:08.61: SIM {TimeUS : 66035242, Roll : 0.19, Pitch : -18.12, Yaw : 54.92, Alt : 49.3400001526, Lat : 49.2837899, Lng : -123.1145301, Q1 : 0.87613171339, Q2 : 0.0740995779634, Q3 : -0.138968586922, Q4 : 0.455620735884}
2019-04-14 01:55:08.71: SIM {TimeUS : 66135202, Roll : 0.2, Pitch : -18.13, Yaw : 54.91, Alt : 49.3400001526, Lat : 49.2837923, Lng : -123.1145246, Q1 : 0.876142919064, Q2 : 0.0742095336318, Q3 : -0.139005839825, Q4 : 0.455569863319}
