2019-04-14 11:21:38.90: SIM {TimeUS : 40316367, Roll : 0.0, Pitch : 0.0, Yaw : 0.0, Alt : 30.1000003815, Lat : 49.28357, Lng : -123.11502, Q1 : 1.0, Q2 : 0.0, Q3 : 0.0, Q4 : 0.0}
2019-04-14 11:21:39.01: SIM {TimeUS : 40435486, Roll : 0.0, Pitch : 0.0, Yaw : 0.0, Alt : 30.1000003815, Lat : 49.28357, Lng : -123.11502, Q1 : 1.0, Q2 : 0.0, Q3 : 0.0, Q4 : 0.0}
2019-04-14 11:21:39.11: SIM {TimeUS : 40535446, Roll : 0.0, Pitch : 0.0, Yaw : 0.0, Alt : 30.1000003815, Lat : 49.28357, Lng : -123.11502, Q1 : 1.0, Q2 : 0.0, Q3 : 0.0, Q4 : 0.0}
2019-04-14 11:21:39.21: SIM {TimeUS : 40635406, Roll : 0.0, Pitch : 0.0, Yaw : 0.0, Alt : 30.1000003815, Lat : 49.28357, Lng : -123.11502, Q1 : 1.0, Q2 : 0.0, Q3 : 0.0, Q4 : 0.0}
2019-04-14 11:21:39.31: SIM {TimeUS : 40735366, Roll : 0.0, Pitch : 0.0, Yaw : 0.0, Alt : 30.1000003815, Lat : 49.28357, Lng : -123.11502, Q1 : 1.0, Q2 : 0.0, Q3 : 0.0, Q4 : 0.0}
2019-04-14 11:21:39.41: SIM {TimeUS : 40835326, Roll : 0.0, Pitch : 0.0, Yaw : 0.0, Alt : 30.1000003815, Lat : 49.28357, Lng : -123.11502, Q1 : 1.0, Q2 : 0.0, Q3 : 0.0, Q4 : 0.0}
2019-04-14 11:21:39.51: SIM {TimeUS : 40935286, Roll : 0.0, Pitch : 0.0, Yaw : 0.0, Alt : 30.1000003815, Lat : 49.28357, Lng : -123.11502, Q1 : 1.0, Q2 : 0.0, Q3 : 0.0, Q4 : 0.0}
2019-04-14 11:21:39.61: SIM {TimeUS : 41035246, Roll : 0.0, Pitch : 0.0, Yaw : 0.0, Alt : 30.1000003815, Lat : 49.28357, Lng : -123.11502, Q1 : 1.0, Q2 : 0.0, Q3 : 0.0, Q4 : 0.0}
2019-04-14 11:21:39.71: SIM {TimeUS : 41135206, Roll : 0.0, Pitch : 0.0, Yaw : 0.0, Alt : 30.1000003815, Lat : 49.28357, Lng : -123.11502, Q1 : 1.0, Q2 : 0.0, Q3 : 0.0, Q4 : 0.0}
2019-04-14 11:21:39.81: SIM {TimeUS : 41235166, Roll : 0.0, Pitch : 0.0, Yaw : 0.0, Alt : 30.1000003815, Lat : 49.28357, Lng : -123.11502, Q1 : 1.0, Q2 : 0.0, Q3 : 0.0, Q4 : 0.0}
2019-04-14 11:21:39.91: SIM {TimeUS : 41335126, Roll : 0.0, Pitch : 0.0, Yaw : 0.0, Alt : 30.1000003815, Lat : 49.28357, Lng : -123.11502, Q1 : 1.0, Q2 : 0.0, Q3 : 0.0, Q4 : 0.0}
2019-04-14 11:21:40.01: SIM {TimeUS : 41435086, Roll : 0.0, Pitch : 0.0, Yaw : 0.0, Alt : 30.1000003815, Lat : 49.28357, Lng : -123.11502, Q1 : 1.0, Q2 : 0.0, Q3 : 0.0, Q4 : 0.0}
2019-04-14 11:21:40.11: SIM {TimeUS : 41535046, Roll : 0.0, Pitch : 0.0, Yaw : 0.0, Alt : 30.1000003815, Lat : 49.28357, Lng : -123.11502, Q1 : 1.0, Q2 : 0.0, Q3 : 0.0, Q4 : 0.0}
2019-04-14 11:21:40.21: SIM {TimeUS : 41635006, Roll : 0.0, Pitch : 0.0, Yaw : 0.0, Alt : 30.1000003815, Lat : 49.28357, Lng : -123.11502, Q1 : 1.0, Q2 : 0.0, Q3 : 0.0, Q4 : 0.0}
2019-04-14 11:21:40.31: SIM {TimeUS : 41734966, Roll : 0.0, Pitch : 0.0, Yaw : 0.0, Alt : 30.1000003815, Lat : 49.28357, Lng : -123.11502, Q1 : 1.0, Q2 : 0.0, Q3 : 0.0, Q4 : 0.0}
2019-04-14 11:21:40.41: SIM {TimeUS : 41834926, Roll : 0.0, Pitch : 0.0, Yaw : 0.0, Alt : 30.1000003815, Lat : 49.28357, Lng : -123.11502, Q1 : 1.0, Q2 : 0.0, Q3 : 0.0, Q4 : 0.0}
2019-04-14 11:21:40.51: SIM {TimeUS : 41934886, Roll : 0.0, Pitch : 0.0, Yaw : 0.0, Alt : 30.1000003815, Lat : 49.28357, Lng : -123.11502, Q1 : 1.0, Q2 : 0.0, Q3 : 0.0, Q4 : 0.0}
2019-04-14 11:21:40.61: SIM {TimeUS : 42034846, Roll : 0.0, Pitch : 0.0, Yaw : 0.0, Alt : 30.1000003815, Lat : 49.28357, Lng : -123.11502, Q1 : 1.0, Q2 : 0.0, Q3 : 0.0, Q4 : 0.0}
2019-04-14 11:21:40.71: SIM {TimeUS : 42134806, Roll : 0.0, Pitch : 0.0, Yaw : 0.0, Alt : 30.1000003815, Lat : 49.28357, Lng : -123.11502, Q1 : 1.0, Q2 : 0.0, Q3 : 0.0, Q4 : 0.0}
2019-04-14 11:21:40.81: SIM {TimeUS : 42234766, Roll : 0.0, Pitch : 0.0, Yaw : 0.0, Alt : 30.1000003815, Lat : 49.28357, Lng : -123.11502, Q1 : 1.0, Q2 : 0.0, Q3 : 0.0, Q4 : 0.0}
2019-04-14 11:21:40.91: SIM {TimeUS : 42334726, Roll : 0.0, Pitch : 0.0, Yaw : 0.0, Alt : 30.1000003815, Lat : 49.28357, Lng : -123.11502, Q1 : 1.0, Q2 : 0.0, Q3 : 0.0, Q4 : 0.0}
2019-04-14 11:21:41.02: SIM {TimeUS : 42435519, Roll : 0.0, Pitch : 0.0, Yaw : 0.0, Alt : 30.1000003815, Lat : 49.28357, Lng : -123.11502, Q1 : 1.0, Q2 : 0.0, Q3 : 0.0, Q4 : 0.0}
2019-04-14 11:21:41.11: SIM {TimeUS : 42535479, Roll : 0.0, Pitch : 0.0, Yaw : 0.0, Alt : 30.1000003815, Lat : 49.28357, Lng : -123.11502, Q1 : 1.0, Q2 : 0.0, Q3 : 0.0, Q4 : 0.0}
2019-04-14 11:21:41.21: SIM {TimeUS : 42635439, Roll : 0.0, Pitch : 0.0, Yaw : 0.0, Alt : 30.1000003815, Lat : 49.28357, Lng : -123.11502, Q1 : 1.0, Q2 : 0.0, Q3 : 0.0, Q4 : 1.56407300306e-11}
2019-04-14 11:21:41.31: SIM {TimeUS : 42735399, Roll : 0.0, Pitch : 0.0, Yaw : 360.0, Alt : 30.1000003815, Lat : 49.28357, Lng : -123.11502, Q1 : 1.0, Q2 : 0.0, Q3 : 0.0, Q4 : -2.38367370287e-08}
2019-04-14 11:21:41.41: SIM {TimeUS : 42835359, Roll : 0.0, Pitch : 0.0, Yaw : 360.0, Alt : 30.1000003815, Lat : 49.28357, Lng : -123.11502, Q1 : 1.0, Q2 : 0.0, Q3 : 0.0, Q4 : -1.67983728261e-07}
2019-04-14 11:21:41.51: SIM {TimeUS : 42935319, Roll : 0.0, Pitch : 0.0, Yaw : 359.99, Alt : 30.1000003815, Lat : 49.28357, Lng : -123.11502, Q1 : 1.0, Q2 : 0.0, Q3 : 0.0, Q4 : -3.62560570011e-07}
2019-04-14 11:21:41.61: SIM {TimeUS : 43035279, Roll : 0.0, Pitch : 0.0, Yaw : 359.99, Alt : 30.1000003815, Lat : 49.28357, Lng : -123.11502, Q1 : 1.0, Q2 : 0.0, Q3 : 0.0, Q4 : -5.34735249857e-07}
2019-04-14 11:21:41.71: SIM {TimeUS : 43135239, Roll : 0.0, Pitch : 0.0, Yaw : 359.99, Alt : 30.1000003815, Lat : 49.28357, Lng : -123.11502, Q1 : 1.0, Q2 : 0.0, Q3 : 0.0, Q4 : -7.52082826239e-07}
2019-04-14 11:21:41.81: SIM {TimeUS : 43235199, Roll : 0.0, Pitch : 0.0, Yaw : 359.99, Alt : 30.1000003815, Lat : 49.28357, Lng : -123.11502, Q1 : 1.0, Q2 : 0.0, Q3 : 0.0, Q4 : -9.53128051151e-07}
2019-04-14 11:21:41.91: SIM {TimeUS : 43335159, Roll : 0.0, Pitch : 0.0, Yaw : 359.99, Alt : 30.1000003815, Lat : 49.28357, Lng : -123.11502, Q1 : 1.0, Q2 : 0.0, Q3 : 0.0, Q4 : -1.08880419702e-06}
2019-04-14 11:21:42.01: SIM {TimeUS : 43435119, Roll : 0.0, Pitch : 0.0, Yaw : 359.99, Alt : 30.1000003815, Lat : 49.28357, Lng : -123.11502, Q1 : 1.0, Q2 : 0.0, Q3 : 0.0, Q4 : -1.28487442907e-06}
2019-04-14 11:21:42.11: SIM {TimeUS : 43535079, Roll : 0.0, Pitch : 0.0, Yaw : 359.99, Alt : 30.1200008392, Lat : 49.28357, Lng : -123.11502, Q1 : 1.0, Q2 : 0.0, Q3 : 0.0, Q4 : -1.5074217572e-06}
2019-04-14 11:21:42.21: SIM {TimeUS : 43635039, Roll : 0.0, Pitch : 0.0, Yaw : 359.99, Alt : 30.1399993896, Lat : 49.28357, Lng : -123.11502, Q1 : 1.0, Q2 : 0.0, Q3 : 0.0, Q4 : -1.68541930634e-06}
2019-04-14 11:21:42.31: SIM {TimeUS : 43734999, Roll : 0.0, Pitch : 0.0, Yaw : 359.99, Alt : 30.1800003052, Lat : 49.28357, Lng : -123.11502, Q1 : 1.0, Q2 : 0.0, Q3 : 0.0, Q4 : -1.89628758562e-06}
2019-04-14 11:21:42.41: SIM {TimeUS : 43834959, Roll : 0.0, Pitch : 0.0, Yaw : 359.99, Alt : 30.2099990845, Lat : 49.28357, Lng : -123.11502, Q1 : 1.0, Q2 : -8.46957300382e-06, Q3 : -6.59221677779e-06, Q4 : -2.11611222767e-06}
2019-04-14 11:21:42.51: SIM {TimeUS : 43934919, Roll : -0.18, Pitch : -0.16, Yaw : 359.99, Alt : 30.2700004578, Lat : 49.28357, Lng : -123.11502, Q1 : 0.999997675419, Q2 : -0.00164274044801, Q3 : -0.00141441798769, Q4 : -1.7335449229e-05}
2019-04-14 11:21:42.61: SIM {TimeUS : 44034879, Roll : -0.5, Pitch : -0.44, Yaw : 359.99, Alt : 30.3899993896, Lat : 49.28357, Lng : -123.11502, Q1 : 0.999982714653, Q2 : -0.00439850986004, Q3 : -0.0039099813439, Q4 : -5.79526349611e-05}
2019-04-14 11:21:42.71: SIM {TimeUS : 44134839, Roll : -0.76, Pitch : -0.68, Yaw : 359.99, Alt : 30.5400009155, Lat : 49.28357, Lng : -123.11502, Q1 : 0.999959766865, Q2 : -0.00665753427893, Q3 : -0.00601142039523, Q4 : -0.000119456228276}
2019-04-14 11:21:42.81: SIM {TimeUS : 44234799, Roll : -0.87, Pitch : -0.78, Yaw : 359.98, Alt : 30.7000007629, Lat : 49.28357, Lng : -123.11502, Q1 : 0.99994713068, Q2 : -0.0076446281746, Q3 : -0.00687191262841, Q4 : -0.000196801891434}
2019-04-14 11:21:42.91: SIM {TimeUS : 44334759, Roll : -0.82, Pitch : -0.74, Yaw : 359.97, Alt : 30.8500003815, Lat : 49.28357, Lng : -123.1150201, Q1 : 0.999952912331, Q2 : -0.00723917316645, Q3 : -0.00645807711408, Q4 : -0.000284307228867}
2019-04-14 11:21:43.01: SIM {TimeUS : 44434719, Roll : -0.64, Pitch : -0.59, Yaw : 359.96, Alt : 31.0100002289, Lat : 49.28357, Lng : -123.1150201, Q1 : 0.999970734119, Q2 : -0.00559368077666, Q3 : -0.00521089462563, Q4 : -0.000365983811207}
2019-04-14 11:21:43.12: SIM {TimeUS : 44535512, Roll : -0.39, Pitch : -0.39, Yaw : 359.95, Alt : 31.1599998474, Lat : 49.2835701, Lng : -123.1150202, Q1 : 0.999988079071, Q2 : -0.00344784744084, Q3 : -0.00343121681362, Q4 : -0.000441441341536}
2019-04-14 11:21:43.21: SIM {TimeUS : 44635472, Roll : -0.18, Pitch : -0.18, Yaw : 359.94, Alt : 31.3199996948, Lat : 49.2835701, Lng : -123.1150203, Q1 : 0.999997258186, Q2 : -0.00158726691734, Q3 : -0.00163764960598, Q4 : -0.000503976771142}
2019-04-14 11:21:43.31: SIM {TimeUS : 44735432, Roll : -0.02, Pitch : -0.03, Yaw : 359.93, Alt : 31.4899997711, Lat : 49.2835702, Lng : -123.1150204, Q1 : 0.999999761581, Q2 : -0.000252749567153, Q3 : -0.000292157114018, Q4 : -0.000548951269593}
2019-04-14 11:21:43.41: SIM {TimeUS : 44835392, Roll : 0.05, Pitch : 0.04, Yaw : 359.93, Alt : 31.6700000763, Lat : 49.2835702, Lng : -123.1150205, Q1 : 0.999999642372, Q2 : 0.000464150740299, Q3 : 0.000414144044043, Q4 : -0.000575390760787}
2019-04-14 11:21:43.51: SIM {TimeUS : 44935352, Roll : 0.08, Pitch : 0.06, Yaw : 359.93, Alt : 31.8500003815, Lat : 49.2835703, Lng : -123.1150205, Q1 : 0.999999403954, Q2 : 0.000721016142052, Q3 : 0.000590214505792, Q4 : -0.00059293245431}
2019-04-14 11:21:43.61: SIM {TimeUS : 45035312, Roll : 0.09, Pitch : 0.05, Yaw : 359.93, Alt : 32.0299987793, Lat : 49.2835703, Lng : -123.1150206, Q1 : 0.999999403954, Q2 : 0.000808770069852, Q3 : 0.000485892000142, Q4 : -0.000592811906245}
2019-04-14 11:21:43.71: SIM {TimeUS : 45135272, Roll : 0.09, Pitch : 0.03, Yaw : 359.93, Alt : 32.2200012207, Lat : 49.2835703, Lng : -123.1150207, Q1 : 0.999999463558, Q2 : 0.00079648004612, Q3 : 0.000280848704278, Q4 : -0.000576486287173}
2019-04-14 11:21:43.81: SIM {TimeUS : 45235232, Roll : 0.08, Pitch : 0.02, Yaw : 359.93, Alt : 32.4099998474, Lat : 49.2835703, Lng : -123.1150207, Q1 : 0.999999523163, Q2 : 0.000724365992937, Q3 : 0.000258770072833, Q4 : -0.000550615543034}
2019-04-14 11:21:43.91: SIM {TimeUS : 45335192, Roll : 0.08, Pitch : 0.05, Yaw : 359.93, Alt : 32.5999984741, Lat : 49.2835703, Lng : -123.1150207, Q1 : 0.999999463558, Q2 : 0.000713775632903, Q3 : 0.000520119559951, Q4 : -0.000537819752935}
2019-04-14 11:21:44.01: SIM {TimeUS : 45435152, Roll : 0.08, Pitch : 0.1, Yaw : 359.94, Alt : 32.7999992371, Lat : 49.2835704, Lng : -123.1150208, Q1 : 0.999999165535, Q2 : 0.000748974212911, Q3 : 0.000915413314942, Q4 : -0.000523404683918}
2019-04-14 11:21:44.11: SIM {TimeUS : 45535112, Roll : 0.11, Pitch : 0.15, Yaw : 359.94, Alt : 33.0, Lat : 49.2835704, Lng : -123.1150208, Q1 : 0.999998509884, Q2 : 0.000990233733319, Q3 : 0.00135148095433, Q4 : -0.000502790382598}
2019-04-14 11:21:44.21: SIM {TimeUS : 45635072, Roll : 0.15, Pitch : 0.18, Yaw : 359.94, Alt : 33.2000007629, Lat : 49.2835704, Lng : -123.1150208, Q1 : 0.999997794628, Q2 : 0.00132672220934, Q3 : 0.00157757557463, Q4 : -0.000480462302221}
2019-04-14 11:21:44.31: SIM {TimeUS : 45735032, Roll : 0.16, Pitch : 0.18, Yaw : 359.94, Alt : 33.4000015259, Lat : 49.2835704, Lng : -123.1150209, Q1 : 0.999997437, Q2 : 0.00148354389239, Q3 : 0.00164824863896, Q4 : -0.000475208449643}
2019-04-14 11:21:44.41: SIM {TimeUS : 45834992, Roll : 0.16, Pitch : 0.19, Yaw : 359.94, Alt : 33.6100006104, Lat : 49.2835704, Lng : -123.1150209, Q1 : 0.999997377396, Q2 : 0.0014702702174, Q3 : 0.00170707632788, Q4 : -0.000474956963444}
2019-04-14 11:21:44.51: SIM {TimeUS : 45934952, Roll : 0.16, Pitch : 0.16, Yaw : 359.94, Alt : 33.8199996948, Lat : 49.2835704, Lng : -123.1150209, Q1 : 0.999997854233, Q2 : 0.0014164383756, Q3 : 0.00142205087468, Q4 : -0.000499264453538}
2019-04-14 11:21:44.61: SIM {TimeUS : 46034912, Roll : 0.15, Pitch : 0.12, Yaw : 359.93, Alt : 34.0200004578, Lat : 49.2835706, Lng : -123.1150209, Q1 : 0.999998450279, Q2 : 0.00131356238853, Q3 : 0.00104713346809, Q4 : -0.000532440841198}
2019-04-14 11:21:44.71: SIM {TimeUS : 46134872, Roll : 0.13, Pitch : 0.09, Yaw : 359.93, Alt : 34.2299995422, Lat : 49.2835706, Lng : -123.1150209, Q1 : 0.999998807907, Q2 : 0.00115960871335, Q3 : 0.00084274582332, Q4 : -0.000572438468225}
2019-04-14 11:21:44.81: SIM {TimeUS : 46234832, Roll : 0.12, Pitch : 0.08, Yaw : 359.93, Alt : 34.4500007629, Lat : 49.2835706, Lng : -123.1150209, Q1 : 0.999998986721, Q2 : 0.0010657509556, Q3 : 0.000758781447075, Q4 : -0.000611585157458}
2019-04-14 11:21:44.91: SIM {TimeUS : 46334792, Roll : 0.11, Pitch : 0.08, Yaw : 359.92, Alt : 34.6599998474, Lat : 49.2835706, Lng : -123.1150209, Q1 : 0.999998927116, Q2 : 0.0010437349556, Q3 : 0.000765267701354, Q4 : -0.000645798281766}
2019-04-14 11:21:45.01: SIM {TimeUS : 46434752, Roll : 0.1, Pitch : 0.07, Yaw : 359.92, Alt : 34.8699989319, Lat : 49.2835706, Lng : -123.1150209, Q1 : 0.99999910593, Q2 : 0.000957227835897, Q3 : 0.000642300758045, Q4 : -0.00066793768201}
2019-04-14 11:21:45.11: SIM {TimeUS : 46534712, Roll : 0.08, Pitch : 0.06, Yaw : 359.92, Alt : 35.0900001526, Lat : 49.2835706, Lng : -123.1150208, Q1 : 0.999999344349, Q2 : 0.000738517614082, Q3 : 0.000547759991605, Q4 : -0.000682414043695}
2019-04-14 11:21:45.22: SIM {TimeUS : 46635505, Roll : 0.05, Pitch : 0.06, Yaw : 359.92, Alt : 35.3100013733, Lat : 49.2835706, Lng : -123.1150208, Q1 : 0.999999463558, Q2 : 0.000507196993567, Q3 : 0.000546485011, Q4 : -0.00069229217479}
2019-04-14 11:21:45.31: SIM {TimeUS : 46735465, Roll : 0.03, Pitch : 0.07, Yaw : 359.92, Alt : 35.5299987793, Lat : 49.2835706, Lng : -123.1150208, Q1 : 0.999999523163, Q2 : 0.00031340419082, Q3 : 0.000615265453234, Q4 : -0.000695971073583}
2019-04-14 11:21:45.41: SIM {TimeUS : 46835425, Roll : 0.02, Pitch : 0.05, Yaw : 359.92, Alt : 35.75, Lat : 49.2835706, Lng : -123.1150208, Q1 : 0.999999642372, Q2 : 0.00022249558242, Q3 : 0.000499461428262, Q4 : -0.000694687245414}
2019-04-14 11:21:45.51: SIM {TimeUS : 46935385, Roll : 0.01, Pitch : 0.04, Yaw : 359.92, Alt : 35.9700012207, Lat : 49.2835706, Lng : -123.1150208, Q1 : 0.999999642372, Q2 : 0.000162365307915, Q3 : 0.000410436157836, Q4 : -0.000695410883054}
2019-04-14 11:21:45.61: SIM {TimeUS : 47035345, Roll : 0.0, Pitch : 0.04, Yaw : 359.91, Alt : 36.1899986267, Lat : 49.2835704, Lng : -123.1150207, Q1 : 0.999999701977, Q2 : 2.87081948045e-05, Q3 : 0.000367710599676, Q4 : -0.000704532605596}
2019-04-14 11:21:45.71: SIM {TimeUS : 47135305, Roll : 0.0, Pitch : 0.03, Yaw : 359.91, Alt : 36.4099998474, Lat : 49.2835704, Lng : -123.1150207, Q1 : 0.999999701977, Q2 : -1.25025380839e-05, Q3 : 0.000340497063007, Q4 : -0.00071994465543}
2019-04-14 11:21:45.81: SIM {TimeUS : 47235265, Roll : 0.0, Pitch : 0.03, Yaw : 359.91, Alt : 36.6300010681, Lat : 49.2835704, Lng : -123.1150207, Q1 : 0.999999701977, Q2 : 8.12539583421e-05, Q3 : 0.000264401809545, Q4 : -0.000739210634492}
2019-04-14 11:21:45.91: SIM {TimeUS : 47335225, Roll : 0.0, Pitch : 0.01, Yaw : 359.91, Alt : 36.8499984741, Lat : 49.2835704, Lng : -123.1150207, Q1 : 0.999999701977, Q2 : 2.67665764113e-05, Q3 : 0.000128490632051, Q4 : -0.000763770192862}
2019-04-14 11:21:46.01: SIM {TimeUS : 47435185, Roll : -0.02, Pitch : -0.01, Yaw : 359.9, Alt : 37.0800018311, Lat : 49.2835704, Lng : -123.1150207, Q1 : 0.999999642372, Q2 : -0.00023300506291, Q3 : -9.44105631788e-05, Q4 : -0.000802010705229}
2019-04-14 11:21:46.11: SIM {TimeUS : 47535145, Roll : -0.06, Pitch : -0.03, Yaw : 359.9, Alt : 37.2999992371, Lat : 49.2835704, Lng : -123.1150207, Q1 : 0.999999403954, Q2 : -0.000605231325608, Q3 : -0.000286667898763, Q4 : -0.000846660055686}
2019-04-14 11:21:46.21: SIM {TimeUS : 47635105, Roll : -0.1, Pitch : -0.05, Yaw : 359.89, Alt : 37.5299987793, Lat : 49.2835704, Lng : -123.1150207, Q1 : 0.99999910593, Q2 : -0.000917494879104, Q3 : -0.000441578158643, Q4 : -0.000890695431735}
2019-04-14 11:21:46.31: SIM {TimeUS : 47735065, Roll : -0.12, Pitch : -0.06, Yaw : 359.89, Alt : 37.75, Lat : 49.2835704, Lng : -123.1150207, Q1 : 0.999998807907, Q2 : -0.00109676516149, Q3 : -0.000567786861211, Q4 : -0.000934177835006}
2019-04-14 11:21:46.41: SIM {TimeUS : 47835025, Roll : -0.13, Pitch : -0.06, Yaw : 359.88, Alt : 37.9799995422, Lat : 49.2835704, Lng : -123.1150206, Q1 : 0.999998688698, Q2 : -0.00115753163118, Q3 : -0.000584135472309, Q4 : -0.000971707631834}
2019-04-14 11:21:46.51: SIM {TimeUS : 47934985, Roll : -0.11, Pitch : -0.04, Yaw : 359.88, Alt : 38.2099990845, Lat : 49.2835704, Lng : -123.1150206, Q1 : 0.999998867512, Q2 : -0.00103364384267, Q3 : -0.000414356123656, Q4 : -0.0010022316128}
2019-04-14 11:21:46.61: SIM {TimeUS : 48034945, Roll : -0.09, Pitch : -0.04, Yaw : 359.88, Alt : 38.4399986267, Lat : 49.2835704, Lng : -123.1150206, Q1 : 0.99999910593, Q2 : -0.000786537944805, Q3 : -0.000352160568582, Q4 : -0.00103019434027}
2019-04-14 11:21:46.71: SIM {TimeUS : 48134905, Roll : -0.07, Pitch : -0.04, Yaw : 359.87, Alt : 38.6599998474, Lat : 49.2835704, Lng : -123.1150206, Q1 : 0.99999910593, Q2 : -0.000663677987177, Q3 : -0.00040415051626, Q4 : -0.00106088502798}
2019-04-14 11:21:46.81: SIM {TimeUS : 48234865, Roll : -0.07, Pitch : -0.03, Yaw : 359.87, Alt : 38.8899993896, Lat : 49.2835704, Lng : -123.1150206, Q1 : 0.999999165535, Q2 : -0.000624609878287, Q3 : -0.000311095267534, Q4 : -0.00108085630927}
2019-04-14 11:21:46.91: SIM {TimeUS : 48334825, Roll : -0.08, Pitch : -0.01, Yaw : 359.87, Alt : 39.1199989319, Lat : 49.2835704, Lng : -123.1150206, Q1 : 0.99999910593, Q2 : -0.00074981211219, Q3 : -0.000167218764545, Q4 : -0.00109499692917}
2019-04-14 11:21:47.01: SIM {TimeUS : 48434785, Roll : -0.08, Pitch : 0.0, Yaw : 359.87, Alt : 39.3499984741, Lat : 49.2835704, Lng : -123.1150206, Q1 : 0.99999910593, Q2 : -0.000746987818275, Q3 : -2.74981284747e-05, Q4 : -0.00110520981252}
2019-04-14 11:21:47.11: SIM {TimeUS : 48534745, Roll : -0.06, Pitch : 0.02, Yaw : 359.87, Alt : 39.5800018311, Lat : 49.2835704, Lng : -123.1150206, Q1 : 0.99999922514, Q2 : -0.000599819060881, Q3 : 0.000190354214283, Q4 : -0.00110913347453}
2019-04-14 11:21:47.21: SIM {TimeUS : 48634705, Roll : -0.04, Pitch : 0.02, Yaw : 359.87, Alt : 39.8100013733, Lat : 49.2835704, Lng : -123.1150207, Q1 : 0.999999284744, Q2 : -0.000413659028709, Q3 : 0.000227509779506, Q4 : -0.00110097613651}
2019-04-14 11:21:47.32: SIM {TimeUS : 48735498, Roll : -0.02, Pitch : 0.02, Yaw : 359.87, Alt : 40.0499992371, Lat : 49.2835704, Lng : -123.1150207, Q1 : 0.999999403954, Q2 : -0.000176169516635, Q3 : 0.000210063662962, Q4 : -0.00108971376903}
2019-04-14 11:21:47.41: SIM {TimeUS : 48835458, Roll : 0.01, Pitch : 0.03, Yaw : 359.87, Alt : 40.2799987793, Lat : 49.2835704, Lng : -123.1150207, Q1 : 0.999999344349, Q2 : 0.000116333292681, Q3 : 0.0003481687163, Q4 : -0.0010768789798}
2019-04-14 11:21:47.51: SIM {TimeUS : 48935418, Roll : 0.05, Pitch : 0.07, Yaw : 359.87, Alt : 40.5099983215, Lat : 49.2835704, Lng : -123.1150207, Q1 : 0.99999910593, Q2 : 0.000504788185935, Q3 : 0.000642314436845, Q4 : -0.00107244518586}
2019-04-14 11:21:47.61: SIM {TimeUS : 49035378, Roll : 0.09, Pitch : 0.1, Yaw : 359.87, Alt : 40.7400016785, Lat : 49.2835704, Lng : -123.1150207, Q1 : 0.999998688698, Q2 : 0.000807980482932, Q3 : 0.000933181785513, Q4 : -0.00108502875082}
2019-04-14 11:21:47.71: SIM {TimeUS : 49135338, Roll : 0.08, Pitch : 0.12, Yaw : 359.87, Alt : 40.9799995422, Lat : 49.2835704, Lng : -123.1150207, Q1 : 0.999998450279, Q2 : 0.000776769884396, Q3 : 0.0011182220187, Q4 : -0.00110031676013}
2019-04-14 11:21:47.81: SIM {TimeUS : 49235298, Roll : 0.04, Pitch : 0.13, Yaw : 359.87, Alt : 41.2099990845, Lat : 49.2835706, Lng : -123.1150207, Q1 : 0.999998569489, Q2 : 0.000386394502129, Q3 : 0.00121270085219, Q4 : -0.00112387072295}
2019-04-14 11:21:47.91: SIM {TimeUS : 49335258, Roll : 0.0, Pitch : 0.14, Yaw : 359.86, Alt : 41.4399986267, Lat : 49.2835706, Lng : -123.1150207, Q1 : 0.999998569489, Q2 : -1.04718556031e-05, Q3 : 0.0012270010775, Q4 : -0.00115282763727}
2019-04-14 11:21:48.01: SIM {TimeUS : 49435218, Roll : -0.02, Pitch : 0.11, Yaw : 359.86, Alt : 41.6699981689, Lat : 49.2835706, Lng : -123.1150207, Q1 : 0.999998807907, Q2 : -0.000218949659029, Q3 : 0.00098136253655, Q4 : -0.00118549377657}
2019-04-14 11:21:48.11: SIM {TimeUS : 49535178, Roll : -0.02, Pitch : 0.07, Yaw : 359.85, Alt : 41.9099998474, Lat : 49.2835706, Lng : -123.1150207, Q1 : 0.999999046326, Q2 : -0.000244654598646, Q3 : 0.000630740425549, Q4 : -0.00122403679416}
2019-04-14 11:21:48.21: SIM {TimeUS : 49635138, Roll : -0.01, Pitch : 0.06, Yaw : 359.85, Alt : 42.1399993896, Lat : 49.2835706, Lng : -123.1150207, Q1 : 0.999999046326, Q2 : -0.000134620757308, Q3 : 0.000541148125194, Q4 : -0.00127200689167}
2019-04-14 11:21:48.31: SIM {TimeUS : 49735098, Roll : 0.02, Pitch : 0.07, Yaw : 359.84, Alt : 42.3800010681, Lat : 49.2835706, Lng : -123.1150207, Q1 : 0.999998927116, Q2 : 0.000198875670321, Q3 : 0.000613014271948, Q4 : -0.00132713897619}
2019-04-14 11:21:48.41: SIM {TimeUS : 49835058, Roll : 0.07, Pitch : 0.08, Yaw : 359.84, Alt : 42.6100006104, Lat : 49.2835706, Lng : -123.1150207, Q1 : 0.999998569489, Q2 : 0.000686759478413, Q3 : 0.000701892538927, Q4 : -0.00137638917658}
2019-04-14 11:21:48.51: SIM {TimeUS : 49935018, Roll : 0.11, Pitch : 0.07, Yaw : 359.83, Alt : 42.8499984741, Lat : 49.2835704, Lng : -123.1150207, Q1 : 0.999998211861, Q2 : 0.00102944741957, Q3 : 0.000656333926599, Q4 : -0.00142636662349}
2019-04-14 11:21:48.61: SIM {TimeUS : 50034978, Roll : 0.11, Pitch : 0.06, Yaw : 359.83, Alt : 43.0800018311, Lat : 49.2835704, Lng : -123.1150207, Q1 : 0.999998271465, Q2 : 0.00102553155739, Q3 : 0.000549288932234, Q4 : -0.00146656273864}
2019-04-14 11:21:48.71: SIM {TimeUS : 50134938, Roll : 0.07, Pitch : 0.05, Yaw : 359.83, Alt : 43.3199996948, Lat : 49.2835704, Lng : -123.1150207, Q1 : 0.999998569489, Q2 : 0.000635245232843, Q3 : 0.00051942555001, Q4 : -0.00148307101335}
2019-04-14 11:21:48.81: SIM {TimeUS : 50234898, Roll : 0.01, Pitch : 0.06, Yaw : 359.82, Alt : 43.5499992371, Lat : 49.2835704, Lng : -123.1150207, Q1 : 0.999998688698, Q2 : 9.46534200921e-05, Q3 : 0.000581230677199, Q4 : -0.00148763682228}
2019-04-14 11:21:48.91: SIM {TimeUS : 50334858, Roll : -0.03, Pitch : 0.08, Yaw : 359.82, Alt : 43.7900009155, Lat : 49.2835704, Lng : -123.1150207, Q1 : 0.999998569489, Q2 : -0.000299847481074, Q3 : 0.000776978908107, Q4 : -0.00149078387767}
2019-04-14 11:21:49.01: SIM {TimeUS : 50434818, Roll : -0.05, Pitch : 0.09, Yaw : 359.82, Alt : 44.0200004578, Lat : 49.2835704, Lng : -123.1150207, Q1 : 0.999998390675, Q2 : -0.000477457011584, Q3 : 0.000864478992298, Q4 : -0.00149606063496}
2019-04-14 11:21:49.11: SIM {TimeUS : 50534778, Roll : -0.04, Pitch : 0.08, Yaw : 359.82, Alt : 44.2599983215, Lat : 49.2835704, Lng : -123.1150207, Q1 : 0.999998569489, Q2 : -0.000401702593081, Q3 : 0.000705475453287, Q4 : -0.00150491436943}
2019-04-14 11:21:49.21: SIM {TimeUS : 50634738, Roll : -0.04, Pitch : 0.05, Yaw : 359.82, Alt : 44.5, Lat : 49.2835704, Lng : -123.1150207, Q1 : 0.999998629093, Q2 : -0.000381022458896, Q3 : 0.00048268478713, Q4 : -0.00151737278793}
2019-04-14 11:21:49.31: SIM {TimeUS : 50734698, Roll : -0.03, Pitch : 0.02, Yaw : 359.82, Alt : 44.7299995422, Lat : 49.2835704, Lng : -123.1150206, Q1 : 0.999998748302, Q2 : -0.000317719997838, Q3 : 0.000261714070803, Q4 : -0.00153214810416}
2019-04-14 11:21:49.41: SIM {TimeUS : 50835491, Roll : -0.02, Pitch : 0.0, Yaw : 359.82, Alt : 44.9700012207, Lat : 49.2835704, Lng : -123.1150206, Q1 : 0.999998748302, Q2 : -0.000208979501622, Q3 : 8.24878006824e-05, Q4 : -0.00155268318485}
2019-04-14 11:21:49.51: SIM {TimeUS : 50935451, Roll : -0.02, Pitch : 0.0, Yaw : 359.81, Alt : 45.2099990845, Lat : 49.2835704, Lng : -123.1150206, Q1 : 0.999998748302, Q2 : -0.000185017721378, Q3 : 4.12815688833e-06, Q4 : -0.00158102612477}
2019-04-14 11:21:49.61: SIM {TimeUS : 51035411, Roll : -0.02, Pitch : 0.0, Yaw : 359.81, Alt : 45.4399986267, Lat : 49.2835704, Lng : -123.1150206, Q1 : 0.999998688698, Q2 : -0.000216705477214, Q3 : -7.87395110819e-05, Q4 : -0.00161217548884}
2019-04-14 11:21:49.71: SIM {TimeUS : 51135371, Roll : -0.02, Pitch : -0.02, Yaw : 359.81, Alt : 45.6800003052, Lat : 49.2835704, Lng : -123.1150206, Q1 : 0.999998569489, Q2 : -0.000239318469539, Q3 : -0.000225329451496, Q4 : -0.00164346583188}
2019-04-14 11:21:49.81: SIM {TimeUS : 51235331, Roll : -0.02, Pitch : -0.03, Yaw : 359.8, Alt : 45.9099998474, Lat : 49.2835704, Lng : -123.1150206, Q1 : 0.999998509884, Q2 : -0.000218739543925, Q3 : -0.000301227264572, Q4 : -0.00167991337366}
2019-04-14 11:21:49.91: SIM {TimeUS : 51335291, Roll : -0.01, Pitch : -0.03, Yaw : 359.8, Alt : 46.1399993896, Lat : 49.2835704, Lng : -123.1150206, Q1 : 0.999998450279, Q2 : -0.000145817815792, Q3 : -0.000329054280883, Q4 : -0.00171781156678}
2019-04-14 11:21:50.01: SIM {TimeUS : 51435251, Roll : -0.01, Pitch : -0.03, Yaw : 359.79, Alt : 46.3699989319, Lat : 49.2835703, Lng : -123.1150206, Q1 : 0.999998390675, Q2 : -0.000164097014931, Q3 : -0.000279176369077, Q4 : -0.00175794831011}
2019-04-14 11:21:50.11: SIM {TimeUS : 51535211, Roll : -0.04, Pitch : -0.02, Yaw : 359.79, Alt : 46.5900001526, Lat : 49.2835703, Lng : -123.1150206, Q1 : 0.99999833107, Q2 : -0.000380261044484, Q3 : -0.000192805571714, Q4 : -0.00179864256643}
2019-04-14 11:21:50.21: SIM {TimeUS : 51635171, Roll : -0.08, Pitch : -0.01, Yaw : 359.78, Alt : 46.7999992371, Lat : 49.2835703, Lng : -123.1150206, Q1 : 0.999998033047, Q2 : -0.00072709628148, Q3 : -0.000122089113574, Q4 : -0.00183721154463}
2019-04-14 11:21:50.31: SIM {TimeUS : 51735131, Roll : -0.11, Pitch : 0.0, Yaw : 359.78, Alt : 47.0099983215, Lat : 49.2835703, Lng : -123.1150206, Q1 : 0.999997735023, Q2 : -0.000985005754046, Q3 : -6.34433527011e-05, Q4 : -0.00187018723227}
2019-04-14 11:21:50.41: SIM {TimeUS : 51835091, Roll : -0.11, Pitch : 0.0, Yaw : 359.78, Alt : 47.2200012207, Lat : 49.2835703, Lng : -123.1150206, Q1 : 0.999997615814, Q2 : -0.0010419205064, Q3 : 3.386856406e-05, Q4 : -0.00189952692017}
2019-04-14 11:21:50.51: SIM {TimeUS : 51935051, Roll : -0.1, Pitch : 0.02, Yaw : 359.77, Alt : 47.4099998474, Lat : 49.2835703, Lng : -123.1150206, Q1 : 0.999997675419, Q2 : -0.000936861441005, Q3 : 0.000226850650506, Q4 : -0.001923664473}
2019-04-14 11:21:50.61: SIM {TimeUS : 52035011, Roll : -0.08, Pitch : 0.03, Yaw : 359.77, Alt : 47.5999984741, Lat : 49.2835703, Lng : -123.1150206, Q1 : 0.999997794628, Q2 : -0.000740836316254, Q3 : 0.000319803715684, Q4 : -0.00194758095313}
2019-04-14 11:21:50.71: SIM {TimeUS : 52134971, Roll : -0.09, Pitch : 0.03, Yaw : 359.77, Alt : 47.7700004578, Lat : 49.2835703, Lng : -123.1150206, Q1 : 0.999997675419, Q2 : -0.00083135679597, Q3 : 0.000275485828752, Q4 : -0.00197131885216}
2019-04-14 11:21:50.81: SIM {TimeUS : 52234931, Roll : -0.1, Pitch : 0.01, Yaw : 359.77, Alt : 47.9399986267, Lat : 49.2835703, Lng : -123.1150206, Q1 : 0.99999755621, Q2 : -0.000928206427488, Q3 : 0.00012254237663, Q4 : -0.00199026265182}
2019-04-14 11:21:50.91: SIM {TimeUS : 52334891, Roll : -0.09, Pitch : -0.01, Yaw : 359.76, Alt : 48.0900001526, Lat : 49.2835703, Lng : -123.1150206, Q1 : 0.999997615814, Q2 : -0.000855919963215, Q3 : -0.000166177822393, Q4 : -0.00200777337886}
2019-04-14 11:21:51.01: SIM {TimeUS : 52434851, Roll : -0.06, Pitch : -0.05, Yaw : 359.76, Alt : 48.2299995422, Lat : 49.2835703, Lng : -123.1150206, Q1 : 0.999997675419, Q2 : -0.000611305178609, Q3 : -0.000439276365796, Q4 : -0.00202311901376}
2019-04-14 11:21:51.11: SIM {TimeUS : 52534811, Roll : -0.04, Pitch : -0.07, Yaw : 359.76, Alt : 48.3600006104, Lat : 49.2835703, Lng : -123.1150206, Q1 : 0.999997615814, Q2 : -0.000385446532164, Q3 : -0.000668736291118, Q4 : -0.0020399261266}
2019-04-14 11:21:51.21: SIM {TimeUS : 52634771, Roll : -0.03, Pitch : -0.09, Yaw : 359.76, Alt : 48.4799995422, Lat : 49.2835703, Lng : -123.1150206, Q1 : 0.999997496605, Q2 : -0.000282964552753, Q3 : -0.000819780922029, Q4 : -0.00205611134879}
2019-04-14 11:21:51.31: SIM {TimeUS : 52734731, Roll : 0.0, Pitch : -0.09, Yaw : 359.76, Alt : 48.5800018311, Lat : 49.2835703, Lng : -123.1150206, Q1 : 0.99999755621, Q2 : 3.89715569327e-06, Q3 : -0.000788476725575, Q4 : -0.00207743514329}
2019-04-14 11:21:51.42: SIM {TimeUS : 52835524, Roll : 0.03, Pitch : -0.07, Yaw : 359.75, Alt : 48.6699981689, Lat : 49.2835703, Lng : -123.1150206, Q1 : 0.999997496605, Q2 : 0.000331378629198, Q3 : -0.00066515931394, Q4 : -0.00210188352503}
2019-04-14 11:21:51.51: SIM {TimeUS : 52935484, Roll : 0.06, Pitch : -0.05, Yaw : 359.75, Alt : 48.75, Lat : 49.2835703, Lng : -123.1150206, Q1 : 0.999997496605, Q2 : 0.000537481624633, Q3 : -0.00047240513959, Q4 : -0.00213533593342}
2019-04-14 11:21:51.61: SIM {TimeUS : 53035444, Roll : 0.07, Pitch : -0.03, Yaw : 359.75, Alt : 48.8199996948, Lat : 49.2835703, Lng : -123.1150207, Q1 : 0.999997437, Q2 : 0.000625660002697, Q3 : -0.000274673919193, Q4 : -0.00217050779611}
2019-04-14 11:21:51.71: SIM {TimeUS : 53135404, Roll : 0.06, Pitch : -0.02, Yaw : 359.74, Alt : 48.8899993896, Lat : 49.2835703, Lng : -123.1150207, Q1 : 0.999997377396, Q2 : 0.000604457396548, Q3 : -0.000196835346287, Q4 : -0.00220570689999}
2019-04-14 11:21:51.81: SIM {TimeUS : 53235364, Roll : 0.05, Pitch : -0.03, Yaw : 359.74, Alt : 48.9399986267, Lat : 49.2835703, Lng : -123.1150207, Q1 : 0.999997317791, Q2 : 0.00046514859423, Q3 : -0.000324083142914, Q4 : -0.0022440655157}
2019-04-14 11:21:51.91: SIM {TimeUS : 53335324, Roll : 0.03, Pitch : -0.05, Yaw : 359.73, Alt : 48.9799995422, Lat : 49.2835703, Lng : -123.1150207, Q1 : 0.999997258186, Q2 : 0.000311769690597, Q3 : -0.000437822513049, Q4 : -0.00228532054462}
2019-04-14 11:21:52.01: SIM {TimeUS : 53435284, Roll : 0.12, Pitch : -0.1, Yaw : 359.73, Alt : 49.0200004578, Lat : 49.2835704, Lng : -123.1150207, Q1 : 0.999996304512, Q2 : 0.00106567610055, Q3 : -0.000936873315368, Q4 : -0.002328598639}
2019-04-14 11:21:52.11: SIM {TimeUS : 53535244, Roll : 0.4, Pitch : -0.29, Yaw : 359.72, Alt : 49.0499992371, Lat : 49.2835704, Lng : -123.1150207, Q1 : 0.999987542629, Q2 : 0.0035414302256, Q3 : -0.00261069228873, Q4 : -0.00236591580324}
2019-04-14 11:21:52.21: SIM {TimeUS : 53635204, Roll : 0.92, Pitch : -0.63, Yaw : 359.72, Alt : 49.0800018311, Lat : 49.2835704, Lng : -123.1150207, Q1 : 0.999949038029, Q2 : 0.00805165152997, Q3 : -0.00559613201767, Q4 : -0.00238134688698}
2019-04-14 11:21:52.31: SIM {TimeUS : 53735164, Roll : 1.66, Pitch : -1.1, Yaw : 359.71, Alt : 49.1100006104, Lat : 49.2835704, Lng : -123.1150207, Q1 : 0.999845266342, Q2 : 0.014471388422, Q3 : -0.0097140725702, Q4 : -0.00237453379668}
2019-04-14 11:21:52.41: SIM {TimeUS : 53835124, Roll : 2.52, Pitch : -1.67, Yaw : 359.69, Alt : 49.1300010681, Lat : 49.2835704, Lng : -123.1150206, Q1 : 0.999647378922, Q2 : 0.0220218952745, Q3 : -0.0146521031857, Q4 : -0.0023308317177}
2019-04-14 11:21:52.51: SIM {TimeUS : 53935084, Roll : 3.38, Pitch : -2.27, Yaw : 359.67, Alt : 49.1399993896, Lat : 49.2835706, Lng : -123.1150205, Q1 : 0.999363541603, Q2 : 0.0295150298625, Q3 : -0.0199112929404, Q4 : -0.00223173876293}
2019-04-14 11:21:52.61: SIM {TimeUS : 54035044, Roll : 4.1, Pitch : -2.79, Yaw : 359.66, Alt : 49.1599998474, Lat : 49.2835707, Lng : -123.1150203, Q1 : 0.999059796333, Q2 : 0.0357254110277, Q3 : -0.0244738347828, Q4 : -0.00207460508682}
2019-04-14 11:21:52.71: SIM {TimeUS : 54135004, Roll : 4.62, Pitch : -3.2, Yaw : 359.65, Alt : 49.1699981689, Lat : 49.2835708, Lng : -123.11502, Q1 : 0.998792469501, Q2 : 0.0402773022652, Q3 : -0.0280691124499, Q4 : -0.00186829955783}
2019-04-14 11:21:52.81: SIM {TimeUS : 54234964, Roll : 5.0, Pitch : -3.5, Yaw : 359.66, Alt : 49.1800003052, Lat : 49.2835709, Lng : -123.1150198, Q1 : 0.998575925827, Q2 : 0.0435841865838, Q3 : -0.0307233277708, Q4 : -0.00161904853303}
2019-04-14 11:21:52.91: SIM {TimeUS : 54334924, Roll : 5.3, Pitch : -3.73, Yaw : 359.67, Alt : 49.2000007629, Lat : 49.2835712, Lng : -123.1150193, Q1 : 0.998396754265, Q2 : 0.0462021753192, Q3 : -0.0326737612486, Q4 : -0.00132463802584}
2019-04-14 11:21:53.01: SIM {TimeUS : 54434884, Roll : 5.59, Pitch : -3.94, Yaw : 359.68, Alt : 49.2000007629, Lat : 49.2835714, Lng : -123.1150188, Q1 : 0.998218953609, Q2 : 0.0486544594169, Q3 : -0.0345054492354, Q4 : -0.00102422374766}
2019-04-14 11:21:53.11: SIM {TimeUS : 54534844, Roll : 5.9, Pitch : -4.15, Yaw : 359.7, Alt : 49.2099990845, Lat : 49.2835716, Lng : -123.1150182, Q1 : 0.998018324375, Q2 : 0.0513559617102, Q3 : -0.0363529287279, Q4 : -0.000729250023142}
2019-04-14 11:21:53.21: SIM {TimeUS : 54634804, Roll : 6.21, Pitch : -4.36, Yaw : 359.71, Alt : 49.2200012207, Lat : 49.283572, Lng : -123.1150174, Q1 : 0.997808992863, Q2 : 0.0540522113442, Q3 : -0.0381502844393, Q4 : -0.000443433498731}
2019-04-14 11:21:53.31: SIM {TimeUS : 54734764, Roll : 6.47, Pitch : -4.55, Yaw : 359.71, Alt : 49.2299995422, Lat : 49.2835724, Lng : -123.1150166, Q1 : 0.997617304325, Q2 : 0.0563238859177, Q3 : -0.0398418642581, Q4 : -0.000200485039386}
2019-04-14 11:21:53.41: SIM {TimeUS : 54834724, Roll : 6.67, Pitch : -4.71, Yaw : 359.72, Alt : 49.2299995422, Lat : 49.2835727, Lng : -123.1150157, Q1 : 0.9974604249, Q2 : 0.0580984503031, Q3 : -0.0411981455982, Q4 : 2.59368448496e-06}
2019-04-14 11:21:53.52: SIM {TimeUS : 54935517, Roll : 6.84, Pitch : -4.83, Yaw : 359.73, Alt : 49.2400016785, Lat : 49.2835733, Lng : -123.1150147, Q1 : 0.997333824635, Q2 : 0.0595211498439, Q3 : -0.042218644172, Q4 : 0.000169852399267}
2019-04-14 11:21:53.61: SIM {TimeUS : 55035477, Roll : 6.95, Pitch : -4.89, Yaw : 359.73, Alt : 49.2400016785, Lat : 49.2835738, Lng : -123.1150136, Q1 : 0.997253119946, Q2 : 0.0604733899236, Q3 : -0.042769100517, Q4 : 0.000300357234664}
2019-04-14 11:21:53.71: SIM {TimeUS : 55135437, Roll : 7.04, Pitch : -4.94, Yaw : 359.73, Alt : 49.25, Lat : 49.2835743, Lng : -123.1150124, Q1 : 0.997185945511, Q2 : 0.0612607821822, Q3 : -0.0432116650045, Q4 : 0.000379876059014}
2019-04-14 11:21:53.81: SIM {TimeUS : 55235397, Roll : 7.19, Pitch : -4.98, Yaw : 359.75, Alt : 49.25, Lat : 49.2835749, Lng : -123.1150111, Q1 : 0.997087478638, Q2 : 0.0626097172499, Q3 : -0.043546795845, Q4 : 0.000593781762291}
2019-04-14 11:21:53.91: SIM {TimeUS : 55335357, Roll : 7.58, Pitch : -4.86, Yaw : 0.08, Alt : 49.25, Lat : 49.2835756, Lng : -123.1150096, Q1 : 0.996909976006, Q2 : 0.0660892277956, Q3 : -0.0423110574484, Q4 : 0.0035380795598}
2019-04-14 11:21:54.01: SIM {TimeUS : 55435317, Roll : 8.18, Pitch : -4.65, Yaw : 1.37, Alt : 49.2599983215, Lat : 49.2835762, Lng : -123.1150083, Q1 : 0.99652338028, Q2 : 0.0717573165894, Q3 : -0.0396396145225, Q4 : 0.0148562286049}
2019-04-14 11:21:54.11: SIM {TimeUS : 55535277, Roll : 8.75, Pitch : -4.71, Yaw : 4.16, Alt : 49.2599983215, Lat : 49.2835769, Lng : -123.1150067, Q1 : 0.995469868183, Q2 : 0.0776669159532, Q3 : -0.038236182183, Q4 : 0.0393137000501}
2019-04-14 11:21:54.21: SIM {TimeUS : 55635237, Roll : 9.04, Pitch : -5.27, Yaw : 8.52, Alt : 49.2599983215, Lat : 49.2835776, Lng : -123.115005, Q1 : 0.992808520794, Q2 : 0.0819608271122, Q3 : -0.039909042418, Q4 : 0.0775948315859}
2019-04-14 11:21:54.31: SIM {TimeUS : 55735197, Roll : 8.87, Pitch : -6.34, Yaw : 14.27, Alt : 49.2599983215, Lat : 49.2835782, Lng : -123.1150033, Q1 : 0.987226486206, Q2 : 0.0835177898407, Q3 : -0.0451662428677, Q4 : 0.127939924598}
2019-04-14 11:21:54.41: SIM {TimeUS : 55835157, Roll : 8.11, Pitch : -7.78, Yaw : 21.18, Alt : 49.2599983215, Lat : 49.2835789, Lng : -123.1150014, Q1 : 0.977357208729, Q2 : 0.0818385407329, Q3 : -0.0535823404789, Q4 : 0.187627986073}
2019-04-14 11:21:54.51: SIM {TimeUS : 55935117, Roll : 6.73, Pitch : -9.37, Yaw : 28.98, Alt : 49.2700004578, Lat : 49.2835798, Lng : -123.1149993, Q1 : 0.962079823017, Q2 : 0.077059186995, Q3 : -0.064347140491, Q4 : 0.253621280193}
2019-04-14 11:21:54.61: SIM {TimeUS : 56035077, Roll : 4.78, Pitch : -10.88, Yaw : 37.42, Alt : 49.2700004578, Lat : 49.2835806, Lng : -123.1149972, Q1 : 0.940769314766, Q2 : 0.0697985887527, Q3 : -0.0764251574874, Q4 : 0.322863012552}
2019-04-14 11:21:54.71: SIM {TimeUS : 56135037, Roll : 2.25, Pitch : -12.12, Yaw : 46.18, Alt : 49.2700004578, Lat : 49.2835813, Lng : -123.1149949, Q1 : 0.913748323917, Q2 : 0.059386625886, Q3 : -0.0895083099604, Q4 : 0.391823321581}
2019-04-14 11:21:54.81: SIM {TimeUS : 56234997, Roll : -0.85, Pitch : -12.89, Yaw : 54.55, Alt : 49.2700004578, Lat : 49.2835822, Lng : -123.1149926, Q1 : 0.883549213409, Q2 : 0.0449065417051, Q3 : -0.103217765689, Q4 : 0.454610019922}
2019-04-14 11:21:54.91: SIM {TimeUS : 56334957, Roll : -3.98, Pitch : -13.12, Yaw : 61.63, Alt : 49.2700004578, Lat : 49.2835831, Lng : -123.1149902, Q1 : 0.854689240456, Q2 : 0.0288065001369, Q3 : -0.115773230791, Q4 : 0.505245566368}
2019-04-14 11:21:55.01: SIM {TimeUS : 56434917, Roll : -6.5, Pitch : -12.95, Yaw : 66.8, Alt : 49.2700004578, Lat : 49.2835842, Lng : -123.1149877, Q1 : 0.831704497337, Q2 : 0.0149101959541, Q3 : -0.12507532537, Q4 : 0.540741622448}
2019-04-14 11:21:55.11: SIM {TimeUS : 56534877, Roll : -7.99, Pitch : -12.69, Yaw : 69.86, Alt : 49.2700004578, Lat : 49.2835853, Lng : -123.1149851, Q1 : 0.817246198654, Q2 : 0.00632821861655, Q3 : -0.130073592067, Q4 : 0.561381757259}
2019-04-14 11:21:55.21: SIM {TimeUS : 56634837, Roll : -8.4, Pitch : -12.56, Yaw : 71.0, Alt : 49.2700004578, Lat : 49.2835865, Lng : -123.1149825, Q1 : 0.811657547951, Q2 : 0.00412113824859, Q3 : -0.13113963604, Q4 : 0.569207727909}
2019-04-14 11:21:55.31: SIM {TimeUS : 56734797, Roll : -7.87, Pitch : -12.7, Yaw : 70.58, Alt : 49.2700004578, Lat : 49.2835879, Lng : -123.1149799, Q1 : 0.813692688942, Q2 : 0.00809196010232, Q3 : -0.129507660866, Q4 : 0.566627264023}
2019-04-14 11:21:55.41: SIM {TimeUS : 56834757, Roll : -6.65, Pitch : -13.12, Yaw : 68.94, Alt : 49.2700004578, Lat : 49.2835892, Lng : -123.1149772, Q1 : 0.821366012096, Q2 : 0.0170680917799, Q3 : -0.12670995295, Q4 : 0.555887699127}
2019-04-14 11:21:55.51: SIM {TimeUS : 56934717, Roll : -5.0, Pitch : -13.75, Yaw : 66.44, Alt : 49.2700004578, Lat : 49.2835908, Lng : -123.1149744, Q1 : 0.832599103451, Q2 : 0.029265685007, Q3 : -0.123816870153, Q4 : 0.539065539837}
2019-04-14 11:21:55.62: SIM {TimeUS : 57035510, Roll : -3.11, Pitch : -14.46, Yaw : 63.37, Alt : 49.2799987793, Lat : 49.2835923, Lng : -123.1149716, Q1 : 0.845629394054, Q2 : 0.0431477688253, Q3 : -0.121238529682, Q4 : 0.518025517464}
2019-04-14 11:21:55.71: SIM {TimeUS : 57135470, Roll : -1.2, Pitch : -15.1, Yaw : 60.1, Alt : 49.2799987793, Lat : 49.283594, Lng : -123.1149686, Q1 : 0.858707904816, Q2 : 0.0567437373102, Q3 : -0.118967324495, Q4 : 0.495224863291}
2019-04-14 11:21:55.81: SIM {TimeUS : 57235430, Roll : 0.54, Pitch : -15.56, Yaw : 56.93, Alt : 49.2799987793, Lat : 49.2835957, Lng : -123.1149656, Q1 : 0.870689272881, Q2 : 0.0686705708504, Q3 : -0.116759389639, Q4 : 0.472812622786}
2019-04-14 11:21:55.91: SIM {TimeUS : 57335390, Roll : 1.99, Pitch : -15.8, Yaw : 54.18, Alt : 49.2799987793, Lat : 49.2835972, Lng : -123.1149625, Q1 : 0.88060683012, Q2 : 0.0779477283359, Q3 : -0.114502258599, Q4 : 0.453150093555}
2019-04-14 11:21:56.01: SIM {TimeUS : 57435350, Roll : 3.01, Pitch : -15.87, Yaw : 52.09, Alt : 49.2799987793, Lat : 49.2835989, Lng : -123.1149592, Q1 : 0.887919723988, Q2 : 0.0840253531933, Q3 : -0.112542316318, Q4 : 0.438032507896}
2019-04-14 11:21:56.11: SIM {TimeUS : 57535310, Roll : 3.56, Pitch : -15.83, Yaw : 50.79, Alt : 49.2799987793, Lat : 49.2836006, Lng : -123.1149558, Q1 : 0.892474591732, Q2 : 0.0868556424975, Q3 : -0.111150600016, Q4 : 0.428474903107}
2019-04-14 11:21:56.21: SIM {TimeUS : 57635270, Roll : 3.64, Pitch : -15.77, Yaw : 50.28, Alt : 49.2799987793, Lat : 49.2836023, Lng : -123.1149522, Q1 : 0.894373357296, Q2 : 0.0867775976658, Q3 : -0.110767275095, Q4 : 0.424613386393}
2019-04-14 11:21:56.31: SIM {TimeUS : 57735230, Roll : 3.31, Pitch : -15.75, Yaw : 50.49, Alt : 49.2799987793, Lat : 49.2836039, Lng : -123.1149486, Q1 : 0.893880724907, Q2 : 0.0843946412206, Q3 : -0.11169950664, Q4 : 0.425884962082}
2019-04-14 11:21:56.41: SIM {TimeUS : 57835190, Roll : 2.7, Pitch : -15.81, Yaw : 51.25, Alt : 49.2799987793, Lat : 49.2836056, Lng : -123.1149448, Q1 : 0.891392886639, Q2 : 0.0805263742805, Q3 : -0.113884396851, Q4 : 0.431236088276}
2019-04-14 11:21:56.51: SIM {TimeUS : 57935150, Roll : 1.89, Pitch : -15.94, Yaw : 52.4, Alt : 49.2799987793, Lat : 49.2836074, Lng : -123.1149409, Q1 : 0.887415826321, Q2 : 0.0759584456682, Q3 : -0.117155224085, Q4 : 0.439315527678}
2019-04-14 11:21:56.61: SIM {TimeUS : 58035110, Roll : 1.02, Pitch : -16.1, Yaw : 53.75, Alt : 49.2900009155, Lat : 49.2836091, Lng : -123.114937, Q1 : 0.882577121258, Q2 : 0.0712248384953, Q3 : -0.120963387191, Q4 : 0.448723256588}
2019-04-14 11:21:56.71: SIM {TimeUS : 58135070, Roll : 0.17, Pitch : -16.27, Yaw : 55.11, Alt : 49.2900009155, Lat : 49.2836108, Lng : -123.114933, Q1 : 0.877519667149, Q2 : 0.0667900815606, Q3 : -0.124799072742, Q4 : 0.458174139261}
2019-04-14 11:21:56.81: SIM {TimeUS : 58235030, Roll : -0.56, Pitch : -16.38, Yaw : 56.34, Alt : 49.2900009155, Lat : 49.2836126, Lng : -123.114929, Q1 : 0.872872292995, Q2 : 0.062990911305, Q3 : -0.127903133631, Q4 : 0.466655015945}
2019-04-14 11:21:56.91: SIM {TimeUS : 58334990, Roll : -1.09, Pitch : -16.43, Yaw : 57.31, Alt : 49.2900009155, Lat : 49.2836144, Lng : -123.1149249, Q1 : 0.869094848633, Q2 : 0.0602830946445, Q3 : -0.12996044755, Q4 : 0.473445266485}
2019-04-14 11:21:57.01: SIM {TimeUS : 58434950, Roll : -1.42, Pitch : -16.45, Yaw : 57.98, Alt : 49.2900009155, Lat : 49.2836163, Lng : -123.1149207, Q1 : 0.866488456726, Q2 : 0.0586349926889, Q3 : -0.131128832698, Q4 : 0.478084653616}
2019-04-14 11:21:57.11: SIM {TimeUS : 58534910, Roll : -1.52, Pitch : -16.46, Yaw : 58.31, Alt : 49.2900009155, Lat : 49.2836181, Lng : -123.1149165, Q1 : 0.865143895149, Q2 : 0.0582438930869, Q3 : -0.131479606032, Q4 : 0.480465263128}
2019-04-14 11:21:57.21: SIM {TimeUS : 58634870, Roll : -1.42, Pitch : -16.46, Yaw : 58.33, Alt : 49.2900009155, Lat : 49.2836201, Lng : -123.1149122, Q1 : 0.865010142326, Q2 : 0.0590245574713, Q3 : -0.130993887782, Q4 : 0.480743348598}
2019-04-14 11:21:57.31: SIM {TimeUS : 58734830, Roll : -1.17, Pitch : -16.46, Yaw : 58.09, Alt : 49.2900009155, Lat : 49.283622, Lng : -123.1149079, Q1 : 0.865873277187, Q2 : 0.0606329701841, Q3 : -0.130119368434, Q4 : 0.47922450304}
2019-04-14 11:21:57.41: SIM {TimeUS : 58834790, Roll : -0.85, Pitch : -16.5, Yaw : 57.67, Alt : 49.2900009155, Lat : 49.2836239, Lng : -123.1149036, Q1 : 0.867438673973, Q2 : 0.0627142414451, Q3 : -0.129290282726, Q4 : 0.476341426373}
2019-04-14 11:21:57.51: SIM {TimeUS : 58934750, Roll : -0.51, Pitch : -16.56, Yaw : 57.13, Alt : 49.2900009155, Lat : 49.283626, Lng : -123.1148992, Q1 : 0.869399785995, Q2 : 0.0649880841374, Q3 : -0.128656283021, Q4 : 0.472618341446}
2019-04-14 11:21:57.61: SIM {TimeUS : 59034710, Roll : -0.17, Pitch : -16.65, Yaw : 56.56, Alt : 49.2900009155, Lat : 49.283628, Lng : -123.1148947, Q1 : 0.871456682682, Q2 : 0.0672848448157, Q3 : -0.128248423338, Q4 : 0.468602597713}
2019-04-14 11:21:57.72: SIM {TimeUS : 59135503, Roll : 0.12, Pitch : -16.71, Yaw : 56.01, Alt : 49.2900009155, Lat : 49.2836299, Lng : -123.1148902, Q1 : 0.8734177351, Q2 : 0.0692443922162, Q3 : -0.127838075161, Q4 : 0.464762449265}
2019-04-14 11:21:57.81: SIM {TimeUS : 59235463, Roll : 0.37, Pitch : -16.76, Yaw : 55.56, Alt : 49.2900009155, Lat : 49.2836321, Lng : -123.1148856, Q1 : 0.875056445599, Q2 : 0.0707718357444, Q3 : -0.127442702651, Q4 : 0.461547225714}
2019-04-14 11:21:57.91: SIM {TimeUS : 59335423, Roll : 0.54, Pitch : -16.79, Yaw : 55.22, Alt : 49.2900009155, Lat : 49.2836341, Lng : -123.1148811, Q1 : 0.876253306866, Q2 : 0.071854390204, Q3 : -0.127255186439, Q4 : 0.459154874086}
2019-04-14 11:21:58.01: SIM {TimeUS : 59435383, Roll : 0.63, Pitch : -16.83, Yaw : 55.02, Alt : 49.2900009155, Lat : 49.2836361, Lng : -123.1148765, Q1 : 0.876963198185, Q2 : 0.0725082606077, Q3 : -0.127285718918, Q4 : 0.457685947418}
2019-04-14 11:21:58.11: SIM {TimeUS : 59535343, Roll : 0.65, Pitch : -16.86, Yaw : 54.95, Alt : 49.2900009155, Lat : 49.2836382, Lng : -123.1148719, Q1 : 0.877217948437, Q2 : 0.0726580321789, Q3 : -0.127486392856, Q4 : 0.457117795944}
2019-04-14 11:21:58.21: SIM {TimeUS : 59635303, Roll : 0.6, Pitch : -16.88, Yaw : 54.98, Alt : 49.2900009155, Lat : 49.2836402, Lng : -123.1148672, Q1 : 0.877068459988, Q2 : 0.0724218934774, Q3 : -0.12783883512, Q4 : 0.457343697548}
2019-04-14 11:21:58.31: SIM {TimeUS : 59735263, Roll : 0.49, Pitch : -16.9, Yaw : 55.11, Alt : 49.2900009155, Lat : 49.2836424, Lng : -123.1148625, Q1 : 0.876616060734, Q2 : 0.0718174502254, Q3 : -0.128330931067, Q4 : 0.458167761564}
2019-04-14 11:21:58.41: SIM {TimeUS : 59835223, Roll : 0.35, Pitch : -16.93, Yaw : 55.29, Alt : 49.2900009155, Lat : 49.2836445, Lng : -123.1148576, Q1 : 0.875945448875, Q2 : 0.0710332542658, Q3 : -0.128987208009, Q4 : 0.459386765957}
2019-04-14 11:21:58.51: SIM {TimeUS : 59935183, Roll : 0.19, Pitch : -16.96, Yaw : 55.5, Alt : 49.2999992371, Lat : 49.2836466, Lng : -123.114853, Q1 : 0.875169932842, Q2 : 0.0701989680529, Q3 : -0.129777193069, Q4 : 0.460768520832}
2019-04-14 11:21:58.61: SIM {TimeUS : 60035143, Roll : 0.04, Pitch : -17.01, Yaw : 55.7, Alt : 49.2999992371, Lat : 49.2836487, Lng : -123.1148481, Q1 : 0.874396264553, Q2 : 0.0694414898753, Q3 : -0.130632892251, Q4 : 0.462108314037}
2019-04-14 11:21:58.71: SIM {TimeUS : 60135103, Roll : -0.09, Pitch : -17.06, Yaw : 55.87, Alt : 49.2999992371, Lat : 49.2836509, Lng : -123.1148433, Q1 : 0.873726785183, Q2 : 0.0687365457416, Q3 : -0.131442859769, Q4 : 0.463248848915}
2019-04-14 11:21:58.81: SIM {TimeUS : 60235063, Roll : -0.21, Pitch : -17.08, Yaw : 56.01, Alt : 49.2999992371, Lat : 49.283653, Lng : -123.1148384, Q1 : 0.87323564291, Q2 : 0.0681244730949, Q3 : -0.131994709373, Q4 : 0.464107781649}
2019-04-14 11:21:58.91: SIM {TimeUS : 60335023, Roll : -0.28, Pitch : -17.1, Yaw : 56.09, Alt : 49.2999992371, Lat : 49.2836552, Lng : -123.1148335, Q1 : 0.872929036617, Q2 : 0.0677341073751, Q3 : -0.132455155253, Q4 : 0.464610159397}
2019-04-14 11:21:59.01: SIM {TimeUS : 60434983, Roll : -0.3, Pitch : -17.13, Yaw : 56.11, Alt : 49.2999992371, Lat : 49.2836572, Lng : -123.1148286, Q1 : 0.872800648212, Q2 : 0.067768804729, Q3 : -0.132737189531, Q4 : 0.464765876532}
2019-04-14 11:21:59.11: SIM {TimeUS : 60534943, Roll : -0.27, Pitch : -17.17, Yaw : 56.09, Alt : 49.2999992371, Lat : 49.2836595, Lng : -123.1148237, Q1 : 0.872841060162, Q2 : 0.068126372993, Q3 : -0.132914125919, Q4 : 0.464587032795}
2019-04-14 11:21:59.21: SIM {TimeUS : 60634903, Roll : -0.19, Pitch : -17.21, Yaw : 56.02, Alt : 49.2999992371, Lat : 49.2836616, Lng : -123.1148187, Q1 : 0.873017609119, Q2 : 0.0687844380736, Q3 : -0.132961526513, Q4 : 0.464144647121}
2019-04-14 11:21:59.31: SIM {TimeUS : 60734863, Roll : -0.1, Pitch : -17.25, Yaw : 55.93, Alt : 49.2999992371, Lat : 49.2836639, Lng : -123.1148137, Q1 : 0.873294830322, Q2 : 0.0695874765515, Q3 : -0.132924258709, Q4 : 0.463513672352}
2019-04-14 11:21:59.41: SIM {TimeUS : 60834823, Roll : -0.01, Pitch : -17.28, Yaw : 55.82, Alt : 49.3100013733, Lat : 49.2836661, Lng : -123.1148087, Q1 : 0.87365180254, Q2 : 0.0702667832375, Q3 : -0.132871255279, Q4 : 0.462753027678}
2019-04-14 11:21:59.51: SIM {TimeUS : 60934783, Roll : 0.05, Pitch : -17.3, Yaw : 55.7, Alt : 49.3100013733, Lat : 49.2836682, Lng : -123.1148037, Q1 : 0.874050021172, Q2 : 0.0706733167171, Q3 : -0.132793724537, Q4 : 0.461960703135}
2019-04-14 11:21:59.61: SIM {TimeUS : 61034743, Roll : 0.08, Pitch : -17.3, Yaw : 55.6, Alt : 49.3100013733, Lat : 49.2836706, Lng : -123.1147987, Q1 : 0.874446392059, Q2 : 0.0708030313253, Q3 : -0.132777959108, Q4 : 0.461194574833}
2019-04-14 11:21:59.71: SIM {TimeUS : 61134703, Roll : 0.11, Pitch : -17.31, Yaw : 55.51, Alt : 49.3100013733, Lat : 49.2836728, Lng : -123.1147936, Q1 : 0.874778926373, Q2 : 0.0709971189499, Q3 : -0.132747605443, Q4 : 0.460542470217}
2019-04-14 11:21:59.82: SIM {TimeUS : 61235496, Roll : 0.14, Pitch : -17.33, Yaw : 55.44, Alt : 49.3100013733, Lat : 49.283675, Lng : -123.1147885, Q1 : 0.875020563602, Q2 : 0.0712169334292, Q3 : -0.132795274258, Q4 : 0.460035413504}
2019-04-14 11:21:59.91: SIM {TimeUS : 61335456, Roll : 0.17, Pitch : -17.36, Yaw : 55.39, Alt : 49.3100013733, Lat : 49.2836773, Lng : -123.1147834, Q1 : 0.875140249729, Q2 : 0.0715523511171, Q3 : -0.13295699656, Q4 : 0.459708958864}
2019-04-14 11:22:00.01: SIM {TimeUS : 61435416, Roll : 0.2, Pitch : -17.42, Yaw : 55.37, Alt : 49.3100013733, Lat : 49.2836796, Lng : -123.1147783, Q1 : 0.875146389008, Q2 : 0.0719786658883, Q3 : -0.133324936032, Q4 : 0.459524005651}
2019-04-14 11:22:00.11: SIM {TimeUS : 61535376, Roll : 0.21, Pitch : -17.46, Yaw : 55.36, Alt : 49.3100013733, Lat : 49.2836819, Lng : -123.1147731, Q1 : 0.875121057034, Q2 : 0.0721441432834, Q3 : -0.133604392409, Q4 : 0.459465205669}
2019-04-14 11:22:00.21: SIM {TimeUS : 61635336, Roll : 0.19, Pitch : -17.47, Yaw : 55.37, Alt : 49.3100013733, Lat : 49.283684, Lng : -123.1147681, Q1 : 0.875084757805, Q2 : 0.072083234787, Q3 : -0.133693754673, Q4 : 0.459517866373}
2019-04-14 11:22:00.31: SIM {TimeUS : 61735296, Roll : 0.17, Pitch : -17.47, Yaw : 55.39, Alt : 49.3100013733, Lat : 49.2836864, Lng : -123.1147629, Q1 : 0.875018954277, Q2 : 0.0719638168812, Q3 : -0.13381613791, Q4 : 0.45962625742}
2019-04-14 11:22:00.41: SIM {TimeUS : 61835256, Roll : 0.13, Pitch : -17.49, Yaw : 55.41, Alt : 49.3100013733, Lat : 49.2836887, Lng : -123.1147578, Q1 : 0.874937176704, Q2 : 0.0717411488295, Q3 : -0.134108349681, Q4 : 0.459731549025}
2019-04-14 11:22:00.51: SIM {TimeUS : 61935216, Roll : 0.1, Pitch : -17.51, Yaw : 55.43, Alt : 49.3199996948, Lat : 49.283691, Lng : -123.1147526, Q1 : 0.87485563755, Q2 : 0.0715792626143, Q3 : -0.134368613362, Q4 : 0.45983594656}
2019-04-14 11:22:00.61: SIM {TimeUS : 62035176, Roll : 0.07, Pitch : -17.53, Yaw : 55.45, Alt : 49.3199996948, Lat : 49.2836932, Lng : -123.1147474, Q1 : 0.874794840813, Q2 : 0.0714687034488, Q3 : -0.13463203609, Q4 : 0.459891796112}
2019-04-14 11:22:00.71: SIM {TimeUS : 62135136, Roll : 0.05, Pitch : -17.55, Yaw : 55.45, Alt : 49.3199996948, Lat : 49.2836955, Lng : -123.1147422, Q1 : 0.8747574687, Q2 : 0.0714508146048, Q3 : -0.134815260768, Q4 : 0.459911942482}
2019-04-14 11:22:00.81: SIM {TimeUS : 62235096, Roll : 0.06, Pitch : -17.57, Yaw : 55.45, Alt : 49.3199996948, Lat : 49.2836979, Lng : -123.114737, Q1 : 0.87474167347, Q2 : 0.0715424641967, Q3 : -0.134993478656, Q4 : 0.459875494242}
2019-04-14 11:22:00.91: SIM {TimeUS : 62335056, Roll : 0.07, Pitch : -17.59, Yaw : 55.44, Alt : 49.3199996948, Lat : 49.2837003, Lng : -123.1147317, Q1 : 0.874758303165, Q2 : 0.07170907408, Q3 : -0.135055437684, Q4 : 0.459799736738}
2019-04-14 11:22:01.01: SIM {TimeUS : 62435016, Roll : 0.1, Pitch : -17.6, Yaw : 55.42, Alt : 49.3199996948, Lat : 49.2837026, Lng : -123.1147265, Q1 : 0.874787151814, Q2 : 0.0719743221998, Q3 : -0.135090410709, Q4 : 0.459693074226}
2019-04-14 11:22:01.11: SIM {TimeUS : 62534976, Roll : 0.13, Pitch : -17.63, Yaw : 55.4, Alt : 49.3199996948, Lat : 49.2837048, Lng : -123.1147212, Q1 : 0.874831736088, Q2 : 0.0722598433495, Q3 : -0.135192170739, Q4 : 0.459533512592}
2019-04-14 11:22:01.21: SIM {TimeUS : 62634936, Roll : 0.13, Pitch : -17.67, Yaw : 55.37, Alt : 49.3199996948, Lat : 49.2837071, Lng : -123.114716, Q1 : 0.87489771843, Q2 : 0.07242628932, Q3 : -0.13545230031, Q4 : 0.459304988384}
2019-04-14 11:22:01.31: SIM {TimeUS : 62734896, Roll : 0.13, Pitch : -17.71, Yaw : 55.34, Alt : 49.3199996948, Lat : 49.2837095, Lng : -123.1147107, Q1 : 0.874971032143, Q2 : 0.0725294575095, Q3 : -0.135796755552, Q4 : 0.459047317505}
2019-04-14 11:22:01.41: SIM {TimeUS : 62834856, Roll : 0.12, Pitch : -17.75, Yaw : 55.31, Alt : 49.3199996948, Lat : 49.2837119, Lng : -123.1147054, Q1 : 0.875044345856, Q2 : 0.072599299252, Q3 : -0.136199533939, Q4 : 0.458777070045}
2019-04-14 11:22:01.51: SIM {TimeUS : 62934816, Roll : 0.13, Pitch : -17.78, Yaw : 55.28, Alt : 49.3199996948, Lat : 49.2837143, Lng : -123.1147001, Q1 : 0.875124037266, Q2 : 0.072718732059, Q3 : -0.136406257749, Q4 : 0.458544701338}
2019-04-14 11:22:01.61: SIM {TimeUS : 63034776, Roll : 0.14, Pitch : -17.78, Yaw : 55.25, Alt : 49.3199996948, Lat : 49.2837166, Lng : -123.1146948, Q1 : 0.875221908092, Q2 : 0.0728001818061, Q3 : -0.136394381523, Q4 : 0.458348453045}
2019-04-14 11:22:01.71: SIM {TimeUS : 63134736, Roll : 0.16, Pitch : -17.76, Yaw : 55.23, Alt : 49.3199996948, Lat : 49.283719, Lng : -123.1146895, Q1 : 0.875334024429, Q2 : 0.0728238746524, Q3 : -0.136194363236, Q4 : 0.458190113306}
2019-04-14 11:22:01.81: SIM {TimeUS : 63234696, Roll : 0.16, Pitch : -17.74, Yaw : 55.21, Alt : 49.3199996948, Lat : 49.2837214, Lng : -123.1146842, Q1 : 0.875429928303, Q2 : 0.0727284625173, Q3 : -0.136066138744, Q4 : 0.458060055971}
2019-04-14 11:22:01.91: SIM {TimeUS : 63335489, Roll : 0.15, Pitch : -17.73, Yaw : 55.2, Alt : 49.3199996948, Lat : 49.2837238, Lng : -123.1146788, Q1 : 0.875511348248, Q2 : 0.0726015493274, Q3 : -0.135963514447, Q4 : 0.457955032587}
2019-04-14 11:22:02.01: SIM {TimeUS : 63435449, Roll : 0.15, Pitch : -17.71, Yaw : 55.19, Alt : 49.3199996948, Lat : 49.283726, Lng : -123.1146734, Q1 : 0.875571966171, Q2 : 0.0724773928523, Q3 : -0.135862693191, Q4 : 0.457888811827}
2019-04-14 11:22:02.11: SIM {TimeUS : 63535409, Roll : 0.14, Pitch : -17.72, Yaw : 55.18, Alt : 49.3300018311, Lat : 49.2837284, Lng : -123.114668, Q1 : 0.875591099262, Q2 : 0.0724533945322, Q3 : -0.135982006788, Q4 : 0.457820594311}
2019-04-14 11:22:02.21: SIM {TimeUS : 63635369, Roll : 0.14, Pitch : -17.74, Yaw : 55.17, Alt : 49.3300018311, Lat : 49.2837308, Lng : -123.1146627, Q1 : 0.875590801239, Q2 : 0.0725402384996, Q3 : -0.136156529188, Q4 : 0.457755446434}
2019-04-14 11:22:02.31: SIM {TimeUS : 63735329, Roll : 0.13, Pitch : -17.79, Yaw : 55.17, Alt : 49.3300018311, Lat : 49.2837332, Lng : -123.1146573, Q1 : 0.875569820404, Q2 : 0.0726475194097, Q3 : -0.13654217124, Q4 : 0.457663655281}
2019-04-14 11:22:02.41: SIM {TimeUS : 63835289, Roll : 0.12, Pitch : -17.84, Yaw : 55.16, Alt : 49.3300018311, Lat : 49.2837357, Lng : -123.1146519, Q1 : 0.875543236732, Q2 : 0.072805762291, Q3 : -0.136967778206, Q4 : 0.457562297583}
2019-04-14 11:22:02.51: SIM {TimeUS : 63935249, Roll : 0.13, Pitch : -17.88, Yaw : 55.15, Alt : 49.3300018311, Lat : 49.2837381, Lng : -123.1146465, Q1 : 0.875534892082, Q2 : 0.0729826018214, Q3 : -0.137241646647, Q4 : 0.457468003035}
2019-04-14 11:22:02.61: SIM {TimeUS : 64035209, Roll : 0.13, Pitch : -17.91, Yaw : 55.14, Alt : 49.3300018311, Lat : 49.2837405, Lng : -123.1146411, Q1 : 0.875548899174, Q2 : 0.0730575844646, Q3 : -0.137478202581, Q4 : 0.457358121872}
2019-04-14 11:22:02.71: SIM {TimeUS : 64135169, Roll : 0.12, Pitch : -17.93, Yaw : 55.12, Alt : 49.3300018311, Lat : 49.2837429, Lng : -123.1146357, Q1 : 0.875579416752, Q2 : 0.0730827525258, Q3 : -0.137646391988, Q4 : 0.457245022058}
2019-04-14 11:22:02.81: SIM {TimeUS : 64235129, Roll : 0.14, Pitch : -17.92, Yaw : 55.11, Alt : 49.3300018311, Lat : 49.2837453, Lng : -123.1146302, Q1 : 0.875626564026, Q2 : 0.0731675177813, Q3 : -0.137546464801, Q4 : 0.457171320915}
2019-04-14 11:22:02.91: SIM {TimeUS : 64335089, Roll : 0.17, Pitch : -17.93, Yaw : 55.1, Alt : 49.3300018311, Lat : 49.2837477, Lng : -123.1146249, Q1 : 0.87565022707, Q2 : 0.0734046623111, Q3 : -0.137493237853, Q4 : 0.457103967667}
2019-04-14 11:22:03.01: SIM {TimeUS : 64435049, Roll : 0.18, Pitch : -17.95, Yaw : 55.09, Alt : 49.3300018311, Lat : 49.2837501, Lng : -123.1146195, Q1 : 0.875669956207, Q2 : 0.0735631808639, Q3 : -0.13760240376, Q4 : 0.457007825375}
2019-04-14 11:22:03.11: SIM {TimeUS : 64535009, Roll : 0.19, Pitch : -17.96, Yaw : 55.07, Alt : 49.3300018311, Lat : 49.2837525, Lng : -123.1146141, Q1 : 0.875704944134, Q2 : 0.0736701563001, Q3 : -0.137634038925, Q4 : 0.456914007664}
2019-04-14 11:22:03.21: SIM {TimeUS : 64634969, Roll : 0.2, Pitch : -17.95, Yaw : 55.06, Alt : 49.3300018311, Lat : 49.2837549, Lng : -123.1146086, Q1 : 0.875757992268, Q2 : 0.073676943779, Q3 : -0.137609541416, Q4 : 0.456818670034}
2019-04-14 11:22:03.31: SIM {TimeUS : 64734929, Roll : 0.19, Pitch : -17.95, Yaw : 55.05, Alt : 49.3300018311, Lat : 49.2837574, Lng : -123.1146032, Q1 : 0.875820457935, Q2 : 0.0735922455788, Q3 : -0.137603551149, Q4 : 0.456714302301}
2019-04-14 11:22:03.41: SIM {TimeUS : 64834889, Roll : 0.16, Pitch : -17.97, Yaw : 55.03, Alt : 49.3300018311, Lat : 49.2837598, Lng : -123.1145977, Q1 : 0.875864684582, Q2 : 0.0734586045146, Q3 : -0.137830153108, Q4 : 0.456582784653}
2019-04-14 11:22:03.51: SIM {TimeUS : 64934849, Roll : 0.13, Pitch : -18.0, Yaw : 55.02, Alt : 49.3400001526, Lat : 49.2837622, Lng : -123.1145923, Q1 : 0.875887513161, Q2 : 0.0733371078968, Q3 : -0.138253957033, Q4 : 0.456430345774}
2019-04-14 11:22:03.61: SIM {TimeUS : 65034809, Roll : 0.12, Pitch : -18.01, Yaw : 55.01, Alt : 49.3400001526, Lat : 49.2837647, Lng : -123.1145868, Q1 : 0.875926494598, Q2 : 0.0732456669211, Q3 : -0.138402715325, Q4 : 0.456325083971}
2019-04-14 11:22:03.71: SIM {TimeUS : 65134769, Roll : 0.13, Pitch : -18.0, Yaw : 55.0, Alt : 49.3400001526, Lat : 49.2837671, Lng : -123.1145814, Q1 : 0.87597823143, Q2 : 0.0732654109597, Q3 : -0.138251930475, Q4 : 0.456268280745}
2019-04-14 11:22:03.81: SIM {TimeUS : 65234729, Roll : 0.15, Pitch : -17.99, Yaw : 54.99, Alt : 49.3400001526, Lat : 49.2837695, Lng : -123.1145759, Q1 : 0.876020312309, Q2 : 0.0733645111322, Q3 : -0.138098418713, Q4 : 0.456218004227}
2019-04-14 11:22:03.92: SIM {TimeUS : 65335522, Roll : 0.16, Pitch : -18.0, Yaw : 54.98, Alt : 49.3400001526, Lat : 49.283772, Lng : -123.1145704, Q1 : 0.876047611237, Q2 : 0.0734936520457, Q3 : -0.138107910752, Q4 : 0.4561419487}
2019-04-14 11:22:04.01: SIM {TimeUS : 65435482, Roll : 0.16, Pitch : -18.01, Yaw : 54.97, Alt : 49.3400001526, Lat : 49.2837744, Lng : -123.1145649, Q1 : 0.876076757908, Q2 : 0.0734892114997, Q3 : -0.138263016939, Q4 : 0.456039607525}
2019-04-14 11:22:04.11: SIM {TimeUS : 65535442, Roll : 0.13, Pitch : -18.03, Yaw : 54.96, Alt : 49.3400001526, Lat : 49.2837769, Lng : -123.1145594, Q1 : 0.876109600067, Q2 : 0.0733652114868, Q3 : -0.138520002365, Q4 : 0.455918550491}
2019-04-14 11:22:04.21: SIM {TimeUS : 65635402, Roll : 0.11, Pitch : -18.05, Yaw : 54.95, Alt : 49.3400001526, Lat : 49.2837793, Lng : -123.1145539, Q1 : 0.876139521599, Q2 : 0.0733041167259, Q3 : -0.138756498694, Q4 : 0.455798923969}
2019-04-14 11:22:04.31: SIM {TimeUS : 65735362, Roll : 0.12, Pitch : -18.08, Yaw : 54.93, Alt : 49.3400001526, Lat : 49.2837818, Lng : -123.1145484, Q1 : 0.876157701015, Q2 : 0.0734112262726, Q3 : -0.138928428292, Q4 : 0.455694466829}
2019-04-14 11:22:04.41: SIM {TimeUS : 65835322, Roll : 0.13, Pitch : -18.1, Yaw : 54.92, Alt : 49.3400001526, Lat : 49.2837843, Lng : -123.1145429, Q1 : 0.876170396805, Q2 : 0.0735806822777, Q3 : -0.139037042856, Q4 : 0.455609500408}
2019-04-14 11:22:04.51: SIM {TimeUS : 65935282, Roll : 0.16, Pitch : -18.11, Yaw : 54.91, Alt : 49.3400001526, Lat : 49.2837867, Lng : -123.1145374, Q1 : 0.876179456711, Q2 : 0.0738328546286, Q3 : -0.139036342502, Q4 : 0.455551534891}
2019-04-14 11:22:04.61: SIM {TimeUS : 66035242, Roll : 0.18, Pitch : -18.12, Yaw : 54.9, Alt : 49.3400001526, Lat : 49.2837892, Lng : -123.1145319, Q1 : 0.876189053059, Q2 : 0.0740156322718, Q3 : -0.139077484608, Q4 : 0.45549082756}
2019-04-14 11:22:04.71: SIM {TimeUS : 66135202, Roll : 0.19, Pitch : -18.14, Yaw : 54.89, Alt : 49.3400001526, Lat : 49.2837916, Lng : -123.1145264, Q1 : 0.876196324825, Q2 : 0.0741948485374, Q3 : -0.13912960887, Q4 : 0.455431729555}
2019-04-14 11:22:04.81: SIM {TimeUS : 66235162, Roll : 0.21, Pitch : -18.15, Yaw : 54.88, Alt : 49.3499984741, Lat : 49.283794, Lng : -123.1145208, Q1 : 0.876204609871, Q2 : 0.0743659362197, Q3 : -0.139117732644, Q4 : 0.455391556025}
