2019-04-14 02:32:27.60: SIM {TimeUS : 40816167, Roll : 0.0, Pitch : 0.0, Yaw : 0.0, Alt : 30.1000003815, Lat : 49.28357, Lng : -123.11502, Q1 : 1.0, Q2 : 0.0, Q3 : 0.0, Q4 : 0.0}
2019-04-14 02:32:27.71: SIM {TimeUS : 40935286, Roll : 0.0, Pitch : 0.0, Yaw : 0.0, Alt : 30.1000003815, Lat : 49.28357, Lng : -123.11502, Q1 : 1.0, Q2 : 0.0, Q3 : 0.0, Q4 : 0.0}
2019-04-14 02:32:27.81: SIM {TimeUS : 41035246, Roll : 0.0, Pitch : 0.0, Yaw : 0.0, Alt : 30.1000003815, Lat : 49.28357, Lng : -123.11502, Q1 : 1.0, Q2 : 0.0, Q3 : 0.0, Q4 : 0.0}
2019-04-14 02:32:27.91: SIM {TimeUS : 41135206, Roll : 0.0, Pitch : 0.0, Yaw : 0.0, Alt : 30.1000003815, Lat : 49.28357, Lng : -123.11502, Q1 : 1.0, Q2 : 0.0, Q3 : 0.0, Q4 : 0.0}
2019-04-14 02:32:28.01: SIM {TimeUS : 41235166, Roll : 0.0, Pitch : 0.0, Yaw : 0.0, Alt : 30.1000003815, Lat : 49.28357, Lng : -123.11502, Q1 : 1.0, Q2 : 0.0, Q3 : 0.0, Q4 : 0.0}
2019-04-14 02:32:28.11: SIM {TimeUS : 41335126, Roll : 0.0, Pitch : 0.0, Yaw : 0.0, Alt : 30.1000003815, Lat : 49.28357, Lng : -123.11502, Q1 : 1.0, Q2 : 0.0, Q3 : 0.0, Q4 : 0.0}
2019-04-14 02:32:28.21: SIM {TimeUS : 41435086, Roll : 0.0, Pitch : 0.0, Yaw : 0.0, Alt : 30.1000003815, Lat : 49.28357, Lng : -123.11502, Q1 : 1.0, Q2 : 0.0, Q3 : 0.0, Q4 : 0.0}
2019-04-14 02:32:28.31: SIM {TimeUS : 41535046, Roll : 0.0, Pitch : 0.0, Yaw : 0.0, Alt : 30.1000003815, Lat : 49.28357, Lng : -123.11502, Q1 : 1.0, Q2 : 0.0, Q3 : 0.0, Q4 : 0.0}
2019-04-14 02:32:28.41: SIM {TimeUS : 41635006, Roll : 0.0, Pitch : 0.0, Yaw : 0.0, Alt : 30.1000003815, Lat : 49.28357, Lng : -123.11502, Q1 : 1.0, Q2 : 0.0, Q3 : 0.0, Q4 : 0.0}
2019-04-14 02:32:28.51: SIM {TimeUS : 41734966, Roll : 0.0, Pitch : 0.0, Yaw : 0.0, Alt : 30.1000003815, Lat : 49.28357, Lng : -123.11502, Q1 : 1.0, Q2 : 0.0, Q3 : 0.0, Q4 : 0.0}
2019-04-14 02:32:28.61: SIM {TimeUS : 41834926, Roll : 0.0, Pitch : 0.0, Yaw : 0.0, Alt : 30.1000003815, Lat : 49.28357, Lng : -123.11502, Q1 : 1.0, Q2 : 0.0, Q3 : 0.0, Q4 : 0.0}
2019-04-14 02:32:28.71: SIM {TimeUS : 41934886, Roll : 0.0, Pitch : 0.0, Yaw : 0.0, Alt : 30.1000003815, Lat : 49.28357, Lng : -123.11502, Q1 : 1.0, Q2 : 0.0, Q3 : 0.0, Q4 : 0.0}
2019-04-14 02:32:28.81: SIM {TimeUS : 42034846, Roll : 0.0, Pitch : 0.0, Yaw : 0.0, Alt : 30.1000003815, Lat : 49.28357, Lng : -123.11502, Q1 : 1.0, Q2 : 0.0, Q3 : 0.0, Q4 : 0.0}
2019-04-14 02:32:28.91: SIM {TimeUS : 42134806, Roll : 0.0, Pitch : 0.0, Yaw : 0.0, Alt : 30.1000003815, Lat : 49.28357, Lng : -123.11502, Q1 : 1.0, Q2 : 0.0, Q3 : 0.0, Q4 : 0.0}
2019-04-14 02:32:29.01: SIM {TimeUS : 42234766, Roll : 0.0, Pitch : 0.0, Yaw : 0.0, Alt : 30.1000003815, Lat : 49.28357, Lng : -123.11502, Q1 : 1.0, Q2 : 0.0, Q3 : 0.0, Q4 : 0.0}
2019-04-14 02:32:29.11: SIM {TimeUS : 42334726, Roll : 0.0, Pitch : 0.0, Yaw : 0.0, Alt : 30.1000003815, Lat : 49.28357, Lng : -123.11502, Q1 : 1.0, Q2 : 0.0, Q3 : 0.0, Q4 : 0.0}
2019-04-14 02:32:29.21: SIM {TimeUS : 42434686, Roll : 0.0, Pitch : 0.0, Yaw : 0.0, Alt : 30.1000003815, Lat : 49.28357, Lng : -123.11502, Q1 : 1.0, Q2 : 0.0, Q3 : 0.0, Q4 : 0.0}
2019-04-14 02:32:29.31: SIM {TimeUS : 42534646, Roll : 0.0, Pitch : 0.0, Yaw : 0.0, Alt : 30.1000003815, Lat : 49.28357, Lng : -123.11502, Q1 : 1.0, Q2 : 0.0, Q3 : 0.0, Q4 : 0.0}
2019-04-14 02:32:29.41: SIM {TimeUS : 42634606, Roll : 0.0, Pitch : 0.0, Yaw : 0.0, Alt : 30.1000003815, Lat : 49.28357, Lng : -123.11502, Q1 : 1.0, Q2 : 0.0, Q3 : 0.0, Q4 : 0.0}
2019-04-14 02:32:29.51: SIM {TimeUS : 42734566, Roll : 0.0, Pitch : 0.0, Yaw : 0.0, Alt : 30.1000003815, Lat : 49.28357, Lng : -123.11502, Q1 : 1.0, Q2 : 0.0, Q3 : 0.0, Q4 : 0.0}
2019-04-14 02:32:29.61: SIM {TimeUS : 42834526, Roll : 0.0, Pitch : 0.0, Yaw : 0.0, Alt : 30.1000003815, Lat : 49.28357, Lng : -123.11502, Q1 : 1.0, Q2 : 0.0, Q3 : 0.0, Q4 : 0.0}
2019-04-14 02:32:29.71: SIM {TimeUS : 42935319, Roll : 0.0, Pitch : 0.0, Yaw : 0.0, Alt : 30.1000003815, Lat : 49.28357, Lng : -123.11502, Q1 : 1.0, Q2 : 0.0, Q3 : 0.0, Q4 : 0.0}
2019-04-14 02:32:29.81: SIM {TimeUS : 43035279, Roll : 0.0, Pitch : 0.0, Yaw : 0.0, Alt : 30.1000003815, Lat : 49.28357, Lng : -123.11502, Q1 : 1.0, Q2 : 0.0, Q3 : 0.0, Q4 : 0.0}
2019-04-14 02:32:29.91: SIM {TimeUS : 43135239, Roll : 0.0, Pitch : 0.0, Yaw : 360.0, Alt : 30.1000003815, Lat : 49.28357, Lng : -123.11502, Q1 : 1.0, Q2 : 0.0, Q3 : 0.0, Q4 : -5.76911088346e-12}
2019-04-14 02:32:30.01: SIM {TimeUS : 43235199, Roll : 0.0, Pitch : 0.0, Yaw : 0.0, Alt : 30.1000003815, Lat : 49.28357, Lng : -123.11502, Q1 : 1.0, Q2 : 0.0, Q3 : 0.0, Q4 : 1.67138317075e-11}
2019-04-14 02:32:30.11: SIM {TimeUS : 43335159, Roll : 0.0, Pitch : 0.0, Yaw : 360.0, Alt : 30.1000003815, Lat : 49.28357, Lng : -123.11502, Q1 : 1.0, Q2 : 0.0, Q3 : 0.0, Q4 : -9.67275255448e-08}
2019-04-14 02:32:30.21: SIM {TimeUS : 43435119, Roll : 0.0, Pitch : 0.0, Yaw : 359.99, Alt : 30.1000003815, Lat : 49.28357, Lng : -123.11502, Q1 : 1.0, Q2 : 0.0, Q3 : 0.0, Q4 : -2.55648444636e-07}
2019-04-14 02:32:30.31: SIM {TimeUS : 43535079, Roll : 0.0, Pitch : 0.0, Yaw : 359.99, Alt : 30.1000003815, Lat : 49.28357, Lng : -123.11502, Q1 : 1.0, Q2 : 0.0, Q3 : 0.0, Q4 : -4.11411292589e-07}
2019-04-14 02:32:30.41: SIM {TimeUS : 43635039, Roll : 0.0, Pitch : 0.0, Yaw : 359.99, Alt : 30.1000003815, Lat : 49.28357, Lng : -123.11502, Q1 : 1.0, Q2 : 0.0, Q3 : 0.0, Q4 : -6.45757154416e-07}
2019-04-14 02:32:30.51: SIM {TimeUS : 43734999, Roll : 0.0, Pitch : 0.0, Yaw : 359.99, Alt : 30.1000003815, Lat : 49.28357, Lng : -123.11502, Q1 : 1.0, Q2 : 0.0, Q3 : 0.0, Q4 : -8.18779994916e-07}
2019-04-14 02:32:30.61: SIM {TimeUS : 43834959, Roll : 0.0, Pitch : 0.0, Yaw : 359.99, Alt : 30.1000003815, Lat : 49.28357, Lng : -123.11502, Q1 : 1.0, Q2 : 0.0, Q3 : 0.0, Q4 : -9.70793394117e-07}
2019-04-14 02:32:30.71: SIM {TimeUS : 43934919, Roll : 0.0, Pitch : 0.0, Yaw : 359.99, Alt : 30.1000003815, Lat : 49.28357, Lng : -123.11502, Q1 : 1.0, Q2 : 0.0, Q3 : 0.0, Q4 : -1.21235632378e-06}
2019-04-14 02:32:30.81: SIM {TimeUS : 44034879, Roll : 0.0, Pitch : 0.0, Yaw : 359.99, Alt : 30.1100006104, Lat : 49.28357, Lng : -123.11502, Q1 : 1.0, Q2 : 0.0, Q3 : 0.0, Q4 : -1.41997804803e-06}
2019-04-14 02:32:30.91: SIM {TimeUS : 44134839, Roll : 0.0, Pitch : 0.0, Yaw : 359.99, Alt : 30.1299991608, Lat : 49.28357, Lng : -123.11502, Q1 : 1.0, Q2 : 0.0, Q3 : 0.0, Q4 : -1.61016464517e-06}
2019-04-14 02:32:31.01: SIM {TimeUS : 44234799, Roll : 0.0, Pitch : 0.0, Yaw : 359.99, Alt : 30.1499996185, Lat : 49.28357, Lng : -123.11502, Q1 : 1.0, Q2 : 0.0, Q3 : 0.0, Q4 : -1.86124407264e-06}
2019-04-14 02:32:31.11: SIM {TimeUS : 44334759, Roll : 0.0, Pitch : 0.0, Yaw : 359.99, Alt : 30.1900005341, Lat : 49.28357, Lng : -123.11502, Q1 : 1.0, Q2 : 0.0, Q3 : 0.0, Q4 : -2.02494879886e-06}
2019-04-14 02:32:31.21: SIM {TimeUS : 44434719, Roll : -0.02, Pitch : -0.02, Yaw : 359.99, Alt : 30.2299995422, Lat : 49.28357, Lng : -123.11502, Q1 : 0.999999940395, Q2 : -0.000260012893705, Q3 : -0.000253097881796, Q4 : -3.27681595991e-06}
2019-04-14 02:32:31.31: SIM {TimeUS : 44534679, Roll : -0.27, Pitch : -0.23, Yaw : 359.99, Alt : 30.2999992371, Lat : 49.28357, Lng : -123.11502, Q1 : 0.99999499321, Q2 : -0.0024315752089, Q3 : -0.00202506477945, Q4 : -2.55753602687e-05}
2019-04-14 02:32:31.41: SIM {TimeUS : 44634639, Roll : -0.6, Pitch : -0.48, Yaw : 359.99, Alt : 30.4400005341, Lat : 49.28357, Lng : -123.11502, Q1 : 0.999977350235, Q2 : -0.00526110036299, Q3 : -0.00420214515179, Q4 : -7.23457196727e-05}
2019-04-14 02:32:31.51: SIM {TimeUS : 44734599, Roll : -0.81, Pitch : -0.66, Yaw : 359.98, Alt : 30.5900001526, Lat : 49.28357, Lng : -123.11502, Q1 : 0.999958217144, Q2 : -0.00708338432014, Q3 : -0.00577807473019, Q4 : -0.000136649454362}
2019-04-14 02:32:31.61: SIM {TimeUS : 44834559, Roll : -0.84, Pitch : -0.71, Yaw : 359.98, Alt : 30.75, Lat : 49.28357, Lng : -123.11502, Q1 : 0.999953150749, Q2 : -0.00737492833287, Q3 : -0.00626459158957, Q4 : -0.000207697405131}
2019-04-14 02:32:31.71: SIM {TimeUS : 44934519, Roll : -0.72, Pitch : -0.64, Yaw : 359.97, Alt : 30.9099998474, Lat : 49.28357, Lng : -123.1150201, Q1 : 0.999963998795, Q2 : -0.00633531855419, Q3 : -0.00564279127866, Q4 : -0.000277439015917}
2019-04-14 02:32:31.81: SIM {TimeUS : 45035312, Roll : -0.51, Pitch : -0.49, Yaw : 359.96, Alt : 31.0599994659, Lat : 49.2835701, Lng : -123.1150201, Q1 : 0.999980807304, Q2 : -0.00445908959955, Q3 : -0.00428969645873, Q4 : -0.000341069477145}
2019-04-14 02:32:31.91: SIM {TimeUS : 45135272, Roll : -0.27, Pitch : -0.29, Yaw : 359.95, Alt : 31.2199993134, Lat : 49.2835701, Lng : -123.1150202, Q1 : 0.999993681908, Q2 : -0.00239567621611, Q3 : -0.0026032414753, Q4 : -0.000391571811633}
2019-04-14 02:32:32.01: SIM {TimeUS : 45235232, Roll : -0.08, Pitch : -0.11, Yaw : 359.95, Alt : 31.3899993896, Lat : 49.2835702, Lng : -123.1150203, Q1 : 0.999999165535, Q2 : -0.000708926119842, Q3 : -0.000966747815255, Q4 : -0.000430293206591}
2019-04-14 02:32:32.11: SIM {TimeUS : 45335192, Roll : 0.03, Pitch : 0.02, Yaw : 359.94, Alt : 31.5599994659, Lat : 49.2835702, Lng : -123.1150203, Q1 : 0.999999821186, Q2 : 0.000277922197711, Q3 : 0.000256233674008, Q4 : -0.000460375595139}
2019-04-14 02:32:32.21: SIM {TimeUS : 45435152, Roll : 0.06, Pitch : 0.1, Yaw : 359.94, Alt : 31.7299995422, Lat : 49.2835702, Lng : -123.1150204, Q1 : 0.999999284744, Q2 : 0.000573386030737, Q3 : 0.000914333679248, Q4 : -0.000481604773086}
2019-04-14 02:32:32.31: SIM {TimeUS : 45535112, Roll : 0.07, Pitch : 0.13, Yaw : 359.94, Alt : 31.9099998474, Lat : 49.2835703, Lng : -123.1150205, Q1 : 0.999998927116, Q2 : 0.000674896931741, Q3 : 0.00119098939467, Q4 : -0.000483260955662}
2019-04-14 02:32:32.41: SIM {TimeUS : 45635072, Roll : 0.08, Pitch : 0.12, Yaw : 359.94, Alt : 32.0999984741, Lat : 49.2835703, Lng : -123.1150205, Q1 : 0.999999046326, Q2 : 0.000706053106114, Q3 : 0.00109253684059, Q4 : -0.000460805196781}
2019-04-14 02:32:32.51: SIM {TimeUS : 45735032, Roll : 0.08, Pitch : 0.11, Yaw : 359.95, Alt : 32.2900009155, Lat : 49.2835703, Lng : -123.1150206, Q1 : 0.999999165535, Q2 : 0.000701325188857, Q3 : 0.000978957512416, Q4 : -0.000436045840615}
2019-04-14 02:32:32.61: SIM {TimeUS : 45834992, Roll : 0.07, Pitch : 0.1, Yaw : 359.95, Alt : 32.4799995422, Lat : 49.2835703, Lng : -123.1150206, Q1 : 0.999999284744, Q2 : 0.000635334989056, Q3 : 0.000924204709008, Q4 : -0.000412249559304}
2019-04-14 02:32:32.71: SIM {TimeUS : 45934952, Roll : 0.07, Pitch : 0.08, Yaw : 359.95, Alt : 32.6699981689, Lat : 49.2835703, Lng : -123.1150207, Q1 : 0.999999403954, Q2 : 0.000676766328979, Q3 : 0.000784676056355, Q4 : -0.000402123434469}
2019-04-14 02:32:32.81: SIM {TimeUS : 46034912, Roll : 0.09, Pitch : 0.07, Yaw : 359.95, Alt : 32.8699989319, Lat : 49.2835703, Lng : -123.1150207, Q1 : 0.999999403954, Q2 : 0.000815068371594, Q3 : 0.000663872924633, Q4 : -0.000395339913666}
2019-04-14 02:32:32.91: SIM {TimeUS : 46134872, Roll : 0.11, Pitch : 0.09, Yaw : 359.95, Alt : 33.0699996948, Lat : 49.2835704, Lng : -123.1150207, Q1 : 0.99999910593, Q2 : 0.000976474548224, Q3 : 0.000816625601146, Q4 : -0.000391330220737}
2019-04-14 02:32:33.01: SIM {TimeUS : 46234832, Roll : 0.13, Pitch : 0.11, Yaw : 359.95, Alt : 33.2799987793, Lat : 49.2835704, Lng : -123.1150207, Q1 : 0.999998807907, Q2 : 0.00114299205597, Q3 : 0.000993116758764, Q4 : -0.000388519256376}
2019-04-14 02:32:33.11: SIM {TimeUS : 46334792, Roll : 0.15, Pitch : 0.13, Yaw : 359.95, Alt : 33.4799995422, Lat : 49.2835704, Lng : -123.1150208, Q1 : 0.99999833107, Q2 : 0.00134038354736, Q3 : 0.00118233857211, Q4 : -0.000392937334254}
2019-04-14 02:32:33.21: SIM {TimeUS : 46434752, Roll : 0.16, Pitch : 0.14, Yaw : 359.95, Alt : 33.6899986267, Lat : 49.2835704, Lng : -123.1150208, Q1 : 0.999998033047, Q2 : 0.00143980165012, Q3 : 0.00129259028472, Q4 : -0.000403647747589}
2019-04-14 02:32:33.31: SIM {TimeUS : 46534712, Roll : 0.15, Pitch : 0.14, Yaw : 359.95, Alt : 33.8899993896, Lat : 49.2835704, Lng : -123.1150208, Q1 : 0.999998211861, Q2 : 0.00136255717371, Q3 : 0.00125600898173, Q4 : -0.000427893246524}
2019-04-14 02:32:33.41: SIM {TimeUS : 46634672, Roll : 0.13, Pitch : 0.13, Yaw : 359.94, Alt : 34.0999984741, Lat : 49.2835704, Lng : -123.1150208, Q1 : 0.999998450279, Q2 : 0.0012126644142, Q3 : 0.00117706391029, Q4 : -0.000457124959212}
2019-04-14 02:32:33.51: SIM {TimeUS : 46734632, Roll : 0.11, Pitch : 0.12, Yaw : 359.94, Alt : 34.3199996948, Lat : 49.2835704, Lng : -123.1150208, Q1 : 0.999998807907, Q2 : 0.00100035651121, Q3 : 0.00108102767263, Q4 : -0.000490771257319}
2019-04-14 02:32:33.61: SIM {TimeUS : 46834592, Roll : 0.09, Pitch : 0.08, Yaw : 359.93, Alt : 34.5299987793, Lat : 49.2835704, Lng : -123.1150208, Q1 : 0.99999922514, Q2 : 0.000852514931466, Q3 : 0.000750308507122, Q4 : -0.000533302139957}
2019-04-14 02:32:33.71: SIM {TimeUS : 46934552, Roll : 0.08, Pitch : 0.05, Yaw : 359.93, Alt : 34.7400016785, Lat : 49.2835704, Lng : -123.1150208, Q1 : 0.999999463558, Q2 : 0.000769455102272, Q3 : 0.000448254548246, Q4 : -0.000574281846639}
2019-04-14 02:32:33.81: SIM {TimeUS : 47034512, Roll : 0.06, Pitch : 0.03, Yaw : 359.92, Alt : 34.9599990845, Lat : 49.2835704, Lng : -123.1150207, Q1 : 0.999999582767, Q2 : 0.000593416159973, Q3 : 0.000281075655948, Q4 : -0.000616061151959}
2019-04-14 02:32:33.91: SIM {TimeUS : 47135305, Roll : 0.05, Pitch : 0.02, Yaw : 359.92, Alt : 35.1800003052, Lat : 49.2835704, Lng : -123.1150207, Q1 : 0.999999642372, Q2 : 0.000492168415803, Q3 : 0.000240957597271, Q4 : -0.000649888359476}
2019-04-14 02:32:34.01: SIM {TimeUS : 47235265, Roll : 0.05, Pitch : 0.02, Yaw : 359.92, Alt : 35.3899993896, Lat : 49.2835704, Lng : -123.1150207, Q1 : 0.999999642372, Q2 : 0.000479307840578, Q3 : 0.00023308643722, Q4 : -0.000669416040182}
2019-04-14 02:32:34.11: SIM {TimeUS : 47335225, Roll : 0.03, Pitch : 0.0, Yaw : 359.92, Alt : 35.6100006104, Lat : 49.2835704, Lng : -123.1150207, Q1 : 0.999999701977, Q2 : 0.000284917099634, Q3 : 5.84587942285e-05, Q4 : -0.000684252474457}
2019-04-14 02:32:34.21: SIM {TimeUS : 47435185, Roll : 0.0, Pitch : -0.02, Yaw : 359.92, Alt : 35.8300018311, Lat : 49.2835704, Lng : -123.1150207, Q1 : 0.999999761581, Q2 : -1.87336627278e-05, Q3 : -0.000249881937634, Q4 : -0.000694652146194}
2019-04-14 02:32:34.31: SIM {TimeUS : 47535145, Roll : -0.04, Pitch : -0.05, Yaw : 359.91, Alt : 36.0499992371, Lat : 49.2835704, Lng : -123.1150207, Q1 : 0.999999582767, Q2 : -0.000356419855962, Q3 : -0.000479209498735, Q4 : -0.00070620974293}
2019-04-14 02:32:34.41: SIM {TimeUS : 47635105, Roll : -0.07, Pitch : -0.06, Yaw : 359.91, Alt : 36.2700004578, Lat : 49.2835704, Lng : -123.1150207, Q1 : 0.999999344349, Q2 : -0.000631157949101, Q3 : -0.000609655806329, Q4 : -0.000717463553883}
2019-04-14 02:32:34.51: SIM {TimeUS : 47735065, Roll : -0.08, Pitch : -0.07, Yaw : 359.91, Alt : 36.4900016785, Lat : 49.2835704, Lng : -123.1150206, Q1 : 0.999999284744, Q2 : -0.000724463898223, Q3 : -0.00063506339211, Q4 : -0.000727117527276}
2019-04-14 02:32:34.61: SIM {TimeUS : 47835025, Roll : -0.08, Pitch : -0.06, Yaw : 359.91, Alt : 36.7200012207, Lat : 49.2835704, Lng : -123.1150206, Q1 : 0.999999284744, Q2 : -0.000767299265135, Q3 : -0.000598792626988, Q4 : -0.000740319781471}
2019-04-14 02:32:34.71: SIM {TimeUS : 47934985, Roll : -0.07, Pitch : -0.05, Yaw : 359.91, Alt : 36.9399986267, Lat : 49.2835704, Lng : -123.1150206, Q1 : 0.999999344349, Q2 : -0.000698247516993, Q3 : -0.000442405667854, Q4 : -0.000757844187319}
2019-04-14 02:32:34.81: SIM {TimeUS : 48034945, Roll : -0.06, Pitch : -0.04, Yaw : 359.91, Alt : 37.1599998474, Lat : 49.2835704, Lng : -123.1150206, Q1 : 0.999999463558, Q2 : -0.000566984585021, Q3 : -0.000348930421751, Q4 : -0.000773277424742}
2019-04-14 02:32:34.91: SIM {TimeUS : 48134905, Roll : -0.06, Pitch : -0.04, Yaw : 359.9, Alt : 37.3899993896, Lat : 49.2835704, Lng : -123.1150206, Q1 : 0.999999463558, Q2 : -0.000577320053708, Q3 : -0.000383312552003, Q4 : -0.00078799208859}
2019-04-14 02:32:35.01: SIM {TimeUS : 48234865, Roll : -0.07, Pitch : -0.02, Yaw : 359.9, Alt : 37.6100006104, Lat : 49.2835704, Lng : -123.1150206, Q1 : 0.999999463558, Q2 : -0.000641368562356, Q3 : -0.000246651266934, Q4 : -0.00081242917804}
2019-04-14 02:32:35.11: SIM {TimeUS : 48334825, Roll : -0.09, Pitch : 0.0, Yaw : 359.9, Alt : 37.8400001526, Lat : 49.2835704, Lng : -123.1150206, Q1 : 0.999999284744, Q2 : -0.00082719657803, Q3 : -6.11365976511e-05, Q4 : -0.000839549931698}
2019-04-14 02:32:35.21: SIM {TimeUS : 48434785, Roll : -0.09, Pitch : 0.0, Yaw : 359.9, Alt : 38.0699996948, Lat : 49.2835704, Lng : -123.1150206, Q1 : 0.999999284744, Q2 : -0.000837921747006, Q3 : 7.67430028645e-05, Q4 : -0.000858822430018}
2019-04-14 02:32:35.31: SIM {TimeUS : 48534745, Roll : -0.07, Pitch : 0.03, Yaw : 359.89, Alt : 38.2900009155, Lat : 49.2835704, Lng : -123.1150206, Q1 : 0.999999344349, Q2 : -0.000642922474071, Q3 : 0.000335404474754, Q4 : -0.000881261774339}
2019-04-14 02:32:35.41: SIM {TimeUS : 48634705, Roll : -0.04, Pitch : 0.03, Yaw : 359.89, Alt : 38.5200004578, Lat : 49.2835704, Lng : -123.1150206, Q1 : 0.999999463558, Q2 : -0.000431624386692, Q3 : 0.000301037391182, Q4 : -0.000907217268832}
2019-04-14 02:32:35.51: SIM {TimeUS : 48734665, Roll : -0.02, Pitch : 0.01, Yaw : 359.89, Alt : 38.75, Lat : 49.2835704, Lng : -123.1150206, Q1 : 0.999999523163, Q2 : -0.000178470771061, Q3 : 0.000171303137904, Q4 : -0.000930303707719}
2019-04-14 02:32:35.61: SIM {TimeUS : 48834625, Roll : 0.01, Pitch : 0.02, Yaw : 359.89, Alt : 38.9799995422, Lat : 49.2835706, Lng : -123.1150206, Q1 : 0.999999523163, Q2 : 0.000116965486086, Q3 : 0.000219000779907, Q4 : -0.000951178953983}
2019-04-14 02:32:35.71: SIM {TimeUS : 48934585, Roll : 0.04, Pitch : 0.04, Yaw : 359.88, Alt : 39.2099990845, Lat : 49.2835706, Lng : -123.1150206, Q1 : 0.999999344349, Q2 : 0.000416821014369, Q3 : 0.000405789440265, Q4 : -0.000975987873971}
2019-04-14 02:32:35.81: SIM {TimeUS : 49034545, Roll : 0.07, Pitch : 0.07, Yaw : 359.88, Alt : 39.4399986267, Lat : 49.2835706, Lng : -123.1150206, Q1 : 0.999999046326, Q2 : 0.000659668818116, Q3 : 0.000660254445393, Q4 : -0.000999995041639}
2019-04-14 02:32:35.91: SIM {TimeUS : 49134505, Roll : 0.06, Pitch : 0.1, Yaw : 359.88, Alt : 39.6699981689, Lat : 49.2835706, Lng : -123.1150207, Q1 : 0.999998927116, Q2 : 0.000581765489187, Q3 : 0.00090668204939, Q4 : -0.00101876095869}
2019-04-14 02:32:36.01: SIM {TimeUS : 49235298, Roll : 0.01, Pitch : 0.12, Yaw : 359.87, Alt : 39.9000015259, Lat : 49.2835706, Lng : -123.1150206, Q1 : 0.999998807907, Q2 : 0.000168945698533, Q3 : 0.0011264460627, Q4 : -0.00105657381937}
2019-04-14 02:32:36.11: SIM {TimeUS : 49335258, Roll : -0.01, Pitch : 0.13, Yaw : 359.87, Alt : 40.1300010681, Lat : 49.2835706, Lng : -123.1150206, Q1 : 0.999998748302, Q2 : -0.000158542243298, Q3 : 0.0011591570219, Q4 : -0.0010879591573}
2019-04-14 02:32:36.21: SIM {TimeUS : 49435218, Roll : -0.04, Pitch : 0.11, Yaw : 359.87, Alt : 40.3699989319, Lat : 49.2835706, Lng : -123.1150206, Q1 : 0.999998748302, Q2 : -0.000382536411053, Q3 : 0.00104107544757, Q4 : -0.00111867743544}
2019-04-14 02:32:36.31: SIM {TimeUS : 49535178, Roll : -0.05, Pitch : 0.11, Yaw : 359.86, Alt : 40.5999984741, Lat : 49.2835706, Lng : -123.1150206, Q1 : 0.999998748302, Q2 : -0.000480452756165, Q3 : 0.00097330409335, Q4 : -0.00115105113946}
2019-04-14 02:32:36.41: SIM {TimeUS : 49635138, Roll : -0.04, Pitch : 0.12, Yaw : 359.86, Alt : 40.8300018311, Lat : 49.2835706, Lng : -123.1150206, Q1 : 0.999998629093, Q2 : -0.00039230560651, Q3 : 0.00108959164936, Q4 : -0.00118770310655}
2019-04-14 02:32:36.51: SIM {TimeUS : 49735098, Roll : 0.0, Pitch : 0.14, Yaw : 359.85, Alt : 41.0600013733, Lat : 49.2835706, Lng : -123.1150207, Q1 : 0.999998390675, Q2 : -3.96398900193e-05, Q3 : 0.00129157258198, Q4 : -0.00122753635515}
2019-04-14 02:32:36.61: SIM {TimeUS : 49835058, Roll : 0.04, Pitch : 0.15, Yaw : 359.85, Alt : 41.2999992371, Lat : 49.2835706, Lng : -123.1150207, Q1 : 0.999998152256, Q2 : 0.00040202550008, Q3 : 0.00139137194492, Q4 : -0.00126671802718}
2019-04-14 02:32:36.71: SIM {TimeUS : 49935018, Roll : 0.08, Pitch : 0.12, Yaw : 359.85, Alt : 41.5299987793, Lat : 49.2835706, Lng : -123.1150207, Q1 : 0.999998271465, Q2 : 0.000742797972634, Q3 : 0.00112149107736, Q4 : -0.00130058708601}
2019-04-14 02:32:36.81: SIM {TimeUS : 50034978, Roll : 0.09, Pitch : 0.07, Yaw : 359.84, Alt : 41.7599983215, Lat : 49.2835706, Lng : -123.1150207, Q1 : 0.999998569489, Q2 : 0.000806055031717, Q3 : 0.000680086726788, Q4 : -0.00132628995925}
2019-04-14 02:32:36.91: SIM {TimeUS : 50134938, Roll : 0.05, Pitch : 0.04, Yaw : 359.84, Alt : 42.0, Lat : 49.2835706, Lng : -123.1150207, Q1 : 0.999998867512, Q2 : 0.0005181604065, Q3 : 0.00040077464655, Q4 : -0.00134104781318}
2019-04-14 02:32:37.01: SIM {TimeUS : 50234898, Roll : 0.0, Pitch : 0.03, Yaw : 359.84, Alt : 42.2299995422, Lat : 49.2835706, Lng : -123.1150207, Q1 : 0.999999046326, Q2 : 6.17664773017e-05, Q3 : 0.000344900327036, Q4 : -0.00134549860377}
2019-04-14 02:32:37.11: SIM {TimeUS : 50334858, Roll : -0.02, Pitch : 0.06, Yaw : 359.84, Alt : 42.4599990845, Lat : 49.2835706, Lng : -123.1150207, Q1 : 0.999998867512, Q2 : -0.000235153769609, Q3 : 0.000581430562306, Q4 : -0.00134282186627}
2019-04-14 02:32:37.21: SIM {TimeUS : 50434818, Roll : -0.04, Pitch : 0.08, Yaw : 359.84, Alt : 42.7000007629, Lat : 49.2835704, Lng : -123.1150207, Q1 : 0.999998748302, Q2 : -0.00038281804882, Q3 : 0.000753792992327, Q4 : -0.0013380588498}
2019-04-14 02:32:37.31: SIM {TimeUS : 50534778, Roll : -0.04, Pitch : 0.07, Yaw : 359.84, Alt : 42.9300003052, Lat : 49.2835704, Lng : -123.1150206, Q1 : 0.999998807907, Q2 : -0.000358534947736, Q3 : 0.00069369468838, Q4 : -0.00133795524016}
2019-04-14 02:32:37.41: SIM {TimeUS : 50634738, Roll : -0.04, Pitch : 0.06, Yaw : 359.84, Alt : 43.1699981689, Lat : 49.2835704, Lng : -123.1150206, Q1 : 0.999998867512, Q2 : -0.00037960492773, Q3 : 0.000526797608472, Q4 : -0.00134487345349}
2019-04-14 02:32:37.51: SIM {TimeUS : 50734698, Roll : -0.03, Pitch : 0.04, Yaw : 359.84, Alt : 43.4000015259, Lat : 49.2835704, Lng : -123.1150206, Q1 : 0.999998986721, Q2 : -0.00031457139994, Q3 : 0.000360832927981, Q4 : -0.00135948171373}
2019-04-14 02:32:37.61: SIM {TimeUS : 50834658, Roll : -0.01, Pitch : 0.03, Yaw : 359.84, Alt : 43.6399993896, Lat : 49.2835704, Lng : -123.1150206, Q1 : 0.999998986721, Q2 : -0.000153533008415, Q3 : 0.000294935249258, Q4 : -0.00138475082349}
2019-04-14 02:32:37.71: SIM {TimeUS : 50934618, Roll : 0.0, Pitch : 0.03, Yaw : 359.83, Alt : 43.8699989319, Lat : 49.2835704, Lng : -123.1150206, Q1 : 0.999998986721, Q2 : -4.77241956105e-05, Q3 : 0.000292310025543, Q4 : -0.00141387141775}
2019-04-14 02:32:37.81: SIM {TimeUS : 51034578, Roll : -0.01, Pitch : 0.01, Yaw : 359.83, Alt : 44.1100006104, Lat : 49.2835704, Lng : -123.1150206, Q1 : 0.999998986721, Q2 : -8.75387922861e-05, Q3 : 0.00015369123139, Q4 : -0.00144265487324}
2019-04-14 02:32:37.91: SIM {TimeUS : 51134538, Roll : -0.01, Pitch : -0.01, Yaw : 359.83, Alt : 44.3499984741, Lat : 49.2835704, Lng : -123.1150206, Q1 : 0.999998867512, Q2 : -0.000160700335982, Q3 : -0.000122879311675, Q4 : -0.0014726461377}
2019-04-14 02:32:38.01: SIM {TimeUS : 51234498, Roll : -0.02, Pitch : -0.03, Yaw : 359.82, Alt : 44.5800018311, Lat : 49.2835704, Lng : -123.1150206, Q1 : 0.999998807907, Q2 : -0.000215484280488, Q3 : -0.000294499332085, Q4 : -0.00150593009312}
2019-04-14 02:32:38.11: SIM {TimeUS : 51335291, Roll : -0.02, Pitch : -0.04, Yaw : 359.82, Alt : 44.8199996948, Lat : 49.2835704, Lng : -123.1150206, Q1 : 0.999998748302, Q2 : -0.000177460548002, Q3 : -0.00037155020982, Q4 : -0.00154153280891}
2019-04-14 02:32:38.21: SIM {TimeUS : 51435251, Roll : -0.02, Pitch : -0.04, Yaw : 359.81, Alt : 45.0600013733, Lat : 49.2835704, Lng : -123.1150206, Q1 : 0.999998629093, Q2 : -0.000218417626456, Q3 : -0.000410784647102, Q4 : -0.00157649896573}
2019-04-14 02:32:38.31: SIM {TimeUS : 51535211, Roll : -0.05, Pitch : -0.04, Yaw : 359.81, Alt : 45.2900009155, Lat : 49.2835703, Lng : -123.1150206, Q1 : 0.999998509884, Q2 : -0.000442698801635, Q3 : -0.000393942580558, Q4 : -0.00161076185759}
2019-04-14 02:32:38.41: SIM {TimeUS : 51635171, Roll : -0.08, Pitch : -0.04, Yaw : 359.81, Alt : 45.5299987793, Lat : 49.2835703, Lng : -123.1150206, Q1 : 0.999998271465, Q2 : -0.000777825189289, Q3 : -0.000369206478354, Q4 : -0.00164484605193}
2019-04-14 02:32:38.51: SIM {TimeUS : 51735131, Roll : -0.11, Pitch : -0.03, Yaw : 359.8, Alt : 45.7599983215, Lat : 49.2835703, Lng : -123.1150206, Q1 : 0.999998033047, Q2 : -0.000987947103567, Q3 : -0.000331688526785, Q4 : -0.001675477135}
2019-04-14 02:32:38.61: SIM {TimeUS : 51835091, Roll : -0.11, Pitch : -0.02, Yaw : 359.8, Alt : 45.9900016785, Lat : 49.2835703, Lng : -123.1150206, Q1 : 0.999998033047, Q2 : -0.00100151554216, Q3 : -0.000191275583347, Q4 : -0.00170747120865}
2019-04-14 02:32:38.71: SIM {TimeUS : 51935051, Roll : -0.09, Pitch : 0.0, Yaw : 359.8, Alt : 46.2200012207, Lat : 49.2835703, Lng : -123.1150206, Q1 : 0.999998092651, Q2 : -0.000857760780491, Q3 : 5.93669719819e-05, Q4 : -0.00173798343167}
2019-04-14 02:32:38.81: SIM {TimeUS : 52035011, Roll : -0.06, Pitch : 0.02, Yaw : 359.79, Alt : 46.4500007629, Lat : 49.2835703, Lng : -123.1150206, Q1 : 0.999998211861, Q2 : -0.00060782575747, Q3 : 0.000209187550354, Q4 : -0.00176465290133}
2019-04-14 02:32:38.91: SIM {TimeUS : 52134971, Roll : -0.04, Pitch : 0.02, Yaw : 359.79, Alt : 46.6699981689, Lat : 49.2835703, Lng : -123.1150206, Q1 : 0.99999833107, Q2 : -0.00040174726746, Q3 : 0.000179663387826, Q4 : -0.00178630952723}
2019-04-14 02:32:39.01: SIM {TimeUS : 52234931, Roll : -0.03, Pitch : 0.0, Yaw : 359.79, Alt : 46.8800010681, Lat : 49.2835703, Lng : -123.1150206, Q1 : 0.99999833107, Q2 : -0.000298144412227, Q3 : 5.41401050214e-06, Q4 : -0.00180760503281}
2019-04-14 02:32:39.11: SIM {TimeUS : 52334891, Roll : -0.02, Pitch : -0.02, Yaw : 359.79, Alt : 47.0900001526, Lat : 49.2835703, Lng : -123.1150206, Q1 : 0.999998271465, Q2 : -0.000180138435098, Q3 : -0.000259339693002, Q4 : -0.00182520772796}
2019-04-14 02:32:39.21: SIM {TimeUS : 52434851, Roll : 0.0, Pitch : -0.05, Yaw : 359.78, Alt : 47.2900009155, Lat : 49.2835703, Lng : -123.1150206, Q1 : 0.999998152256, Q2 : 4.87849956698e-06, Q3 : -0.000517365639098, Q4 : -0.00183968152851}
2019-04-14 02:32:39.31: SIM {TimeUS : 52534811, Roll : 0.01, Pitch : -0.08, Yaw : 359.78, Alt : 47.4799995422, Lat : 49.2835703, Lng : -123.1150206, Q1 : 0.999998033047, Q2 : 8.69437644724e-05, Q3 : -0.000733876659069, Q4 : -0.00185862521175}
2019-04-14 02:32:39.41: SIM {TimeUS : 52634771, Roll : 0.0, Pitch : -0.11, Yaw : 359.78, Alt : 47.6599998474, Lat : 49.2835703, Lng : -123.1150206, Q1 : 0.999997735023, Q2 : 3.73048278561e-05, Q3 : -0.000997966970317, Q4 : -0.00188005820382}
2019-04-14 02:32:39.51: SIM {TimeUS : 52734731, Roll : 0.01, Pitch : -0.14, Yaw : 359.78, Alt : 47.8400001526, Lat : 49.2835703, Lng : -123.1150206, Q1 : 0.999997377396, Q2 : 0.000130757078296, Q3 : -0.00125481304713, Q4 : -0.00190108036622}
2019-04-14 02:32:39.61: SIM {TimeUS : 52834691, Roll : 0.04, Pitch : -0.15, Yaw : 359.77, Alt : 48.0, Lat : 49.2835703, Lng : -123.1150206, Q1 : 0.999997198582, Q2 : 0.000353777431883, Q3 : -0.0013203297276, Q4 : -0.00192434934434}
2019-04-14 02:32:39.71: SIM {TimeUS : 52934651, Roll : 0.07, Pitch : -0.13, Yaw : 359.77, Alt : 48.1399993896, Lat : 49.2835704, Lng : -123.1150206, Q1 : 0.999997258186, Q2 : 0.000610366754699, Q3 : -0.00118145230226, Q4 : -0.00194530677982}
2019-04-14 02:32:39.81: SIM {TimeUS : 53034611, Roll : 0.08, Pitch : -0.1, Yaw : 359.77, Alt : 48.2799987793, Lat : 49.2835704, Lng : -123.1150206, Q1 : 0.999997377396, Q2 : 0.00073362357216, Q3 : -0.000927396991756, Q4 : -0.0019656540826}
2019-04-14 02:32:39.91: SIM {TimeUS : 53134571, Roll : 0.09, Pitch : -0.08, Yaw : 359.77, Alt : 48.4099998474, Lat : 49.2835704, Lng : -123.1150206, Q1 : 0.999997437, Q2 : 0.000811946520116, Q3 : -0.000724011333659, Q4 : -0.00198598904535}
2019-04-14 02:32:40.01: SIM {TimeUS : 53234531, Roll : 0.08, Pitch : -0.07, Yaw : 359.76, Alt : 48.5200004578, Lat : 49.2835704, Lng : -123.1150206, Q1 : 0.999997496605, Q2 : 0.000726561353076, Q3 : -0.000655866111629, Q4 : -0.00201154733077}
2019-04-14 02:32:40.11: SIM {TimeUS : 53335324, Roll : 0.05, Pitch : -0.06, Yaw : 359.76, Alt : 48.6199989319, Lat : 49.2835704, Lng : -123.1150206, Q1 : 0.999997615814, Q2 : 0.000482664036099, Q3 : -0.000564446265344, Q4 : -0.0020394034218}
2019-04-14 02:32:40.21: SIM {TimeUS : 53435284, Roll : 0.03, Pitch : -0.04, Yaw : 359.76, Alt : 48.7099990845, Lat : 49.2835704, Lng : -123.1150206, Q1 : 0.999997735023, Q2 : 0.000295361707686, Q3 : -0.000405252998462, Q4 : -0.00206769653596}
2019-04-14 02:32:40.31: SIM {TimeUS : 53535244, Roll : 0.01, Pitch : -0.02, Yaw : 359.75, Alt : 48.7799987793, Lat : 49.2835704, Lng : -123.1150206, Q1 : 0.999997794628, Q2 : 0.000107100553578, Q3 : -0.000223988972721, Q4 : -0.00209657405503}
2019-04-14 02:32:40.41: SIM {TimeUS : 53635204, Roll : 0.0, Pitch : 0.0, Yaw : 359.75, Alt : 48.8499984741, Lat : 49.2835704, Lng : -123.1150206, Q1 : 0.999997735023, Q2 : -1.51901667778e-05, Q3 : -1.1958985624e-07, Q4 : -0.00212270324118}
2019-04-14 02:32:40.51: SIM {TimeUS : 53735164, Roll : 0.01, Pitch : 0.03, Yaw : 359.75, Alt : 48.9099998474, Lat : 49.2835704, Lng : -123.1150206, Q1 : 0.999997615814, Q2 : 0.000107567459054, Q3 : 0.000316984951496, Q4 : -0.00215129321441}
2019-04-14 02:32:40.61: SIM {TimeUS : 53835124, Roll : 0.03, Pitch : 0.05, Yaw : 359.75, Alt : 48.9500007629, Lat : 49.2835704, Lng : -123.1150206, Q1 : 0.999997437, Q2 : 0.000315446697641, Q3 : 0.000515158986673, Q4 : -0.00217996956781}
2019-04-14 02:32:40.71: SIM {TimeUS : 53935084, Roll : 0.07, Pitch : 0.02, Yaw : 359.74, Alt : 49.0, Lat : 49.2835704, Lng : -123.1150206, Q1 : 0.999997258186, Q2 : 0.000695935508702, Q3 : 0.000229527780903, Q4 : -0.00221352349035}
2019-04-14 02:32:40.81: SIM {TimeUS : 54035044, Roll : 0.23, Pitch : -0.1, Yaw : 359.74, Alt : 49.0299987793, Lat : 49.2835704, Lng : -123.1150206, Q1 : 0.99999499321, Q2 : 0.00202606059611, Q3 : -0.000899747712538, Q4 : -0.00225293613039}
2019-04-14 02:32:40.91: SIM {TimeUS : 54135004, Roll : 0.58, Pitch : -0.39, Yaw : 359.73, Alt : 49.0600013733, Lat : 49.2835706, Lng : -123.1150206, Q1 : 0.999978601933, Q2 : 0.00507446983829, Q3 : -0.00343985389918, Q4 : -0.00228319643065}
2019-04-14 02:32:41.01: SIM {TimeUS : 54234964, Roll : 1.16, Pitch : -0.83, Yaw : 359.72, Alt : 49.0900001526, Lat : 49.2835706, Lng : -123.1150206, Q1 : 0.999919116497, Q2 : 0.0101299677044, Q3 : -0.00734279723838, Q4 : -0.00229921750724}
2019-04-14 02:32:41.11: SIM {TimeUS : 54334924, Roll : 1.92, Pitch : -1.37, Yaw : 359.71, Alt : 49.1100006104, Lat : 49.2835706, Lng : -123.1150206, Q1 : 0.999783873558, Q2 : 0.0167734771967, Q3 : -0.012070748955, Q4 : -0.00228553451598}
2019-04-14 02:32:41.21: SIM {TimeUS : 54434884, Roll : 2.77, Pitch : -1.97, Yaw : 359.69, Alt : 49.1300010681, Lat : 49.2835706, Lng : -123.1150205, Q1 : 0.999555766582, Q2 : 0.0241769589484, Q3 : -0.0172868724912, Q4 : -0.00223306147382}
2019-04-14 02:32:41.31: SIM {TimeUS : 54534844, Roll : 3.58, Pitch : -2.54, Yaw : 359.67, Alt : 49.1500015259, Lat : 49.2835707, Lng : -123.1150203, Q1 : 0.999261438847, Q2 : 0.0312493611127, Q3 : -0.0222602076828, Q4 : -0.00212602200918}
2019-04-14 02:32:41.41: SIM {TimeUS : 54634804, Roll : 4.24, Pitch : -2.99, Yaw : 359.66, Alt : 49.1599998474, Lat : 49.2835708, Lng : -123.1150201, Q1 : 0.998970627785, Q2 : 0.0369476340711, Q3 : -0.026243692264, Q4 : -0.00195836415514}
2019-04-14 02:32:41.51: SIM {TimeUS : 54734764, Roll : 4.72, Pitch : -3.34, Yaw : 359.66, Alt : 49.1800003052, Lat : 49.2835709, Lng : -123.1150199, Q1 : 0.998725473881, Q2 : 0.0410869978368, Q3 : -0.0292606335133, Q4 : -0.0017472258769}
2019-04-14 02:32:41.61: SIM {TimeUS : 54834724, Roll : 5.07, Pitch : -3.6, Yaw : 359.66, Alt : 49.1899986267, Lat : 49.283571, Lng : -123.1150195, Q1 : 0.998523890972, Q2 : 0.0442015379667, Q3 : -0.0315275937319, Q4 : -0.00150462472811}
2019-04-14 02:32:41.71: SIM {TimeUS : 54934684, Roll : 5.38, Pitch : -3.8, Yaw : 359.68, Alt : 49.2000007629, Lat : 49.2835713, Lng : -123.115019, Q1 : 0.998346149921, Q2 : 0.0468394309282, Q3 : -0.0333102755249, Q4 : -0.00122737803031}
2019-04-14 02:32:41.81: SIM {TimeUS : 55034644, Roll : 5.66, Pitch : -3.98, Yaw : 359.69, Alt : 49.2099990845, Lat : 49.2835715, Lng : -123.1150185, Q1 : 0.998174726963, Q2 : 0.0493009760976, Q3 : -0.0348673313856, Q4 : -0.000939108722378}
2019-04-14 02:32:41.91: SIM {TimeUS : 55134604, Roll : 5.96, Pitch : -4.18, Yaw : 359.7, Alt : 49.2200012207, Lat : 49.2835719, Lng : -123.1150178, Q1 : 0.997980773449, Q2 : 0.0519066117704, Q3 : -0.0366012528539, Q4 : -0.00066393049201}
2019-04-14 02:32:42.01: SIM {TimeUS : 55234564, Roll : 6.25, Pitch : -4.39, Yaw : 359.71, Alt : 49.2200012207, Lat : 49.2835722, Lng : -123.1150171, Q1 : 0.997776031494, Q2 : 0.0544518120587, Q3 : -0.0384431406856, Q4 : -0.000415926711867}
2019-04-14 02:32:42.11: SIM {TimeUS : 55334524, Roll : 6.51, Pitch : -4.57, Yaw : 359.71, Alt : 49.2299995422, Lat : 49.2835727, Lng : -123.1150162, Q1 : 0.997591495514, Q2 : 0.0567039363086, Q3 : -0.0399480164051, Q4 : -0.0001800111786}
2019-04-14 02:32:42.21: SIM {TimeUS : 55435317, Roll : 6.71, Pitch : -4.69, Yaw : 359.72, Alt : 49.2400016785, Lat : 49.2835731, Lng : -123.1150151, Q1 : 0.997451007366, Q2 : 0.0584021806717, Q3 : -0.0409954898059, Q4 : 3.71998794435e-05}
2019-04-14 02:32:42.31: SIM {TimeUS : 55535277, Roll : 6.84, Pitch : -4.78, Yaw : 359.73, Alt : 49.2400016785, Lat : 49.2835735, Lng : -123.1150142, Q1 : 0.997349500656, Q2 : 0.0595541745424, Q3 : -0.0417999178171, Q4 : 0.000202770766919}
2019-04-14 02:32:42.41: SIM {TimeUS : 55635237, Roll : 6.95, Pitch : -4.85, Yaw : 359.74, Alt : 49.25, Lat : 49.283574, Lng : -123.115013, Q1 : 0.997266829014, Q2 : 0.0604686997831, Q3 : -0.0424540638924, Q4 : 0.000321160448948}
2019-04-14 02:32:42.51: SIM {TimeUS : 55735197, Roll : 7.07, Pitch : -4.93, Yaw : 359.73, Alt : 49.25, Lat : 49.2835746, Lng : -123.1150118, Q1 : 0.997173726559, Q2 : 0.0615314915776, Q3 : -0.0431085266173, Q4 : 0.000388945394661}
2019-04-14 02:32:42.61: SIM {TimeUS : 55835157, Roll : 7.32, Pitch : -4.94, Yaw : 359.79, Alt : 49.25, Lat : 49.2835752, Lng : -123.1150105, Q1 : 0.99703168869, Q2 : 0.0637700408697, Q3 : -0.0431307628751, Q4 : 0.000990755157545}
2019-04-14 02:32:42.71: SIM {TimeUS : 55935117, Roll : 7.8, Pitch : -4.77, Yaw : 0.34, Alt : 49.2599983215, Lat : 49.2835758, Lng : -123.1150091, Q1 : 0.996798396111, Q2 : 0.0681567937136, Q3 : -0.0413996167481, Q4 : 0.00580820906907}
2019-04-14 02:32:42.81: SIM {TimeUS : 56035077, Roll : 8.43, Pitch : -4.61, Yaw : 2.05, Alt : 49.2599983215, Lat : 49.2835765, Lng : -123.1150076, Q1 : 0.996271073818, Q2 : 0.0741919651628, Q3 : -0.0388252735138, Q4 : 0.0207862164825}
2019-04-14 02:32:42.91: SIM {TimeUS : 56135037, Roll : 8.94, Pitch : -4.82, Yaw : 5.31, Alt : 49.2599983215, Lat : 49.2835773, Lng : -123.115006, Q1 : 0.99484449625, Q2 : 0.0797977223992, Q3 : -0.038303475827, Q4 : 0.0494943372905}
2019-04-14 02:32:43.01: SIM {TimeUS : 56234997, Roll : 9.11, Pitch : -5.56, Yaw : 10.11, Alt : 49.2599983215, Lat : 49.283578, Lng : -123.1150043, Q1 : 0.991444289684, Q2 : 0.0833141729236, Q3 : -0.0412219129503, Q4 : 0.0916395261884}
2019-04-14 02:32:43.11: SIM {TimeUS : 56334957, Roll : 8.74, Pitch : -6.78, Yaw : 16.24, Alt : 49.2599983215, Lat : 49.2835787, Lng : -123.1150025, Q1 : 0.984720110893, Q2 : 0.0836805254221, Q3 : -0.0476784519851, Q4 : 0.14508831501}
2019-04-14 02:32:43.21: SIM {TimeUS : 56434917, Roll : 7.76, Pitch : -8.31, Yaw : 23.44, Alt : 49.2700004578, Lat : 49.2835794, Lng : -123.1150005, Q1 : 0.973319709301, Q2 : 0.0808532610536, Q3 : -0.0571085363626, Q4 : 0.20700275898}
2019-04-14 02:32:43.31: SIM {TimeUS : 56534877, Roll : 6.2, Pitch : -9.94, Yaw : 31.47, Alt : 49.2700004578, Lat : 49.2835801, Lng : -123.1149985, Q1 : 0.956219315529, Q2 : 0.0753645896912, Q3 : -0.0686933025718, Q4 : 0.274310052395}
2019-04-14 02:32:43.41: SIM {TimeUS : 56634837, Roll : 4.11, Pitch : -11.42, Yaw : 40.06, Alt : 49.2700004578, Lat : 49.2835808, Lng : -123.1149963, Q1 : 0.933020353317, Q2 : 0.0676392763853, Q3 : -0.0812107250094, Q4 : 0.343951672316}
2019-04-14 02:32:43.51: SIM {TimeUS : 56734797, Roll : 1.39, Pitch : -12.54, Yaw : 48.8, Alt : 49.2700004578, Lat : 49.2835818, Lng : -123.114994, Q1 : 0.904603898525, Q2 : 0.056133557111, Q3 : -0.0945095121861, Q4 : 0.411835819483}
2019-04-14 02:32:43.61: SIM {TimeUS : 56834757, Roll : -1.79, Pitch : -13.12, Yaw : 56.89, Alt : 49.2700004578, Lat : 49.2835826, Lng : -123.1149916, Q1 : 0.874250948429, Q2 : 0.0407329425216, Q3 : -0.107928231359, Q4 : 0.471569299698}
2019-04-14 02:32:43.71: SIM {TimeUS : 56934717, Roll : -4.82, Pitch : -13.16, Yaw : 63.46, Alt : 49.2700004578, Lat : 49.2835836, Lng : -123.1149892, Q1 : 0.846701323986, Q2 : 0.0246753301471, Q3 : -0.119424037635, Q4 : 0.5179053545}
2019-04-14 02:32:43.81: SIM {TimeUS : 57034677, Roll : -7.07, Pitch : -12.89, Yaw : 68.0, Alt : 49.2700004578, Lat : 49.2835847, Lng : -123.1149867, Q1 : 0.826081037521, Q2 : 0.0118419416249, Q3 : -0.127168864012, Q4 : 0.548887908459}
2019-04-14 02:32:43.91: SIM {TimeUS : 57134637, Roll : -8.24, Pitch : -12.6, Yaw : 70.46, Alt : 49.2700004578, Lat : 49.2835858, Lng : -123.1149841, Q1 : 0.814321875572, Q2 : 0.00474877795205, Q3 : -0.130646154284, Q4 : 0.565498769283}
2019-04-14 02:32:44.01: SIM {TimeUS : 57234597, Roll : -8.38, Pitch : -12.5, Yaw : 71.1, Alt : 49.2700004578, Lat : 49.2835871, Lng : -123.1149815, Q1 : 0.811200618744, Q2 : 0.00405695382506, Q3 : -0.130619674921, Q4 : 0.56997859478}
2019-04-14 02:32:44.11: SIM {TimeUS : 57334557, Roll : -7.64, Pitch : -12.69, Yaw : 70.27, Alt : 49.2700004578, Lat : 49.2835885, Lng : -123.1149788, Q1 : 0.815171897411, Q2 : 0.009316585958, Q3 : -0.12838961184, Q4 : 0.564733684063}
2019-04-14 02:32:44.21: SIM {TimeUS : 57434517, Roll : -6.29, Pitch : -13.18, Yaw : 68.35, Alt : 49.2700004578, Lat : 49.2835898, Lng : -123.114976, Q1 : 0.8241507411, Q2 : 0.0192546937615, Q3 : -0.125496923923, Q4 : 0.551955938339}
2019-04-14 02:32:44.31: SIM {TimeUS : 57535310, Roll : -4.54, Pitch : -13.87, Yaw : 65.63, Alt : 49.2700004578, Lat : 49.2835915, Lng : -123.1149732, Q1 : 0.836194872856, Q2 : 0.0323408544064, Q3 : -0.122768141329, Q4 : 0.533535599709}
2019-04-14 02:32:44.41: SIM {TimeUS : 57635270, Roll : -2.63, Pitch : -14.61, Yaw : 62.48, Alt : 49.2799987793, Lat : 49.2835929, Lng : -123.1149704, Q1 : 0.849339485168, Q2 : 0.04644696787, Q3 : -0.120511949062, Q4 : 0.511802613735}
2019-04-14 02:32:44.51: SIM {TimeUS : 57735230, Roll : -0.73, Pitch : -15.24, Yaw : 59.19, Alt : 49.2799987793, Lat : 49.2835946, Lng : -123.1149674, Q1 : 0.862239420414, Q2 : 0.0599567368627, Q3 : -0.118476703763, Q4 : 0.488785892725}
2019-04-14 02:32:44.61: SIM {TimeUS : 57835190, Roll : 0.97, Pitch : -15.66, Yaw : 56.1, Alt : 49.2799987793, Lat : 49.2835963, Lng : -123.1149643, Q1 : 0.873708963394, Q2 : 0.0715697705746, Q3 : -0.116317853332, Q4 : 0.466883897781}
2019-04-14 02:32:44.71: SIM {TimeUS : 57935150, Roll : 2.36, Pitch : -15.88, Yaw : 53.51, Alt : 49.2799987793, Lat : 49.283598, Lng : -123.1149612, Q1 : 0.882889986038, Q2 : 0.0803979337215, Q3 : -0.114146262407, Q4 : 0.448343664408}
2019-04-14 02:32:44.81: SIM {TimeUS : 58035110, Roll : 3.29, Pitch : -15.92, Yaw : 51.64, Alt : 49.2799987793, Lat : 49.2835995, Lng : -123.1149578, Q1 : 0.889386475086, Q2 : 0.0859187468886, Q3 : -0.112234704196, Q4 : 0.434756278992}
2019-04-14 02:32:44.91: SIM {TimeUS : 58135070, Roll : 3.72, Pitch : -15.87, Yaw : 50.56, Alt : 49.2799987793, Lat : 49.2836013, Lng : -123.1149543, Q1 : 0.893143594265, Q2 : 0.0880440622568, Q3 : -0.111078314483, Q4 : 0.426854074001}
2019-04-14 02:32:45.01: SIM {TimeUS : 58235030, Roll : 3.68, Pitch : -15.81, Yaw : 50.27, Alt : 49.2799987793, Lat : 49.283603, Lng : -123.1149508, Q1 : 0.894332051277, Q2 : 0.0871945917606, Q3 : -0.110934741795, Q4 : 0.424571335316}
2019-04-14 02:32:45.11: SIM {TimeUS : 58334990, Roll : 3.26, Pitch : -15.78, Yaw : 50.66, Alt : 49.2799987793, Lat : 49.2836047, Lng : -123.1149471, Q1 : 0.893237888813, Q2 : 0.0842351689935, Q3 : -0.112019464374, Q4 : 0.427179276943}
2019-04-14 02:32:45.21: SIM {TimeUS : 58434950, Roll : 2.54, Pitch : -15.83, Yaw : 51.56, Alt : 49.2799987793, Lat : 49.2836063, Lng : -123.1149433, Q1 : 0.890307724476, Q2 : 0.0797484219074, Q3 : -0.114463455975, Q4 : 0.43346336484}
2019-04-14 02:32:45.31: SIM {TimeUS : 58534910, Roll : 1.68, Pitch : -15.96, Yaw : 52.79, Alt : 49.2799987793, Lat : 49.283608, Lng : -123.1149394, Q1 : 0.886046051979, Q2 : 0.0747697874904, Q3 : -0.117875024676, Q4 : 0.44208291173}
2019-04-14 02:32:45.41: SIM {TimeUS : 58634870, Roll : 0.81, Pitch : -16.09, Yaw : 54.16, Alt : 49.2799987793, Lat : 49.2836098, Lng : -123.1149355, Q1 : 0.881094932556, Q2 : 0.0699678957462, Q3 : -0.121423952281, Q4 : 0.451699584723}
2019-04-14 02:32:45.51: SIM {TimeUS : 58734830, Roll : 0.0, Pitch : -16.2, Yaw : 55.51, Alt : 49.2799987793, Lat : 49.2836116, Lng : -123.1149315, Q1 : 0.876099944115, Q2 : 0.0656775459647, Q3 : -0.124740883708, Q4 : 0.461058735847}
2019-04-14 02:32:45.61: SIM {TimeUS : 58834790, Roll : -0.68, Pitch : -16.31, Yaw : 56.68, Alt : 49.2799987793, Lat : 49.2836134, Lng : -123.1149274, Q1 : 0.871625244617, Q2 : 0.0621584877372, Q3 : -0.127667814493, Q4 : 0.469155341387}
2019-04-14 02:32:45.71: SIM {TimeUS : 58934750, Roll : -1.18, Pitch : -16.39, Yaw : 57.57, Alt : 49.2900009155, Lat : 49.2836152, Lng : -123.1149232, Q1 : 0.868105471134, Q2 : 0.0596877522767, Q3 : -0.129894509912, Q4 : 0.475350052118}
2019-04-14 02:32:45.81: SIM {TimeUS : 59034710, Roll : -1.48, Pitch : -16.46, Yaw : 58.15, Alt : 49.2900009155, Lat : 49.283617, Lng : -123.114919, Q1 : 0.86579811573, Q2 : 0.0583917498589, Q3 : -0.131344422698, Q4 : 0.479304373264}
2019-04-14 02:32:45.91: SIM {TimeUS : 59134670, Roll : -1.56, Pitch : -16.5, Yaw : 58.39, Alt : 49.2900009155, Lat : 49.2836189, Lng : -123.1149148, Q1 : 0.864789307117, Q2 : 0.0581789761782, Q3 : -0.131857171655, Q4 : 0.481007665396}
2019-04-14 02:32:46.01: SIM {TimeUS : 59234630, Roll : -1.45, Pitch : -16.52, Yaw : 58.33, Alt : 49.2900009155, Lat : 49.2836207, Lng : -123.1149105, Q1 : 0.864959955215, Q2 : 0.0590355098248, Q3 : -0.131607234478, Q4 : 0.480664819479}
2019-04-14 02:32:46.11: SIM {TimeUS : 59334590, Roll : -1.19, Pitch : -16.54, Yaw : 58.02, Alt : 49.2900009155, Lat : 49.2836227, Lng : -123.1149062, Q1 : 0.866072773933, Q2 : 0.0607546456158, Q3 : -0.130852594972, Q4 : 0.478648543358}
2019-04-14 02:32:46.21: SIM {TimeUS : 59434550, Roll : -0.84, Pitch : -16.57, Yaw : 57.55, Alt : 49.2900009155, Lat : 49.2836247, Lng : -123.1149019, Q1 : 0.867823958397, Q2 : 0.0630016103387, Q3 : -0.129864051938, Q4 : 0.475444763899}
2019-04-14 02:32:46.31: SIM {TimeUS : 59534510, Roll : -0.45, Pitch : -16.61, Yaw : 56.99, Alt : 49.2900009155, Lat : 49.2836267, Lng : -123.1148975, Q1 : 0.869893789291, Q2 : 0.0654932484031, Q3 : -0.128831610084, Q4 : 0.471590846777}
2019-04-14 02:32:46.41: SIM {TimeUS : 59635303, Roll : -0.06, Pitch : -16.66, Yaw : 56.4, Alt : 49.2900009155, Lat : 49.2836287, Lng : -123.114893, Q1 : 0.872003614902, Q2 : 0.067967414856, Q3 : -0.127956226468, Q4 : 0.467565327883}
2019-04-14 02:32:46.51: SIM {TimeUS : 59735263, Roll : 0.25, Pitch : -16.7, Yaw : 55.88, Alt : 49.2900009155, Lat : 49.2836308, Lng : -123.1148885, Q1 : 0.873913764954, Q2 : 0.0699913352728, Q3 : -0.127270206809, Q4 : 0.46387308836}
2019-04-14 02:32:46.61: SIM {TimeUS : 59835223, Roll : 0.49, Pitch : -16.73, Yaw : 55.44, Alt : 49.2900009155, Lat : 49.2836328, Lng : -123.114884, Q1 : 0.875470161438, Q2 : 0.0714780911803, Q3 : -0.126846417785, Q4 : 0.460817605257}
2019-04-14 02:32:46.71: SIM {TimeUS : 59935183, Roll : 0.63, Pitch : -16.77, Yaw : 55.14, Alt : 49.2900009155, Lat : 49.2836348, Lng : -123.1148794, Q1 : 0.876570999622, Q2 : 0.0723819732666, Q3 : -0.126723483205, Q4 : 0.458612412214}
2019-04-14 02:32:46.81: SIM {TimeUS : 60035143, Roll : 0.68, Pitch : -16.81, Yaw : 54.97, Alt : 49.2900009155, Lat : 49.283637, Lng : -123.1148748, Q1 : 0.877175867558, Q2 : 0.0727239325643, Q3 : -0.126936882734, Q4 : 0.457340985537}
2019-04-14 02:32:46.91: SIM {TimeUS : 60135103, Roll : 0.64, Pitch : -16.85, Yaw : 54.92, Alt : 49.2900009155, Lat : 49.283639, Lng : -123.1148701, Q1 : 0.877322375774, Q2 : 0.0724898800254, Q3 : -0.127477586269, Q4 : 0.4569465518}
2019-04-14 02:32:47.01: SIM {TimeUS : 60235063, Roll : 0.52, Pitch : -16.89, Yaw : 54.99, Alt : 49.2900009155, Lat : 49.283641, Lng : -123.1148654, Q1 : 0.877087950706, Q2 : 0.0718067958951, Q3 : -0.128200158477, Q4 : 0.457302093506}
2019-04-14 02:32:47.11: SIM {TimeUS : 60335023, Roll : 0.35, Pitch : -16.92, Yaw : 55.14, Alt : 49.2999992371, Lat : 49.2836432, Lng : -123.1148607, Q1 : 0.876563251019, Q2 : 0.0708629339933, Q3 : -0.129016309977, Q4 : 0.458224952221}
2019-04-14 02:32:47.21: SIM {TimeUS : 60434983, Roll : 0.2, Pitch : -16.97, Yaw : 55.33, Alt : 49.2999992371, Lat : 49.2836452, Lng : -123.1148559, Q1 : 0.87581807375, Q2 : 0.0700683966279, Q3 : -0.129909977317, Q4 : 0.459517687559}
2019-04-14 02:32:47.31: SIM {TimeUS : 60534943, Roll : 0.05, Pitch : -17.02, Yaw : 55.55, Alt : 49.2999992371, Lat : 49.2836474, Lng : -123.1148511, Q1 : 0.874993860722, Q2 : 0.0693941563368, Q3 : -0.13072809577, Q4 : 0.460955947638}
2019-04-14 02:32:47.41: SIM {TimeUS : 60634903, Roll : -0.06, Pitch : -17.06, Yaw : 55.75, Alt : 49.2999992371, Lat : 49.2836494, Lng : -123.1148463, Q1 : 0.874197721481, Q2 : 0.0689091980457, Q3 : -0.131427958608, Q4 : 0.462338209152}
2019-04-14 02:32:47.51: SIM {TimeUS : 60734863, Roll : -0.13, Pitch : -17.11, Yaw : 55.92, Alt : 49.2999992371, Lat : 49.2836517, Lng : -123.1148414, Q1 : 0.873520195484, Q2 : 0.0687090009451, Q3 : -0.131948277354, Q4 : 0.463498950005}
2019-04-14 02:32:47.61: SIM {TimeUS : 60834823, Roll : -0.18, Pitch : -17.14, Yaw : 56.04, Alt : 49.2999992371, Lat : 49.2836537, Lng : -123.1148366, Q1 : 0.87303507328, Q2 : 0.0685873031616, Q3 : -0.132350459695, Q4 : 0.464315533638}
2019-04-14 02:32:47.71: SIM {TimeUS : 60934783, Roll : -0.22, Pitch : -17.16, Yaw : 56.1, Alt : 49.2999992371, Lat : 49.283656, Lng : -123.1148317, Q1 : 0.872776806355, Q2 : 0.0684636086226, Q3 : -0.132622495294, Q4 : 0.464741498232}
2019-04-14 02:32:47.81: SIM {TimeUS : 61034743, Roll : -0.24, Pitch : -17.17, Yaw : 56.11, Alt : 49.2999992371, Lat : 49.283658, Lng : -123.1148267, Q1 : 0.87274479866, Q2 : 0.0683826804161, Q3 : -0.132753401995, Q4 : 0.464776158333}
2019-04-14 02:32:47.91: SIM {TimeUS : 61134703, Roll : -0.21, Pitch : -17.18, Yaw : 56.07, Alt : 49.2999992371, Lat : 49.2836603, Lng : -123.1148218, Q1 : 0.872888922691, Q2 : 0.0685468167067, Q3 : -0.132721230388, Q4 : 0.464490413666}
2019-04-14 02:32:48.01: SIM {TimeUS : 61234663, Roll : -0.16, Pitch : -17.18, Yaw : 55.99, Alt : 49.2999992371, Lat : 49.2836625, Lng : -123.1148168, Q1 : 0.873170018196, Q2 : 0.0688864886761, Q3 : -0.132624819875, Q4 : 0.463939100504}
2019-04-14 02:32:48.11: SIM {TimeUS : 61334623, Roll : -0.08, Pitch : -17.22, Yaw : 55.88, Alt : 49.3100013733, Lat : 49.2836646, Lng : -123.1148119, Q1 : 0.873503983021, Q2 : 0.0695353001356, Q3 : -0.132623910904, Q4 : 0.463213324547}
2019-04-14 02:32:48.21: SIM {TimeUS : 61434583, Roll : 0.01, Pitch : -17.28, Yaw : 55.76, Alt : 49.3100013733, Lat : 49.283667, Lng : -123.1148069, Q1 : 0.873845279217, Q2 : 0.0703715085983, Q3 : -0.132770732045, Q4 : 0.462400496006}
2019-04-14 02:32:48.31: SIM {TimeUS : 61534543, Roll : 0.09, Pitch : -17.32, Yaw : 55.65, Alt : 49.3100013733, Lat : 49.2836692, Lng : -123.1148019, Q1 : 0.874216735363, Q2 : 0.0709838867188, Q3 : -0.132811322808, Q4 : 0.461592376232}
2019-04-14 02:32:48.41: SIM {TimeUS : 61634503, Roll : 0.15, Pitch : -17.32, Yaw : 55.55, Alt : 49.3100013733, Lat : 49.2836713, Lng : -123.1147968, Q1 : 0.874591469765, Q2 : 0.0713721439242, Q3 : -0.132652968168, Q4 : 0.460867673159}
2019-04-14 02:32:48.51: SIM {TimeUS : 61735296, Roll : 0.19, Pitch : -17.33, Yaw : 55.46, Alt : 49.3100013733, Lat : 49.2836736, Lng : -123.1147917, Q1 : 0.87490260601, Q2 : 0.0716117471457, Q3 : -0.132583782077, Q4 : 0.460259437561}
2019-04-14 02:32:48.61: SIM {TimeUS : 61835256, Roll : 0.2, Pitch : -17.35, Yaw : 55.4, Alt : 49.3100013733, Lat : 49.283676, Lng : -123.1147865, Q1 : 0.875121355057, Q2 : 0.0716937184334, Q3 : -0.132763415575, Q4 : 0.459778785706}
2019-04-14 02:32:48.71: SIM {TimeUS : 61935216, Roll : 0.2, Pitch : -17.37, Yaw : 55.36, Alt : 49.3100013733, Lat : 49.2836782, Lng : -123.1147816, Q1 : 0.875238656998, Q2 : 0.071745686233, Q3 : -0.132951438427, Q4 : 0.459492981434}
2019-04-14 02:32:48.81: SIM {TimeUS : 62035176, Roll : 0.19, Pitch : -17.4, Yaw : 55.35, Alt : 49.3100013733, Lat : 49.2836804, Lng : -123.1147764, Q1 : 0.87527179718, Q2 : 0.0717364624143, Q3 : -0.13319966197, Q4 : 0.459359318018}
2019-04-14 02:32:48.91: SIM {TimeUS : 62135136, Roll : 0.17, Pitch : -17.42, Yaw : 55.35, Alt : 49.3100013733, Lat : 49.2836827, Lng : -123.1147713, Q1 : 0.875244557858, Q2 : 0.0716907903552, Q3 : -0.133430629969, Q4 : 0.459351360798}
2019-04-14 02:32:49.01: SIM {TimeUS : 62235096, Roll : 0.15, Pitch : -17.44, Yaw : 55.37, Alt : 49.3100013733, Lat : 49.283685, Lng : -123.1147662, Q1 : 0.875159144402, Q2 : 0.0716890692711, Q3 : -0.133654803038, Q4 : 0.459449201822}
2019-04-14 02:32:49.11: SIM {TimeUS : 62335056, Roll : 0.14, Pitch : -17.46, Yaw : 55.39, Alt : 49.3100013733, Lat : 49.2836872, Lng : -123.114761, Q1 : 0.87505865097, Q2 : 0.0716553777456, Q3 : -0.133842751384, Q4 : 0.459591120481}
2019-04-14 02:32:49.21: SIM {TimeUS : 62435016, Roll : 0.13, Pitch : -17.49, Yaw : 55.41, Alt : 49.3100013733, Lat : 49.2836895, Lng : -123.1147558, Q1 : 0.874939382076, Q2 : 0.0717109367251, Q3 : -0.134074211121, Q4 : 0.459742039442}
2019-04-14 02:32:49.31: SIM {TimeUS : 62534976, Roll : 0.12, Pitch : -17.51, Yaw : 55.44, Alt : 49.3199996948, Lat : 49.2836919, Lng : -123.1147506, Q1 : 0.874827623367, Q2 : 0.071815520525, Q3 : -0.134277194738, Q4 : 0.459879159927}
2019-04-14 02:32:49.41: SIM {TimeUS : 62634936, Roll : 0.11, Pitch : -17.55, Yaw : 55.45, Alt : 49.3199996948, Lat : 49.2836942, Lng : -123.1147455, Q1 : 0.874736905098, Q2 : 0.0718715637922, Q3 : -0.134624361992, Q4 : 0.459941536188}
2019-04-14 02:32:49.51: SIM {TimeUS : 62734896, Roll : 0.07, Pitch : -17.6, Yaw : 55.45, Alt : 49.3199996948, Lat : 49.2836965, Lng : -123.1147403, Q1 : 0.874681830406, Q2 : 0.0717873871326, Q3 : -0.135125458241, Q4 : 0.459912359715}
2019-04-14 02:32:49.61: SIM {TimeUS : 62834856, Roll : 0.04, Pitch : -17.65, Yaw : 55.45, Alt : 49.3199996948, Lat : 49.2836987, Lng : -123.114735, Q1 : 0.874653697014, Q2 : 0.0717563927174, Q3 : -0.135635480285, Q4 : 0.459820568562}
2019-04-14 02:32:49.71: SIM {TimeUS : 62934816, Roll : 0.05, Pitch : -17.68, Yaw : 55.44, Alt : 49.3199996948, Lat : 49.283701, Lng : -123.1147298, Q1 : 0.874657928944, Q2 : 0.0719164609909, Q3 : -0.135877922177, Q4 : 0.459715932608}
2019-04-14 02:32:49.81: SIM {TimeUS : 63034776, Roll : 0.08, Pitch : -17.68, Yaw : 55.42, Alt : 49.3199996948, Lat : 49.2837034, Lng : -123.1147246, Q1 : 0.874721825123, Q2 : 0.0721449106932, Q3 : -0.135732904077, Q4 : 0.459601402283}
2019-04-14 02:32:49.91: SIM {TimeUS : 63134736, Roll : 0.12, Pitch : -17.65, Yaw : 55.39, Alt : 49.3199996948, Lat : 49.2837058, Lng : -123.1147193, Q1 : 0.874840676785, Q2 : 0.0722789317369, Q3 : -0.135356560349, Q4 : 0.459465116262}
2019-04-14 02:32:50.01: SIM {TimeUS : 63234696, Roll : 0.14, Pitch : -17.63, Yaw : 55.36, Alt : 49.3199996948, Lat : 49.2837082, Lng : -123.114714, Q1 : 0.874959886074, Q2 : 0.0723498538136, Q3 : -0.13518089056, Q4 : 0.459278702736}
2019-04-14 02:32:50.11: SIM {TimeUS : 63334656, Roll : 0.14, Pitch : -17.63, Yaw : 55.33, Alt : 49.3199996948, Lat : 49.2837105, Lng : -123.1147087, Q1 : 0.87508893013, Q2 : 0.07230861485, Q3 : -0.135140776634, Q4 : 0.459050923586}
2019-04-14 02:32:50.21: SIM {TimeUS : 63434616, Roll : 0.14, Pitch : -17.62, Yaw : 55.3, Alt : 49.3199996948, Lat : 49.2837127, Lng : -123.1147034, Q1 : 0.875215947628, Q2 : 0.0722579583526, Q3 : -0.135117337108, Q4 : 0.458823651075}
2019-04-14 02:32:50.31: SIM {TimeUS : 63534576, Roll : 0.14, Pitch : -17.64, Yaw : 55.27, Alt : 49.3199996948, Lat : 49.2837151, Lng : -123.1146981, Q1 : 0.875312626362, Q2 : 0.0722721591592, Q3 : -0.135282501578, Q4 : 0.458588242531}
2019-04-14 02:32:50.41: SIM {TimeUS : 63634536, Roll : 0.14, Pitch : -17.67, Yaw : 55.25, Alt : 49.3199996948, Lat : 49.2837175, Lng : -123.1146928, Q1 : 0.875386357307, Q2 : 0.0723314881325, Q3 : -0.135509833694, Q4 : 0.458371013403}
2019-04-14 02:32:50.51: SIM {TimeUS : 63734496, Roll : 0.13, Pitch : -17.71, Yaw : 55.23, Alt : 49.3199996948, Lat : 49.2837199, Lng : -123.1146874, Q1 : 0.875421106815, Q2 : 0.0724353417754, Q3 : -0.13588796556, Q4 : 0.458176195621}
2019-04-14 02:32:50.61: SIM {TimeUS : 63835289, Roll : 0.13, Pitch : -17.77, Yaw : 55.21, Alt : 49.3199996948, Lat : 49.2837223, Lng : -123.1146821, Q1 : 0.875418126583, Q2 : 0.0726436302066, Q3 : -0.136352688074, Q4 : 0.458010882139}
2019-04-14 02:32:50.71: SIM {TimeUS : 63935249, Roll : 0.14, Pitch : -17.8, Yaw : 55.2, Alt : 49.3199996948, Lat : 49.2837247, Lng : -123.1146767, Q1 : 0.875428318977, Q2 : 0.0728044956923, Q3 : -0.136540710926, Q4 : 0.457909882069}
2019-04-14 02:32:50.81: SIM {TimeUS : 64035209, Roll : 0.14, Pitch : -17.82, Yaw : 55.19, Alt : 49.3300018311, Lat : 49.283727, Lng : -123.1146714, Q1 : 0.875448405743, Q2 : 0.0728470906615, Q3 : -0.136703550816, Q4 : 0.457816123962}
2019-04-14 02:32:50.91: SIM {TimeUS : 64135169, Roll : 0.13, Pitch : -17.83, Yaw : 55.18, Alt : 49.3300018311, Lat : 49.2837294, Lng : -123.114666, Q1 : 0.875474989414, Q2 : 0.0728370696306, Q3 : -0.136824369431, Q4 : 0.457730740309}
2019-04-14 02:32:51.01: SIM {TimeUS : 64235129, Roll : 0.15, Pitch : -17.82, Yaw : 55.17, Alt : 49.3300018311, Lat : 49.2837318, Lng : -123.1146606, Q1 : 0.875505924225, Q2 : 0.0729010924697, Q3 : -0.136720627546, Q4 : 0.457692295313}
2019-04-14 02:32:51.11: SIM {TimeUS : 64335089, Roll : 0.17, Pitch : -17.83, Yaw : 55.16, Alt : 49.3300018311, Lat : 49.2837342, Lng : -123.1146553, Q1 : 0.875513136387, Q2 : 0.0730995461345, Q3 : -0.136674180627, Q4 : 0.457660764456}
2019-04-14 02:32:51.21: SIM {TimeUS : 64435049, Roll : 0.18, Pitch : -17.85, Yaw : 55.16, Alt : 49.3300018311, Lat : 49.2837366, Lng : -123.1146499, Q1 : 0.875506043434, Q2 : 0.0732626542449, Q3 : -0.136837363243, Q4 : 0.457599461079}
2019-04-14 02:32:51.31: SIM {TimeUS : 64535009, Roll : 0.18, Pitch : -17.87, Yaw : 55.15, Alt : 49.3300018311, Lat : 49.283739, Lng : -123.1146445, Q1 : 0.875507712364, Q2 : 0.073337867856, Q3 : -0.137010857463, Q4 : 0.457532376051}
2019-04-14 02:32:51.41: SIM {TimeUS : 64634969, Roll : 0.18, Pitch : -17.88, Yaw : 55.14, Alt : 49.3300018311, Lat : 49.2837413, Lng : -123.1146391, Q1 : 0.875534296036, Q2 : 0.073354139924, Q3 : -0.137054368854, Q4 : 0.457465827465}
2019-04-14 02:32:51.51: SIM {TimeUS : 64734929, Roll : 0.17, Pitch : -17.89, Yaw : 55.13, Alt : 49.3300018311, Lat : 49.2837437, Lng : -123.1146337, Q1 : 0.87556964159, Q2 : 0.0733249858022, Q3 : -0.137164101005, Q4 : 0.457369923592}
2019-04-14 02:32:51.61: SIM {TimeUS : 64834889, Roll : 0.15, Pitch : -17.91, Yaw : 55.12, Alt : 49.3300018311, Lat : 49.2837461, Lng : -123.1146283, Q1 : 0.875605463982, Q2 : 0.0732249245048, Q3 : -0.137439131737, Q4 : 0.457234889269}
2019-04-14 02:32:51.71: SIM {TimeUS : 64934849, Roll : 0.12, Pitch : -17.95, Yaw : 55.1, Alt : 49.3300018311, Lat : 49.2837485, Lng : -123.1146229, Q1 : 0.875639796257, Q2 : 0.0731107443571, Q3 : -0.137858897448, Q4 : 0.457060933113}
2019-04-14 02:32:51.81: SIM {TimeUS : 65034809, Roll : 0.1, Pitch : -17.95, Yaw : 55.09, Alt : 49.3300018311, Lat : 49.2837509, Lng : -123.1146175, Q1 : 0.875705957413, Q2 : 0.0730067715049, Q3 : -0.137963682413, Q4 : 0.456919133663}
2019-04-14 02:32:51.91: SIM {TimeUS : 65134769, Roll : 0.11, Pitch : -17.94, Yaw : 55.07, Alt : 49.3300018311, Lat : 49.2837533, Lng : -123.114612, Q1 : 0.875780642033, Q2 : 0.072997495532, Q3 : -0.137848094106, Q4 : 0.456812351942}
2019-04-14 02:32:52.01: SIM {TimeUS : 65234729, Roll : 0.14, Pitch : -17.93, Yaw : 55.05, Alt : 49.3300018311, Lat : 49.2837558, Lng : -123.1146065, Q1 : 0.875842273235, Q2 : 0.0731548145413, Q3 : -0.137661993504, Q4 : 0.456725120544}
2019-04-14 02:32:52.11: SIM {TimeUS : 65334689, Roll : 0.16, Pitch : -17.94, Yaw : 55.04, Alt : 49.3300018311, Lat : 49.2837582, Lng : -123.114601, Q1 : 0.8758867383, Q2 : 0.0733205378056, Q3 : -0.137664854527, Q4 : 0.456612437963}
2019-04-14 02:32:52.21: SIM {TimeUS : 65434649, Roll : 0.16, Pitch : -17.96, Yaw : 55.02, Alt : 49.3300018311, Lat : 49.2837606, Lng : -123.1145957, Q1 : 0.875928103924, Q2 : 0.0733464062214, Q3 : -0.137832924724, Q4 : 0.456478267908}
2019-04-14 02:32:52.31: SIM {TimeUS : 65534609, Roll : 0.13, Pitch : -17.98, Yaw : 55.01, Alt : 49.3400001526, Lat : 49.283763, Lng : -123.1145902, Q1 : 0.875972032547, Q2 : 0.0732591077685, Q3 : -0.138089522719, Q4 : 0.456330507994}
2019-04-14 02:32:52.41: SIM {TimeUS : 65634569, Roll : 0.12, Pitch : -18.0, Yaw : 54.99, Alt : 49.3400001526, Lat : 49.2837655, Lng : -123.1145848, Q1 : 0.876007676125, Q2 : 0.0732313543558, Q3 : -0.138310298324, Q4 : 0.456199556589}
2019-04-14 02:32:52.51: SIM {TimeUS : 65734529, Roll : 0.13, Pitch : -18.02, Yaw : 54.98, Alt : 49.3400001526, Lat : 49.2837679, Lng : -123.1145793, Q1 : 0.876038968563, Q2 : 0.0733282715082, Q3 : -0.138420134783, Q4 : 0.456090509892}
2019-04-14 02:32:52.61: SIM {TimeUS : 65835322, Roll : 0.14, Pitch : -18.03, Yaw : 54.97, Alt : 49.3400001526, Lat : 49.2837704, Lng : -123.1145737, Q1 : 0.876065433025, Q2 : 0.0734669268131, Q3 : -0.138484477997, Q4 : 0.455997824669}
2019-04-14 02:32:52.71: SIM {TimeUS : 65935282, Roll : 0.16, Pitch : -18.04, Yaw : 54.96, Alt : 49.3400001526, Lat : 49.2837728, Lng : -123.1145682, Q1 : 0.876078903675, Q2 : 0.0736551359296, Q3 : -0.138443946838, Q4 : 0.455953806639}
2019-04-14 02:32:52.81: SIM {TimeUS : 66035242, Roll : 0.18, Pitch : -18.05, Yaw : 54.95, Alt : 49.3400001526, Lat : 49.2837753, Lng : -123.1145627, Q1 : 0.876082718372, Q2 : 0.0737762451172, Q3 : -0.138486996293, Q4 : 0.455913960934}
2019-04-14 02:32:52.91: SIM {TimeUS : 66135202, Roll : 0.19, Pitch : -18.07, Yaw : 54.95, Alt : 49.3400001526, Lat : 49.2837777, Lng : -123.1145573, Q1 : 0.876077473164, Q2 : 0.0739099606872, Q3 : -0.138578310609, Q4 : 0.455874621868}
2019-04-14 02:32:53.01: SIM {TimeUS : 66235162, Roll : 0.19, Pitch : -18.08, Yaw : 54.94, Alt : 49.3400001526, Lat : 49.2837802, Lng : -123.1145519, Q1 : 0.876072585583, Q2 : 0.0740299671888, Q3 : -0.138675361872, Q4 : 0.455835014582}
2019-04-14 02:32:53.11: SIM {TimeUS : 66335122, Roll : 0.21, Pitch : -18.1, Yaw : 54.94, Alt : 49.3400001526, Lat : 49.2837826, Lng : -123.1145464, Q1 : 0.876064419746, Q2 : 0.0742145329714, Q3 : -0.138704240322, Q4 : 0.455811917782}
2019-04-14 02:32:53.21: SIM {TimeUS : 66435082, Roll : 0.24, Pitch : -18.11, Yaw : 54.93, Alt : 49.3400001526, Lat : 49.2837851, Lng : -123.1145409, Q1 : 0.876046538353, Q2 : 0.0744796022773, Q3 : -0.1387065202, Q4 : 0.455802440643}
2019-04-14 02:32:53.31: SIM {TimeUS : 66535042, Roll : 0.24, Pitch : -18.11, Yaw : 54.93, Alt : 49.3400001526, Lat : 49.2837875, Lng : -123.1145354, Q1 : 0.876068592072, Q2 : 0.0744679123163, Q3 : -0.138683602214, Q4 : 0.455768793821}
2019-04-14 02:32:53.41: SIM {TimeUS : 66635002, Roll : 0.22, Pitch : -18.11, Yaw : 54.92, Alt : 49.3400001526, Lat : 49.2837901, Lng : -123.1145299, Q1 : 0.876099526882, Q2 : 0.0743077546358, Q3 : -0.138824284077, Q4 : 0.455692708492}
2019-04-14 02:32:53.51: SIM {TimeUS : 66734962, Roll : 0.19, Pitch : -18.14, Yaw : 54.91, Alt : 49.3499984741, Lat : 49.2837924, Lng : -123.1145244, Q1 : 0.876110136509, Q2 : 0.0741979181767, Q3 : -0.139123156667, Q4 : 0.455599069595}
