2019-04-14 02:47:30.80: SIM {TimeUS : 40016487, Roll : 0.0, Pitch : 0.0, Yaw : 0.0, Alt : 30.1000003815, Lat : 49.28357, Lng : -123.11502, Q1 : 1.0, Q2 : 0.0, Q3 : 0.0, Q4 : 0.0}
2019-04-14 02:47:30.91: SIM {TimeUS : 40135606, Roll : 0.0, Pitch : 0.0, Yaw : 0.0, Alt : 30.1000003815, Lat : 49.28357, Lng : -123.11502, Q1 : 1.0, Q2 : 0.0, Q3 : 0.0, Q4 : 0.0}
2019-04-14 02:47:31.01: SIM {TimeUS : 40235566, Roll : 0.0, Pitch : 0.0, Yaw : 0.0, Alt : 30.1000003815, Lat : 49.28357, Lng : -123.11502, Q1 : 1.0, Q2 : 0.0, Q3 : 0.0, Q4 : 0.0}
2019-04-14 02:47:31.11: SIM {TimeUS : 40335526, Roll : 0.0, Pitch : 0.0, Yaw : 0.0, Alt : 30.1000003815, Lat : 49.28357, Lng : -123.11502, Q1 : 1.0, Q2 : 0.0, Q3 : 0.0, Q4 : 0.0}
2019-04-14 02:47:31.21: SIM {TimeUS : 40435486, Roll : 0.0, Pitch : 0.0, Yaw : 0.0, Alt : 30.1000003815, Lat : 49.28357, Lng : -123.11502, Q1 : 1.0, Q2 : 0.0, Q3 : 0.0, Q4 : 0.0}
2019-04-14 02:47:31.31: SIM {TimeUS : 40535446, Roll : 0.0, Pitch : 0.0, Yaw : 0.0, Alt : 30.1000003815, Lat : 49.28357, Lng : -123.11502, Q1 : 1.0, Q2 : 0.0, Q3 : 0.0, Q4 : 0.0}
2019-04-14 02:47:31.41: SIM {TimeUS : 40635406, Roll : 0.0, Pitch : 0.0, Yaw : 0.0, Alt : 30.1000003815, Lat : 49.28357, Lng : -123.11502, Q1 : 1.0, Q2 : 0.0, Q3 : 0.0, Q4 : 0.0}
2019-04-14 02:47:31.51: SIM {TimeUS : 40735366, Roll : 0.0, Pitch : 0.0, Yaw : 0.0, Alt : 30.1000003815, Lat : 49.28357, Lng : -123.11502, Q1 : 1.0, Q2 : 0.0, Q3 : 0.0, Q4 : 0.0}
2019-04-14 02:47:31.61: SIM {TimeUS : 40835326, Roll : 0.0, Pitch : 0.0, Yaw : 0.0, Alt : 30.1000003815, Lat : 49.28357, Lng : -123.11502, Q1 : 1.0, Q2 : 0.0, Q3 : 0.0, Q4 : 0.0}
2019-04-14 02:47:31.71: SIM {TimeUS : 40935286, Roll : 0.0, Pitch : 0.0, Yaw : 0.0, Alt : 30.1000003815, Lat : 49.28357, Lng : -123.11502, Q1 : 1.0, Q2 : 0.0, Q3 : 0.0, Q4 : 0.0}
2019-04-14 02:47:31.81: SIM {TimeUS : 41035246, Roll : 0.0, Pitch : 0.0, Yaw : 0.0, Alt : 30.1000003815, Lat : 49.28357, Lng : -123.11502, Q1 : 1.0, Q2 : 0.0, Q3 : 0.0, Q4 : 0.0}
2019-04-14 02:47:31.91: SIM {TimeUS : 41135206, Roll : 0.0, Pitch : 0.0, Yaw : 0.0, Alt : 30.1000003815, Lat : 49.28357, Lng : -123.11502, Q1 : 1.0, Q2 : 0.0, Q3 : 0.0, Q4 : 0.0}
2019-04-14 02:47:32.01: SIM {TimeUS : 41235166, Roll : 0.0, Pitch : 0.0, Yaw : 0.0, Alt : 30.1000003815, Lat : 49.28357, Lng : -123.11502, Q1 : 1.0, Q2 : 0.0, Q3 : 0.0, Q4 : 0.0}
2019-04-14 02:47:32.11: SIM {TimeUS : 41335126, Roll : 0.0, Pitch : 0.0, Yaw : 0.0, Alt : 30.1000003815, Lat : 49.28357, Lng : -123.11502, Q1 : 1.0, Q2 : 0.0, Q3 : 0.0, Q4 : 0.0}
2019-04-14 02:47:32.21: SIM {TimeUS : 41435086, Roll : 0.0, Pitch : 0.0, Yaw : 0.0, Alt : 30.1000003815, Lat : 49.28357, Lng : -123.11502, Q1 : 1.0, Q2 : 0.0, Q3 : 0.0, Q4 : 0.0}
2019-04-14 02:47:32.31: SIM {TimeUS : 41535046, Roll : 0.0, Pitch : 0.0, Yaw : 0.0, Alt : 30.1000003815, Lat : 49.28357, Lng : -123.11502, Q1 : 1.0, Q2 : 0.0, Q3 : 0.0, Q4 : 0.0}
2019-04-14 02:47:32.41: SIM {TimeUS : 41635006, Roll : 0.0, Pitch : 0.0, Yaw : 0.0, Alt : 30.1000003815, Lat : 49.28357, Lng : -123.11502, Q1 : 1.0, Q2 : 0.0, Q3 : 0.0, Q4 : 0.0}
2019-04-14 02:47:32.51: SIM {TimeUS : 41734966, Roll : 0.0, Pitch : 0.0, Yaw : 0.0, Alt : 30.1000003815, Lat : 49.28357, Lng : -123.11502, Q1 : 1.0, Q2 : 0.0, Q3 : 0.0, Q4 : 0.0}
2019-04-14 02:47:32.61: SIM {TimeUS : 41834926, Roll : 0.0, Pitch : 0.0, Yaw : 0.0, Alt : 30.1000003815, Lat : 49.28357, Lng : -123.11502, Q1 : 1.0, Q2 : 0.0, Q3 : 0.0, Q4 : 0.0}
2019-04-14 02:47:32.71: SIM {TimeUS : 41934886, Roll : 0.0, Pitch : 0.0, Yaw : 0.0, Alt : 30.1000003815, Lat : 49.28357, Lng : -123.11502, Q1 : 1.0, Q2 : 0.0, Q3 : 0.0, Q4 : 0.0}
2019-04-14 02:47:32.81: SIM {TimeUS : 42034846, Roll : 0.0, Pitch : 0.0, Yaw : 0.0, Alt : 30.1000003815, Lat : 49.28357, Lng : -123.11502, Q1 : 1.0, Q2 : 0.0, Q3 : 0.0, Q4 : 0.0}
2019-04-14 02:47:32.91: SIM {TimeUS : 42135639, Roll : 0.0, Pitch : 0.0, Yaw : 0.0, Alt : 30.1000003815, Lat : 49.28357, Lng : -123.11502, Q1 : 1.0, Q2 : 0.0, Q3 : 0.0, Q4 : 0.0}
2019-04-14 02:47:33.01: SIM {TimeUS : 42235599, Roll : 0.0, Pitch : 0.0, Yaw : 0.0, Alt : 30.1000003815, Lat : 49.28357, Lng : -123.11502, Q1 : 1.0, Q2 : 0.0, Q3 : 0.0, Q4 : 0.0}
2019-04-14 02:47:33.11: SIM {TimeUS : 42335559, Roll : 0.0, Pitch : 0.0, Yaw : 360.0, Alt : 30.1000003815, Lat : 49.28357, Lng : -123.11502, Q1 : 1.0, Q2 : 0.0, Q3 : 0.0, Q4 : -3.08560191287e-11}
2019-04-14 02:47:33.21: SIM {TimeUS : 42435519, Roll : 0.0, Pitch : 0.0, Yaw : 0.0, Alt : 30.1000003815, Lat : 49.28357, Lng : -123.11502, Q1 : 1.0, Q2 : 0.0, Q3 : 0.0, Q4 : 1.11183381946e-10}
2019-04-14 02:47:33.31: SIM {TimeUS : 42535479, Roll : 0.0, Pitch : 0.0, Yaw : 360.0, Alt : 30.1000003815, Lat : 49.28357, Lng : -123.11502, Q1 : 1.0, Q2 : 0.0, Q3 : 0.0, Q4 : -1.28733304905e-07}
2019-04-14 02:47:33.41: SIM {TimeUS : 42635439, Roll : 0.0, Pitch : 0.0, Yaw : 359.99, Alt : 30.1000003815, Lat : 49.28357, Lng : -123.11502, Q1 : 1.0, Q2 : 0.0, Q3 : 0.0, Q4 : -3.06396202632e-07}
2019-04-14 02:47:33.51: SIM {TimeUS : 42735399, Roll : 0.0, Pitch : 0.0, Yaw : 359.99, Alt : 30.1000003815, Lat : 49.28357, Lng : -123.11502, Q1 : 1.0, Q2 : 0.0, Q3 : 0.0, Q4 : -4.57928365449e-07}
2019-04-14 02:47:33.61: SIM {TimeUS : 42835359, Roll : 0.0, Pitch : 0.0, Yaw : 359.99, Alt : 30.1000003815, Lat : 49.28357, Lng : -123.11502, Q1 : 1.0, Q2 : 0.0, Q3 : 0.0, Q4 : -6.4102317765e-07}
2019-04-14 02:47:33.71: SIM {TimeUS : 42935319, Roll : 0.0, Pitch : 0.0, Yaw : 359.99, Alt : 30.1000003815, Lat : 49.28357, Lng : -123.11502, Q1 : 1.0, Q2 : 0.0, Q3 : 0.0, Q4 : -8.44136820888e-07}
2019-04-14 02:47:33.81: SIM {TimeUS : 43035279, Roll : 0.0, Pitch : 0.0, Yaw : 359.99, Alt : 30.1000003815, Lat : 49.28357, Lng : -123.11502, Q1 : 1.0, Q2 : 0.0, Q3 : 0.0, Q4 : -1.08207871108e-06}
2019-04-14 02:47:33.91: SIM {TimeUS : 43135239, Roll : 0.0, Pitch : 0.0, Yaw : 359.99, Alt : 30.1000003815, Lat : 49.28357, Lng : -123.11502, Q1 : 1.0, Q2 : 0.0, Q3 : 0.0, Q4 : -1.27493922264e-06}
2019-04-14 02:47:34.01: SIM {TimeUS : 43235199, Roll : 0.0, Pitch : 0.0, Yaw : 359.99, Alt : 30.1100006104, Lat : 49.28357, Lng : -123.11502, Q1 : 1.0, Q2 : 0.0, Q3 : 0.0, Q4 : -1.49191885157e-06}
2019-04-14 02:47:34.11: SIM {TimeUS : 43335159, Roll : 0.0, Pitch : 0.0, Yaw : 359.99, Alt : 30.1399993896, Lat : 49.28357, Lng : -123.11502, Q1 : 1.0, Q2 : 0.0, Q3 : 0.0, Q4 : -1.7403054926e-06}
2019-04-14 02:47:34.21: SIM {TimeUS : 43435119, Roll : 0.0, Pitch : 0.0, Yaw : 359.99, Alt : 30.1599998474, Lat : 49.28357, Lng : -123.11502, Q1 : 1.0, Q2 : 0.0, Q3 : 0.0, Q4 : -1.9757226255e-06}
2019-04-14 02:47:34.31: SIM {TimeUS : 43535079, Roll : 0.0, Pitch : 0.0, Yaw : 359.99, Alt : 30.2000007629, Lat : 49.28357, Lng : -123.11502, Q1 : 1.0, Q2 : 0.0, Q3 : 0.0, Q4 : -2.23942583943e-06}
2019-04-14 02:47:34.41: SIM {TimeUS : 43635039, Roll : -0.08, Pitch : -0.08, Yaw : 359.99, Alt : 30.2399997711, Lat : 49.28357, Lng : -123.11502, Q1 : 0.999999463558, Q2 : -0.000710525026079, Q3 : -0.000738221628126, Q4 : -8.20813056635e-06}
2019-04-14 02:47:34.51: SIM {TimeUS : 43734999, Roll : -0.36, Pitch : -0.37, Yaw : 359.99, Alt : 30.3400001526, Lat : 49.28357, Lng : -123.11502, Q1 : 0.999989807606, Q2 : -0.00314649892971, Q3 : -0.00323590030894, Q4 : -3.88838707295e-05}
2019-04-14 02:47:34.61: SIM {TimeUS : 43834959, Roll : -0.65, Pitch : -0.63, Yaw : 359.99, Alt : 30.4799995422, Lat : 49.28357, Lng : -123.11502, Q1 : 0.999968349934, Q2 : -0.00573311001062, Q3 : -0.00551960757002, Q4 : -9.38426965149e-05}
2019-04-14 02:47:34.71: SIM {TimeUS : 43934919, Roll : -0.82, Pitch : -0.73, Yaw : 359.98, Alt : 30.6399993896, Lat : 49.28357, Lng : -123.11502, Q1 : 0.999953389168, Q2 : -0.00722595164552, Q3 : -0.00640205899253, Q4 : -0.000167942518601}
2019-04-14 02:47:34.81: SIM {TimeUS : 44034879, Roll : -0.82, Pitch : -0.68, Yaw : 359.97, Alt : 30.7999992371, Lat : 49.28357, Lng : -123.11502, Q1 : 0.999955713749, Q2 : -0.00722817657515, Q3 : -0.00601733475924, Q4 : -0.000249078584602}
2019-04-14 02:47:34.91: SIM {TimeUS : 44134839, Roll : -0.69, Pitch : -0.55, Yaw : 359.96, Alt : 30.9500007629, Lat : 49.28357, Lng : -123.1150201, Q1 : 0.999969661236, Q2 : -0.00609467225149, Q3 : -0.0048461984843, Q4 : -0.000322585343383}
2019-04-14 02:47:35.01: SIM {TimeUS : 44235632, Roll : -0.49, Pitch : -0.37, Yaw : 359.95, Alt : 31.1100006104, Lat : 49.2835701, Lng : -123.1150202, Q1 : 0.99998497963, Q2 : -0.00435245968401, Q3 : -0.00330443447456, Q4 : -0.000393867347157}
2019-04-14 02:47:35.11: SIM {TimeUS : 44335592, Roll : -0.28, Pitch : -0.21, Yaw : 359.94, Alt : 31.2600002289, Lat : 49.2835701, Lng : -123.1150203, Q1 : 0.999995112419, Q2 : -0.00250013032928, Q3 : -0.00183676776942, Q4 : -0.000456418463727}
2019-04-14 02:47:35.21: SIM {TimeUS : 44435552, Roll : -0.09, Pitch : -0.09, Yaw : 359.94, Alt : 31.4300003052, Lat : 49.2835702, Lng : -123.1150204, Q1 : 0.99999922514, Q2 : -0.000816831947304, Q3 : -0.0008242566837, Q4 : -0.000507554912474}
2019-04-14 02:47:35.31: SIM {TimeUS : 44535512, Roll : 0.03, Pitch : -0.02, Yaw : 359.93, Alt : 31.6000003815, Lat : 49.2835702, Lng : -123.1150204, Q1 : 0.999999821186, Q2 : 0.000281846441794, Q3 : -0.000180942151928, Q4 : -0.000547493633348}
2019-04-14 02:47:35.41: SIM {TimeUS : 44635472, Roll : 0.07, Pitch : 0.02, Yaw : 359.93, Alt : 31.7800006866, Lat : 49.2835703, Lng : -123.1150205, Q1 : 0.999999642372, Q2 : 0.0006220752839, Q3 : 0.000180162431207, Q4 : -0.000576451420784}
2019-04-14 02:47:35.51: SIM {TimeUS : 44735432, Roll : 0.06, Pitch : 0.02, Yaw : 359.93, Alt : 31.9699993134, Lat : 49.2835703, Lng : -123.1150206, Q1 : 0.999999642372, Q2 : 0.000563167093787, Q3 : 0.000258844607743, Q4 : -0.000589192728512}
2019-04-14 02:47:35.61: SIM {TimeUS : 44835392, Roll : 0.05, Pitch : 0.03, Yaw : 359.93, Alt : 32.1500015259, Lat : 49.2835703, Lng : -123.1150206, Q1 : 0.999999701977, Q2 : 0.000488497084007, Q3 : 0.000268292438705, Q4 : -0.000575988495257}
2019-04-14 02:47:35.71: SIM {TimeUS : 44935352, Roll : 0.05, Pitch : 0.04, Yaw : 359.93, Alt : 32.3400001526, Lat : 49.2835703, Lng : -123.1150207, Q1 : 0.999999642372, Q2 : 0.000506161188241, Q3 : 0.000353609008016, Q4 : -0.000556304119527}
2019-04-14 02:47:35.81: SIM {TimeUS : 45035312, Roll : 0.07, Pitch : 0.05, Yaw : 359.93, Alt : 32.5400009155, Lat : 49.2835703, Lng : -123.1150208, Q1 : 0.999999523163, Q2 : 0.000647543580271, Q3 : 0.000497592613101, Q4 : -0.000535792962182}
2019-04-14 02:47:35.91: SIM {TimeUS : 45135272, Roll : 0.1, Pitch : 0.07, Yaw : 359.94, Alt : 32.7299995422, Lat : 49.2835703, Lng : -123.1150208, Q1 : 0.99999922514, Q2 : 0.000930438283831, Q3 : 0.000647408654913, Q4 : -0.00051199569134}
2019-04-14 02:47:36.01: SIM {TimeUS : 45235232, Roll : 0.13, Pitch : 0.1, Yaw : 359.94, Alt : 32.9300003052, Lat : 49.2835704, Lng : -123.1150208, Q1 : 0.999998748302, Q2 : 0.00121327803936, Q3 : 0.000884751614649, Q4 : -0.000487360317493}
2019-04-14 02:47:36.11: SIM {TimeUS : 45335192, Roll : 0.15, Pitch : 0.13, Yaw : 359.94, Alt : 33.1300010681, Lat : 49.2835704, Lng : -123.1150209, Q1 : 0.999998271465, Q2 : 0.0013586981222, Q3 : 0.00117946299724, Q4 : -0.000480146700284}
2019-04-14 02:47:36.21: SIM {TimeUS : 45435152, Roll : 0.15, Pitch : 0.16, Yaw : 359.94, Alt : 33.3400001526, Lat : 49.2835704, Lng : -123.1150209, Q1 : 0.999997973442, Q2 : 0.00137742818333, Q3 : 0.00140083127189, Q4 : -0.000479711452499}
2019-04-14 02:47:36.31: SIM {TimeUS : 45535112, Roll : 0.16, Pitch : 0.18, Yaw : 359.94, Alt : 33.5400009155, Lat : 49.2835704, Lng : -123.1150209, Q1 : 0.99999755621, Q2 : 0.00141174241435, Q3 : 0.00164086732548, Q4 : -0.000488436722662}
2019-04-14 02:47:36.41: SIM {TimeUS : 45635072, Roll : 0.17, Pitch : 0.19, Yaw : 359.94, Alt : 33.75, Lat : 49.2835704, Lng : -123.1150209, Q1 : 0.999997258186, Q2 : 0.00151985383127, Q3 : 0.00169607065618, Q4 : -0.000498728302773}
2019-04-14 02:47:36.51: SIM {TimeUS : 45735032, Roll : 0.17, Pitch : 0.19, Yaw : 359.94, Alt : 33.9599990845, Lat : 49.2835704, Lng : -123.1150209, Q1 : 0.999997258186, Q2 : 0.00155115069356, Q3 : 0.00166929990519, Q4 : -0.000517347129062}
2019-04-14 02:47:36.61: SIM {TimeUS : 45834992, Roll : 0.15, Pitch : 0.18, Yaw : 359.93, Alt : 34.1699981689, Lat : 49.2835704, Lng : -123.1150209, Q1 : 0.999997615814, Q2 : 0.00138654420152, Q3 : 0.00161730137188, Q4 : -0.00054118031403}
2019-04-14 02:47:36.71: SIM {TimeUS : 45934952, Roll : 0.13, Pitch : 0.14, Yaw : 359.93, Alt : 34.3800010681, Lat : 49.2835706, Lng : -123.1150209, Q1 : 0.999998271465, Q2 : 0.00121632777154, Q3 : 0.00129198015202, Q4 : -0.000556282175239}
2019-04-14 02:47:36.81: SIM {TimeUS : 46034912, Roll : 0.12, Pitch : 0.09, Yaw : 359.93, Alt : 34.5900001526, Lat : 49.2835706, Lng : -123.1150209, Q1 : 0.999998986721, Q2 : 0.00105782295577, Q3 : 0.000786020187661, Q4 : -0.000565492839087}
2019-04-14 02:47:36.91: SIM {TimeUS : 46134872, Roll : 0.1, Pitch : 0.04, Yaw : 359.93, Alt : 34.8100013733, Lat : 49.2835704, Lng : -123.1150209, Q1 : 0.999999344349, Q2 : 0.000900056795217, Q3 : 0.000374684401322, Q4 : -0.000581175496336}
2019-04-14 02:47:37.01: SIM {TimeUS : 46234832, Roll : 0.08, Pitch : 0.01, Yaw : 359.93, Alt : 35.0200004578, Lat : 49.2835704, Lng : -123.1150209, Q1 : 0.999999523163, Q2 : 0.000759769638535, Q3 : 0.000143878874951, Q4 : -0.000609360693488}
2019-04-14 02:47:37.11: SIM {TimeUS : 46335625, Roll : 0.08, Pitch : 0.02, Yaw : 359.92, Alt : 35.2400016785, Lat : 49.2835704, Lng : -123.1150209, Q1 : 0.999999523163, Q2 : 0.000741049996577, Q3 : 0.000179514536285, Q4 : -0.000648267276119}
2019-04-14 02:47:37.21: SIM {TimeUS : 46435585, Roll : 0.07, Pitch : 0.02, Yaw : 359.92, Alt : 35.4599990845, Lat : 49.2835704, Lng : -123.1150208, Q1 : 0.999999523163, Q2 : 0.000639531586785, Q3 : 0.000210439335206, Q4 : -0.000686060753651}
2019-04-14 02:47:37.31: SIM {TimeUS : 46535545, Roll : 0.04, Pitch : 0.03, Yaw : 359.91, Alt : 35.6800003052, Lat : 49.2835704, Lng : -123.1150208, Q1 : 0.999999582767, Q2 : 0.000434454617789, Q3 : 0.000271028489806, Q4 : -0.000720593205187}
2019-04-14 02:47:37.41: SIM {TimeUS : 46635505, Roll : 0.02, Pitch : 0.03, Yaw : 359.91, Alt : 35.8899993896, Lat : 49.2835704, Lng : -123.1150208, Q1 : 0.999999642372, Q2 : 0.000229197568842, Q3 : 0.000335840682965, Q4 : -0.000754456908908}
2019-04-14 02:47:37.51: SIM {TimeUS : 46735465, Roll : 0.0, Pitch : 0.04, Yaw : 359.91, Alt : 36.1199989319, Lat : 49.2835704, Lng : -123.1150208, Q1 : 0.999999582767, Q2 : 5.80462474318e-05, Q3 : 0.000434734101873, Q4 : -0.000785042415373}
2019-04-14 02:47:37.61: SIM {TimeUS : 46835425, Roll : -0.01, Pitch : 0.03, Yaw : 359.9, Alt : 36.3400001526, Lat : 49.2835704, Lng : -123.1150208, Q1 : 0.999999642372, Q2 : -0.000108080515929, Q3 : 0.000321773753967, Q4 : -0.000804547977168}
2019-04-14 02:47:37.71: SIM {TimeUS : 46935385, Roll : -0.02, Pitch : 0.01, Yaw : 359.9, Alt : 36.5600013733, Lat : 49.2835704, Lng : -123.1150207, Q1 : 0.999999642372, Q2 : -0.000182213392691, Q3 : 9.67341402429e-05, Q4 : -0.000831276702229}
2019-04-14 02:47:37.81: SIM {TimeUS : 47035345, Roll : -0.02, Pitch : -0.01, Yaw : 359.9, Alt : 36.7799987793, Lat : 49.2835704, Lng : -123.1150207, Q1 : 0.999999582767, Q2 : -0.000242380003328, Q3 : -0.00011763630755, Q4 : -0.00085807335563}
2019-04-14 02:47:37.91: SIM {TimeUS : 47135305, Roll : -0.02, Pitch : -0.03, Yaw : 359.89, Alt : 37.0, Lat : 49.2835704, Lng : -123.1150207, Q1 : 0.999999523163, Q2 : -0.000248667551205, Q3 : -0.000317370606354, Q4 : -0.000884479319211}
2019-04-14 02:47:38.01: SIM {TimeUS : 47235265, Roll : -0.01, Pitch : -0.05, Yaw : 359.89, Alt : 37.2299995422, Lat : 49.2835704, Lng : -123.1150207, Q1 : 0.999999463558, Q2 : -9.94635120151e-05, Q3 : -0.00045703741489, Q4 : -0.000906295725144}
2019-04-14 02:47:38.11: SIM {TimeUS : 47335225, Roll : 0.0, Pitch : -0.07, Yaw : 359.89, Alt : 37.4500007629, Lat : 49.2835704, Lng : -123.1150207, Q1 : 0.999999403954, Q2 : -7.01540993759e-05, Q3 : -0.00061453494709, Q4 : -0.000922405219171}
2019-04-14 02:47:38.21: SIM {TimeUS : 47435185, Roll : -0.02, Pitch : -0.09, Yaw : 359.89, Alt : 37.6800003052, Lat : 49.2835704, Lng : -123.1150207, Q1 : 0.99999922514, Q2 : -0.000247520540142, Q3 : -0.000798982160632, Q4 : -0.000940266472753}
2019-04-14 02:47:38.31: SIM {TimeUS : 47535145, Roll : -0.06, Pitch : -0.09, Yaw : 359.89, Alt : 37.9099998474, Lat : 49.2835704, Lng : -123.1150207, Q1 : 0.999999046326, Q2 : -0.000546918308828, Q3 : -0.000868839910254, Q4 : -0.000960030360147}
2019-04-14 02:47:38.41: SIM {TimeUS : 47635105, Roll : -0.09, Pitch : -0.09, Yaw : 359.88, Alt : 38.1300010681, Lat : 49.2835704, Lng : -123.1150207, Q1 : 0.999998807907, Q2 : -0.000863217574079, Q3 : -0.000801430782303, Q4 : -0.000982994679362}
2019-04-14 02:47:38.51: SIM {TimeUS : 47735065, Roll : -0.12, Pitch : -0.07, Yaw : 359.88, Alt : 38.3600006104, Lat : 49.2835704, Lng : -123.1150206, Q1 : 0.999998688698, Q2 : -0.0010645375587, Q3 : -0.00067460158607, Q4 : -0.00100343639497}
2019-04-14 02:47:38.61: SIM {TimeUS : 47835025, Roll : -0.12, Pitch : -0.06, Yaw : 359.88, Alt : 38.5900001526, Lat : 49.2835704, Lng : -123.1150206, Q1 : 0.999998688698, Q2 : -0.0011321088532, Q3 : -0.00053137348732, Q4 : -0.00102295447141}
2019-04-14 02:47:38.71: SIM {TimeUS : 47934985, Roll : -0.11, Pitch : -0.03, Yaw : 359.88, Alt : 38.8199996948, Lat : 49.2835704, Lng : -123.1150206, Q1 : 0.999998927116, Q2 : -0.000979599775746, Q3 : -0.000325083557982, Q4 : -0.00104727945291}
2019-04-14 02:47:38.81: SIM {TimeUS : 48034945, Roll : -0.08, Pitch : -0.03, Yaw : 359.87, Alt : 39.0499992371, Lat : 49.2835704, Lng : -123.1150206, Q1 : 0.99999910593, Q2 : -0.000712008913979, Q3 : -0.000295668462059, Q4 : -0.00107391970232}
2019-04-14 02:47:38.91: SIM {TimeUS : 48134905, Roll : -0.06, Pitch : -0.03, Yaw : 359.87, Alt : 39.2799987793, Lat : 49.2835704, Lng : -123.1150206, Q1 : 0.999999165535, Q2 : -0.000545178598259, Q3 : -0.000343251973391, Q4 : -0.00110596651211}
2019-04-14 02:47:39.01: SIM {TimeUS : 48234865, Roll : -0.05, Pitch : -0.02, Yaw : 359.87, Alt : 39.5099983215, Lat : 49.2835704, Lng : -123.1150206, Q1 : 0.99999922514, Q2 : -0.00047560830717, Q3 : -0.000211514081457, Q4 : -0.00112799520139}
2019-04-14 02:47:39.11: SIM {TimeUS : 48334825, Roll : -0.06, Pitch : 0.0, Yaw : 359.86, Alt : 39.7400016785, Lat : 49.2835706, Lng : -123.1150206, Q1 : 0.999999165535, Q2 : -0.000604385160841, Q3 : 3.00797073578e-05, Q4 : -0.00114453979768}
2019-04-14 02:47:39.21: SIM {TimeUS : 48435618, Roll : -0.06, Pitch : 0.03, Yaw : 359.86, Alt : 39.9700012207, Lat : 49.2835706, Lng : -123.1150206, Q1 : 0.99999910593, Q2 : -0.000589242263231, Q3 : 0.000297185819363, Q4 : -0.00116053491365}
2019-04-14 02:47:39.31: SIM {TimeUS : 48535578, Roll : -0.04, Pitch : 0.07, Yaw : 359.86, Alt : 40.2000007629, Lat : 49.2835706, Lng : -123.1150206, Q1 : 0.999999046326, Q2 : -0.000417401985032, Q3 : 0.000646502419841, Q4 : -0.0011759030167}
2019-04-14 02:47:39.41: SIM {TimeUS : 48635538, Roll : -0.03, Pitch : 0.07, Yaw : 359.86, Alt : 40.4300003052, Lat : 49.2835706, Lng : -123.1150207, Q1 : 0.999999046326, Q2 : -0.000264370668447, Q3 : 0.00066618603887, Q4 : -0.00117696402594}
2019-04-14 02:47:39.51: SIM {TimeUS : 48735498, Roll : 0.0, Pitch : 0.06, Yaw : 359.86, Alt : 40.6599998474, Lat : 49.2835706, Lng : -123.1150207, Q1 : 0.999999165535, Q2 : -5.33472084498e-05, Q3 : 0.000583960209042, Q4 : -0.00117163732648}
2019-04-14 02:47:39.61: SIM {TimeUS : 48835458, Roll : 0.02, Pitch : 0.07, Yaw : 359.86, Alt : 40.9000015259, Lat : 49.2835706, Lng : -123.1150207, Q1 : 0.999999046326, Q2 : 0.000229845856666, Q3 : 0.000664927531034, Q4 : -0.00116714625619}
2019-04-14 02:47:39.71: SIM {TimeUS : 48935418, Roll : 0.07, Pitch : 0.1, Yaw : 359.86, Alt : 41.1300010681, Lat : 49.2835706, Lng : -123.1150207, Q1 : 0.999998629093, Q2 : 0.000631422793958, Q3 : 0.000957100943197, Q4 : -0.00117657461669}
2019-04-14 02:47:39.81: SIM {TimeUS : 49035378, Roll : 0.1, Pitch : 0.15, Yaw : 359.86, Alt : 41.3600006104, Lat : 49.2835706, Lng : -123.1150207, Q1 : 0.999998033047, Q2 : 0.000910266768187, Q3 : 0.00131459441036, Q4 : -0.00119941914454}
2019-04-14 02:47:39.91: SIM {TimeUS : 49135338, Roll : 0.09, Pitch : 0.18, Yaw : 359.86, Alt : 41.5900001526, Lat : 49.2835706, Lng : -123.1150207, Q1 : 0.999997615814, Q2 : 0.000825035269372, Q3 : 0.00162030512001, Q4 : -0.00121928402223}
2019-04-14 02:47:40.01: SIM {TimeUS : 49235298, Roll : 0.04, Pitch : 0.21, Yaw : 359.85, Alt : 41.8300018311, Lat : 49.2835706, Lng : -123.1150207, Q1 : 0.999997437, Q2 : 0.000408092048019, Q3 : 0.00183621631004, Q4 : -0.00125018891413}
2019-04-14 02:47:40.11: SIM {TimeUS : 49335258, Roll : 0.0, Pitch : 0.21, Yaw : 359.85, Alt : 42.0600013733, Lat : 49.2835706, Lng : -123.1150207, Q1 : 0.999997377396, Q2 : -2.69638530881e-05, Q3 : 0.00189278356265, Q4 : -0.00128547719214}
2019-04-14 02:47:40.21: SIM {TimeUS : 49435218, Roll : -0.02, Pitch : 0.18, Yaw : 359.84, Alt : 42.2999992371, Lat : 49.2835706, Lng : -123.1150207, Q1 : 0.999997794628, Q2 : -0.000206153767067, Q3 : 0.00163472874556, Q4 : -0.00131729466375}
2019-04-14 02:47:40.31: SIM {TimeUS : 49535178, Roll : -0.02, Pitch : 0.14, Yaw : 359.84, Alt : 42.5299987793, Lat : 49.2835706, Lng : -123.1150207, Q1 : 0.999998271465, Q2 : -0.000221087728278, Q3 : 0.00125632586423, Q4 : -0.00135346443858}
2019-04-14 02:47:40.41: SIM {TimeUS : 49635138, Roll : -0.01, Pitch : 0.13, Yaw : 359.84, Alt : 42.7599983215, Lat : 49.2835706, Lng : -123.1150207, Q1 : 0.999998390675, Q2 : -9.41289545153e-05, Q3 : 0.00114220147952, Q4 : -0.00139141117688}
2019-04-14 02:47:40.51: SIM {TimeUS : 49735098, Roll : 0.02, Pitch : 0.13, Yaw : 359.83, Alt : 43.0, Lat : 49.2835706, Lng : -123.1150207, Q1 : 0.999998271465, Q2 : 0.000218520566705, Q3 : 0.00118206255138, Q4 : -0.00143279973418}
2019-04-14 02:47:40.61: SIM {TimeUS : 49835058, Roll : 0.07, Pitch : 0.14, Yaw : 359.83, Alt : 43.2299995422, Lat : 49.2835706, Lng : -123.1150207, Q1 : 0.999997913837, Q2 : 0.000696830742527, Q3 : 0.00122887466568, Q4 : -0.00146641465835}
2019-04-14 02:47:40.71: SIM {TimeUS : 49935018, Roll : 0.12, Pitch : 0.12, Yaw : 359.82, Alt : 43.4700012207, Lat : 49.2835706, Lng : -123.1150207, Q1 : 0.999997675419, Q2 : 0.00106657552533, Q3 : 0.0011087548919, Q4 : -0.00149893504567}
2019-04-14 02:47:40.81: SIM {TimeUS : 50034978, Roll : 0.12, Pitch : 0.1, Yaw : 359.82, Alt : 43.7099990845, Lat : 49.2835704, Lng : -123.1150207, Q1 : 0.999997854233, Q2 : 0.00107482762542, Q3 : 0.000922310340684, Q4 : -0.00152517505921}
2019-04-14 02:47:40.91: SIM {TimeUS : 50134938, Roll : 0.08, Pitch : 0.09, Yaw : 359.82, Alt : 43.9399986267, Lat : 49.2835704, Lng : -123.1150207, Q1 : 0.999998271465, Q2 : 0.000710437248927, Q3 : 0.00080587976845, Q4 : -0.0015286016278}
2019-04-14 02:47:41.01: SIM {TimeUS : 50234898, Roll : 0.02, Pitch : 0.08, Yaw : 359.82, Alt : 44.1800003052, Lat : 49.2835704, Lng : -123.1150207, Q1 : 0.999998569489, Q2 : 0.000205942938919, Q3 : 0.000733878463507, Q4 : -0.00152625131886}
2019-04-14 02:47:41.11: SIM {TimeUS : 50334858, Roll : -0.01, Pitch : 0.08, Yaw : 359.82, Alt : 44.4099998474, Lat : 49.2835704, Lng : -123.1150207, Q1 : 0.999998569489, Q2 : -0.000147047030623, Q3 : 0.000736968009733, Q4 : -0.00152823107783}
2019-04-14 02:47:41.21: SIM {TimeUS : 50434818, Roll : -0.03, Pitch : 0.07, Yaw : 359.82, Alt : 44.6500015259, Lat : 49.2835704, Lng : -123.1150206, Q1 : 0.999998569489, Q2 : -0.000321476982208, Q3 : 0.000652021612041, Q4 : -0.00153138500173}
2019-04-14 02:47:41.31: SIM {TimeUS : 50535611, Roll : -0.03, Pitch : 0.04, Yaw : 359.82, Alt : 44.8899993896, Lat : 49.2835704, Lng : -123.1150206, Q1 : 0.999998688698, Q2 : -0.000293801014777, Q3 : 0.000419317075284, Q4 : -0.00153531285468}
2019-04-14 02:47:41.41: SIM {TimeUS : 50635571, Roll : -0.03, Pitch : 0.01, Yaw : 359.82, Alt : 45.1199989319, Lat : 49.2835704, Lng : -123.1150206, Q1 : 0.999998748302, Q2 : -0.000320988212479, Q3 : 0.000160419251188, Q4 : -0.00154877000023}
2019-04-14 02:47:41.51: SIM {TimeUS : 50735531, Roll : -0.03, Pitch : 0.0, Yaw : 359.81, Alt : 45.3600006104, Lat : 49.2835703, Lng : -123.1150206, Q1 : 0.999998748302, Q2 : -0.000270331918728, Q3 : -4.35133588326e-05, Q4 : -0.00157628732268}
2019-04-14 02:47:41.61: SIM {TimeUS : 50835491, Roll : -0.01, Pitch : -0.01, Yaw : 359.81, Alt : 45.5900001526, Lat : 49.2835703, Lng : -123.1150206, Q1 : 0.999998688698, Q2 : -0.000153674918693, Q3 : -0.000127914216137, Q4 : -0.00161696993746}
2019-04-14 02:47:41.71: SIM {TimeUS : 50935451, Roll : -0.01, Pitch : 0.0, Yaw : 359.8, Alt : 45.8300018311, Lat : 49.2835703, Lng : -123.1150206, Q1 : 0.999998629093, Q2 : -0.000165922800079, Q3 : -7.25018544472e-05, Q4 : -0.00166441849433}
2019-04-14 02:47:41.81: SIM {TimeUS : 51035411, Roll : -0.02, Pitch : 0.0, Yaw : 359.8, Alt : 46.0600013733, Lat : 49.2835703, Lng : -123.1150206, Q1 : 0.999998509884, Q2 : -0.000252054567682, Q3 : -7.13650297257e-05, Q4 : -0.00171708886046}
2019-04-14 02:47:41.91: SIM {TimeUS : 51135371, Roll : -0.03, Pitch : -0.02, Yaw : 359.79, Alt : 46.2799987793, Lat : 49.2835703, Lng : -123.1150205, Q1 : 0.99999833107, Q2 : -0.000343810999766, Q3 : -0.000221101610805, Q4 : -0.00177253654692}
2019-04-14 02:47:42.01: SIM {TimeUS : 51235331, Roll : -0.04, Pitch : -0.03, Yaw : 359.79, Alt : 46.5099983215, Lat : 49.2835703, Lng : -123.1150205, Q1 : 0.999998211861, Q2 : -0.000365140556823, Q3 : -0.00034006065107, Q4 : -0.00182660506107}
2019-04-14 02:47:42.11: SIM {TimeUS : 51335291, Roll : -0.03, Pitch : -0.04, Yaw : 359.78, Alt : 46.7299995422, Lat : 49.2835703, Lng : -123.1150205, Q1 : 0.999998092651, Q2 : -0.000310632167384, Q3 : -0.000414419191657, Q4 : -0.00187679112423}
2019-04-14 02:47:42.21: SIM {TimeUS : 51435251, Roll : -0.03, Pitch : -0.05, Yaw : 359.77, Alt : 46.9399986267, Lat : 49.2835703, Lng : -123.1150205, Q1 : 0.999997973442, Q2 : -0.000314141594572, Q3 : -0.000463969394332, Q4 : -0.00192285247613}
2019-04-14 02:47:42.31: SIM {TimeUS : 51535211, Roll : -0.05, Pitch : -0.05, Yaw : 359.77, Alt : 47.1500015259, Lat : 49.2835703, Lng : -123.1150205, Q1 : 0.999997854233, Q2 : -0.000465162098408, Q3 : -0.000457468471723, Q4 : -0.00196036812849}
2019-04-14 02:47:42.41: SIM {TimeUS : 51635171, Roll : -0.08, Pitch : -0.05, Yaw : 359.77, Alt : 47.3400001526, Lat : 49.2835703, Lng : -123.1150205, Q1 : 0.999997675419, Q2 : -0.000716741255019, Q3 : -0.000457030750113, Q4 : -0.00198806542903}
2019-04-14 02:47:42.51: SIM {TimeUS : 51735131, Roll : -0.1, Pitch : -0.04, Yaw : 359.76, Alt : 47.5299987793, Lat : 49.2835703, Lng : -123.1150205, Q1 : 0.999997496605, Q2 : -0.000922283506952, Q3 : -0.000397459079977, Q4 : -0.0020096921362}
2019-04-14 02:47:42.61: SIM {TimeUS : 51835091, Roll : -0.13, Pitch : -0.05, Yaw : 359.76, Alt : 47.7099990845, Lat : 49.2835703, Lng : -123.1150205, Q1 : 0.999997138977, Q2 : -0.00120201334357, Q3 : -0.000434723828221, Q4 : -0.00202701450326}
2019-04-14 02:47:42.71: SIM {TimeUS : 51935051, Roll : -0.16, Pitch : -0.05, Yaw : 359.76, Alt : 47.8800010681, Lat : 49.2835703, Lng : -123.1150205, Q1 : 0.999996781349, Q2 : -0.00143903982826, Q3 : -0.000486379838549, Q4 : -0.00204363744706}
2019-04-14 02:47:42.81: SIM {TimeUS : 52035011, Roll : -0.16, Pitch : -0.05, Yaw : 359.76, Alt : 48.0400009155, Lat : 49.2835703, Lng : -123.1150205, Q1 : 0.999996721745, Q2 : -0.00144777656533, Q3 : -0.000495280371979, Q4 : -0.00206031813286}
2019-04-14 02:47:42.91: SIM {TimeUS : 52134971, Roll : -0.14, Pitch : -0.05, Yaw : 359.76, Alt : 48.1800003052, Lat : 49.2835703, Lng : -123.1150205, Q1 : 0.999996900558, Q2 : -0.00129229552113, Q3 : -0.000474472326459, Q4 : -0.00207443162799}
2019-04-14 02:47:43.01: SIM {TimeUS : 52234931, Roll : -0.12, Pitch : -0.05, Yaw : 359.76, Alt : 48.3199996948, Lat : 49.2835703, Lng : -123.1150205, Q1 : 0.999997079372, Q2 : -0.0010987680871, Q3 : -0.000444979785243, Q4 : -0.00208909809589}
2019-04-14 02:47:43.11: SIM {TimeUS : 52334891, Roll : -0.09, Pitch : -0.05, Yaw : 359.75, Alt : 48.4399986267, Lat : 49.2835703, Lng : -123.1150205, Q1 : 0.999997317791, Q2 : -0.000824221875519, Q3 : -0.000475136417663, Q4 : -0.00210595224053}
2019-04-14 02:47:43.21: SIM {TimeUS : 52434851, Roll : -0.05, Pitch : -0.06, Yaw : 359.75, Alt : 48.5499992371, Lat : 49.2835703, Lng : -123.1150205, Q1 : 0.999997496605, Q2 : -0.000471102481242, Q3 : -0.000542058085557, Q4 : -0.00212252978235}
2019-04-14 02:47:43.31: SIM {TimeUS : 52535644, Roll : -0.02, Pitch : -0.06, Yaw : 359.75, Alt : 48.6399993896, Lat : 49.2835703, Lng : -123.1150205, Q1 : 0.999997496605, Q2 : -0.000241185640334, Q3 : -0.00058682821691, Q4 : -0.0021394409705}
2019-04-14 02:47:43.41: SIM {TimeUS : 52635604, Roll : -0.02, Pitch : -0.06, Yaw : 359.75, Alt : 48.7299995422, Lat : 49.2835703, Lng : -123.1150206, Q1 : 0.999997496605, Q2 : -0.000193970074179, Q3 : -0.000608471455052, Q4 : -0.00215245061554}
2019-04-14 02:47:43.51: SIM {TimeUS : 52735564, Roll : 0.0, Pitch : -0.06, Yaw : 359.75, Alt : 48.7999992371, Lat : 49.2835703, Lng : -123.1150206, Q1 : 0.999997496605, Q2 : -2.47876650974e-05, Q3 : -0.000531598576345, Q4 : -0.00216624187306}
2019-04-14 02:47:43.61: SIM {TimeUS : 52835524, Roll : 0.02, Pitch : -0.04, Yaw : 359.74, Alt : 48.8600006104, Lat : 49.2835703, Lng : -123.1150206, Q1 : 0.999997496605, Q2 : 0.000205371004995, Q3 : -0.000402649049647, Q4 : -0.00218723993748}
2019-04-14 02:47:43.71: SIM {TimeUS : 52935484, Roll : 0.04, Pitch : -0.03, Yaw : 359.74, Alt : 48.9199981689, Lat : 49.2835703, Lng : -123.1150206, Q1 : 0.999997437, Q2 : 0.000396092102164, Q3 : -0.00028692104388, Q4 : -0.00221578334458}
2019-04-14 02:47:43.81: SIM {TimeUS : 53035444, Roll : 0.07, Pitch : -0.03, Yaw : 359.74, Alt : 48.9700012207, Lat : 49.2835703, Lng : -123.1150206, Q1 : 0.999997198582, Q2 : 0.000674278126098, Q3 : -0.00029890841688, Q4 : -0.00225114868954}
2019-04-14 02:47:43.91: SIM {TimeUS : 53135404, Roll : 0.23, Pitch : -0.13, Yaw : 359.73, Alt : 49.0099983215, Lat : 49.2835703, Lng : -123.1150206, Q1 : 0.999994575977, Q2 : 0.00206651119515, Q3 : -0.00114076898899, Q4 : -0.00229022395797}
2019-04-14 02:47:44.01: SIM {TimeUS : 53235364, Roll : 0.59, Pitch : -0.39, Yaw : 359.73, Alt : 49.0400009155, Lat : 49.2835703, Lng : -123.1150206, Q1 : 0.999977767467, Q2 : 0.00521361222491, Q3 : -0.00345131778158, Q4 : -0.00232468498871}
2019-04-14 02:47:44.11: SIM {TimeUS : 53335324, Roll : 1.16, Pitch : -0.81, Yaw : 359.72, Alt : 49.0699996948, Lat : 49.2835703, Lng : -123.1150206, Q1 : 0.999920368195, Q2 : 0.0101653272286, Q3 : -0.00710264639929, Q4 : -0.00234744278714}
2019-04-14 02:47:44.21: SIM {TimeUS : 53435284, Roll : 1.91, Pitch : -1.33, Yaw : 359.7, Alt : 49.0999984741, Lat : 49.2835703, Lng : -123.1150206, Q1 : 0.999789535999, Q2 : 0.0167002473027, Q3 : -0.0116847483441, Q4 : -0.00234388071112}
2019-04-14 02:47:44.31: SIM {TimeUS : 53535244, Roll : 2.76, Pitch : -1.91, Yaw : 359.68, Alt : 49.1199989319, Lat : 49.2835704, Lng : -123.1150205, Q1 : 0.999566614628, Q2 : 0.0240637231618, Q3 : -0.01679841429, Q4 : -0.00230102217756}
2019-04-14 02:47:44.41: SIM {TimeUS : 53635204, Roll : 3.57, Pitch : -2.46, Yaw : 359.67, Alt : 49.1399993896, Lat : 49.2835706, Lng : -123.1150204, Q1 : 0.999279439449, Q2 : 0.031117329374, Q3 : -0.0216208491474, Q4 : -0.00220208219253}
2019-04-14 02:47:44.51: SIM {TimeUS : 53735164, Roll : 4.25, Pitch : -2.9, Yaw : 359.65, Alt : 49.1599998474, Lat : 49.2835707, Lng : -123.1150202, Q1 : 0.998988032341, Q2 : 0.0370498038828, Q3 : -0.0254192650318, Q4 : -0.00203284109011}
2019-04-14 02:47:44.61: SIM {TimeUS : 53835124, Roll : 4.77, Pitch : -3.22, Yaw : 359.65, Alt : 49.1699981689, Lat : 49.2835708, Lng : -123.11502, Q1 : 0.99873572588, Q2 : 0.0415397658944, Q3 : -0.0282529108226, Q4 : -0.00180622399785}
2019-04-14 02:47:44.71: SIM {TimeUS : 53935084, Roll : 5.14, Pitch : -3.48, Yaw : 359.66, Alt : 49.1800003052, Lat : 49.2835709, Lng : -123.1150196, Q1 : 0.998527467251, Q2 : 0.0448028445244, Q3 : -0.0305482186377, Q4 : -0.00155162124429}
2019-04-14 02:47:44.81: SIM {TimeUS : 54035044, Roll : 5.43, Pitch : -3.72, Yaw : 359.67, Alt : 49.1899986267, Lat : 49.2835712, Lng : -123.1150192, Q1 : 0.998347878456, Q2 : 0.0473085194826, Q3 : -0.0325845815241, Q4 : -0.00128580827732}
2019-04-14 02:47:44.91: SIM {TimeUS : 54135004, Roll : 5.7, Pitch : -3.97, Yaw : 359.68, Alt : 49.2000007629, Lat : 49.2835715, Lng : -123.1150186, Q1 : 0.998162448406, Q2 : 0.0496312938631, Q3 : -0.0347487702966, Q4 : -0.001015718095}
2019-04-14 02:47:45.01: SIM {TimeUS : 54234964, Roll : 5.99, Pitch : -4.22, Yaw : 359.69, Alt : 49.2099990845, Lat : 49.2835718, Lng : -123.1150179, Q1 : 0.997951209545, Q2 : 0.0521948076785, Q3 : -0.0369938723743, Q4 : -0.000747312384192}
2019-04-14 02:47:45.11: SIM {TimeUS : 54334924, Roll : 6.3, Pitch : -4.45, Yaw : 359.69, Alt : 49.2200012207, Lat : 49.2835721, Lng : -123.1150172, Q1 : 0.997734606266, Q2 : 0.0548628903925, Q3 : -0.0389297492802, Q4 : -0.000489593134262}
2019-04-14 02:47:45.21: SIM {TimeUS : 54434884, Roll : 6.56, Pitch : -4.63, Yaw : 359.7, Alt : 49.2299995422, Lat : 49.2835725, Lng : -123.1150163, Q1 : 0.997546374798, Q2 : 0.0571083724499, Q3 : -0.0404937788844, Q4 : -0.000251716031926}
2019-04-14 02:47:45.31: SIM {TimeUS : 54534844, Roll : 6.75, Pitch : -4.75, Yaw : 359.71, Alt : 49.2299995422, Lat : 49.2835728, Lng : -123.1150154, Q1 : 0.997403919697, Q2 : 0.0587811954319, Q3 : -0.0415948517621, Q4 : -3.75139716198e-05}
2019-04-14 02:47:45.41: SIM {TimeUS : 54635637, Roll : 6.88, Pitch : -4.85, Yaw : 359.72, Alt : 49.2400016785, Lat : 49.2835733, Lng : -123.1150143, Q1 : 0.997302472591, Q2 : 0.0599105805159, Q3 : -0.0424084328115, Q4 : 0.000136831265991}
2019-04-14 02:47:45.51: SIM {TimeUS : 54735597, Roll : 6.97, Pitch : -4.93, Yaw : 359.72, Alt : 49.2400016785, Lat : 49.2835739, Lng : -123.1150132, Q1 : 0.997225105762, Q2 : 0.0607100427151, Q3 : -0.0430852137506, Q4 : 0.000250618177233}
2019-04-14 02:47:45.61: SIM {TimeUS : 54835557, Roll : 7.07, Pitch : -5.01, Yaw : 359.72, Alt : 49.25, Lat : 49.2835745, Lng : -123.115012, Q1 : 0.997139930725, Q2 : 0.0615780688822, Q3 : -0.0438183359802, Q4 : 0.000310615665512}
2019-04-14 02:47:45.71: SIM {TimeUS : 54935517, Roll : 7.32, Pitch : -5.02, Yaw : 359.78, Alt : 49.25, Lat : 49.2835751, Lng : -123.1150107, Q1 : 0.997001767159, Q2 : 0.063761010766, Q3 : -0.0438301004469, Q4 : 0.000967986823525}
2019-04-14 02:47:45.81: SIM {TimeUS : 55035477, Roll : 7.81, Pitch : -4.84, Yaw : 0.35, Alt : 49.25, Lat : 49.2835757, Lng : -123.1150093, Q1 : 0.99677324295, Q2 : 0.0681877359748, Q3 : -0.0419258289039, Q4 : 0.00599149707705}
2019-04-14 02:47:45.91: SIM {TimeUS : 55135437, Roll : 8.44, Pitch : -4.67, Yaw : 2.1, Alt : 49.2599983215, Lat : 49.2835764, Lng : -123.1150078, Q1 : 0.996233284473, Q2 : 0.0743077322841, Q3 : -0.0392927527428, Q4 : 0.0213010832667}
2019-04-14 02:47:46.01: SIM {TimeUS : 55235397, Roll : 8.94, Pitch : -4.87, Yaw : 5.41, Alt : 49.2599983215, Lat : 49.283577, Lng : -123.1150062, Q1 : 0.994783699512, Q2 : 0.0798252895474, Q3 : -0.0386756621301, Q4 : 0.0503741651773}
2019-04-14 02:47:46.11: SIM {TimeUS : 55335357, Roll : 9.08, Pitch : -5.58, Yaw : 10.25, Alt : 49.2599983215, Lat : 49.2835777, Lng : -123.1150045, Q1 : 0.991341412067, Q2 : 0.0831609517336, Q3 : -0.0413083583117, Q4 : 0.0928444564342}
2019-04-14 02:47:46.21: SIM {TimeUS : 55435317, Roll : 8.69, Pitch : -6.76, Yaw : 16.41, Alt : 49.2599983215, Lat : 49.2835785, Lng : -123.1150027, Q1 : 0.984546720982, Q2 : 0.0833392292261, Q3 : -0.0474402084947, Q4 : 0.146532416344}
2019-04-14 02:47:46.31: SIM {TimeUS : 55535277, Roll : 7.69, Pitch : -8.27, Yaw : 23.63, Alt : 49.2599983215, Lat : 49.2835792, Lng : -123.1150007, Q1 : 0.973058402538, Q2 : 0.080250389874, Q3 : -0.0567146427929, Q4 : 0.208568274975}
2019-04-14 02:47:46.41: SIM {TimeUS : 55635237, Roll : 6.1, Pitch : -9.86, Yaw : 31.67, Alt : 49.2599983215, Lat : 49.28358, Lng : -123.1149987, Q1 : 0.955864191055, Q2 : 0.0744846910238, Q3 : -0.0681533887982, Q4 : 0.275918096304}
2019-04-14 02:47:46.51: SIM {TimeUS : 55735197, Roll : 4.01, Pitch : -11.33, Yaw : 40.26, Alt : 49.2700004578, Lat : 49.2835807, Lng : -123.1149965, Q1 : 0.932555139065, Q2 : 0.0666480436921, Q3 : -0.0806476399302, Q4 : 0.345535606146}
2019-04-14 02:47:46.61: SIM {TimeUS : 55835157, Roll : 1.28, Pitch : -12.43, Yaw : 48.99, Alt : 49.2700004578, Lat : 49.2835816, Lng : -123.1149942, Q1 : 0.904073834419, Q2 : 0.055083218962, Q3 : -0.0939478054643, Q4 : 0.413267701864}
2019-04-14 02:47:46.71: SIM {TimeUS : 55935117, Roll : -1.88, Pitch : -13.0, Yaw : 57.04, Alt : 49.2700004578, Lat : 49.2835824, Lng : -123.1149918, Q1 : 0.873767435551, Q2 : 0.0397099629045, Q3 : -0.107263609767, Q4 : 0.472702920437}
2019-04-14 02:47:46.81: SIM {TimeUS : 56035077, Roll : -4.86, Pitch : -13.03, Yaw : 63.55, Alt : 49.2700004578, Lat : 49.2835834, Lng : -123.1149894, Q1 : 0.846368730068, Q2 : 0.0238602068275, Q3 : -0.11864914, Q4 : 0.518664717674}
2019-04-14 02:47:46.91: SIM {TimeUS : 56135037, Roll : -7.06, Pitch : -12.79, Yaw : 68.04, Alt : 49.2700004578, Lat : 49.2835844, Lng : -123.1149869, Q1 : 0.825946092606, Q2 : 0.0114296115935, Q3 : -0.126439198852, Q4 : 0.549268245697}
2019-04-14 02:47:47.01: SIM {TimeUS : 56234997, Roll : -8.2, Pitch : -12.55, Yaw : 70.45, Alt : 49.2700004578, Lat : 49.2835855, Lng : -123.1149843, Q1 : 0.814380705357, Q2 : 0.00482509238645, Q3 : -0.130078330636, Q4 : 0.565544366837}
2019-04-14 02:47:47.11: SIM {TimeUS : 56334957, Roll : -8.31, Pitch : -12.52, Yaw : 71.06, Alt : 49.2700004578, Lat : 49.2835868, Lng : -123.1149817, Q1 : 0.811402797699, Q2 : 0.00458059459925, Q3 : -0.130406498909, Q4 : 0.569735646248}
2019-04-14 02:47:47.21: SIM {TimeUS : 56434917, Roll : -7.58, Pitch : -12.76, Yaw : 70.2, Alt : 49.2700004578, Lat : 49.2835883, Lng : -123.114979, Q1 : 0.815480351448, Q2 : 0.0100651774555, Q3 : -0.128560617566, Q4 : 0.564236342907}
2019-04-14 02:47:47.31: SIM {TimeUS : 56534877, Roll : -6.21, Pitch : -13.28, Yaw : 68.25, Alt : 49.2700004578, Lat : 49.2835897, Lng : -123.1149763, Q1 : 0.824529349804, Q2 : 0.0202012956142, Q3 : -0.125832125545, Q4 : 0.551279962063}
2019-04-14 02:47:47.41: SIM {TimeUS : 56634837, Roll : -4.46, Pitch : -13.97, Yaw : 65.54, Alt : 49.2700004578, Lat : 49.2835913, Lng : -123.1149735, Q1 : 0.83649969101, Q2 : 0.0332958586514, Q3 : -0.123094506562, Q4 : 0.532923460007}
2019-04-14 02:47:47.51: SIM {TimeUS : 56735630, Roll : -2.51, Pitch : -14.7, Yaw : 62.36, Alt : 49.2799987793, Lat : 49.2835928, Lng : -123.1149707, Q1 : 0.849725544453, Q2 : 0.0476644337177, Q3 : -0.120716303587, Q4 : 0.511001110077}
2019-04-14 02:47:47.61: SIM {TimeUS : 56835590, Roll : -0.59, Pitch : -15.32, Yaw : 59.08, Alt : 49.2799987793, Lat : 49.2835945, Lng : -123.1149677, Q1 : 0.862556576729, Q2 : 0.0612873025239, Q3 : -0.118537001312, Q4 : 0.488046139479}
2019-04-14 02:47:47.71: SIM {TimeUS : 56935550, Roll : 1.1, Pitch : -15.72, Yaw : 56.0, Alt : 49.2799987793, Lat : 49.283596, Lng : -123.1149646, Q1 : 0.873953938484, Q2 : 0.0726796910167, Q3 : -0.116231516004, Q4 : 0.46627509594}
2019-04-14 02:47:47.81: SIM {TimeUS : 57035510, Roll : 2.45, Pitch : -15.88, Yaw : 53.44, Alt : 49.2799987793, Lat : 49.2835977, Lng : -123.1149615, Q1 : 0.883080363274, Q2 : 0.0810518711805, Q3 : -0.113821938634, Q4 : 0.447933286428}
2019-04-14 02:47:47.91: SIM {TimeUS : 57135470, Roll : 3.33, Pitch : -15.87, Yaw : 51.61, Alt : 49.2799987793, Lat : 49.2835995, Lng : -123.1149581, Q1 : 0.88952422142, Q2 : 0.0860534980893, Q3 : -0.111741319299, Q4 : 0.434574842453}
2019-04-14 02:47:48.01: SIM {TimeUS : 57235430, Roll : 3.72, Pitch : -15.8, Yaw : 50.57, Alt : 49.2799987793, Lat : 49.2836011, Lng : -123.1149547, Q1 : 0.893216848373, Q2 : 0.0877771824598, Q3 : -0.110482387245, Q4 : 0.426910489798}
2019-04-14 02:47:48.11: SIM {TimeUS : 57335390, Roll : 3.64, Pitch : -15.73, Yaw : 50.31, Alt : 49.2799987793, Lat : 49.2836028, Lng : -123.1149511, Q1 : 0.894315242767, Q2 : 0.0867019966245, Q3 : -0.110457316041, Q4 : 0.424831986427}
2019-04-14 02:47:48.21: SIM {TimeUS : 57435350, Roll : 3.17, Pitch : -15.74, Yaw : 50.72, Alt : 49.2799987793, Lat : 49.2836044, Lng : -123.1149474, Q1 : 0.893130660057, Q2 : 0.0834776833653, Q3 : -0.111979030073, Q4 : 0.427562654018}
2019-04-14 02:47:48.31: SIM {TimeUS : 57535310, Roll : 2.43, Pitch : -15.83, Yaw : 51.64, Alt : 49.2799987793, Lat : 49.2836062, Lng : -123.1149436, Q1 : 0.890106737614, Q2 : 0.0789295807481, Q3 : -0.114796534181, Q4 : 0.433937609196}
2019-04-14 02:47:48.41: SIM {TimeUS : 57635270, Roll : 1.54, Pitch : -15.97, Yaw : 52.88, Alt : 49.2900009155, Lat : 49.2836079, Lng : -123.1149397, Q1 : 0.885797441006, Q2 : 0.0738361552358, Q3 : -0.118430964649, Q4 : 0.442589253187}
2019-04-14 02:47:48.51: SIM {TimeUS : 57735230, Roll : 0.64, Pitch : -16.12, Yaw : 54.25, Alt : 49.2900009155, Lat : 49.2836096, Lng : -123.1149358, Q1 : 0.880826413631, Q2 : 0.0689132288098, Q3 : -0.122270345688, Q4 : 0.452156752348}
2019-04-14 02:47:48.61: SIM {TimeUS : 57835190, Roll : -0.16, Pitch : -16.26, Yaw : 55.58, Alt : 49.2900009155, Lat : 49.2836112, Lng : -123.1149318, Q1 : 0.87583231926, Q2 : 0.0647174045444, Q3 : -0.125749975443, Q4 : 0.461428642273}
2019-04-14 02:47:48.71: SIM {TimeUS : 57935150, Roll : -0.8, Pitch : -16.37, Yaw : 56.74, Alt : 49.2900009155, Lat : 49.283613, Lng : -123.1149277, Q1 : 0.871380090714, Q2 : 0.0615617148578, Q3 : -0.128598898649, Q4 : 0.46943500638}
2019-04-14 02:47:48.81: SIM {TimeUS : 58035110, Roll : -1.25, Pitch : -16.45, Yaw : 57.61, Alt : 49.2900009155, Lat : 49.2836148, Lng : -123.1149236, Q1 : 0.867913603783, Q2 : 0.0595071129501, Q3 : -0.130610063672, Q4 : 0.475526958704}
2019-04-14 02:47:48.91: SIM {TimeUS : 58135070, Roll : -1.49, Pitch : -16.52, Yaw : 58.16, Alt : 49.2900009155, Lat : 49.2836168, Lng : -123.1149194, Q1 : 0.86567825079, Q2 : 0.0585277490318, Q3 : -0.131828323007, Q4 : 0.47937142849}
2019-04-14 02:47:49.01: SIM {TimeUS : 58235030, Roll : -1.55, Pitch : -16.54, Yaw : 58.38, Alt : 49.2900009155, Lat : 49.2836187, Lng : -123.1149151, Q1 : 0.864763498306, Q2 : 0.0584692806005, Q3 : -0.132091358304, Q4 : 0.480954617262}
2019-04-14 02:47:49.11: SIM {TimeUS : 58334990, Roll : -1.41, Pitch : -16.54, Yaw : 58.3, Alt : 49.2900009155, Lat : 49.2836206, Lng : -123.1149109, Q1 : 0.865024745464, Q2 : 0.0594249665737, Q3 : -0.131550222635, Q4 : 0.480515807867}
2019-04-14 02:47:49.21: SIM {TimeUS : 58434950, Roll : -1.15, Pitch : -16.54, Yaw : 57.99, Alt : 49.2900009155, Lat : 49.2836225, Lng : -123.1149066, Q1 : 0.866216659546, Q2 : 0.0610168911517, Q3 : -0.130648955703, Q4 : 0.478410363197}
2019-04-14 02:47:49.31: SIM {TimeUS : 58534910, Roll : -0.8, Pitch : -16.56, Yaw : 57.51, Alt : 49.2900009155, Lat : 49.2836244, Lng : -123.1149022, Q1 : 0.868004024029, Q2 : 0.0632107183337, Q3 : -0.129628226161, Q4 : 0.475152611732}
2019-04-14 02:47:49.41: SIM {TimeUS : 58634870, Roll : -0.4, Pitch : -16.59, Yaw : 56.94, Alt : 49.2900009155, Lat : 49.2836264, Lng : -123.1148978, Q1 : 0.87008357048, Q2 : 0.0657362639904, Q3 : -0.128478690982, Q4 : 0.471303105354}
2019-04-14 02:47:49.51: SIM {TimeUS : 58734830, Roll : -0.01, Pitch : -16.61, Yaw : 56.37, Alt : 49.2900009155, Lat : 49.2836285, Lng : -123.1148934, Q1 : 0.87218016386, Q2 : 0.0681213587523, Q3 : -0.12746720016, Q4 : 0.467347204685}
2019-04-14 02:47:49.61: SIM {TimeUS : 58835623, Roll : 0.28, Pitch : -16.66, Yaw : 55.84, Alt : 49.2900009155, Lat : 49.2836305, Lng : -123.1148888, Q1 : 0.87407541275, Q2 : 0.0700752511621, Q3 : -0.126878589392, Q4 : 0.463663130999}
2019-04-14 02:47:49.71: SIM {TimeUS : 58935583, Roll : 0.5, Pitch : -16.71, Yaw : 55.42, Alt : 49.2900009155, Lat : 49.2836326, Lng : -123.1148843, Q1 : 0.875586509705, Q2 : 0.0714341700077, Q3 : -0.126670837402, Q4 : 0.460651606321}
2019-04-14 02:47:49.81: SIM {TimeUS : 59035543, Roll : 0.61, Pitch : -16.78, Yaw : 55.12, Alt : 49.2900009155, Lat : 49.2836347, Lng : -123.1148797, Q1 : 0.876624047756, Q2 : 0.0722548812628, Q3 : -0.126880347729, Q4 : 0.458487689495}
2019-04-14 02:47:49.91: SIM {TimeUS : 59135503, Roll : 0.63, Pitch : -16.83, Yaw : 54.97, Alt : 49.2900009155, Lat : 49.2836367, Lng : -123.1148751, Q1 : 0.877184450626, Q2 : 0.072436504066, Q3 : -0.127300620079, Q4 : 0.457269012928}
2019-04-14 02:47:50.01: SIM {TimeUS : 59235463, Roll : 0.6, Pitch : -16.87, Yaw : 54.94, Alt : 49.2900009155, Lat : 49.2836388, Lng : -123.1148704, Q1 : 0.877281367779, Q2 : 0.0722966566682, Q3 : -0.127780303359, Q4 : 0.456971347332}
2019-04-14 02:47:50.11: SIM {TimeUS : 59335423, Roll : 0.51, Pitch : -16.91, Yaw : 55.01, Alt : 49.2900009155, Lat : 49.2836408, Lng : -123.1148657, Q1 : 0.876985967159, Q2 : 0.0718751773238, Q3 : -0.128373786807, Q4 : 0.457438319921}
2019-04-14 02:47:50.21: SIM {TimeUS : 59435383, Roll : 0.39, Pitch : -16.94, Yaw : 55.17, Alt : 49.2900009155, Lat : 49.283643, Lng : -123.114861, Q1 : 0.876409232616, Q2 : 0.0712450295687, Q3 : -0.129008591175, Q4 : 0.45846247673}
2019-04-14 02:47:50.31: SIM {TimeUS : 59535343, Roll : 0.26, Pitch : -16.96, Yaw : 55.37, Alt : 49.2900009155, Lat : 49.2836451, Lng : -123.1148562, Q1 : 0.875659644604, Q2 : 0.0705694854259, Q3 : -0.129593282938, Q4 : 0.459832310677}
2019-04-14 02:47:50.41: SIM {TimeUS : 59635303, Roll : 0.13, Pitch : -16.99, Yaw : 55.58, Alt : 49.2900009155, Lat : 49.2836472, Lng : -123.1148514, Q1 : 0.874843239784, Q2 : 0.0699432939291, Q3 : -0.130169734359, Q4 : 0.46131670475}
2019-04-14 02:47:50.51: SIM {TimeUS : 59735263, Roll : 0.01, Pitch : -17.01, Yaw : 55.78, Alt : 49.2999992371, Lat : 49.2836493, Lng : -123.1148466, Q1 : 0.874074459076, Q2 : 0.0693274661899, Q3 : -0.130682900548, Q4 : 0.462719708681}
2019-04-14 02:47:50.61: SIM {TimeUS : 59835223, Roll : -0.08, Pitch : -17.04, Yaw : 55.95, Alt : 49.2999992371, Lat : 49.2836515, Lng : -123.1148418, Q1 : 0.873423933983, Q2 : 0.0688402205706, Q3 : -0.131236344576, Q4 : 0.463862866163}
2019-04-14 02:47:50.71: SIM {TimeUS : 59935183, Roll : -0.16, Pitch : -17.08, Yaw : 56.07, Alt : 49.2999992371, Lat : 49.2836536, Lng : -123.1148369, Q1 : 0.872946560383, Q2 : 0.0685235336423, Q3 : -0.131771504879, Q4 : 0.464655995369}
2019-04-14 02:47:50.81: SIM {TimeUS : 60035143, Roll : -0.21, Pitch : -17.11, Yaw : 56.13, Alt : 49.2999992371, Lat : 49.2836558, Lng : -123.114832, Q1 : 0.872680187225, Q2 : 0.0683614462614, Q3 : -0.132213845849, Q4 : 0.465054273605}
2019-04-14 02:47:50.91: SIM {TimeUS : 60135103, Roll : -0.24, Pitch : -17.15, Yaw : 56.14, Alt : 49.2999992371, Lat : 49.2836579, Lng : -123.1148271, Q1 : 0.872626960278, Q2 : 0.0682950168848, Q3 : -0.132577076554, Q4 : 0.465060502291}
2019-04-14 02:47:51.01: SIM {TimeUS : 60235063, Roll : -0.24, Pitch : -17.17, Yaw : 56.1, Alt : 49.2999992371, Lat : 49.2836601, Lng : -123.1148221, Q1 : 0.872768223286, Q2 : 0.0683432519436, Q3 : -0.132762491703, Q4 : 0.464735388756}
2019-04-14 02:47:51.11: SIM {TimeUS : 60335023, Roll : -0.22, Pitch : -17.19, Yaw : 56.02, Alt : 49.2999992371, Lat : 49.2836622, Lng : -123.1148171, Q1 : 0.873048603535, Q2 : 0.0685098096728, Q3 : -0.132891982794, Q4 : 0.464146852493}
2019-04-14 02:47:51.21: SIM {TimeUS : 60434983, Roll : -0.16, Pitch : -17.22, Yaw : 55.92, Alt : 49.2999992371, Lat : 49.2836645, Lng : -123.1148122, Q1 : 0.873403131962, Q2 : 0.0689540505409, Q3 : -0.132958978415, Q4 : 0.463394343853}
2019-04-14 02:47:51.31: SIM {TimeUS : 60534943, Roll : -0.08, Pitch : -17.26, Yaw : 55.8, Alt : 49.2999992371, Lat : 49.2836668, Lng : -123.1148072, Q1 : 0.873787999153, Q2 : 0.0695893168449, Q3 : -0.133024677634, Q4 : 0.46255415678}
2019-04-14 02:47:51.41: SIM {TimeUS : 60634903, Roll : 0.0, Pitch : -17.31, Yaw : 55.68, Alt : 49.3100013733, Lat : 49.2836689, Lng : -123.1148021, Q1 : 0.874166190624, Q2 : 0.0702977478504, Q3 : -0.133087992668, Q4 : 0.461713522673}
2019-04-14 02:47:51.51: SIM {TimeUS : 60734863, Roll : 0.08, Pitch : -17.35, Yaw : 55.57, Alt : 49.3100013733, Lat : 49.2836712, Lng : -123.1147971, Q1 : 0.874500334263, Q2 : 0.0709797665477, Q3 : -0.133164331317, Q4 : 0.460953682661}
2019-04-14 02:47:51.61: SIM {TimeUS : 60834823, Roll : 0.14, Pitch : -17.39, Yaw : 55.48, Alt : 49.3100013733, Lat : 49.2836735, Lng : -123.114792, Q1 : 0.874774217606, Q2 : 0.0715173408389, Q3 : -0.133257523179, Q4 : 0.460323631763}
2019-04-14 02:47:51.71: SIM {TimeUS : 60935616, Roll : 0.17, Pitch : -17.4, Yaw : 55.41, Alt : 49.3100013733, Lat : 49.2836756, Lng : -123.1147869, Q1 : 0.875008285046, Q2 : 0.0716911256313, Q3 : -0.13329616189, Q4 : 0.459840238094}
2019-04-14 02:47:51.81: SIM {TimeUS : 61035576, Roll : 0.16, Pitch : -17.4, Yaw : 55.37, Alt : 49.3100013733, Lat : 49.2836779, Lng : -123.1147818, Q1 : 0.875183165073, Q2 : 0.0715881362557, Q3 : -0.133325725794, Q4 : 0.459514796734}
2019-04-14 02:47:51.91: SIM {TimeUS : 61135536, Roll : 0.16, Pitch : -17.39, Yaw : 55.35, Alt : 49.3100013733, Lat : 49.2836803, Lng : -123.1147767, Q1 : 0.875273764133, Q2 : 0.0715112537146, Q3 : -0.133261308074, Q4 : 0.459372878075}
2019-04-14 02:47:52.01: SIM {TimeUS : 61235496, Roll : 0.16, Pitch : -17.39, Yaw : 55.35, Alt : 49.3100013733, Lat : 49.2836825, Lng : -123.1147716, Q1 : 0.87528026104, Q2 : 0.0714872926474, Q3 : -0.133291006088, Q4 : 0.459355562925}
2019-04-14 02:47:52.11: SIM {TimeUS : 61335456, Roll : 0.16, Pitch : -17.43, Yaw : 55.36, Alt : 49.3100013733, Lat : 49.2836847, Lng : -123.1147664, Q1 : 0.875196516514, Q2 : 0.0716707184911, Q3 : -0.133512705564, Q4 : 0.459422141314}
2019-04-14 02:47:52.21: SIM {TimeUS : 61435416, Roll : 0.16, Pitch : -17.48, Yaw : 55.38, Alt : 49.3100013733, Lat : 49.283687, Lng : -123.1147613, Q1 : 0.875055015087, Q2 : 0.0719095021486, Q3 : -0.133934095502, Q4 : 0.459531754255}
2019-04-14 02:47:52.31: SIM {TimeUS : 61535376, Roll : 0.15, Pitch : -17.52, Yaw : 55.41, Alt : 49.3100013733, Lat : 49.2836894, Lng : -123.1147561, Q1 : 0.874922275543, Q2 : 0.0720060020685, Q3 : -0.134258970618, Q4 : 0.459674566984}
2019-04-14 02:47:52.41: SIM {TimeUS : 61635336, Roll : 0.13, Pitch : -17.53, Yaw : 55.43, Alt : 49.3199996948, Lat : 49.2836917, Lng : -123.1147509, Q1 : 0.874827325344, Q2 : 0.0719482824206, Q3 : -0.1344294101, Q4 : 0.459814488888}
2019-04-14 02:47:52.51: SIM {TimeUS : 61735296, Roll : 0.1, Pitch : -17.55, Yaw : 55.44, Alt : 49.3199996948, Lat : 49.2836939, Lng : -123.1147457, Q1 : 0.874769330025, Q2 : 0.0717640444636, Q3 : -0.134667545557, Q4 : 0.459883958101}
2019-04-14 02:47:52.61: SIM {TimeUS : 61835256, Roll : 0.06, Pitch : -17.57, Yaw : 55.45, Alt : 49.3199996948, Lat : 49.2836962, Lng : -123.1147405, Q1 : 0.874732136726, Q2 : 0.0715933591127, Q3 : -0.135004982352, Q4 : 0.459882318974}
2019-04-14 02:47:52.71: SIM {TimeUS : 61935216, Roll : 0.05, Pitch : -17.59, Yaw : 55.45, Alt : 49.3199996948, Lat : 49.2836986, Lng : -123.1147353, Q1 : 0.874724030495, Q2 : 0.0715742707253, Q3 : -0.135174140334, Q4 : 0.459851056337}
2019-04-14 02:47:52.81: SIM {TimeUS : 62035176, Roll : 0.05, Pitch : -17.61, Yaw : 55.44, Alt : 49.3199996948, Lat : 49.2837009, Lng : -123.1147301, Q1 : 0.874748766422, Q2 : 0.0716084837914, Q3 : -0.135341688991, Q4 : 0.459749341011}
2019-04-14 02:47:52.91: SIM {TimeUS : 62135136, Roll : 0.05, Pitch : -17.62, Yaw : 55.42, Alt : 49.3199996948, Lat : 49.2837033, Lng : -123.1147248, Q1 : 0.874809086323, Q2 : 0.0716736391187, Q3 : -0.135415390134, Q4 : 0.459602713585}
2019-04-14 02:47:53.01: SIM {TimeUS : 62235096, Roll : 0.07, Pitch : -17.64, Yaw : 55.39, Alt : 49.3199996948, Lat : 49.2837056, Lng : -123.1147196, Q1 : 0.874890387058, Q2 : 0.0718135982752, Q3 : -0.13547617197, Q4 : 0.459408134222}
2019-04-14 02:47:53.11: SIM {TimeUS : 62335056, Roll : 0.09, Pitch : -17.65, Yaw : 55.36, Alt : 49.3199996948, Lat : 49.2837078, Lng : -123.1147143, Q1 : 0.874987781048, Q2 : 0.0719915926456, Q3 : -0.135494336486, Q4 : 0.459189414978}
2019-04-14 02:47:53.21: SIM {TimeUS : 62435016, Roll : 0.11, Pitch : -17.66, Yaw : 55.33, Alt : 49.3199996948, Lat : 49.2837102, Lng : -123.114709, Q1 : 0.875079572201, Q2 : 0.0722008422017, Q3 : -0.135503232479, Q4 : 0.458978950977}
2019-04-14 02:47:53.31: SIM {TimeUS : 62534976, Roll : 0.14, Pitch : -17.68, Yaw : 55.3, Alt : 49.3199996948, Lat : 49.2837126, Lng : -123.1147037, Q1 : 0.875149905682, Q2 : 0.0724892094731, Q3 : -0.135594502091, Q4 : 0.458772391081}
2019-04-14 02:47:53.41: SIM {TimeUS : 62634936, Roll : 0.15, Pitch : -17.72, Yaw : 55.27, Alt : 49.3199996948, Lat : 49.283715, Lng : -123.1146984, Q1 : 0.875210106373, Q2 : 0.0726864561439, Q3 : -0.13585858047, Q4 : 0.45854818821}
2019-04-14 02:47:53.51: SIM {TimeUS : 62734896, Roll : 0.14, Pitch : -17.76, Yaw : 55.25, Alt : 49.3199996948, Lat : 49.2837173, Lng : -123.1146931, Q1 : 0.87526923418, Q2 : 0.0727305933833, Q3 : -0.136211618781, Q4 : 0.458323448896}
2019-04-14 02:47:53.61: SIM {TimeUS : 62834856, Roll : 0.13, Pitch : -17.8, Yaw : 55.23, Alt : 49.3199996948, Lat : 49.2837197, Lng : -123.1146878, Q1 : 0.875313818455, Q2 : 0.0727986991405, Q3 : -0.136567935348, Q4 : 0.45812150836}
2019-04-14 02:47:53.71: SIM {TimeUS : 62934816, Roll : 0.15, Pitch : -17.83, Yaw : 55.21, Alt : 49.3199996948, Lat : 49.2837221, Lng : -123.1146825, Q1 : 0.875339150429, Q2 : 0.0730239972472, Q3 : -0.136726275086, Q4 : 0.457990050316}
2019-04-14 02:47:53.81: SIM {TimeUS : 63035609, Roll : 0.18, Pitch : -17.83, Yaw : 55.19, Alt : 49.3199996948, Lat : 49.2837245, Lng : -123.1146771, Q1 : 0.875377476215, Q2 : 0.0732267946005, Q3 : -0.136611938477, Q4 : 0.457918405533}
2019-04-14 02:47:53.91: SIM {TimeUS : 63135569, Roll : 0.2, Pitch : -17.79, Yaw : 55.19, Alt : 49.3199996948, Lat : 49.2837267, Lng : -123.1146718, Q1 : 0.875442326069, Q2 : 0.0732216313481, Q3 : -0.136291697621, Q4 : 0.45789077878}
2019-04-14 02:47:54.01: SIM {TimeUS : 63235529, Roll : 0.19, Pitch : -17.77, Yaw : 55.18, Alt : 49.3300018311, Lat : 49.2837291, Lng : -123.1146664, Q1 : 0.875494420528, Q2 : 0.0730728805065, Q3 : -0.136154323816, Q4 : 0.457855761051}
2019-04-14 02:47:54.11: SIM {TimeUS : 63335489, Roll : 0.17, Pitch : -17.76, Yaw : 55.18, Alt : 49.3300018311, Lat : 49.2837315, Lng : -123.114661, Q1 : 0.87553858757, Q2 : 0.0728627666831, Q3 : -0.136148065329, Q4 : 0.457806676626}
2019-04-14 02:47:54.21: SIM {TimeUS : 63435449, Roll : 0.15, Pitch : -17.76, Yaw : 55.17, Alt : 49.3300018311, Lat : 49.2837339, Lng : -123.1146556, Q1 : 0.87556630373, Q2 : 0.072720117867, Q3 : -0.136226460338, Q4 : 0.457752972841}
2019-04-14 02:47:54.31: SIM {TimeUS : 63535409, Roll : 0.14, Pitch : -17.78, Yaw : 55.17, Alt : 49.3300018311, Lat : 49.2837363, Lng : -123.1146503, Q1 : 0.875577151775, Q2 : 0.0726572051644, Q3 : -0.136431291699, Q4 : 0.457681208849}
2019-04-14 02:47:54.41: SIM {TimeUS : 63635369, Roll : 0.13, Pitch : -17.8, Yaw : 55.16, Alt : 49.3300018311, Lat : 49.2837387, Lng : -123.1146448, Q1 : 0.87557888031, Q2 : 0.072693772614, Q3 : -0.136648356915, Q4 : 0.457607358694}
2019-04-14 02:47:54.51: SIM {TimeUS : 63735329, Roll : 0.12, Pitch : -17.84, Yaw : 55.15, Alt : 49.3300018311, Lat : 49.2837411, Lng : -123.1146395, Q1 : 0.87556964159, Q2 : 0.0727755129337, Q3 : -0.136968240142, Q4 : 0.457516372204}
2019-04-14 02:47:54.61: SIM {TimeUS : 63835289, Roll : 0.12, Pitch : -17.89, Yaw : 55.14, Alt : 49.3300018311, Lat : 49.2837436, Lng : -123.1146341, Q1 : 0.87555295229, Q2 : 0.0729326382279, Q3 : -0.137329980731, Q4 : 0.457414865494}
2019-04-14 02:47:54.71: SIM {TimeUS : 63935249, Roll : 0.13, Pitch : -17.92, Yaw : 55.13, Alt : 49.3300018311, Lat : 49.283746, Lng : -123.1146287, Q1 : 0.875549554825, Q2 : 0.0731410384178, Q3 : -0.137548521161, Q4 : 0.45732241869}
2019-04-14 02:47:54.81: SIM {TimeUS : 64035209, Roll : 0.13, Pitch : -17.95, Yaw : 55.12, Alt : 49.3300018311, Lat : 49.2837484, Lng : -123.1146232, Q1 : 0.875562787056, Q2 : 0.0732604190707, Q3 : -0.137785822153, Q4 : 0.457206606865}
2019-04-14 02:47:54.91: SIM {TimeUS : 64135169, Roll : 0.14, Pitch : -17.97, Yaw : 55.11, Alt : 49.3300018311, Lat : 49.2837508, Lng : -123.1146178, Q1 : 0.875594258308, Q2 : 0.0733314827085, Q3 : -0.137926638126, Q4 : 0.457092404366}
2019-04-14 02:47:55.01: SIM {TimeUS : 64235129, Roll : 0.16, Pitch : -17.96, Yaw : 55.09, Alt : 49.3300018311, Lat : 49.2837532, Lng : -123.1146124, Q1 : 0.875645756721, Q2 : 0.0734618604183, Q3 : -0.137799620628, Q4 : 0.457011133432}
2019-04-14 02:47:55.11: SIM {TimeUS : 64335089, Roll : 0.18, Pitch : -17.97, Yaw : 55.08, Alt : 49.3300018311, Lat : 49.2837557, Lng : -123.1146069, Q1 : 0.875681221485, Q2 : 0.0736668780446, Q3 : -0.137735456228, Q4 : 0.456929534674}
2019-04-14 02:47:55.21: SIM {TimeUS : 64435049, Roll : 0.2, Pitch : -17.98, Yaw : 55.06, Alt : 49.3300018311, Lat : 49.2837581, Lng : -123.1146015, Q1 : 0.875713527203, Q2 : 0.073797300458, Q3 : -0.137793809175, Q4 : 0.456828951836}
2019-04-14 02:47:55.31: SIM {TimeUS : 64535009, Roll : 0.21, Pitch : -17.98, Yaw : 55.05, Alt : 49.3300018311, Lat : 49.2837605, Lng : -123.1145961, Q1 : 0.875751972198, Q2 : 0.073881931603, Q3 : -0.137781396508, Q4 : 0.456745266914}
2019-04-14 02:47:55.41: SIM {TimeUS : 64634969, Roll : 0.21, Pitch : -17.98, Yaw : 55.04, Alt : 49.3400001526, Lat : 49.2837629, Lng : -123.1145906, Q1 : 0.875799357891, Q2 : 0.0738806650043, Q3 : -0.137728646398, Q4 : 0.45667052269}
2019-04-14 02:47:55.51: SIM {TimeUS : 64734929, Roll : 0.21, Pitch : -17.98, Yaw : 55.03, Alt : 49.3400001526, Lat : 49.2837654, Lng : -123.1145851, Q1 : 0.875840723515, Q2 : 0.0738324299455, Q3 : -0.137735575438, Q4 : 0.456596910954}
2019-04-14 02:47:55.61: SIM {TimeUS : 64834889, Roll : 0.18, Pitch : -17.99, Yaw : 55.02, Alt : 49.3400001526, Lat : 49.2837678, Lng : -123.1145797, Q1 : 0.875864028931, Q2 : 0.0737131014466, Q3 : -0.137977674603, Q4 : 0.456498384476}
2019-04-14 02:47:55.71: SIM {TimeUS : 64934849, Roll : 0.15, Pitch : -18.03, Yaw : 55.01, Alt : 49.3400001526, Lat : 49.2837702, Lng : -123.1145742, Q1 : 0.875867068768, Q2 : 0.0735931918025, Q3 : -0.138420566916, Q4 : 0.456377863884}
2019-04-14 02:47:55.81: SIM {TimeUS : 65035642, Roll : 0.13, Pitch : -18.04, Yaw : 55.01, Alt : 49.3400001526, Lat : 49.2837727, Lng : -123.1145687, Q1 : 0.875893890858, Q2 : 0.0734607428312, Q3 : -0.138603165746, Q4 : 0.456292212009}
2019-04-14 02:47:55.91: SIM {TimeUS : 65135602, Roll : 0.13, Pitch : -18.03, Yaw : 55.0, Alt : 49.3400001526, Lat : 49.2837752, Lng : -123.1145632, Q1 : 0.87594383955, Q2 : 0.073401466012, Q3 : -0.138448163867, Q4 : 0.456252932549}
2019-04-14 02:47:56.01: SIM {TimeUS : 65235562, Roll : 0.14, Pitch : -18.01, Yaw : 54.99, Alt : 49.3400001526, Lat : 49.2837776, Lng : -123.1145577, Q1 : 0.87598913908, Q2 : 0.0734166279435, Q3 : -0.138260290027, Q4 : 0.456220448017}
2019-04-14 02:47:56.11: SIM {TimeUS : 65335522, Roll : 0.15, Pitch : -18.01, Yaw : 54.98, Alt : 49.3400001526, Lat : 49.28378, Lng : -123.1145522, Q1 : 0.876016736031, Q2 : 0.073501624167, Q3 : -0.138257980347, Q4 : 0.456154555082}
2019-04-14 02:47:56.21: SIM {TimeUS : 65435482, Roll : 0.15, Pitch : -18.03, Yaw : 54.97, Alt : 49.3400001526, Lat : 49.2837825, Lng : -123.1145467, Q1 : 0.876039862633, Q2 : 0.0735095515847, Q3 : -0.138456374407, Q4 : 0.456048667431}
2019-04-14 02:47:56.31: SIM {TimeUS : 65535442, Roll : 0.13, Pitch : -18.06, Yaw : 54.96, Alt : 49.3400001526, Lat : 49.2837849, Lng : -123.1145412, Q1 : 0.876062333584, Q2 : 0.0734568834305, Q3 : -0.138783305883, Q4 : 0.455914586782}
2019-04-14 02:47:56.41: SIM {TimeUS : 65635402, Roll : 0.11, Pitch : -18.09, Yaw : 54.95, Alt : 49.3400001526, Lat : 49.2837873, Lng : -123.1145357, Q1 : 0.876090586185, Q2 : 0.0734688267112, Q3 : -0.139040574431, Q4 : 0.45577993989}
2019-04-14 02:47:56.51: SIM {TimeUS : 65735362, Roll : 0.12, Pitch : -18.12, Yaw : 54.93, Alt : 49.3400001526, Lat : 49.2837898, Lng : -123.1145302, Q1 : 0.876113772392, Q2 : 0.0736065879464, Q3 : -0.139210790396, Q4 : 0.455661207438}
2019-04-14 02:47:56.61: SIM {TimeUS : 65835322, Roll : 0.14, Pitch : -18.13, Yaw : 54.92, Alt : 49.3400001526, Lat : 49.2837922, Lng : -123.1145247, Q1 : 0.876143634319, Q2 : 0.0737676694989, Q3 : -0.139268293977, Q4 : 0.455560088158}
2019-04-14 02:47:56.71: SIM {TimeUS : 65935282, Roll : 0.16, Pitch : -18.14, Yaw : 54.9, Alt : 49.3400001526, Lat : 49.2837947, Lng : -123.1145192, Q1 : 0.87617534399, Q2 : 0.0739572420716, Q3 : -0.139252230525, Q4 : 0.45547324419}
