2019-04-14 04:37:20.70: SIM {TimeUS : 39915694, Roll : 0.0, Pitch : 0.0, Yaw : 0.0, Alt : 30.1000003815, Lat : 49.28357, Lng : -123.11502, Q1 : 1.0, Q2 : 0.0, Q3 : 0.0, Q4 : 0.0}
2019-04-14 04:37:20.81: SIM {TimeUS : 40034813, Roll : 0.0, Pitch : 0.0, Yaw : 0.0, Alt : 30.1000003815, Lat : 49.28357, Lng : -123.11502, Q1 : 1.0, Q2 : 0.0, Q3 : 0.0, Q4 : 0.0}
2019-04-14 04:37:20.91: SIM {TimeUS : 40134773, Roll : 0.0, Pitch : 0.0, Yaw : 0.0, Alt : 30.1000003815, Lat : 49.28357, Lng : -123.11502, Q1 : 1.0, Q2 : 0.0, Q3 : 0.0, Q4 : 0.0}
2019-04-14 04:37:21.01: SIM {TimeUS : 40234733, Roll : 0.0, Pitch : 0.0, Yaw : 0.0, Alt : 30.1000003815, Lat : 49.28357, Lng : -123.11502, Q1 : 1.0, Q2 : 0.0, Q3 : 0.0, Q4 : 0.0}
2019-04-14 04:37:21.11: SIM {TimeUS : 40334693, Roll : 0.0, Pitch : 0.0, Yaw : 0.0, Alt : 30.1000003815, Lat : 49.28357, Lng : -123.11502, Q1 : 1.0, Q2 : 0.0, Q3 : 0.0, Q4 : 0.0}
2019-04-14 04:37:21.21: SIM {TimeUS : 40434653, Roll : 0.0, Pitch : 0.0, Yaw : 0.0, Alt : 30.1000003815, Lat : 49.28357, Lng : -123.11502, Q1 : 1.0, Q2 : 0.0, Q3 : 0.0, Q4 : 0.0}
2019-04-14 04:37:21.31: SIM {TimeUS : 40534613, Roll : 0.0, Pitch : 0.0, Yaw : 0.0, Alt : 30.1000003815, Lat : 49.28357, Lng : -123.11502, Q1 : 1.0, Q2 : 0.0, Q3 : 0.0, Q4 : 0.0}
2019-04-14 04:37:21.41: SIM {TimeUS : 40634573, Roll : 0.0, Pitch : 0.0, Yaw : 0.0, Alt : 30.1000003815, Lat : 49.28357, Lng : -123.11502, Q1 : 1.0, Q2 : 0.0, Q3 : 0.0, Q4 : 0.0}
2019-04-14 04:37:21.51: SIM {TimeUS : 40734533, Roll : 0.0, Pitch : 0.0, Yaw : 0.0, Alt : 30.1000003815, Lat : 49.28357, Lng : -123.11502, Q1 : 1.0, Q2 : 0.0, Q3 : 0.0, Q4 : 0.0}
2019-04-14 04:37:21.61: SIM {TimeUS : 40834493, Roll : 0.0, Pitch : 0.0, Yaw : 0.0, Alt : 30.1000003815, Lat : 49.28357, Lng : -123.11502, Q1 : 1.0, Q2 : 0.0, Q3 : 0.0, Q4 : 0.0}
2019-04-14 04:37:21.71: SIM {TimeUS : 40934453, Roll : 0.0, Pitch : 0.0, Yaw : 0.0, Alt : 30.1000003815, Lat : 49.28357, Lng : -123.11502, Q1 : 1.0, Q2 : 0.0, Q3 : 0.0, Q4 : 0.0}
2019-04-14 04:37:21.81: SIM {TimeUS : 41034413, Roll : 0.0, Pitch : 0.0, Yaw : 0.0, Alt : 30.1000003815, Lat : 49.28357, Lng : -123.11502, Q1 : 1.0, Q2 : 0.0, Q3 : 0.0, Q4 : 0.0}
2019-04-14 04:37:21.91: SIM {TimeUS : 41134373, Roll : 0.0, Pitch : 0.0, Yaw : 0.0, Alt : 30.1000003815, Lat : 49.28357, Lng : -123.11502, Q1 : 1.0, Q2 : 0.0, Q3 : 0.0, Q4 : 0.0}
2019-04-14 04:37:22.01: SIM {TimeUS : 41234333, Roll : 0.0, Pitch : 0.0, Yaw : 0.0, Alt : 30.1000003815, Lat : 49.28357, Lng : -123.11502, Q1 : 1.0, Q2 : 0.0, Q3 : 0.0, Q4 : 0.0}
2019-04-14 04:37:22.11: SIM {TimeUS : 41334293, Roll : 0.0, Pitch : 0.0, Yaw : 0.0, Alt : 30.1000003815, Lat : 49.28357, Lng : -123.11502, Q1 : 1.0, Q2 : 0.0, Q3 : 0.0, Q4 : 0.0}
2019-04-14 04:37:22.21: SIM {TimeUS : 41434253, Roll : 0.0, Pitch : 0.0, Yaw : 0.0, Alt : 30.1000003815, Lat : 49.28357, Lng : -123.11502, Q1 : 1.0, Q2 : 0.0, Q3 : 0.0, Q4 : 0.0}
2019-04-14 04:37:22.31: SIM {TimeUS : 41534213, Roll : 0.0, Pitch : 0.0, Yaw : 0.0, Alt : 30.1000003815, Lat : 49.28357, Lng : -123.11502, Q1 : 1.0, Q2 : 0.0, Q3 : 0.0, Q4 : 0.0}
2019-04-14 04:37:22.41: SIM {TimeUS : 41634173, Roll : 0.0, Pitch : 0.0, Yaw : 0.0, Alt : 30.1000003815, Lat : 49.28357, Lng : -123.11502, Q1 : 1.0, Q2 : 0.0, Q3 : 0.0, Q4 : 0.0}
2019-04-14 04:37:22.51: SIM {TimeUS : 41734133, Roll : 0.0, Pitch : 0.0, Yaw : 0.0, Alt : 30.1000003815, Lat : 49.28357, Lng : -123.11502, Q1 : 1.0, Q2 : 0.0, Q3 : 0.0, Q4 : 0.0}
2019-04-14 04:37:22.61: SIM {TimeUS : 41834093, Roll : 0.0, Pitch : 0.0, Yaw : 0.0, Alt : 30.1000003815, Lat : 49.28357, Lng : -123.11502, Q1 : 1.0, Q2 : 0.0, Q3 : 0.0, Q4 : 0.0}
2019-04-14 04:37:22.71: SIM {TimeUS : 41934053, Roll : 0.0, Pitch : 0.0, Yaw : 0.0, Alt : 30.1000003815, Lat : 49.28357, Lng : -123.11502, Q1 : 1.0, Q2 : 0.0, Q3 : 0.0, Q4 : 0.0}
2019-04-14 04:37:22.82: SIM {TimeUS : 42034846, Roll : 0.0, Pitch : 0.0, Yaw : 0.0, Alt : 30.1000003815, Lat : 49.28357, Lng : -123.11502, Q1 : 1.0, Q2 : 0.0, Q3 : 0.0, Q4 : 0.0}
2019-04-14 04:37:22.91: SIM {TimeUS : 42134806, Roll : 0.0, Pitch : 0.0, Yaw : 0.0, Alt : 30.1000003815, Lat : 49.28357, Lng : -123.11502, Q1 : 1.0, Q2 : 0.0, Q3 : 0.0, Q4 : 0.0}
2019-04-14 04:37:23.01: SIM {TimeUS : 42234766, Roll : 0.0, Pitch : 0.0, Yaw : 0.0, Alt : 30.1000003815, Lat : 49.28357, Lng : -123.11502, Q1 : 1.0, Q2 : 0.0, Q3 : 0.0, Q4 : 2.50972402582e-11}
2019-04-14 04:37:23.11: SIM {TimeUS : 42334726, Roll : 0.0, Pitch : 0.0, Yaw : 360.0, Alt : 30.1000003815, Lat : 49.28357, Lng : -123.11502, Q1 : 1.0, Q2 : 0.0, Q3 : 0.0, Q4 : -2.4248850039e-08}
2019-04-14 04:37:23.21: SIM {TimeUS : 42434686, Roll : 0.0, Pitch : 0.0, Yaw : 359.99, Alt : 30.1000003815, Lat : 49.28357, Lng : -123.11502, Q1 : 1.0, Q2 : 0.0, Q3 : 0.0, Q4 : -2.24946290928e-07}
2019-04-14 04:37:23.31: SIM {TimeUS : 42534646, Roll : 0.0, Pitch : 0.0, Yaw : 359.99, Alt : 30.1000003815, Lat : 49.28357, Lng : -123.11502, Q1 : 1.0, Q2 : 0.0, Q3 : 0.0, Q4 : -4.33072557371e-07}
2019-04-14 04:37:23.41: SIM {TimeUS : 42634606, Roll : 0.0, Pitch : 0.0, Yaw : 359.99, Alt : 30.1000003815, Lat : 49.28357, Lng : -123.11502, Q1 : 1.0, Q2 : 0.0, Q3 : 0.0, Q4 : -6.26563064543e-07}
2019-04-14 04:37:23.51: SIM {TimeUS : 42734566, Roll : 0.0, Pitch : 0.0, Yaw : 359.99, Alt : 30.1000003815, Lat : 49.28357, Lng : -123.11502, Q1 : 1.0, Q2 : 0.0, Q3 : 0.0, Q4 : -8.26377004159e-07}
2019-04-14 04:37:23.61: SIM {TimeUS : 42834526, Roll : 0.0, Pitch : 0.0, Yaw : 359.99, Alt : 30.1000003815, Lat : 49.28357, Lng : -123.11502, Q1 : 1.0, Q2 : 0.0, Q3 : 0.0, Q4 : -1.02474291452e-06}
2019-04-14 04:37:23.71: SIM {TimeUS : 42934486, Roll : 0.0, Pitch : 0.0, Yaw : 359.99, Alt : 30.1000003815, Lat : 49.28357, Lng : -123.11502, Q1 : 1.0, Q2 : 0.0, Q3 : 0.0, Q4 : -1.24459177187e-06}
2019-04-14 04:37:23.81: SIM {TimeUS : 43034446, Roll : 0.0, Pitch : 0.0, Yaw : 359.99, Alt : 30.1000003815, Lat : 49.28357, Lng : -123.11502, Q1 : 1.0, Q2 : 0.0, Q3 : 0.0, Q4 : -1.45909496041e-06}
2019-04-14 04:37:23.91: SIM {TimeUS : 43134406, Roll : 0.0, Pitch : 0.0, Yaw : 359.99, Alt : 30.1200008392, Lat : 49.28357, Lng : -123.11502, Q1 : 1.0, Q2 : 0.0, Q3 : 0.0, Q4 : -1.71579097241e-06}
2019-04-14 04:37:24.01: SIM {TimeUS : 43234366, Roll : 0.0, Pitch : 0.0, Yaw : 359.99, Alt : 30.1399993896, Lat : 49.28357, Lng : -123.11502, Q1 : 1.0, Q2 : 0.0, Q3 : 0.0, Q4 : -1.91641333913e-06}
2019-04-14 04:37:24.11: SIM {TimeUS : 43334326, Roll : 0.0, Pitch : 0.0, Yaw : 359.99, Alt : 30.1800003052, Lat : 49.28357, Lng : -123.11502, Q1 : 1.0, Q2 : 0.0, Q3 : 0.0, Q4 : -2.19818525693e-06}
2019-04-14 04:37:24.21: SIM {TimeUS : 43434286, Roll : 0.0, Pitch : 0.0, Yaw : 359.99, Alt : 30.2099990845, Lat : 49.28357, Lng : -123.11502, Q1 : 1.0, Q2 : -7.53603580961e-06, Q3 : -6.59044553686e-06, Q4 : -2.45959154199e-06}
2019-04-14 04:37:24.31: SIM {TimeUS : 43534246, Roll : -0.16, Pitch : -0.15, Yaw : 359.99, Alt : 30.2700004578, Lat : 49.28357, Lng : -123.11502, Q1 : 0.999997973442, Q2 : -0.00148071127478, Q3 : -0.00134852353949, Q4 : -1.90190039575e-05}
2019-04-14 04:37:24.41: SIM {TimeUS : 43634206, Roll : -0.45, Pitch : -0.44, Yaw : 359.99, Alt : 30.3899993896, Lat : 49.28357, Lng : -123.11502, Q1 : 0.999984502792, Q2 : -0.00396450795233, Q3 : -0.0039061291609, Q4 : -6.44387837383e-05}
2019-04-14 04:37:24.51: SIM {TimeUS : 43734166, Roll : -0.69, Pitch : -0.72, Yaw : 359.98, Alt : 30.5400009155, Lat : 49.28357, Lng : -123.11502, Q1 : 0.999961853027, Q2 : -0.00603724597022, Q3 : -0.0063127358444, Q4 : -0.000137578943395}
2019-04-14 04:37:24.61: SIM {TimeUS : 43834126, Roll : -0.79, Pitch : -0.84, Yaw : 359.98, Alt : 30.7000007629, Lat : 49.28357, Lng : -123.11502, Q1 : 0.999948680401, Q2 : -0.00696425884962, Q3 : -0.00735674845055, Q4 : -0.000223983777687}
2019-04-14 04:37:24.71: SIM {TimeUS : 43934086, Roll : -0.75, Pitch : -0.76, Yaw : 359.96, Alt : 30.8500003815, Lat : 49.28357, Lng : -123.1150201, Q1 : 0.999955713749, Q2 : -0.00661720568314, Q3 : -0.00668131513521, Q4 : -0.000313193566399}
2019-04-14 04:37:24.81: SIM {TimeUS : 44034046, Roll : -0.6, Pitch : -0.55, Yaw : 359.95, Alt : 31.0100002289, Lat : 49.2835701, Lng : -123.1150201, Q1 : 0.999973893166, Q2 : -0.00531134661287, Q3 : -0.00488229468465, Q4 : -0.000399128010031}
2019-04-14 04:37:24.92: SIM {TimeUS : 44134839, Roll : -0.4, Pitch : -0.31, Yaw : 359.94, Alt : 31.1599998474, Lat : 49.2835701, Lng : -123.1150202, Q1 : 0.99998986721, Q2 : -0.00352767249569, Q3 : -0.00276237586513, Q4 : -0.000472589716082}
2019-04-14 04:37:25.01: SIM {TimeUS : 44234799, Roll : -0.21, Pitch : -0.11, Yaw : 359.94, Alt : 31.3199996948, Lat : 49.2835702, Lng : -123.1150203, Q1 : 0.99999755621, Q2 : -0.0018997346051, Q3 : -0.00101746886503, Q4 : -0.000523306545801}
2019-04-14 04:37:25.11: SIM {TimeUS : 44334759, Roll : -0.07, Pitch : 0.01, Yaw : 359.93, Alt : 31.4899997711, Lat : 49.2835702, Lng : -123.1150204, Q1 : 0.999999642372, Q2 : -0.000657270138618, Q3 : 9.52990594669e-05, Q4 : -0.000559882784728}
2019-04-14 04:37:25.21: SIM {TimeUS : 44434719, Roll : 0.02, Pitch : 0.04, Yaw : 359.93, Alt : 31.6700000763, Lat : 49.2835702, Lng : -123.1150205, Q1 : 0.999999761581, Q2 : 0.000209218880627, Q3 : 0.000413045490859, Q4 : -0.000582998385653}
2019-04-14 04:37:25.31: SIM {TimeUS : 44534679, Roll : 0.07, Pitch : 0.03, Yaw : 359.93, Alt : 31.8400001526, Lat : 49.2835703, Lng : -123.1150205, Q1 : 0.999999582767, Q2 : 0.000624014413916, Q3 : 0.000315900193527, Q4 : -0.000596325146034}
2019-04-14 04:37:25.41: SIM {TimeUS : 44634639, Roll : 0.07, Pitch : 0.01, Yaw : 359.93, Alt : 32.0299987793, Lat : 49.2835703, Lng : -123.1150206, Q1 : 0.999999642372, Q2 : 0.000633350224234, Q3 : 0.000108303400339, Q4 : -0.000593749340624}
2019-04-14 04:37:25.51: SIM {TimeUS : 44734599, Roll : 0.06, Pitch : 0.0, Yaw : 359.93, Alt : 32.2099990845, Lat : 49.2835703, Lng : -123.1150207, Q1 : 0.999999701977, Q2 : 0.000534142774995, Q3 : -1.31977976707e-05, Q4 : -0.000577404978685}
2019-04-14 04:37:25.61: SIM {TimeUS : 44834559, Roll : 0.05, Pitch : 0.0, Yaw : 359.93, Alt : 32.4099998474, Lat : 49.2835703, Lng : -123.1150207, Q1 : 0.999999701977, Q2 : 0.000470931263408, Q3 : -2.53961916314e-05, Q4 : -0.0005514920922}
2019-04-14 04:37:25.71: SIM {TimeUS : 44934519, Roll : 0.06, Pitch : 0.01, Yaw : 359.93, Alt : 32.5999984741, Lat : 49.2835703, Lng : -123.1150208, Q1 : 0.999999701977, Q2 : 0.000551891222131, Q3 : 0.000114361355372, Q4 : -0.00052830047207}
2019-04-14 04:37:25.81: SIM {TimeUS : 45034479, Roll : 0.09, Pitch : 0.03, Yaw : 359.94, Alt : 32.7999992371, Lat : 49.2835703, Lng : -123.1150208, Q1 : 0.999999463558, Q2 : 0.000840230670292, Q3 : 0.000335489021381, Q4 : -0.000505919626448}
2019-04-14 04:37:25.91: SIM {TimeUS : 45134439, Roll : 0.14, Pitch : 0.06, Yaw : 359.94, Alt : 32.9900016785, Lat : 49.2835704, Lng : -123.1150208, Q1 : 0.999998867512, Q2 : 0.00126293557696, Q3 : 0.000608502188697, Q4 : -0.000499422603752}
2019-04-14 04:37:26.01: SIM {TimeUS : 45234399, Roll : 0.17, Pitch : 0.1, Yaw : 359.94, Alt : 33.2000007629, Lat : 49.2835704, Lng : -123.1150209, Q1 : 0.999998211861, Q2 : 0.00156596978195, Q3 : 0.000934889016207, Q4 : -0.000502278562635}
2019-04-14 04:37:26.11: SIM {TimeUS : 45334359, Roll : 0.18, Pitch : 0.13, Yaw : 359.94, Alt : 33.4000015259, Lat : 49.2835704, Lng : -123.1150209, Q1 : 0.999997854233, Q2 : 0.0016075426247, Q3 : 0.00121810473502, Q4 : -0.000503266346641}
2019-04-14 04:37:26.21: SIM {TimeUS : 45434319, Roll : 0.17, Pitch : 0.16, Yaw : 359.94, Alt : 33.6100006104, Lat : 49.2835704, Lng : -123.1150209, Q1 : 0.999997794628, Q2 : 0.00148589618038, Q3 : 0.00139964243863, Q4 : -0.000506567419507}
2019-04-14 04:37:26.31: SIM {TimeUS : 45534279, Roll : 0.15, Pitch : 0.17, Yaw : 359.94, Alt : 33.8100013733, Lat : 49.2835704, Lng : -123.1150209, Q1 : 0.999997735023, Q2 : 0.00137546670157, Q3 : 0.00154400151223, Q4 : -0.000516589381732}
2019-04-14 04:37:26.41: SIM {TimeUS : 45634239, Roll : 0.15, Pitch : 0.17, Yaw : 359.93, Alt : 34.0200004578, Lat : 49.2835706, Lng : -123.1150209, Q1 : 0.999997735023, Q2 : 0.00137559405994, Q3 : 0.00152145815082, Q4 : -0.000529739656486}
2019-04-14 04:37:26.51: SIM {TimeUS : 45734199, Roll : 0.15, Pitch : 0.16, Yaw : 359.93, Alt : 34.2299995422, Lat : 49.2835706, Lng : -123.1150209, Q1 : 0.999997854233, Q2 : 0.00135803373996, Q3 : 0.0014352487633, Q4 : -0.000548034673557}
2019-04-14 04:37:26.61: SIM {TimeUS : 45834159, Roll : 0.13, Pitch : 0.15, Yaw : 359.93, Alt : 34.4399986267, Lat : 49.2835706, Lng : -123.1150209, Q1 : 0.999998211861, Q2 : 0.00118780974299, Q3 : 0.0013455748558, Q4 : -0.000567771436181}
2019-04-14 04:37:26.71: SIM {TimeUS : 45934119, Roll : 0.11, Pitch : 0.11, Yaw : 359.93, Alt : 34.6599998474, Lat : 49.2835706, Lng : -123.1150209, Q1 : 0.999998807907, Q2 : 0.000996415386908, Q3 : 0.00101827003527, Q4 : -0.000576792284846}
2019-04-14 04:37:26.81: SIM {TimeUS : 46034079, Roll : 0.09, Pitch : 0.06, Yaw : 359.93, Alt : 34.8699989319, Lat : 49.2835706, Lng : -123.1150209, Q1 : 0.999999344349, Q2 : 0.000811233709101, Q3 : 0.000569066847675, Q4 : -0.000577034661546}
2019-04-14 04:37:26.91: SIM {TimeUS : 46134039, Roll : 0.06, Pitch : 0.03, Yaw : 359.93, Alt : 35.0900001526, Lat : 49.2835706, Lng : -123.1150209, Q1 : 0.999999582767, Q2 : 0.00059701903956, Q3 : 0.000288393523078, Q4 : -0.000600272906013}
2019-04-14 04:37:27.02: SIM {TimeUS : 46234832, Roll : 0.05, Pitch : 0.02, Yaw : 359.92, Alt : 35.3100013733, Lat : 49.2835706, Lng : -123.1150208, Q1 : 0.999999642372, Q2 : 0.000474832952023, Q3 : 0.000198269524844, Q4 : -0.000648577755783}
2019-04-14 04:37:27.11: SIM {TimeUS : 46334792, Roll : 0.05, Pitch : 0.02, Yaw : 359.91, Alt : 35.5200004578, Lat : 49.2835706, Lng : -123.1150208, Q1 : 0.999999582767, Q2 : 0.000486851669848, Q3 : 0.000242816298851, Q4 : -0.000711712578777}
2019-04-14 04:37:27.21: SIM {TimeUS : 46434752, Roll : 0.05, Pitch : 0.02, Yaw : 359.91, Alt : 35.7400016785, Lat : 49.2835706, Lng : -123.1150208, Q1 : 0.999999582767, Q2 : 0.000437401758973, Q3 : 0.000251734629273, Q4 : -0.000772277940996}
2019-04-14 04:37:27.31: SIM {TimeUS : 46534712, Roll : 0.02, Pitch : 0.02, Yaw : 359.9, Alt : 35.9599990845, Lat : 49.2835706, Lng : -123.1150208, Q1 : 0.999999642372, Q2 : 0.000184976684977, Q3 : 0.00022132624872, Q4 : -0.000818810483906}
2019-04-14 04:37:27.41: SIM {TimeUS : 46634672, Roll : 0.0, Pitch : 0.02, Yaw : 359.9, Alt : 36.1800003052, Lat : 49.2835706, Lng : -123.1150208, Q1 : 0.999999642372, Q2 : -5.67177630728e-05, Q3 : 0.000203516305191, Q4 : -0.000853645091411}
2019-04-14 04:37:27.51: SIM {TimeUS : 46734632, Roll : -0.01, Pitch : 0.04, Yaw : 359.89, Alt : 36.4000015259, Lat : 49.2835706, Lng : -123.1150208, Q1 : 0.999999523163, Q2 : -0.000170092913322, Q3 : 0.000386003521271, Q4 : -0.000882755673956}
2019-04-14 04:37:27.61: SIM {TimeUS : 46834592, Roll : -0.02, Pitch : 0.04, Yaw : 359.89, Alt : 36.6300010681, Lat : 49.2835706, Lng : -123.1150207, Q1 : 0.999999463558, Q2 : -0.000241279791226, Q3 : 0.000417824310716, Q4 : -0.000915912445635}
2019-04-14 04:37:27.71: SIM {TimeUS : 46934552, Roll : -0.02, Pitch : 0.04, Yaw : 359.89, Alt : 36.8499984741, Lat : 49.2835706, Lng : -123.1150207, Q1 : 0.999999463558, Q2 : -0.000231593498029, Q3 : 0.000351691385731, Q4 : -0.000948902859818}
2019-04-14 04:37:27.81: SIM {TimeUS : 47034512, Roll : -0.02, Pitch : 0.03, Yaw : 359.88, Alt : 37.0699996948, Lat : 49.2835706, Lng : -123.1150207, Q1 : 0.999999463558, Q2 : -0.00022446596995, Q3 : 0.000280434411252, Q4 : -0.000976477225777}
2019-04-14 04:37:27.91: SIM {TimeUS : 47134472, Roll : -0.02, Pitch : 0.02, Yaw : 359.88, Alt : 37.2999992371, Lat : 49.2835706, Lng : -123.1150207, Q1 : 0.999999463558, Q2 : -0.000192979539861, Q3 : 0.000214182568016, Q4 : -0.000991997425444}
2019-04-14 04:37:28.01: SIM {TimeUS : 47234432, Roll : 0.0, Pitch : 0.01, Yaw : 359.88, Alt : 37.5200004578, Lat : 49.2835704, Lng : -123.1150207, Q1 : 0.999999523163, Q2 : -7.51280749682e-05, Q3 : 0.000169016304426, Q4 : -0.00099433970172}
2019-04-14 04:37:28.11: SIM {TimeUS : 47334392, Roll : -0.01, Pitch : 0.0, Yaw : 359.88, Alt : 37.75, Lat : 49.2835704, Lng : -123.1150207, Q1 : 0.999999523163, Q2 : -0.000146527701872, Q3 : 1.73782082129e-05, Q4 : -0.000984433223493}
2019-04-14 04:37:28.21: SIM {TimeUS : 47434352, Roll : -0.04, Pitch : -0.02, Yaw : 359.88, Alt : 37.9799995422, Lat : 49.2835704, Lng : -123.1150207, Q1 : 0.999999463558, Q2 : -0.000371258094674, Q3 : -0.000226043659495, Q4 : -0.000969847955275}
2019-04-14 04:37:28.31: SIM {TimeUS : 47534312, Roll : -0.07, Pitch : -0.04, Yaw : 359.89, Alt : 38.2000007629, Lat : 49.2835704, Lng : -123.1150207, Q1 : 0.999999284744, Q2 : -0.000630073831417, Q3 : -0.000401049794164, Q4 : -0.000956589356065}
2019-04-14 04:37:28.41: SIM {TimeUS : 47634272, Roll : -0.09, Pitch : -0.04, Yaw : 359.89, Alt : 38.4300003052, Lat : 49.2835704, Lng : -123.1150207, Q1 : 0.99999910593, Q2 : -0.000860133266542, Q3 : -0.000399460026529, Q4 : -0.000953976006713}
2019-04-14 04:37:28.51: SIM {TimeUS : 47734232, Roll : -0.11, Pitch : -0.04, Yaw : 359.89, Alt : 38.6599998474, Lat : 49.2835704, Lng : -123.1150206, Q1 : 0.999998986721, Q2 : -0.000984650221653, Q3 : -0.000354456191417, Q4 : -0.000958699441981}
2019-04-14 04:37:28.61: SIM {TimeUS : 47834192, Roll : -0.11, Pitch : -0.03, Yaw : 359.88, Alt : 38.8899993896, Lat : 49.2835704, Lng : -123.1150206, Q1 : 0.999998986721, Q2 : -0.000981630408205, Q3 : -0.000337502977345, Q4 : -0.000969075539615}
2019-04-14 04:37:28.71: SIM {TimeUS : 47934152, Roll : -0.09, Pitch : -0.02, Yaw : 359.88, Alt : 39.1199989319, Lat : 49.2835704, Lng : -123.1150206, Q1 : 0.99999910593, Q2 : -0.000852453580592, Q3 : -0.000260269938735, Q4 : -0.000986500759609}
2019-04-14 04:37:28.81: SIM {TimeUS : 48034112, Roll : -0.07, Pitch : -0.03, Yaw : 359.88, Alt : 39.3499984741, Lat : 49.2835704, Lng : -123.1150206, Q1 : 0.99999922514, Q2 : -0.000631611503195, Q3 : -0.000346952030668, Q4 : -0.00101039500441}
2019-04-14 04:37:28.91: SIM {TimeUS : 48134072, Roll : -0.05, Pitch : -0.05, Yaw : 359.88, Alt : 39.5800018311, Lat : 49.2835704, Lng : -123.1150206, Q1 : 0.99999922514, Q2 : -0.00049993704306, Q3 : -0.00046408502385, Q4 : -0.00104578328319}
2019-04-14 04:37:29.01: SIM {TimeUS : 48234032, Roll : -0.04, Pitch : -0.04, Yaw : 359.87, Alt : 39.8100013733, Lat : 49.2835704, Lng : -123.1150206, Q1 : 0.99999922514, Q2 : -0.000434575136751, Q3 : -0.000416906783357, Q4 : -0.00107540294994}
2019-04-14 04:37:29.12: SIM {TimeUS : 48334825, Roll : -0.06, Pitch : -0.02, Yaw : 359.87, Alt : 40.0400009155, Lat : 49.2835704, Lng : -123.1150206, Q1 : 0.99999922514, Q2 : -0.000545300601516, Q3 : -0.000176632733201, Q4 : -0.00110601575579}
2019-04-14 04:37:29.21: SIM {TimeUS : 48434785, Roll : -0.06, Pitch : 0.01, Yaw : 359.86, Alt : 40.2700004578, Lat : 49.2835704, Lng : -123.1150206, Q1 : 0.99999922514, Q2 : -0.000549465825316, Q3 : 0.000103259248135, Q4 : -0.00114006025251}
2019-04-14 04:37:29.31: SIM {TimeUS : 48534745, Roll : -0.04, Pitch : 0.05, Yaw : 359.86, Alt : 40.5099983215, Lat : 49.2835704, Lng : -123.1150206, Q1 : 0.99999910593, Q2 : -0.000426101934863, Q3 : 0.00044854026055, Q4 : -0.00118238374125}
2019-04-14 04:37:29.41: SIM {TimeUS : 48634705, Roll : -0.03, Pitch : 0.06, Yaw : 359.86, Alt : 40.7400016785, Lat : 49.2835704, Lng : -123.1150207, Q1 : 0.999999046326, Q2 : -0.000268233969109, Q3 : 0.000601906271186, Q4 : -0.00121842091903}
2019-04-14 04:37:29.51: SIM {TimeUS : 48734665, Roll : 0.0, Pitch : 0.07, Yaw : 359.85, Alt : 40.9700012207, Lat : 49.2835704, Lng : -123.1150207, Q1 : 0.999999046326, Q2 : 4.51778078059e-06, Q3 : 0.000616739038378, Q4 : -0.00125253503211}
2019-04-14 04:37:29.61: SIM {TimeUS : 48834625, Roll : 0.03, Pitch : 0.08, Yaw : 359.85, Alt : 41.2000007629, Lat : 49.2835704, Lng : -123.1150207, Q1 : 0.999998867512, Q2 : 0.000336730765412, Q3 : 0.000714448397048, Q4 : -0.00128384225536}
2019-04-14 04:37:29.71: SIM {TimeUS : 48934585, Roll : 0.08, Pitch : 0.1, Yaw : 359.84, Alt : 41.4399986267, Lat : 49.2835704, Lng : -123.1150207, Q1 : 0.999998450279, Q2 : 0.000746169651393, Q3 : 0.000921324361116, Q4 : -0.0013128623832}
2019-04-14 04:37:29.81: SIM {TimeUS : 49034545, Roll : 0.11, Pitch : 0.12, Yaw : 359.84, Alt : 41.6699981689, Lat : 49.2835704, Lng : -123.1150207, Q1 : 0.999998033047, Q2 : 0.000967953528743, Q3 : 0.00111085281242, Q4 : -0.00134127039928}
2019-04-14 04:37:29.91: SIM {TimeUS : 49134505, Roll : 0.09, Pitch : 0.14, Yaw : 359.84, Alt : 41.9099998474, Lat : 49.2835706, Lng : -123.1150207, Q1 : 0.999997973442, Q2 : 0.000837853935082, Q3 : 0.00122724857647, Q4 : -0.00135593803134}
2019-04-14 04:37:30.01: SIM {TimeUS : 49234465, Roll : 0.05, Pitch : 0.14, Yaw : 359.84, Alt : 42.1399993896, Lat : 49.2835706, Lng : -123.1150207, Q1 : 0.999998152256, Q2 : 0.00044807663653, Q3 : 0.00129767425824, Q4 : -0.00136486394331}
2019-04-14 04:37:30.11: SIM {TimeUS : 49334425, Roll : 0.0, Pitch : 0.14, Yaw : 359.84, Alt : 42.3699989319, Lat : 49.2835706, Lng : -123.1150207, Q1 : 0.999998211861, Q2 : 4.98037625221e-05, Q3 : 0.00130731589161, Q4 : -0.00137779500801}
2019-04-14 04:37:30.21: SIM {TimeUS : 49434385, Roll : -0.01, Pitch : 0.11, Yaw : 359.84, Alt : 42.6100006104, Lat : 49.2835706, Lng : -123.1150207, Q1 : 0.999998509884, Q2 : -0.000124188853079, Q3 : 0.00103859498631, Q4 : -0.00139034248423}
2019-04-14 04:37:30.31: SIM {TimeUS : 49534345, Roll : -0.01, Pitch : 0.07, Yaw : 359.83, Alt : 42.8400001526, Lat : 49.2835704, Lng : -123.1150207, Q1 : 0.999998807907, Q2 : -0.000121479359223, Q3 : 0.000621343264356, Q4 : -0.0014053870691}
2019-04-14 04:37:30.41: SIM {TimeUS : 49634305, Roll : 0.0, Pitch : 0.06, Yaw : 359.83, Alt : 43.0800018311, Lat : 49.2835704, Lng : -123.1150207, Q1 : 0.999998867512, Q2 : -3.34616997861e-05, Q3 : 0.000545301067177, Q4 : -0.00142532493919}
2019-04-14 04:37:30.51: SIM {TimeUS : 49734265, Roll : 0.02, Pitch : 0.08, Yaw : 359.83, Alt : 43.3100013733, Lat : 49.2835704, Lng : -123.1150207, Q1 : 0.999998629093, Q2 : 0.000240363951889, Q3 : 0.0007407789235, Q4 : -0.00145347742364}
2019-04-14 04:37:30.61: SIM {TimeUS : 49834225, Roll : 0.08, Pitch : 0.11, Yaw : 359.83, Alt : 43.5499992371, Lat : 49.2835704, Lng : -123.1150207, Q1 : 0.999998152256, Q2 : 0.000705119688064, Q3 : 0.000995949376374, Q4 : -0.00147897063289}
2019-04-14 04:37:30.71: SIM {TimeUS : 49934185, Roll : 0.12, Pitch : 0.11, Yaw : 359.82, Alt : 43.7799987793, Lat : 49.2835704, Lng : -123.1150207, Q1 : 0.999997794628, Q2 : 0.00105189753231, Q3 : 0.00104006100446, Q4 : -0.0015113906702}
2019-04-14 04:37:30.81: SIM {TimeUS : 50034145, Roll : 0.12, Pitch : 0.1, Yaw : 359.82, Alt : 44.0200004578, Lat : 49.2835704, Lng : -123.1150207, Q1 : 0.999997794628, Q2 : 0.00105831003748, Q3 : 0.000945558655076, Q4 : -0.001541691483}
2019-04-14 04:37:30.91: SIM {TimeUS : 50134105, Roll : 0.07, Pitch : 0.08, Yaw : 359.82, Alt : 44.2599983215, Lat : 49.2835704, Lng : -123.1150207, Q1 : 0.999998211861, Q2 : 0.000696741626598, Q3 : 0.000776106491685, Q4 : -0.00155875261407}
2019-04-14 04:37:31.01: SIM {TimeUS : 50234065, Roll : 0.01, Pitch : 0.06, Yaw : 359.81, Alt : 44.4900016785, Lat : 49.2835704, Lng : -123.1150207, Q1 : 0.999998569489, Q2 : 0.000163307355251, Q3 : 0.000580757448915, Q4 : -0.00157231767662}
2019-04-14 04:37:31.11: SIM {TimeUS : 50334025, Roll : -0.02, Pitch : 0.05, Yaw : 359.81, Alt : 44.7299995422, Lat : 49.2835704, Lng : -123.1150206, Q1 : 0.999998629093, Q2 : -0.000198268127861, Q3 : 0.000473878200864, Q4 : -0.00158735166769}
2019-04-14 04:37:31.21: SIM {TimeUS : 50434818, Roll : -0.04, Pitch : 0.04, Yaw : 359.81, Alt : 44.9700012207, Lat : 49.2835704, Lng : -123.1150206, Q1 : 0.999998569489, Q2 : -0.000387950363802, Q3 : 0.000354396441253, Q4 : -0.00160641537514}
2019-04-14 04:37:31.31: SIM {TimeUS : 50534778, Roll : -0.03, Pitch : 0.01, Yaw : 359.81, Alt : 45.2000007629, Lat : 49.2835704, Lng : -123.1150206, Q1 : 0.999998569489, Q2 : -0.000346041546436, Q3 : 0.000163068209076, Q4 : -0.00164267979562}
2019-04-14 04:37:31.41: SIM {TimeUS : 50634738, Roll : -0.04, Pitch : 0.0, Yaw : 359.8, Alt : 45.4399986267, Lat : 49.2835704, Lng : -123.1150206, Q1 : 0.999998509884, Q2 : -0.000384141108952, Q3 : 1.85565731954e-05, Q4 : -0.00168481690343}
2019-04-14 04:37:31.51: SIM {TimeUS : 50734698, Roll : -0.03, Pitch : 0.0, Yaw : 359.8, Alt : 45.6699981689, Lat : 49.2835704, Lng : -123.1150206, Q1 : 0.999998450279, Q2 : -0.000308284652419, Q3 : -5.00527930853e-05, Q4 : -0.00172625773121}
2019-04-14 04:37:31.61: SIM {TimeUS : 50834658, Roll : -0.01, Pitch : 0.0, Yaw : 359.79, Alt : 45.9099998474, Lat : 49.2835703, Lng : -123.1150206, Q1 : 0.999998450279, Q2 : -0.000139390773256, Q3 : -2.76831342489e-05, Q4 : -0.00176740810275}
2019-04-14 04:37:31.71: SIM {TimeUS : 50934618, Roll : -0.01, Pitch : 0.0, Yaw : 359.79, Alt : 46.1399993896, Lat : 49.2835703, Lng : -123.1150206, Q1 : 0.999998390675, Q2 : -0.000109771979623, Q3 : 6.8370201916e-05, Q4 : -0.00179927051067}
2019-04-14 04:37:31.81: SIM {TimeUS : 51034578, Roll : -0.01, Pitch : 0.0, Yaw : 359.79, Alt : 46.3600006104, Lat : 49.2835703, Lng : -123.1150205, Q1 : 0.99999833107, Q2 : -0.000156908849021, Q3 : 4.92177678098e-05, Q4 : -0.00182284344919}
2019-04-14 04:37:31.91: SIM {TimeUS : 51134538, Roll : -0.02, Pitch : -0.01, Yaw : 359.78, Alt : 46.5800018311, Lat : 49.2835703, Lng : -123.1150205, Q1 : 0.999998271465, Q2 : -0.000225628755288, Q3 : -9.44819694269e-05, Q4 : -0.00184180308133}
2019-04-14 04:37:32.01: SIM {TimeUS : 51234498, Roll : -0.02, Pitch : -0.02, Yaw : 359.78, Alt : 46.7999992371, Lat : 49.2835703, Lng : -123.1150205, Q1 : 0.999998271465, Q2 : -0.000222463131649, Q3 : -0.000179025446414, Q4 : -0.00186092057265}
2019-04-14 04:37:32.11: SIM {TimeUS : 51334458, Roll : -0.02, Pitch : -0.02, Yaw : 359.78, Alt : 47.0099983215, Lat : 49.2835703, Lng : -123.1150205, Q1 : 0.999998211861, Q2 : -0.000176445639227, Q3 : -0.00022664401331, Q4 : -0.00187974481378}
2019-04-14 04:37:32.21: SIM {TimeUS : 51434418, Roll : -0.02, Pitch : -0.02, Yaw : 359.78, Alt : 47.2099990845, Lat : 49.2835703, Lng : -123.1150205, Q1 : 0.999998152256, Q2 : -0.000255195656791, Q3 : -0.000207373668673, Q4 : -0.00189892330673}
2019-04-14 04:37:32.31: SIM {TimeUS : 51534378, Roll : -0.05, Pitch : -0.01, Yaw : 359.77, Alt : 47.4099998474, Lat : 49.2835703, Lng : -123.1150205, Q1 : 0.999998033047, Q2 : -0.000479941954836, Q3 : -0.000140611824463, Q4 : -0.00192185060587}
2019-04-14 04:37:32.41: SIM {TimeUS : 51634338, Roll : -0.09, Pitch : -0.01, Yaw : 359.77, Alt : 47.5900001526, Lat : 49.2835703, Lng : -123.1150205, Q1 : 0.999997735023, Q2 : -0.000821445253678, Q3 : -0.000122028497572, Q4 : -0.00194953544997}
2019-04-14 04:37:32.51: SIM {TimeUS : 51734298, Roll : -0.14, Pitch : -0.03, Yaw : 359.77, Alt : 47.7700004578, Lat : 49.2835703, Lng : -123.1150205, Q1 : 0.999997198582, Q2 : -0.0012569532264, Q3 : -0.000291941221803, Q4 : -0.00198403489776}
2019-04-14 04:37:32.61: SIM {TimeUS : 51834258, Roll : -0.17, Pitch : -0.04, Yaw : 359.76, Alt : 47.9300003052, Lat : 49.2835703, Lng : -123.1150205, Q1 : 0.999996781349, Q2 : -0.00151286879554, Q3 : -0.000373376737116, Q4 : -0.00201904890127}
2019-04-14 04:37:32.71: SIM {TimeUS : 51934218, Roll : -0.17, Pitch : -0.03, Yaw : 359.76, Alt : 48.0900001526, Lat : 49.2835703, Lng : -123.1150205, Q1 : 0.99999666214, Q2 : -0.0015533050755, Q3 : -0.000291922042379, Q4 : -0.00205120560713}
2019-04-14 04:37:32.81: SIM {TimeUS : 52034178, Roll : -0.15, Pitch : -0.02, Yaw : 359.76, Alt : 48.2299995422, Lat : 49.2835703, Lng : -123.1150205, Q1 : 0.999996840954, Q2 : -0.00138723989949, Q3 : -0.000186398829101, Q4 : -0.00208351900801}
2019-04-14 04:37:32.91: SIM {TimeUS : 52134138, Roll : -0.12, Pitch : -0.01, Yaw : 359.75, Alt : 48.3600006104, Lat : 49.2835703, Lng : -123.1150205, Q1 : 0.999997138977, Q2 : -0.00112779694609, Q3 : -0.000132389817736, Q4 : -0.00211366522126}
2019-04-14 04:37:33.01: SIM {TimeUS : 52234098, Roll : -0.1, Pitch : -0.01, Yaw : 359.75, Alt : 48.4700012207, Lat : 49.2835703, Lng : -123.1150205, Q1 : 0.999997258186, Q2 : -0.000905289431103, Q3 : -0.000143051947816, Q4 : -0.00214391550981}
2019-04-14 04:37:33.11: SIM {TimeUS : 52334058, Roll : -0.07, Pitch : -0.02, Yaw : 359.75, Alt : 48.5800018311, Lat : 49.2835703, Lng : -123.1150205, Q1 : 0.999997377396, Q2 : -0.000663870421704, Q3 : -0.000249906734098, Q4 : -0.00217652390711}
2019-04-14 04:37:33.22: SIM {TimeUS : 52434851, Roll : -0.04, Pitch : -0.04, Yaw : 359.74, Alt : 48.6699981689, Lat : 49.2835703, Lng : -123.1150205, Q1 : 0.999997437, Q2 : -0.00037332487409, Q3 : -0.000358995224815, Q4 : -0.0022051455453}
2019-04-14 04:37:33.31: SIM {TimeUS : 52534811, Roll : -0.02, Pitch : -0.05, Yaw : 359.74, Alt : 48.75, Lat : 49.2835703, Lng : -123.1150205, Q1 : 0.999997377396, Q2 : -0.000201833783649, Q3 : -0.000472090701805, Q4 : -0.00222682650201}
2019-04-14 04:37:33.41: SIM {TimeUS : 52634771, Roll : -0.02, Pitch : -0.07, Yaw : 359.74, Alt : 48.8199996948, Lat : 49.2835703, Lng : -123.1150205, Q1 : 0.999997258186, Q2 : -0.000240760637098, Q3 : -0.000616373086814, Q4 : -0.00224164733663}
2019-04-14 04:37:33.51: SIM {TimeUS : 52734731, Roll : 0.0, Pitch : -0.07, Yaw : 359.74, Alt : 48.8800010681, Lat : 49.2835703, Lng : -123.1150206, Q1 : 0.999997258186, Q2 : -7.26482903701e-05, Q3 : -0.000638752360828, Q4 : -0.00225765700452}
2019-04-14 04:37:33.61: SIM {TimeUS : 52834691, Roll : 0.02, Pitch : -0.06, Yaw : 359.73, Alt : 48.9300003052, Lat : 49.2835703, Lng : -123.1150206, Q1 : 0.999997258186, Q2 : 0.000173685868504, Q3 : -0.000560793792829, Q4 : -0.00227259728126}
2019-04-14 04:37:33.71: SIM {TimeUS : 52934651, Roll : 0.05, Pitch : -0.05, Yaw : 359.73, Alt : 48.9799995422, Lat : 49.2835703, Lng : -123.1150206, Q1 : 0.999997198582, Q2 : 0.000444018951384, Q3 : -0.000484717689687, Q4 : -0.00228883698583}
2019-04-14 04:37:33.81: SIM {TimeUS : 53034611, Roll : 0.12, Pitch : -0.13, Yaw : 359.73, Alt : 49.0200004578, Lat : 49.2835703, Lng : -123.1150206, Q1 : 0.999996066093, Q2 : 0.00109034555499, Q3 : -0.00116709305439, Q4 : -0.0023096895311}
2019-04-14 04:37:33.91: SIM {TimeUS : 53134571, Roll : 0.32, Pitch : -0.41, Yaw : 359.73, Alt : 49.0499992371, Lat : 49.2835703, Lng : -123.1150206, Q1 : 0.999986767769, Q2 : 0.00284621189348, Q3 : -0.00358710228465, Q4 : -0.00233488786034}
2019-04-14 04:37:34.01: SIM {TimeUS : 53234531, Roll : 0.67, Pitch : -0.93, Yaw : 359.72, Alt : 49.0800018311, Lat : 49.2835703, Lng : -123.1150206, Q1 : 0.999946594238, Q2 : 0.00587402377278, Q3 : -0.00816920958459, Q4 : -0.00235636532307}
2019-04-14 04:37:34.11: SIM {TimeUS : 53334491, Roll : 1.14, Pitch : -1.65, Yaw : 359.71, Alt : 49.0999984741, Lat : 49.2835704, Lng : -123.1150206, Q1 : 0.999843239784, Q2 : 0.00998227111995, Q3 : -0.0144335990772, Q4 : -0.00235995533876}
2019-04-14 04:37:34.21: SIM {TimeUS : 53434451, Roll : 1.71, Pitch : -2.48, Yaw : 359.69, Alt : 49.1300010681, Lat : 49.2835704, Lng : -123.1150205, Q1 : 0.999649524689, Q2 : 0.0149260591716, Q3 : -0.02173772268, Q4 : -0.00233329180628}
2019-04-14 04:37:34.31: SIM {TimeUS : 53534411, Roll : 2.29, Pitch : -3.32, Yaw : 359.67, Alt : 49.1399993896, Lat : 49.2835706, Lng : -123.1150205, Q1 : 0.999375879765, Q2 : 0.0199342146516, Q3 : -0.0290756933391, Q4 : -0.00225724163465}
2019-04-14 04:37:34.41: SIM {TimeUS : 53634371, Roll : 2.78, Pitch : -4.02, Yaw : 359.65, Alt : 49.1599998474, Lat : 49.2835707, Lng : -123.1150203, Q1 : 0.999084711075, Q2 : 0.0242208726704, Q3 : -0.0351947844028, Q4 : -0.00210974132642}
2019-04-14 04:37:34.51: SIM {TimeUS : 53734331, Roll : 3.18, Pitch : -4.53, Yaw : 359.65, Alt : 49.1699981689, Lat : 49.2835709, Lng : -123.1150202, Q1 : 0.998829066753, Q2 : 0.0276580769569, Q3 : -0.0396467261016, Q4 : -0.00189517741092}
2019-04-14 04:37:34.61: SIM {TimeUS : 53834291, Roll : 3.48, Pitch : -4.9, Yaw : 359.66, Alt : 49.1800003052, Lat : 49.283571, Lng : -123.11502, Q1 : 0.998621582985, Q2 : 0.0302277728915, Q3 : -0.0428782477975, Q4 : -0.00163531245198}
2019-04-14 04:37:34.71: SIM {TimeUS : 53934251, Roll : 3.71, Pitch : -5.22, Yaw : 359.67, Alt : 49.2000007629, Lat : 49.2835714, Lng : -123.1150197, Q1 : 0.998436927795, Q2 : 0.0322327837348, Q3 : -0.0456394068897, Q4 : -0.00136943289544}
2019-04-14 04:37:34.81: SIM {TimeUS : 54034211, Roll : 3.89, Pitch : -5.52, Yaw : 359.68, Alt : 49.2000007629, Lat : 49.2835718, Lng : -123.1150194, Q1 : 0.998259961605, Q2 : 0.033851172775, Q3 : -0.0482695549726, Q4 : -0.00110826361924}
2019-04-14 04:37:34.91: SIM {TimeUS : 54134171, Roll : 4.08, Pitch : -5.86, Yaw : 359.69, Alt : 49.2099990845, Lat : 49.2835721, Lng : -123.115019, Q1 : 0.998057723045, Q2 : 0.0354912206531, Q3 : -0.051190007478, Q4 : -0.000864778878167}
2019-04-14 04:37:35.01: SIM {TimeUS : 54234131, Roll : 4.29, Pitch : -6.2, Yaw : 359.69, Alt : 49.2200012207, Lat : 49.2835727, Lng : -123.1150185, Q1 : 0.997836351395, Q2 : 0.037263866514, Q3 : -0.0541631579399, Q4 : -0.000617915939074}
2019-04-14 04:37:35.11: SIM {TimeUS : 54334091, Roll : 4.48, Pitch : -6.48, Yaw : 359.7, Alt : 49.2299995422, Lat : 49.2835732, Lng : -123.1150179, Q1 : 0.997635424137, Q2 : 0.0388997606933, Q3 : -0.0566591210663, Q4 : -0.00035895066685}
2019-04-14 04:37:35.21: SIM {TimeUS : 54434051, Roll : 4.62, Pitch : -6.71, Yaw : 359.71, Alt : 49.2299995422, Lat : 49.2835738, Lng : -123.1150173, Q1 : 0.997475385666, Q2 : 0.0401196144521, Q3 : -0.0585940927267, Q4 : -0.000131775828777}
2019-04-14 04:37:35.32: SIM {TimeUS : 54534844, Roll : 4.72, Pitch : -6.87, Yaw : 359.72, Alt : 49.2400016785, Lat : 49.2835745, Lng : -123.1150166, Q1 : 0.997356891632, Q2 : 0.0409942045808, Q3 : -0.0599891878664, Q4 : 5.60909393243e-05}
2019-04-14 04:37:35.41: SIM {TimeUS : 54634804, Roll : 4.78, Pitch : -6.98, Yaw : 359.72, Alt : 49.2400016785, Lat : 49.2835751, Lng : -123.1150158, Q1 : 0.997275054455, Q2 : 0.0415659956634, Q3 : -0.0609484352171, Q4 : 0.000189547747141}
2019-04-14 04:37:35.51: SIM {TimeUS : 54734764, Roll : 4.85, Pitch : -7.09, Yaw : 359.72, Alt : 49.25, Lat : 49.2835759, Lng : -123.115015, Q1 : 0.997195243835, Q2 : 0.0421042516828, Q3 : -0.061878092587, Q4 : 0.000259531167103}
2019-04-14 04:37:35.61: SIM {TimeUS : 54834724, Roll : 4.97, Pitch : -7.21, Yaw : 359.72, Alt : 49.25, Lat : 49.2835768, Lng : -123.1150141, Q1 : 0.99708032608, Q2 : 0.043141733855, Q3 : -0.0630033388734, Q4 : 0.000349805923179}
2019-04-14 04:37:35.71: SIM {TimeUS : 54934684, Roll : 5.33, Pitch : -7.29, Yaw : 359.9, Alt : 49.25, Lat : 49.2835776, Lng : -123.1150132, Q1 : 0.996896326542, Q2 : 0.046376876533, Q3 : -0.0635805428028, Q4 : 0.0020916541107}
2019-04-14 04:37:35.81: SIM {TimeUS : 55034644, Roll : 5.94, Pitch : -7.3, Yaw : 0.82, Alt : 49.2599983215, Lat : 49.2835786, Lng : -123.1150122, Q1 : 0.996575176716, Q2 : 0.0522267594934, Q3 : -0.0632459670305, Q4 : 0.0104991272092}
2019-04-14 04:37:35.91: SIM {TimeUS : 55134604, Roll : 6.53, Pitch : -7.47, Yaw : 3.14, Alt : 49.2599983215, Lat : 49.2835795, Lng : -123.1150111, Q1 : 0.995771586895, Q2 : 0.0586769580841, Q3 : -0.0634796023369, Q4 : 0.0310864932835}
2019-04-14 04:37:36.01: SIM {TimeUS : 55234564, Roll : 6.75, Pitch : -7.98, Yaw : 7.07, Alt : 49.2599983215, Lat : 49.2835806, Lng : -123.1150099, Q1 : 0.993691265583, Q2 : 0.0629341080785, Q3 : -0.0657039731741, Q4 : 0.0655742064118}
2019-04-14 04:37:36.11: SIM {TimeUS : 55334524, Roll : 6.37, Pitch : -8.8, Yaw : 12.49, Alt : 49.2599983215, Lat : 49.2835817, Lng : -123.1150087, Q1 : 0.989121496677, Q2 : 0.0634846463799, Q3 : -0.0701758638024, Q4 : 0.112622261047}
2019-04-14 04:37:36.21: SIM {TimeUS : 55434484, Roll : 5.15, Pitch : -9.84, Yaw : 19.11, Alt : 49.2599983215, Lat : 49.2835828, Lng : -123.1150072, Q1 : 0.980845451355, Q2 : 0.0584475435317, Q3 : -0.0770980119705, Q4 : 0.169062033296}
2019-04-14 04:37:36.31: SIM {TimeUS : 55534444, Roll : 2.94, Pitch : -10.89, Yaw : 26.28, Alt : 49.2599983215, Lat : 49.283584, Lng : -123.1150058, Q1 : 0.968531250954, Q2 : 0.0464502871037, Q3 : -0.0865647047758, Q4 : 0.228683412075}
2019-04-14 04:37:36.41: SIM {TimeUS : 55634404, Roll : 0.08, Pitch : -11.68, Yaw : 33.22, Alt : 49.2700004578, Lat : 49.2835852, Lng : -123.1150042, Q1 : 0.953248500824, Q2 : 0.0298400241882, Q3 : -0.0973562672734, Q4 : 0.284514725208}
2019-04-14 04:37:36.51: SIM {TimeUS : 55734364, Roll : -2.76, Pitch : -12.14, Yaw : 39.19, Alt : 49.2700004578, Lat : 49.2835865, Lng : -123.1150026, Q1 : 0.937370836735, Q2 : 0.0128258634359, Q3 : -0.107652842999, Q4 : 0.331032127142}
2019-04-14 04:37:36.61: SIM {TimeUS : 55834324, Roll : -5.03, Pitch : -12.31, Yaw : 43.64, Alt : 49.2700004578, Lat : 49.2835879, Lng : -123.115001, Q1 : 0.923839151859, Q2 : -0.000748534686863, Q3 : -0.115685969591, Q4 : 0.364879995584}
2019-04-14 04:37:36.71: SIM {TimeUS : 55934284, Roll : -6.38, Pitch : -12.36, Yaw : 46.35, Alt : 49.2700004578, Lat : 49.2835892, Lng : -123.1149993, Q1 : 0.914895117283, Q2 : -0.00860909651965, Q3 : -0.120611488819, Q4 : 0.385156869888}
2019-04-14 04:37:36.81: SIM {TimeUS : 56034244, Roll : -6.76, Pitch : -12.44, Yaw : 47.39, Alt : 49.2700004578, Lat : 49.2835909, Lng : -123.1149977, Q1 : 0.911258280277, Q2 : -0.0101898424327, Q3 : -0.122657708824, Q4 : 0.393013477325}
2019-04-14 04:37:36.91: SIM {TimeUS : 56134204, Roll : -6.3, Pitch : -12.69, Yaw : 47.05, Alt : 49.2700004578, Lat : 49.2835926, Lng : -123.114996, Q1 : 0.912308514118, Q2 : -0.00607239920646, Q3 : -0.12307189405, Q4 : 0.390524804592}
2019-04-14 04:37:37.01: SIM {TimeUS : 56234164, Roll : -5.25, Pitch : -13.16, Yaw : 45.63, Alt : 49.2700004578, Lat : 49.2835944, Lng : -123.1149944, Q1 : 0.916752815247, Q2 : 0.00242498284206, Q3 : -0.123242765665, Q4 : 0.379960030317}
2019-04-14 04:37:37.11: SIM {TimeUS : 56334124, Roll : -3.85, Pitch : -13.79, Yaw : 43.45, Alt : 49.2700004578, Lat : 49.2835962, Lng : -123.1149926, Q1 : 0.923205196857, Q2 : 0.0134450951591, Q3 : -0.12387290597, Q4 : 0.363547682762}
2019-04-14 04:37:37.21: SIM {TimeUS : 56434084, Roll : -2.29, Pitch : -14.45, Yaw : 40.81, Alt : 49.2700004578, Lat : 49.2835982, Lng : -123.1149909, Q1 : 0.930472016335, Q2 : 0.0252612046897, Q3 : -0.124788329005, Q4 : 0.343528211117}
2019-04-14 04:37:37.31: SIM {TimeUS : 56534044, Roll : -0.72, Pitch : -15.01, Yaw : 38.03, Alt : 49.2799987793, Lat : 49.2836001, Lng : -123.1149891, Q1 : 0.937571465969, Q2 : 0.0366572923958, Q3 : -0.125597238541, Q4 : 0.322244137526}
2019-04-14 04:37:37.42: SIM {TimeUS : 56634837, Roll : 0.71, Pitch : -15.4, Yaw : 35.38, Alt : 49.2799987793, Lat : 49.2836023, Lng : -123.1149871, Q1 : 0.94383341074, Q2 : 0.0466212257743, Q3 : -0.125842124224, Q4 : 0.301941603422}
2019-04-14 04:37:37.51: SIM {TimeUS : 56734797, Roll : 1.86, Pitch : -15.6, Yaw : 33.18, Alt : 49.2799987793, Lat : 49.2836043, Lng : -123.1149852, Q1 : 0.94872623682, Q2 : 0.0542143844068, Q3 : -0.125442758203, Q4 : 0.285032302141}
2019-04-14 04:37:37.61: SIM {TimeUS : 56834757, Roll : 2.65, Pitch : -15.65, Yaw : 31.6, Alt : 49.2799987793, Lat : 49.2836065, Lng : -123.1149831, Q1 : 0.95213752985, Q2 : 0.0591127499938, Q3 : -0.12475117296, Q4 : 0.2727214396}
2019-04-14 04:37:37.71: SIM {TimeUS : 56934717, Roll : 3.01, Pitch : -15.62, Yaw : 30.69, Alt : 49.2799987793, Lat : 49.2836087, Lng : -123.1149809, Q1 : 0.954104959965, Q2 : 0.0611320436001, Q3 : -0.12408593297, Q4 : 0.265611171722}
2019-04-14 04:37:37.81: SIM {TimeUS : 57034677, Roll : 3.0, Pitch : -15.58, Yaw : 30.45, Alt : 49.2799987793, Lat : 49.283611, Lng : -123.1149786, Q1 : 0.954711854458, Q2 : 0.060646854341, Q3 : -0.123950645328, Q4 : 0.263597100973}
2019-04-14 04:37:37.91: SIM {TimeUS : 57134637, Roll : 2.65, Pitch : -15.59, Yaw : 30.79, Alt : 49.2799987793, Lat : 49.2836133, Lng : -123.1149761, Q1 : 0.954108297825, Q2 : 0.0581214912236, Q3 : -0.124705828726, Q4 : 0.265984326601}
2019-04-14 04:37:38.01: SIM {TimeUS : 57234597, Roll : 2.04, Pitch : -15.66, Yaw : 31.56, Alt : 49.2799987793, Lat : 49.2836156, Lng : -123.1149736, Q1 : 0.952514410019, Q2 : 0.0541095808148, Q3 : -0.126328617334, Q4 : 0.271716028452}
2019-04-14 04:37:38.11: SIM {TimeUS : 57334557, Roll : 1.31, Pitch : -15.78, Yaw : 32.6, Alt : 49.2799987793, Lat : 49.283618, Lng : -123.114971, Q1 : 0.950192332268, Q2 : 0.0494133271277, Q3 : -0.128571167588, Q4 : 0.279575228691}
2019-04-14 04:37:38.21: SIM {TimeUS : 57434517, Roll : 0.53, Pitch : -15.92, Yaw : 33.77, Alt : 49.2799987793, Lat : 49.2836203, Lng : -123.1149684, Q1 : 0.947454988956, Q2 : 0.0447022467852, Q3 : -0.13119083643, Q4 : 0.28830498457}
2019-04-14 04:37:38.31: SIM {TimeUS : 57534477, Roll : -0.16, Pitch : -16.06, Yaw : 34.9, Alt : 49.2799987793, Lat : 49.2836229, Lng : -123.1149657, Q1 : 0.944660961628, Q2 : 0.040556512773, Q3 : -0.133714675903, Q4 : 0.296801745892}
2019-04-14 04:37:38.41: SIM {TimeUS : 57634437, Roll : -0.73, Pitch : -16.17, Yaw : 35.89, Alt : 49.2799987793, Lat : 49.2836254, Lng : -123.1149629, Q1 : 0.942145347595, Q2 : 0.0372870378196, Q3 : -0.135834947228, Q4 : 0.304172188044}
2019-04-14 04:37:38.51: SIM {TimeUS : 57734397, Roll : -1.13, Pitch : -16.25, Yaw : 36.63, Alt : 49.2799987793, Lat : 49.2836279, Lng : -123.1149601, Q1 : 0.940176546574, Q2 : 0.0351347960532, Q3 : -0.137277796865, Q4 : 0.309819966555}
2019-04-14 04:37:38.61: SIM {TimeUS : 57834357, Roll : -1.32, Pitch : -16.3, Yaw : 37.11, Alt : 49.2799987793, Lat : 49.2836305, Lng : -123.1149573, Q1 : 0.938896358013, Q2 : 0.0342471189797, Q3 : -0.138053655624, Q4 : 0.313435822725}
2019-04-14 04:37:38.71: SIM {TimeUS : 57934317, Roll : -1.33, Pitch : -16.34, Yaw : 37.3, Alt : 49.2799987793, Lat : 49.2836332, Lng : -123.1149545, Q1 : 0.93832296133, Q2 : 0.0345568209887, Q3 : -0.138394027948, Q4 : 0.314965069294}
2019-04-14 04:37:38.81: SIM {TimeUS : 58034277, Roll : -1.19, Pitch : -16.39, Yaw : 37.24, Alt : 49.2799987793, Lat : 49.2836359, Lng : -123.1149516, Q1 : 0.938393592834, Q2 : 0.0357581712306, Q3 : -0.138432011008, Q4 : 0.314603567123}
2019-04-14 04:37:38.91: SIM {TimeUS : 58134237, Roll : -0.96, Pitch : -16.45, Yaw : 36.97, Alt : 49.2900009155, Lat : 49.2836385, Lng : -123.1149487, Q1 : 0.938977479935, Q2 : 0.0374691970646, Q3 : -0.138348460197, Q4 : 0.312693208456}
2019-04-14 04:37:39.01: SIM {TimeUS : 58234197, Roll : -0.68, Pitch : -16.49, Yaw : 36.57, Alt : 49.2900009155, Lat : 49.2836414, Lng : -123.1149458, Q1 : 0.939929962158, Q2 : 0.0394246205688, Q3 : -0.138044297695, Q4 : 0.309711307287}
2019-04-14 04:37:39.11: SIM {TimeUS : 58334157, Roll : -0.36, Pitch : -16.52, Yaw : 36.09, Alt : 49.2900009155, Lat : 49.2836442, Lng : -123.1149428, Q1 : 0.941065013409, Q2 : 0.0415474548936, Q3 : -0.137563705444, Q4 : 0.306180953979}
2019-04-14 04:37:39.21: SIM {TimeUS : 58434117, Roll : -0.06, Pitch : -16.54, Yaw : 35.61, Alt : 49.2900009155, Lat : 49.2836469, Lng : -123.1149397, Q1 : 0.942212164402, Q2 : 0.0434603467584, Q3 : -0.137152209878, Q4 : 0.302550375462}
2019-04-14 04:37:39.31: SIM {TimeUS : 58534077, Roll : 0.2, Pitch : -16.57, Yaw : 35.17, Alt : 49.2900009155, Lat : 49.2836499, Lng : -123.1149368, Q1 : 0.943224608898, Q2 : 0.0452189110219, Q3 : -0.136876478791, Q4 : 0.29924467206}
2019-04-14 04:37:39.41: SIM {TimeUS : 58634037, Roll : 0.42, Pitch : -16.59, Yaw : 34.81, Alt : 49.2900009155, Lat : 49.2836528, Lng : -123.1149337, Q1 : 0.94403141737, Q2 : 0.0467083454132, Q3 : -0.136620268226, Q4 : 0.296576976776}
2019-04-14 04:37:39.52: SIM {TimeUS : 58734830, Roll : 0.57, Pitch : -16.61, Yaw : 34.56, Alt : 49.2900009155, Lat : 49.2836557, Lng : -123.1149306, Q1 : 0.944591879845, Q2 : 0.0476770251989, Q3 : -0.136500418186, Q4 : 0.29468742013}
2019-04-14 04:37:39.61: SIM {TimeUS : 58834790, Roll : 0.62, Pitch : -16.65, Yaw : 34.43, Alt : 49.2900009155, Lat : 49.2836585, Lng : -123.1149275, Q1 : 0.944869399071, Q2 : 0.0480001829565, Q3 : -0.136731401086, Q4 : 0.293636411428}
2019-04-14 04:37:39.71: SIM {TimeUS : 58934750, Roll : 0.58, Pitch : -16.7, Yaw : 34.41, Alt : 49.2900009155, Lat : 49.2836615, Lng : -123.1149243, Q1 : 0.944881379604, Q2 : 0.0477948710322, Q3 : -0.137281179428, Q4 : 0.293374806643}
2019-04-14 04:37:39.81: SIM {TimeUS : 59034710, Roll : 0.48, Pitch : -16.78, Yaw : 34.47, Alt : 49.2900009155, Lat : 49.2836645, Lng : -123.1149211, Q1 : 0.944659531116, Q2 : 0.0472802184522, Q3 : -0.138113602996, Q4 : 0.293781459332}
2019-04-14 04:37:39.91: SIM {TimeUS : 59134670, Roll : 0.35, Pitch : -16.83, Yaw : 34.61, Alt : 49.2900009155, Lat : 49.2836675, Lng : -123.1149178, Q1 : 0.94430154562, Q2 : 0.0465078689158, Q3 : -0.138860821724, Q4 : 0.294702112675}
2019-04-14 04:37:40.01: SIM {TimeUS : 59234630, Roll : 0.22, Pitch : -16.87, Yaw : 34.78, Alt : 49.2900009155, Lat : 49.2836706, Lng : -123.1149146, Q1 : 0.943865656853, Q2 : 0.0456853844225, Q3 : -0.139464125037, Q4 : 0.295939534903}
2019-04-14 04:37:40.11: SIM {TimeUS : 59334590, Roll : 0.09, Pitch : -16.9, Yaw : 34.96, Alt : 49.2900009155, Lat : 49.2836736, Lng : -123.1149113, Q1 : 0.943402647972, Q2 : 0.0449110902846, Q3 : -0.139989584684, Q4 : 0.297283470631}
2019-04-14 04:37:40.21: SIM {TimeUS : 59434550, Roll : -0.01, Pitch : -16.93, Yaw : 35.14, Alt : 49.2900009155, Lat : 49.2836766, Lng : -123.114908, Q1 : 0.942963898182, Q2 : 0.0443010628223, Q3 : -0.140388697386, Q4 : 0.298575907946}
2019-04-14 04:37:40.31: SIM {TimeUS : 59534510, Roll : -0.08, Pitch : -16.94, Yaw : 35.28, Alt : 49.2900009155, Lat : 49.2836797, Lng : -123.1149046, Q1 : 0.942597806454, Q2 : 0.0439331270754, Q3 : -0.140646010637, Q4 : 0.299662977457}
2019-04-14 04:37:40.41: SIM {TimeUS : 59634470, Roll : -0.13, Pitch : -16.97, Yaw : 35.38, Alt : 49.2900009155, Lat : 49.2836828, Lng : -123.1149013, Q1 : 0.942323744297, Q2 : 0.043722987175, Q3 : -0.140951886773, Q4 : 0.300411224365}
2019-04-14 04:37:40.51: SIM {TimeUS : 59734430, Roll : -0.16, Pitch : -17.0, Yaw : 35.43, Alt : 49.2999992371, Lat : 49.2836858, Lng : -123.1148979, Q1 : 0.942157506943, Q2 : 0.0436798073351, Q3 : -0.141264334321, Q4 : 0.300791800022}
2019-04-14 04:37:40.61: SIM {TimeUS : 59834390, Roll : -0.16, Pitch : -17.03, Yaw : 35.44, Alt : 49.2999992371, Lat : 49.2836889, Lng : -123.1148945, Q1 : 0.942103564739, Q2 : 0.0437737815082, Q3 : -0.141543477774, Q4 : 0.300815850496}
2019-04-14 04:37:40.71: SIM {TimeUS : 59934350, Roll : -0.13, Pitch : -17.07, Yaw : 35.4, Alt : 49.2999992371, Lat : 49.2836922, Lng : -123.1148911, Q1 : 0.942139923573, Q2 : 0.044055737555, Q3 : -0.141811311245, Q4 : 0.300534635782}
2019-04-14 04:37:40.81: SIM {TimeUS : 60034310, Roll : -0.08, Pitch : -17.11, Yaw : 35.33, Alt : 49.2999992371, Lat : 49.2836953, Lng : -123.1148877, Q1 : 0.942254662514, Q2 : 0.0444410257041, Q3 : -0.142055347562, Q4 : 0.300002455711}
2019-04-14 04:37:40.91: SIM {TimeUS : 60134270, Roll : -0.05, Pitch : -17.15, Yaw : 35.24, Alt : 49.2999992371, Lat : 49.2836985, Lng : -123.1148843, Q1 : 0.942433416843, Q2 : 0.0446866229177, Q3 : -0.142305001616, Q4 : 0.299285292625}
2019-04-14 04:37:41.01: SIM {TimeUS : 60234230, Roll : -0.03, Pitch : -17.17, Yaw : 35.14, Alt : 49.2999992371, Lat : 49.2837016, Lng : -123.1148808, Q1 : 0.942659199238, Q2 : 0.0448299497366, Q3 : -0.142415001988, Q4 : 0.298499464989}
2019-04-14 04:37:41.11: SIM {TimeUS : 60334190, Roll : 0.0, Pitch : -17.18, Yaw : 35.04, Alt : 49.2999992371, Lat : 49.2837048, Lng : -123.1148774, Q1 : 0.942879796028, Q2 : 0.0449725575745, Q3 : -0.142515301704, Q4 : 0.29773235321}
2019-04-14 04:37:41.21: SIM {TimeUS : 60434150, Roll : 0.03, Pitch : -17.21, Yaw : 34.96, Alt : 49.2999992371, Lat : 49.2837081, Lng : -123.1148739, Q1 : 0.943059504032, Q2 : 0.0452765412629, Q3 : -0.142626300454, Q4 : 0.297063201666}
2019-04-14 04:37:41.31: SIM {TimeUS : 60534110, Roll : 0.08, Pitch : -17.24, Yaw : 34.89, Alt : 49.2999992371, Lat : 49.2837113, Lng : -123.1148704, Q1 : 0.943184614182, Q2 : 0.0456666536629, Q3 : -0.142771095037, Q4 : 0.296536266804}
2019-04-14 04:37:41.41: SIM {TimeUS : 60634070, Roll : 0.14, Pitch : -17.28, Yaw : 34.84, Alt : 49.2999992371, Lat : 49.2837144, Lng : -123.1148669, Q1 : 0.943247139454, Q2 : 0.0461711809039, Q3 : -0.142967760563, Q4 : 0.296164274216}
2019-04-14 04:37:41.51: SIM {TimeUS : 60734030, Roll : 0.19, Pitch : -17.33, Yaw : 34.8, Alt : 49.3100013733, Lat : 49.2837178, Lng : -123.1148634, Q1 : 0.943253159523, Q2 : 0.0466556362808, Q3 : -0.143263876438, Q4 : 0.295926004648}
2019-04-14 04:37:41.62: SIM {TimeUS : 60834823, Roll : 0.21, Pitch : -17.36, Yaw : 34.79, Alt : 49.3100013733, Lat : 49.2837211, Lng : -123.1148598, Q1 : 0.94324028492, Q2 : 0.0468935221434, Q3 : -0.14353325963, Q4 : 0.295798927546}
2019-04-14 04:37:41.71: SIM {TimeUS : 60934783, Roll : 0.2, Pitch : -17.38, Yaw : 34.78, Alt : 49.3100013733, Lat : 49.2837243, Lng : -123.1148563, Q1 : 0.943232834339, Q2 : 0.0468251481652, Q3 : -0.143694698811, Q4 : 0.295755118132}
2019-04-14 04:37:41.81: SIM {TimeUS : 61034743, Roll : 0.15, Pitch : -17.38, Yaw : 34.79, Alt : 49.3100013733, Lat : 49.2837276, Lng : -123.1148527, Q1 : 0.943229317665, Q2 : 0.0464874394238, Q3 : -0.143813803792, Q4 : 0.295761674643}
2019-04-14 04:37:41.91: SIM {TimeUS : 61134703, Roll : 0.12, Pitch : -17.38, Yaw : 34.8, Alt : 49.3100013733, Lat : 49.2837308, Lng : -123.1148491, Q1 : 0.943206250668, Q2 : 0.046204648912, Q3 : -0.143913894892, Q4 : 0.295830905437}
2019-04-14 04:37:42.01: SIM {TimeUS : 61234663, Roll : 0.09, Pitch : -17.39, Yaw : 34.82, Alt : 49.3100013733, Lat : 49.2837342, Lng : -123.1148456, Q1 : 0.943162798882, Q2 : 0.0460742115974, Q3 : -0.144041195512, Q4 : 0.295927762985}
2019-04-14 04:37:42.11: SIM {TimeUS : 61334623, Roll : 0.1, Pitch : -17.42, Yaw : 34.83, Alt : 49.3100013733, Lat : 49.2837375, Lng : -123.114842, Q1 : 0.943088173866, Q2 : 0.0462125875056, Q3 : -0.144252762198, Q4 : 0.296041101217}
2019-04-14 04:37:42.21: SIM {TimeUS : 61434583, Roll : 0.12, Pitch : -17.47, Yaw : 34.84, Alt : 49.3100013733, Lat : 49.2837409, Lng : -123.1148384, Q1 : 0.942996025085, Q2 : 0.0464781299233, Q3 : -0.144616112113, Q4 : 0.296115726233}
2019-04-14 04:37:42.31: SIM {TimeUS : 61534543, Roll : 0.12, Pitch : -17.5, Yaw : 34.84, Alt : 49.3100013733, Lat : 49.2837442, Lng : -123.1148348, Q1 : 0.942954003811, Q2 : 0.0465724803507, Q3 : -0.144865319133, Q4 : 0.296112746}
2019-04-14 04:37:42.41: SIM {TimeUS : 61634503, Roll : 0.12, Pitch : -17.5, Yaw : 34.84, Alt : 49.3100013733, Lat : 49.2837474, Lng : -123.1148312, Q1 : 0.942965507507, Q2 : 0.0465894415975, Q3 : -0.14489415288, Q4 : 0.296059399843}
2019-04-14 04:37:42.51: SIM {TimeUS : 61734463, Roll : 0.12, Pitch : -17.52, Yaw : 34.82, Alt : 49.3199996948, Lat : 49.2837509, Lng : -123.1148275, Q1 : 0.942988336086, Q2 : 0.0465812422335, Q3 : -0.14500400424, Q4 : 0.295934140682}
2019-04-14 04:37:42.61: SIM {TimeUS : 61834423, Roll : 0.11, Pitch : -17.55, Yaw : 34.8, Alt : 49.3199996948, Lat : 49.2837542, Lng : -123.1148239, Q1 : 0.943005263805, Q2 : 0.0465521402657, Q3 : -0.145288094878, Q4 : 0.295745402575}
2019-04-14 04:37:42.71: SIM {TimeUS : 61934383, Roll : 0.11, Pitch : -17.57, Yaw : 34.78, Alt : 49.3199996948, Lat : 49.2837576, Lng : -123.1148203, Q1 : 0.943029046059, Q2 : 0.0465866401792, Q3 : -0.145503789186, Q4 : 0.295558124781}
2019-04-14 04:37:42.81: SIM {TimeUS : 62034343, Roll : 0.11, Pitch : -17.59, Yaw : 34.76, Alt : 49.3199996948, Lat : 49.283761, Lng : -123.1148166, Q1 : 0.943054974079, Q2 : 0.0466566868126, Q3 : -0.145692825317, Q4 : 0.295371085405}
2019-04-14 04:37:42.91: SIM {TimeUS : 62134303, Roll : 0.12, Pitch : -17.61, Yaw : 34.74, Alt : 49.3199996948, Lat : 49.2837643, Lng : -123.114813, Q1 : 0.943090677261, Q2 : 0.0467709749937, Q3 : -0.145786195993, Q4 : 0.295192986727}
2019-04-14 04:37:43.01: SIM {TimeUS : 62234263, Roll : 0.14, Pitch : -17.62, Yaw : 34.71, Alt : 49.3199996948, Lat : 49.2837677, Lng : -123.1148093, Q1 : 0.94312286377, Q2 : 0.0469520315528, Q3 : -0.145879104733, Q4 : 0.295015484095}
2019-04-14 04:37:43.11: SIM {TimeUS : 62334223, Roll : 0.16, Pitch : -17.63, Yaw : 34.69, Alt : 49.3199996948, Lat : 49.283771, Lng : -123.1148056, Q1 : 0.943164408207, Q2 : 0.0470726639032, Q3 : -0.14591704309, Q4 : 0.294844448566}
2019-04-14 04:37:43.21: SIM {TimeUS : 62434183, Roll : 0.18, Pitch : -17.64, Yaw : 34.67, Alt : 49.3199996948, Lat : 49.2837745, Lng : -123.1148019, Q1 : 0.943200588226, Q2 : 0.0472426824272, Q3 : -0.145937129855, Q4 : 0.294691503048}
2019-04-14 04:37:43.31: SIM {TimeUS : 62534143, Roll : 0.2, Pitch : -17.65, Yaw : 34.65, Alt : 49.3199996948, Lat : 49.2837778, Lng : -123.1147983, Q1 : 0.943223536015, Q2 : 0.0474343076348, Q3 : -0.145997524261, Q4 : 0.294557511806}
2019-04-14 04:37:43.41: SIM {TimeUS : 62634103, Roll : 0.21, Pitch : -17.69, Yaw : 34.63, Alt : 49.3199996948, Lat : 49.2837813, Lng : -123.1147946, Q1 : 0.943222343922, Q2 : 0.0475110039115, Q3 : -0.146266594529, Q4 : 0.294415384531}
2019-04-14 04:37:43.51: SIM {TimeUS : 62734063, Roll : 0.18, Pitch : -17.72, Yaw : 34.62, Alt : 49.3199996948, Lat : 49.2837848, Lng : -123.1147909, Q1 : 0.943218946457, Q2 : 0.0474155172706, Q3 : -0.146625205874, Q4 : 0.294263213873}
2019-04-14 04:37:43.61: SIM {TimeUS : 62834023, Roll : 0.16, Pitch : -17.76, Yaw : 34.61, Alt : 49.3199996948, Lat : 49.2837881, Lng : -123.1147872, Q1 : 0.943205654621, Q2 : 0.0473010204732, Q3 : -0.147034570575, Q4 : 0.294119983912}
2019-04-14 04:37:43.71: SIM {TimeUS : 62934816, Roll : 0.16, Pitch : -17.79, Yaw : 34.6, Alt : 49.3199996948, Lat : 49.2837916, Lng : -123.1147834, Q1 : 0.943196177483, Q2 : 0.047357853502, Q3 : -0.147276297212, Q4 : 0.294020235538}
2019-04-14 04:37:43.81: SIM {TimeUS : 63034776, Roll : 0.17, Pitch : -17.8, Yaw : 34.59, Alt : 49.3199996948, Lat : 49.2837951, Lng : -123.1147797, Q1 : 0.94320756197, Q2 : 0.0474664755166, Q3 : -0.147316724062, Q4 : 0.293946117163}
2019-04-14 04:37:43.91: SIM {TimeUS : 63134736, Roll : 0.19, Pitch : -17.78, Yaw : 34.58, Alt : 49.3300018311, Lat : 49.2837986, Lng : -123.114776, Q1 : 0.943254947662, Q2 : 0.0475118383765, Q3 : -0.147122040391, Q4 : 0.293884158134}
2019-04-14 04:37:44.01: SIM {TimeUS : 63234696, Roll : 0.18, Pitch : -17.77, Yaw : 34.57, Alt : 49.3300018311, Lat : 49.2838019, Lng : -123.1147722, Q1 : 0.943298459053, Q2 : 0.0474338568747, Q3 : -0.147002756596, Q4 : 0.293816745281}
2019-04-14 04:37:44.11: SIM {TimeUS : 63334656, Roll : 0.18, Pitch : -17.76, Yaw : 34.56, Alt : 49.3300018311, Lat : 49.2838055, Lng : -123.1147685, Q1 : 0.94333344698, Q2 : 0.0473565459251, Q3 : -0.146938443184, Q4 : 0.293749004602}
2019-04-14 04:37:44.21: SIM {TimeUS : 63434616, Roll : 0.17, Pitch : -17.75, Yaw : 34.55, Alt : 49.3300018311, Lat : 49.2838088, Lng : -123.1147648, Q1 : 0.943365693092, Q2 : 0.0473034158349, Q3 : -0.146886274219, Q4 : 0.293680071831}
2019-04-14 04:37:44.31: SIM {TimeUS : 63534576, Roll : 0.17, Pitch : -17.76, Yaw : 34.54, Alt : 49.3300018311, Lat : 49.2838123, Lng : -123.114761, Q1 : 0.943373858929, Q2 : 0.0472735315561, Q3 : -0.147020950913, Q4 : 0.293591201305}
2019-04-14 04:37:44.41: SIM {TimeUS : 63634536, Roll : 0.17, Pitch : -17.78, Yaw : 34.53, Alt : 49.3300018311, Lat : 49.2838159, Lng : -123.1147573, Q1 : 0.943370699883, Q2 : 0.0473061800003, Q3 : -0.147210478783, Q4 : 0.293501317501}
2019-04-14 04:37:44.51: SIM {TimeUS : 63734496, Roll : 0.16, Pitch : -17.83, Yaw : 34.52, Alt : 49.3300018311, Lat : 49.2838194, Lng : -123.1147535, Q1 : 0.943347036839, Q2 : 0.0473239570856, Q3 : -0.147582784295, Q4 : 0.293387323618}
2019-04-14 04:37:44.61: SIM {TimeUS : 63834456, Roll : 0.15, Pitch : -17.88, Yaw : 34.51, Alt : 49.3300018311, Lat : 49.2838227, Lng : -123.1147497, Q1 : 0.943312466145, Q2 : 0.047380451113, Q3 : -0.148022994399, Q4 : 0.293267667294}
2019-04-14 04:37:44.71: SIM {TimeUS : 63934416, Roll : 0.16, Pitch : -17.92, Yaw : 34.5, Alt : 49.3300018311, Lat : 49.2838263, Lng : -123.114746, Q1 : 0.943284571171, Q2 : 0.0475421771407, Q3 : -0.14835293591, Q4 : 0.293164491653}
2019-04-14 04:37:44.81: SIM {TimeUS : 64034376, Roll : 0.15, Pitch : -17.95, Yaw : 34.49, Alt : 49.3300018311, Lat : 49.2838298, Lng : -123.1147422, Q1 : 0.943279147148, Q2 : 0.0475681275129, Q3 : -0.148632720113, Q4 : 0.293035954237}
2019-04-14 04:37:44.91: SIM {TimeUS : 64134336, Roll : 0.15, Pitch : -17.97, Yaw : 34.47, Alt : 49.3300018311, Lat : 49.2838333, Lng : -123.1147384, Q1 : 0.94329148531, Q2 : 0.0475785844028, Q3 : -0.148789733648, Q4 : 0.292914837599}
2019-04-14 04:37:45.01: SIM {TimeUS : 64234296, Roll : 0.17, Pitch : -17.96, Yaw : 34.46, Alt : 49.3300018311, Lat : 49.2838367, Lng : -123.1147346, Q1 : 0.943332672119, Q2 : 0.0476881451905, Q3 : -0.14866155386, Q4 : 0.292829424143}
2019-04-14 04:37:45.11: SIM {TimeUS : 64334256, Roll : 0.19, Pitch : -17.96, Yaw : 34.44, Alt : 49.3300018311, Lat : 49.2838402, Lng : -123.1147308, Q1 : 0.943358957767, Q2 : 0.0478713400662, Q3 : -0.14860829711, Q4 : 0.292742013931}
2019-04-14 04:37:45.21: SIM {TimeUS : 64434216, Roll : 0.2, Pitch : -17.97, Yaw : 34.43, Alt : 49.3300018311, Lat : 49.2838438, Lng : -123.1147271, Q1 : 0.943372607231, Q2 : 0.0479594357312, Q3 : -0.148707464337, Q4 : 0.292633086443}
2019-04-14 04:37:45.31: SIM {TimeUS : 64534176, Roll : 0.21, Pitch : -17.98, Yaw : 34.42, Alt : 49.3300018311, Lat : 49.2838474, Lng : -123.1147233, Q1 : 0.943391859531, Q2 : 0.0480073578656, Q3 : -0.148766517639, Q4 : 0.292533069849}
2019-04-14 04:37:45.41: SIM {TimeUS : 64634136, Roll : 0.22, Pitch : -17.98, Yaw : 34.41, Alt : 49.3400001526, Lat : 49.2838509, Lng : -123.1147195, Q1 : 0.943424403667, Q2 : 0.0480517596006, Q3 : -0.148709073663, Q4 : 0.292450100183}
2019-04-14 04:37:45.51: SIM {TimeUS : 64734096, Roll : 0.22, Pitch : -17.97, Yaw : 34.39, Alt : 49.3400001526, Lat : 49.2838543, Lng : -123.1147157, Q1 : 0.943453848362, Q2 : 0.0480622053146, Q3 : -0.148676455021, Q4 : 0.292369931936}
2019-04-14 04:37:45.61: SIM {TimeUS : 64834056, Roll : 0.2, Pitch : -17.99, Yaw : 34.39, Alt : 49.3400001526, Lat : 49.2838579, Lng : -123.1147119, Q1 : 0.943464398384, Q2 : 0.0479350686073, Q3 : -0.148856133223, Q4 : 0.29226526618}
2019-04-14 04:37:45.72: SIM {TimeUS : 64934849, Roll : 0.17, Pitch : -18.02, Yaw : 34.38, Alt : 49.3400001526, Lat : 49.2838615, Lng : -123.114708, Q1 : 0.943453848362, Q2 : 0.0477656759322, Q3 : -0.149207621813, Q4 : 0.29214784503}
2019-04-14 04:37:45.81: SIM {TimeUS : 65034809, Roll : 0.15, Pitch : -18.02, Yaw : 34.37, Alt : 49.3400001526, Lat : 49.283865, Lng : -123.1147042, Q1 : 0.943474113941, Q2 : 0.0476170480251, Q3 : -0.149287611246, Q4 : 0.292065739632}
2019-04-14 04:37:45.91: SIM {TimeUS : 65134769, Roll : 0.16, Pitch : -18.01, Yaw : 34.36, Alt : 49.3400001526, Lat : 49.2838686, Lng : -123.1147004, Q1 : 0.943510770798, Q2 : 0.0476429052651, Q3 : -0.149108588696, Q4 : 0.292034715414}
2019-04-14 04:37:46.01: SIM {TimeUS : 65234729, Roll : 0.18, Pitch : -17.99, Yaw : 34.36, Alt : 49.3400001526, Lat : 49.283872, Lng : -123.1146965, Q1 : 0.943538427353, Q2 : 0.047759719193, Q3 : -0.148937061429, Q4 : 0.292013674974}
2019-04-14 04:37:46.11: SIM {TimeUS : 65334689, Roll : 0.2, Pitch : -18.0, Yaw : 34.35, Alt : 49.3400001526, Lat : 49.2838756, Lng : -123.1146928, Q1 : 0.943540751934, Q2 : 0.0478651933372, Q3 : -0.148998171091, Q4 : 0.291957914829}
2019-04-14 04:37:46.21: SIM {TimeUS : 65434649, Roll : 0.18, Pitch : -18.03, Yaw : 34.34, Alt : 49.3400001526, Lat : 49.2838792, Lng : -123.1146889, Q1 : 0.943536102772, Q2 : 0.0478064268827, Q3 : -0.149245798588, Q4 : 0.29185590148}
2019-04-14 04:37:46.31: SIM {TimeUS : 65534609, Roll : 0.16, Pitch : -18.06, Yaw : 34.33, Alt : 49.3400001526, Lat : 49.2838828, Lng : -123.1146851, Q1 : 0.943529069424, Q2 : 0.0476723276079, Q3 : -0.149569183588, Q4 : 0.291735053062}
2019-04-14 04:37:46.41: SIM {TimeUS : 65634569, Roll : 0.14, Pitch : -18.08, Yaw : 34.32, Alt : 49.3400001526, Lat : 49.2838863, Lng : -123.1146813, Q1 : 0.943530082703, Q2 : 0.0475973784924, Q3 : -0.149800240993, Q4 : 0.291625320911}
2019-04-14 04:37:46.51: SIM {TimeUS : 65734529, Roll : 0.15, Pitch : -18.1, Yaw : 34.31, Alt : 49.3400001526, Lat : 49.2838899, Lng : -123.1146774, Q1 : 0.943527758121, Q2 : 0.0476690381765, Q3 : -0.149979546666, Q4 : 0.291529029608}
2019-04-14 04:37:46.61: SIM {TimeUS : 65834489, Roll : 0.16, Pitch : -18.12, Yaw : 34.3, Alt : 49.3400001526, Lat : 49.2838935, Lng : -123.1146736, Q1 : 0.943529784679, Q2 : 0.0477881990373, Q3 : -0.150084927678, Q4 : 0.291448861361}
