2019-04-14 03:50:29.00: SIM {TimeUS : 40616247, Roll : 0.0, Pitch : 0.0, Yaw : 0.0, Alt : 30.1000003815, Lat : 49.28357, Lng : -123.11502, Q1 : 1.0, Q2 : 0.0, Q3 : 0.0, Q4 : 0.0}
2019-04-14 03:50:29.11: SIM {TimeUS : 40735366, Roll : 0.0, Pitch : 0.0, Yaw : 0.0, Alt : 30.1000003815, Lat : 49.28357, Lng : -123.11502, Q1 : 1.0, Q2 : 0.0, Q3 : 0.0, Q4 : 0.0}
2019-04-14 03:50:29.21: SIM {TimeUS : 40835326, Roll : 0.0, Pitch : 0.0, Yaw : 0.0, Alt : 30.1000003815, Lat : 49.28357, Lng : -123.11502, Q1 : 1.0, Q2 : 0.0, Q3 : 0.0, Q4 : 0.0}
2019-04-14 03:50:29.31: SIM {TimeUS : 40935286, Roll : 0.0, Pitch : 0.0, Yaw : 0.0, Alt : 30.1000003815, Lat : 49.28357, Lng : -123.11502, Q1 : 1.0, Q2 : 0.0, Q3 : 0.0, Q4 : 0.0}
2019-04-14 03:50:29.41: SIM {TimeUS : 41035246, Roll : 0.0, Pitch : 0.0, Yaw : 0.0, Alt : 30.1000003815, Lat : 49.28357, Lng : -123.11502, Q1 : 1.0, Q2 : 0.0, Q3 : 0.0, Q4 : 0.0}
2019-04-14 03:50:29.51: SIM {TimeUS : 41135206, Roll : 0.0, Pitch : 0.0, Yaw : 0.0, Alt : 30.1000003815, Lat : 49.28357, Lng : -123.11502, Q1 : 1.0, Q2 : 0.0, Q3 : 0.0, Q4 : 0.0}
2019-04-14 03:50:29.61: SIM {TimeUS : 41235166, Roll : 0.0, Pitch : 0.0, Yaw : 0.0, Alt : 30.1000003815, Lat : 49.28357, Lng : -123.11502, Q1 : 1.0, Q2 : 0.0, Q3 : 0.0, Q4 : 0.0}
2019-04-14 03:50:29.71: SIM {TimeUS : 41335126, Roll : 0.0, Pitch : 0.0, Yaw : 0.0, Alt : 30.1000003815, Lat : 49.28357, Lng : -123.11502, Q1 : 1.0, Q2 : 0.0, Q3 : 0.0, Q4 : 0.0}
2019-04-14 03:50:29.81: SIM {TimeUS : 41435086, Roll : 0.0, Pitch : 0.0, Yaw : 0.0, Alt : 30.1000003815, Lat : 49.28357, Lng : -123.11502, Q1 : 1.0, Q2 : 0.0, Q3 : 0.0, Q4 : 0.0}
2019-04-14 03:50:29.91: SIM {TimeUS : 41535046, Roll : 0.0, Pitch : 0.0, Yaw : 0.0, Alt : 30.1000003815, Lat : 49.28357, Lng : -123.11502, Q1 : 1.0, Q2 : 0.0, Q3 : 0.0, Q4 : 0.0}
2019-04-14 03:50:30.01: SIM {TimeUS : 41635006, Roll : 0.0, Pitch : 0.0, Yaw : 0.0, Alt : 30.1000003815, Lat : 49.28357, Lng : -123.11502, Q1 : 1.0, Q2 : 0.0, Q3 : 0.0, Q4 : 0.0}
2019-04-14 03:50:30.11: SIM {TimeUS : 41734966, Roll : 0.0, Pitch : 0.0, Yaw : 0.0, Alt : 30.1000003815, Lat : 49.28357, Lng : -123.11502, Q1 : 1.0, Q2 : 0.0, Q3 : 0.0, Q4 : 0.0}
2019-04-14 03:50:30.21: SIM {TimeUS : 41834926, Roll : 0.0, Pitch : 0.0, Yaw : 0.0, Alt : 30.1000003815, Lat : 49.28357, Lng : -123.11502, Q1 : 1.0, Q2 : 0.0, Q3 : 0.0, Q4 : 0.0}
2019-04-14 03:50:30.31: SIM {TimeUS : 41934886, Roll : 0.0, Pitch : 0.0, Yaw : 0.0, Alt : 30.1000003815, Lat : 49.28357, Lng : -123.11502, Q1 : 1.0, Q2 : 0.0, Q3 : 0.0, Q4 : 0.0}
2019-04-14 03:50:30.41: SIM {TimeUS : 42034846, Roll : 0.0, Pitch : 0.0, Yaw : 0.0, Alt : 30.1000003815, Lat : 49.28357, Lng : -123.11502, Q1 : 1.0, Q2 : 0.0, Q3 : 0.0, Q4 : 0.0}
2019-04-14 03:50:30.51: SIM {TimeUS : 42134806, Roll : 0.0, Pitch : 0.0, Yaw : 0.0, Alt : 30.1000003815, Lat : 49.28357, Lng : -123.11502, Q1 : 1.0, Q2 : 0.0, Q3 : 0.0, Q4 : 0.0}
2019-04-14 03:50:30.61: SIM {TimeUS : 42234766, Roll : 0.0, Pitch : 0.0, Yaw : 0.0, Alt : 30.1000003815, Lat : 49.28357, Lng : -123.11502, Q1 : 1.0, Q2 : 0.0, Q3 : 0.0, Q4 : 0.0}
2019-04-14 03:50:30.71: SIM {TimeUS : 42334726, Roll : 0.0, Pitch : 0.0, Yaw : 0.0, Alt : 30.1000003815, Lat : 49.28357, Lng : -123.11502, Q1 : 1.0, Q2 : 0.0, Q3 : 0.0, Q4 : 0.0}
2019-04-14 03:50:30.81: SIM {TimeUS : 42434686, Roll : 0.0, Pitch : 0.0, Yaw : 0.0, Alt : 30.1000003815, Lat : 49.28357, Lng : -123.11502, Q1 : 1.0, Q2 : 0.0, Q3 : 0.0, Q4 : 0.0}
2019-04-14 03:50:30.91: SIM {TimeUS : 42534646, Roll : 0.0, Pitch : 0.0, Yaw : 0.0, Alt : 30.1000003815, Lat : 49.28357, Lng : -123.11502, Q1 : 1.0, Q2 : 0.0, Q3 : 0.0, Q4 : 0.0}
2019-04-14 03:50:31.01: SIM {TimeUS : 42634606, Roll : 0.0, Pitch : 0.0, Yaw : 0.0, Alt : 30.1000003815, Lat : 49.28357, Lng : -123.11502, Q1 : 1.0, Q2 : 0.0, Q3 : 0.0, Q4 : 0.0}
2019-04-14 03:50:31.11: SIM {TimeUS : 42735399, Roll : 0.0, Pitch : 0.0, Yaw : 0.0, Alt : 30.1000003815, Lat : 49.28357, Lng : -123.11502, Q1 : 1.0, Q2 : 0.0, Q3 : 0.0, Q4 : 0.0}
2019-04-14 03:50:31.21: SIM {TimeUS : 42835359, Roll : 0.0, Pitch : 0.0, Yaw : 0.0, Alt : 30.1000003815, Lat : 49.28357, Lng : -123.11502, Q1 : 1.0, Q2 : 0.0, Q3 : 0.0, Q4 : 0.0}
2019-04-14 03:50:31.31: SIM {TimeUS : 42935319, Roll : 0.0, Pitch : 0.0, Yaw : 360.0, Alt : 30.1000003815, Lat : 49.28357, Lng : -123.11502, Q1 : 1.0, Q2 : 0.0, Q3 : 0.0, Q4 : -7.5309836492e-12}
2019-04-14 03:50:31.41: SIM {TimeUS : 43035279, Roll : 0.0, Pitch : 0.0, Yaw : 360.0, Alt : 30.1000003815, Lat : 49.28357, Lng : -123.11502, Q1 : 1.0, Q2 : 0.0, Q3 : 0.0, Q4 : -2.42403680462e-10}
2019-04-14 03:50:31.51: SIM {TimeUS : 43135239, Roll : 0.0, Pitch : 0.0, Yaw : 359.99, Alt : 30.1000003815, Lat : 49.28357, Lng : -123.11502, Q1 : 1.0, Q2 : 0.0, Q3 : 0.0, Q4 : -1.85881646075e-07}
2019-04-14 03:50:31.61: SIM {TimeUS : 43235199, Roll : 0.0, Pitch : 0.0, Yaw : 359.99, Alt : 30.1000003815, Lat : 49.28357, Lng : -123.11502, Q1 : 1.0, Q2 : 0.0, Q3 : 0.0, Q4 : -3.38824833079e-07}
2019-04-14 03:50:31.71: SIM {TimeUS : 43335159, Roll : 0.0, Pitch : 0.0, Yaw : 359.99, Alt : 30.1000003815, Lat : 49.28357, Lng : -123.11502, Q1 : 1.0, Q2 : 0.0, Q3 : 0.0, Q4 : -5.23542610154e-07}
2019-04-14 03:50:31.81: SIM {TimeUS : 43435119, Roll : 0.0, Pitch : 0.0, Yaw : 359.99, Alt : 30.1000003815, Lat : 49.28357, Lng : -123.11502, Q1 : 1.0, Q2 : 0.0, Q3 : 0.0, Q4 : -7.21410174265e-07}
2019-04-14 03:50:31.91: SIM {TimeUS : 43535079, Roll : 0.0, Pitch : 0.0, Yaw : 359.99, Alt : 30.1000003815, Lat : 49.28357, Lng : -123.11502, Q1 : 1.0, Q2 : 0.0, Q3 : 0.0, Q4 : -9.50863693561e-07}
2019-04-14 03:50:32.01: SIM {TimeUS : 43635039, Roll : 0.0, Pitch : 0.0, Yaw : 359.99, Alt : 30.1000003815, Lat : 49.28357, Lng : -123.11502, Q1 : 1.0, Q2 : 0.0, Q3 : 0.0, Q4 : -1.16108401471e-06}
2019-04-14 03:50:32.11: SIM {TimeUS : 43734999, Roll : 0.0, Pitch : 0.0, Yaw : 359.99, Alt : 30.1000003815, Lat : 49.28357, Lng : -123.11502, Q1 : 1.0, Q2 : 0.0, Q3 : 0.0, Q4 : -1.38135385441e-06}
2019-04-14 03:50:32.21: SIM {TimeUS : 43834959, Roll : 0.0, Pitch : 0.0, Yaw : 359.99, Alt : 30.1100006104, Lat : 49.28357, Lng : -123.11502, Q1 : 1.0, Q2 : 0.0, Q3 : 0.0, Q4 : -1.62195817666e-06}
2019-04-14 03:50:32.31: SIM {TimeUS : 43934919, Roll : 0.0, Pitch : 0.0, Yaw : 359.99, Alt : 30.1399993896, Lat : 49.28357, Lng : -123.11502, Q1 : 1.0, Q2 : 0.0, Q3 : 0.0, Q4 : -1.83791212294e-06}
2019-04-14 03:50:32.41: SIM {TimeUS : 44034879, Roll : 0.0, Pitch : 0.0, Yaw : 359.99, Alt : 30.1700000763, Lat : 49.28357, Lng : -123.11502, Q1 : 1.0, Q2 : 0.0, Q3 : 0.0, Q4 : -2.11102019421e-06}
2019-04-14 03:50:32.51: SIM {TimeUS : 44134839, Roll : 0.0, Pitch : 0.0, Yaw : 359.99, Alt : 30.2000007629, Lat : 49.28357, Lng : -123.11502, Q1 : 1.0, Q2 : 0.0, Q3 : 0.0, Q4 : -2.22800781557e-06}
2019-04-14 03:50:32.61: SIM {TimeUS : 44234799, Roll : -0.1, Pitch : -0.08, Yaw : 359.99, Alt : 30.25, Lat : 49.28357, Lng : -123.11502, Q1 : 0.999999344349, Q2 : -0.000879095576238, Q3 : -0.000753451196942, Q4 : -1.05979670479e-05}
2019-04-14 03:50:32.71: SIM {TimeUS : 44334759, Roll : -0.4, Pitch : -0.34, Yaw : 359.99, Alt : 30.3400001526, Lat : 49.28357, Lng : -123.11502, Q1 : 0.999989390373, Q2 : -0.00349836680107, Q3 : -0.00299769057892, Q4 : -4.11516048189e-05}
2019-04-14 03:50:32.81: SIM {TimeUS : 44434719, Roll : -0.67, Pitch : -0.61, Yaw : 359.99, Alt : 30.4899997711, Lat : 49.28357, Lng : -123.11502, Q1 : 0.999968290329, Q2 : -0.0059104077518, Q3 : -0.00533549347892, Q4 : -9.85835067695e-05}
2019-04-14 03:50:32.91: SIM {TimeUS : 44534679, Roll : -0.81, Pitch : -0.75, Yaw : 359.98, Alt : 30.6499996185, Lat : 49.28357, Lng : -123.11502, Q1 : 0.999952435493, Q2 : -0.00715106027201, Q3 : -0.00662711495534, Q4 : -0.000181432711543}
2019-04-14 03:50:33.01: SIM {TimeUS : 44634639, Roll : -0.81, Pitch : -0.75, Yaw : 359.97, Alt : 30.7999992371, Lat : 49.28357, Lng : -123.11502, Q1 : 0.999952614307, Q2 : -0.00715684797615, Q3 : -0.00659796269611, Q4 : -0.000268052855972}
2019-04-14 03:50:33.11: SIM {TimeUS : 44734599, Roll : -0.69, Pitch : -0.63, Yaw : 359.96, Alt : 30.9599990845, Lat : 49.28357, Lng : -123.1150201, Q1 : 0.999966204166, Q2 : -0.00605985848233, Q3 : -0.00554902059957, Q4 : -0.000347322493326}
2019-04-14 03:50:33.21: SIM {TimeUS : 44835392, Roll : -0.48, Pitch : -0.44, Yaw : 359.95, Alt : 31.1100006104, Lat : 49.2835701, Lng : -123.1150202, Q1 : 0.999983310699, Q2 : -0.0042369524017, Q3 : -0.00390701368451, Q4 : -0.000416046852479}
2019-04-14 03:50:33.31: SIM {TimeUS : 44935352, Roll : -0.25, Pitch : -0.24, Yaw : 359.94, Alt : 31.2700004578, Lat : 49.2835701, Lng : -123.1150203, Q1 : 0.999995052814, Q2 : -0.00224788859487, Q3 : -0.00215878896415, Q4 : -0.000471243518405}
2019-04-14 03:50:33.41: SIM {TimeUS : 45035312, Roll : -0.06, Pitch : -0.08, Yaw : 359.94, Alt : 31.4400005341, Lat : 49.2835702, Lng : -123.1150203, Q1 : 0.999999403954, Q2 : -0.000560746761039, Q3 : -0.000757202040404, Q4 : -0.000509397010319}
2019-04-14 03:50:33.51: SIM {TimeUS : 45135272, Roll : 0.06, Pitch : 0.01, Yaw : 359.93, Alt : 31.6100006104, Lat : 49.2835702, Lng : -123.1150204, Q1 : 0.999999701977, Q2 : 0.000532906036824, Q3 : 0.000108863634523, Q4 : -0.000533783866558}
2019-04-14 03:50:33.61: SIM {TimeUS : 45235232, Roll : 0.11, Pitch : 0.06, Yaw : 359.93, Alt : 31.7900009155, Lat : 49.2835703, Lng : -123.1150205, Q1 : 0.99999922514, Q2 : 0.000978983589448, Q3 : 0.000551508390345, Q4 : -0.00055125443032}
2019-04-14 03:50:33.71: SIM {TimeUS : 45335192, Roll : 0.1, Pitch : 0.08, Yaw : 359.93, Alt : 31.9799995422, Lat : 49.2835703, Lng : -123.1150205, Q1 : 0.999999165535, Q2 : 0.000879735278431, Q3 : 0.000777253822889, Q4 : -0.000559691281524}
2019-04-14 03:50:33.81: SIM {TimeUS : 45435152, Roll : 0.06, Pitch : 0.1, Yaw : 359.93, Alt : 32.1599998474, Lat : 49.2835703, Lng : -123.1150206, Q1 : 0.99999922514, Q2 : 0.000595587771386, Q3 : 0.000941909151152, Q4 : -0.000549468270037}
2019-04-14 03:50:33.91: SIM {TimeUS : 45535112, Roll : 0.05, Pitch : 0.12, Yaw : 359.94, Alt : 32.3499984741, Lat : 49.2835703, Lng : -123.1150207, Q1 : 0.99999910593, Q2 : 0.000492649618536, Q3 : 0.00112102506682, Q4 : -0.000519672525115}
2019-04-14 03:50:34.01: SIM {TimeUS : 45635072, Roll : 0.06, Pitch : 0.13, Yaw : 359.94, Alt : 32.5499992371, Lat : 49.2835703, Lng : -123.1150207, Q1 : 0.999999046326, Q2 : 0.000569206196815, Q3 : 0.00117333373055, Q4 : -0.000489472411573}
2019-04-14 03:50:34.11: SIM {TimeUS : 45735032, Roll : 0.07, Pitch : 0.14, Yaw : 359.94, Alt : 32.7400016785, Lat : 49.2835703, Lng : -123.1150207, Q1 : 0.999998927116, Q2 : 0.000651784066577, Q3 : 0.00123797392007, Q4 : -0.000461349292891}
2019-04-14 03:50:34.21: SIM {TimeUS : 45834992, Roll : 0.09, Pitch : 0.16, Yaw : 359.94, Alt : 32.9399986267, Lat : 49.2835704, Lng : -123.1150208, Q1 : 0.999998509884, Q2 : 0.000813615566585, Q3 : 0.00145818537567, Q4 : -0.000442461430794}
2019-04-14 03:50:34.31: SIM {TimeUS : 45934952, Roll : 0.12, Pitch : 0.16, Yaw : 359.95, Alt : 33.1399993896, Lat : 49.2835704, Lng : -123.1150208, Q1 : 0.999998271465, Q2 : 0.00105630140752, Q3 : 0.00144740182441, Q4 : -0.000428872328484}
2019-04-14 03:50:34.41: SIM {TimeUS : 46034912, Roll : 0.15, Pitch : 0.14, Yaw : 359.95, Alt : 33.3400001526, Lat : 49.2835704, Lng : -123.1150208, Q1 : 0.999998271465, Q2 : 0.0013378621079, Q3 : 0.00123849569354, Q4 : -0.000415059592342}
2019-04-14 03:50:34.51: SIM {TimeUS : 46134872, Roll : 0.17, Pitch : 0.12, Yaw : 359.95, Alt : 33.5499992371, Lat : 49.2835704, Lng : -123.1150208, Q1 : 0.999998152256, Q2 : 0.00152429169975, Q3 : 0.00112134427764, Q4 : -0.000406633305829}
2019-04-14 03:50:34.61: SIM {TimeUS : 46234832, Roll : 0.18, Pitch : 0.13, Yaw : 359.95, Alt : 33.7599983215, Lat : 49.2835704, Lng : -123.1150208, Q1 : 0.999997973442, Q2 : 0.00159620738123, Q3 : 0.00114526390098, Q4 : -0.000418690178776}
2019-04-14 03:50:34.71: SIM {TimeUS : 46334792, Roll : 0.19, Pitch : 0.14, Yaw : 359.94, Alt : 33.9700012207, Lat : 49.2835704, Lng : -123.1150208, Q1 : 0.999997735023, Q2 : 0.00165959773585, Q3 : 0.00123937451281, Q4 : -0.000444951088866}
2019-04-14 03:50:34.81: SIM {TimeUS : 46434752, Roll : 0.18, Pitch : 0.12, Yaw : 359.94, Alt : 34.1800003052, Lat : 49.2835704, Lng : -123.1150208, Q1 : 0.999998033047, Q2 : 0.00157904659864, Q3 : 0.00111822632607, Q4 : -0.000471472274512}
2019-04-14 03:50:34.91: SIM {TimeUS : 46534712, Roll : 0.15, Pitch : 0.11, Yaw : 359.94, Alt : 34.3899993896, Lat : 49.2835704, Lng : -123.1150208, Q1 : 0.999998509884, Q2 : 0.00135583907831, Q3 : 0.000966879248153, Q4 : -0.000496027409099}
2019-04-14 03:50:35.01: SIM {TimeUS : 46634672, Roll : 0.12, Pitch : 0.09, Yaw : 359.93, Alt : 34.5999984741, Lat : 49.2835704, Lng : -123.1150208, Q1 : 0.999998927116, Q2 : 0.00106456922367, Q3 : 0.000833549478557, Q4 : -0.000525509414729}
2019-04-14 03:50:35.11: SIM {TimeUS : 46734632, Roll : 0.08, Pitch : 0.08, Yaw : 359.93, Alt : 34.8199996948, Lat : 49.2835704, Lng : -123.1150208, Q1 : 0.999999284744, Q2 : 0.000769291364122, Q3 : 0.000750218052417, Q4 : -0.000556296727154}
2019-04-14 03:50:35.21: SIM {TimeUS : 46834592, Roll : 0.06, Pitch : 0.05, Yaw : 359.93, Alt : 35.0299987793, Lat : 49.2835704, Lng : -123.1150208, Q1 : 0.999999523163, Q2 : 0.000604980974458, Q3 : 0.000450289808214, Q4 : -0.00059265474556}
2019-04-14 03:50:35.31: SIM {TimeUS : 46935385, Roll : 0.05, Pitch : 0.01, Yaw : 359.92, Alt : 35.25, Lat : 49.2835704, Lng : -123.1150208, Q1 : 0.999999642372, Q2 : 0.000513997394592, Q3 : 0.00017145392485, Q4 : -0.000629322603345}
2019-04-14 03:50:35.41: SIM {TimeUS : 47035345, Roll : 0.03, Pitch : 0.0, Yaw : 359.92, Alt : 35.4700012207, Lat : 49.2835704, Lng : -123.1150208, Q1 : 0.999999701977, Q2 : 0.000335505959811, Q3 : 3.19843275065e-05, Q4 : -0.000664451916236}
2019-04-14 03:50:35.51: SIM {TimeUS : 47135305, Roll : 0.02, Pitch : 0.0, Yaw : 359.92, Alt : 35.6899986267, Lat : 49.2835704, Lng : -123.1150208, Q1 : 0.999999761581, Q2 : 0.000225908253924, Q3 : 1.94987314899e-05, Q4 : -0.000696150120348}
2019-04-14 03:50:35.61: SIM {TimeUS : 47235265, Roll : 0.02, Pitch : 0.0, Yaw : 359.91, Alt : 35.9099998474, Lat : 49.2835704, Lng : -123.1150207, Q1 : 0.999999701977, Q2 : 0.000201447168365, Q3 : 4.82401810586e-05, Q4 : -0.000728051294573}
2019-04-14 03:50:35.71: SIM {TimeUS : 47335225, Roll : 0.0, Pitch : -0.01, Yaw : 359.91, Alt : 36.1300010681, Lat : 49.2835704, Lng : -123.1150207, Q1 : 0.999999701977, Q2 : 4.96723441756e-06, Q3 : -0.000119132026157, Q4 : -0.000756062450819}
2019-04-14 03:50:35.81: SIM {TimeUS : 47435185, Roll : -0.03, Pitch : -0.04, Yaw : 359.91, Alt : 36.3499984741, Lat : 49.2835704, Lng : -123.1150207, Q1 : 0.999999582767, Q2 : -0.000298024911899, Q3 : -0.000418745330535, Q4 : -0.000778894405812}
2019-04-14 03:50:35.91: SIM {TimeUS : 47535145, Roll : -0.06, Pitch : -0.06, Yaw : 359.9, Alt : 36.5699996948, Lat : 49.2835704, Lng : -123.1150207, Q1 : 0.999999344349, Q2 : -0.000605328998063, Q3 : -0.000601316802204, Q4 : -0.000795515428763}
2019-04-14 03:50:36.01: SIM {TimeUS : 47635105, Roll : -0.1, Pitch : -0.08, Yaw : 359.9, Alt : 36.7900009155, Lat : 49.2835704, Lng : -123.1150207, Q1 : 0.999998986721, Q2 : -0.000874095538165, Q3 : -0.000728778948542, Q4 : -0.000811071251519}
2019-04-14 03:50:36.11: SIM {TimeUS : 47735065, Roll : -0.1, Pitch : -0.08, Yaw : 359.9, Alt : 37.0200004578, Lat : 49.2835704, Lng : -123.1150207, Q1 : 0.999998986721, Q2 : -0.000905995257199, Q3 : -0.000719295465387, Q4 : -0.000824355811346}
2019-04-14 03:50:36.21: SIM {TimeUS : 47835025, Roll : -0.09, Pitch : -0.07, Yaw : 359.9, Alt : 37.2400016785, Lat : 49.2835704, Lng : -123.1150207, Q1 : 0.99999910593, Q2 : -0.000824943475891, Q3 : -0.000641081947833, Q4 : -0.00083706015721}
2019-04-14 03:50:36.31: SIM {TimeUS : 47934985, Roll : -0.07, Pitch : -0.05, Yaw : 359.9, Alt : 37.4700012207, Lat : 49.2835704, Lng : -123.1150206, Q1 : 0.999999284744, Q2 : -0.000697044248227, Q3 : -0.000458095368231, Q4 : -0.000852132798173}
2019-04-14 03:50:36.41: SIM {TimeUS : 48034945, Roll : -0.06, Pitch : -0.03, Yaw : 359.9, Alt : 37.6899986267, Lat : 49.2835704, Lng : -123.1150206, Q1 : 0.999999403954, Q2 : -0.000557186780497, Q3 : -0.000323344458593, Q4 : -0.000863049237523}
2019-04-14 03:50:36.51: SIM {TimeUS : 48134905, Roll : -0.07, Pitch : -0.03, Yaw : 359.9, Alt : 37.9199981689, Lat : 49.2835704, Lng : -123.1150206, Q1 : 0.999999344349, Q2 : -0.000618131365627, Q3 : -0.00033696758328, Q4 : -0.000872746459208}
2019-04-14 03:50:36.61: SIM {TimeUS : 48234865, Roll : -0.08, Pitch : -0.02, Yaw : 359.89, Alt : 38.1500015259, Lat : 49.2835704, Lng : -123.1150206, Q1 : 0.999999284744, Q2 : -0.000732722284738, Q3 : -0.000237075437326, Q4 : -0.000884469423909}
2019-04-14 03:50:36.71: SIM {TimeUS : 48334825, Roll : -0.1, Pitch : -0.01, Yaw : 359.89, Alt : 38.3699989319, Lat : 49.2835704, Lng : -123.1150206, Q1 : 0.999999165535, Q2 : -0.000907504640054, Q3 : -8.78899154486e-05, Q4 : -0.000902797968592}
2019-04-14 03:50:36.81: SIM {TimeUS : 48434785, Roll : -0.1, Pitch : 0.0, Yaw : 359.89, Alt : 38.5999984741, Lat : 49.2835704, Lng : -123.1150206, Q1 : 0.999999165535, Q2 : -0.000900604296476, Q3 : 4.54443288618e-05, Q4 : -0.000915800745133}
2019-04-14 03:50:36.91: SIM {TimeUS : 48534745, Roll : -0.08, Pitch : 0.03, Yaw : 359.89, Alt : 38.8300018311, Lat : 49.2835704, Lng : -123.1150206, Q1 : 0.99999922514, Q2 : -0.000717500864994, Q3 : 0.000282772467472, Q4 : -0.000933262810577}
2019-04-14 03:50:37.01: SIM {TimeUS : 48634705, Roll : -0.05, Pitch : 0.02, Yaw : 359.89, Alt : 39.0600013733, Lat : 49.2835704, Lng : -123.1150206, Q1 : 0.999999403954, Q2 : -0.000480795337353, Q3 : 0.0002566423791, Q4 : -0.00095222494565}
2019-04-14 03:50:37.11: SIM {TimeUS : 48734665, Roll : -0.02, Pitch : 0.02, Yaw : 359.88, Alt : 39.2900009155, Lat : 49.2835706, Lng : -123.1150207, Q1 : 0.999999523163, Q2 : -0.000215780048165, Q3 : 0.000192254316062, Q4 : -0.000971532426775}
2019-04-14 03:50:37.21: SIM {TimeUS : 48834625, Roll : 0.01, Pitch : 0.03, Yaw : 359.88, Alt : 39.5200004578, Lat : 49.2835706, Lng : -123.1150207, Q1 : 0.999999463558, Q2 : 0.00011302936764, Q3 : 0.000329256348778, Q4 : -0.000988769694231}
2019-04-14 03:50:37.31: SIM {TimeUS : 48934585, Roll : 0.05, Pitch : 0.06, Yaw : 359.88, Alt : 39.75, Lat : 49.2835706, Lng : -123.1150207, Q1 : 0.99999922514, Q2 : 0.000452178297564, Q3 : 0.000587054877542, Q4 : -0.00101110676769}
2019-04-14 03:50:37.41: SIM {TimeUS : 49035378, Roll : 0.08, Pitch : 0.09, Yaw : 359.88, Alt : 39.9799995422, Lat : 49.2835706, Lng : -123.1150207, Q1 : 0.999998867512, Q2 : 0.000718535098713, Q3 : 0.000824004993774, Q4 : -0.00103759020567}
2019-04-14 03:50:37.51: SIM {TimeUS : 49135338, Roll : 0.07, Pitch : 0.11, Yaw : 359.87, Alt : 40.2099990845, Lat : 49.2835706, Lng : -123.1150207, Q1 : 0.999998688698, Q2 : 0.000643109087832, Q3 : 0.00102198170498, Q4 : -0.00106904574204}
2019-04-14 03:50:37.61: SIM {TimeUS : 49235298, Roll : 0.02, Pitch : 0.13, Yaw : 359.87, Alt : 40.4399986267, Lat : 49.2835706, Lng : -123.1150207, Q1 : 0.999998629093, Q2 : 0.000207091681659, Q3 : 0.00119323364925, Q4 : -0.00111629103776}
2019-04-14 03:50:37.71: SIM {TimeUS : 49335258, Roll : -0.02, Pitch : 0.14, Yaw : 359.86, Alt : 40.6800003052, Lat : 49.2835706, Lng : -123.1150207, Q1 : 0.999998509884, Q2 : -0.000176173518412, Q3 : 0.00127985188738, Q4 : -0.00115997134708}
2019-04-14 03:50:37.81: SIM {TimeUS : 49435218, Roll : -0.03, Pitch : 0.13, Yaw : 359.86, Alt : 40.9099998474, Lat : 49.2835706, Lng : -123.1150207, Q1 : 0.999998509884, Q2 : -0.000343113497365, Q3 : 0.0011960871052, Q4 : -0.00119538966101}
2019-04-14 03:50:37.91: SIM {TimeUS : 49535178, Roll : -0.04, Pitch : 0.13, Yaw : 359.85, Alt : 41.1399993896, Lat : 49.2835706, Lng : -123.1150207, Q1 : 0.999998509884, Q2 : -0.00037183353561, Q3 : 0.00113814126235, Q4 : -0.00122745637782}
2019-04-14 03:50:38.01: SIM {TimeUS : 49635138, Roll : -0.02, Pitch : 0.14, Yaw : 359.85, Alt : 41.3699989319, Lat : 49.2835706, Lng : -123.1150207, Q1 : 0.999998390675, Q2 : -0.000256537343375, Q3 : 0.0012314816704, Q4 : -0.00126348563936}
2019-04-14 03:50:38.11: SIM {TimeUS : 49735098, Roll : 0.01, Pitch : 0.15, Yaw : 359.85, Alt : 41.6100006104, Lat : 49.2835706, Lng : -123.1150207, Q1 : 0.999998211861, Q2 : 9.38171651796e-05, Q3 : 0.00138718297239, Q4 : -0.00130478502251}
2019-04-14 03:50:38.21: SIM {TimeUS : 49835058, Roll : 0.06, Pitch : 0.16, Yaw : 359.84, Alt : 41.8400001526, Lat : 49.2835706, Lng : -123.1150207, Q1 : 0.999997913837, Q2 : 0.000538505846635, Q3 : 0.00144580902997, Q4 : -0.00134738138877}
2019-04-14 03:50:38.31: SIM {TimeUS : 49935018, Roll : 0.09, Pitch : 0.12, Yaw : 359.84, Alt : 42.0800018311, Lat : 49.2835706, Lng : -123.1150207, Q1 : 0.999998033047, Q2 : 0.00085171480896, Q3 : 0.00112904049456, Q4 : -0.00138036161661}
2019-04-14 03:50:38.41: SIM {TimeUS : 50034978, Roll : 0.1, Pitch : 0.07, Yaw : 359.83, Alt : 42.3100013733, Lat : 49.2835706, Lng : -123.1150207, Q1 : 0.999998390675, Q2 : 0.000887404370587, Q3 : 0.000682386627886, Q4 : -0.00140476576053}
2019-04-14 03:50:38.51: SIM {TimeUS : 50134938, Roll : 0.06, Pitch : 0.04, Yaw : 359.83, Alt : 42.5400009155, Lat : 49.2835706, Lng : -123.1150207, Q1 : 0.999998748302, Q2 : 0.000591639138293, Q3 : 0.00036603488843, Q4 : -0.00141923327465}
2019-04-14 03:50:38.61: SIM {TimeUS : 50234898, Roll : 0.01, Pitch : 0.03, Yaw : 359.83, Alt : 42.7799987793, Lat : 49.2835706, Lng : -123.1150207, Q1 : 0.999998927116, Q2 : 0.000125079241116, Q3 : 0.000301943247905, Q4 : -0.00142604915891}
2019-04-14 03:50:38.71: SIM {TimeUS : 50334858, Roll : -0.02, Pitch : 0.06, Yaw : 359.83, Alt : 43.0099983215, Lat : 49.2835704, Lng : -123.1150207, Q1 : 0.999998807907, Q2 : -0.000221266367589, Q3 : 0.000546419003513, Q4 : -0.00142069056164}
2019-04-14 03:50:38.81: SIM {TimeUS : 50434818, Roll : -0.04, Pitch : 0.08, Yaw : 359.83, Alt : 43.25, Lat : 49.2835704, Lng : -123.1150207, Q1 : 0.999998688698, Q2 : -0.000393957947381, Q3 : 0.000741839350667, Q4 : -0.00141637399793}
2019-04-14 03:50:38.91: SIM {TimeUS : 50534778, Roll : -0.04, Pitch : 0.08, Yaw : 359.83, Alt : 43.4799995422, Lat : 49.2835704, Lng : -123.1150207, Q1 : 0.999998688698, Q2 : -0.000411786866607, Q3 : 0.000718281546142, Q4 : -0.00141618342604}
2019-04-14 03:50:39.01: SIM {TimeUS : 50634738, Roll : -0.05, Pitch : 0.06, Yaw : 359.83, Alt : 43.7200012207, Lat : 49.2835704, Lng : -123.1150207, Q1 : 0.999998688698, Q2 : -0.000474492408102, Q3 : 0.000610668153968, Q4 : -0.00142140535172}
2019-04-14 03:50:39.11: SIM {TimeUS : 50734698, Roll : -0.05, Pitch : 0.05, Yaw : 359.83, Alt : 43.9500007629, Lat : 49.2835704, Lng : -123.1150207, Q1 : 0.999998748302, Q2 : -0.000450877443654, Q3 : 0.00046657238272, Q4 : -0.00143042695709}
2019-04-14 03:50:39.21: SIM {TimeUS : 50834658, Roll : -0.03, Pitch : 0.04, Yaw : 359.83, Alt : 44.1899986267, Lat : 49.2835704, Lng : -123.1150206, Q1 : 0.999998867512, Q2 : -0.000285312737105, Q3 : 0.000361685233656, Q4 : -0.00144204031676}
2019-04-14 03:50:39.31: SIM {TimeUS : 50934618, Roll : -0.01, Pitch : 0.03, Yaw : 359.83, Alt : 44.4199981689, Lat : 49.2835704, Lng : -123.1150206, Q1 : 0.999998867512, Q2 : -0.000139315336128, Q3 : 0.000302960310364, Q4 : -0.0014528153697}
2019-04-14 03:50:39.41: SIM {TimeUS : 51034578, Roll : -0.01, Pitch : 0.01, Yaw : 359.83, Alt : 44.6599998474, Lat : 49.2835704, Lng : -123.1150206, Q1 : 0.999998927116, Q2 : -0.000153688175487, Q3 : 9.99159674393e-05, Q4 : -0.00146736949682}
2019-04-14 03:50:39.51: SIM {TimeUS : 51135371, Roll : -0.02, Pitch : -0.02, Yaw : 359.82, Alt : 44.9000015259, Lat : 49.2835704, Lng : -123.1150206, Q1 : 0.999998867512, Q2 : -0.000220761707169, Q3 : -0.000206274606171, Q4 : -0.00149236083962}
2019-04-14 03:50:39.61: SIM {TimeUS : 51235331, Roll : -0.02, Pitch : -0.04, Yaw : 359.82, Alt : 45.1399993896, Lat : 49.2835704, Lng : -123.1150206, Q1 : 0.999998748302, Q2 : -0.000215630832827, Q3 : -0.000380116776796, Q4 : -0.00152054952923}
2019-04-14 03:50:39.71: SIM {TimeUS : 51335291, Roll : -0.01, Pitch : -0.05, Yaw : 359.82, Alt : 45.3699989319, Lat : 49.2835703, Lng : -123.1150206, Q1 : 0.999998688698, Q2 : -0.00012481455633, Q3 : -0.000436341942986, Q4 : -0.00155724456999}
2019-04-14 03:50:39.81: SIM {TimeUS : 51435251, Roll : -0.01, Pitch : -0.04, Yaw : 359.81, Alt : 45.6100006104, Lat : 49.2835703, Lng : -123.1150206, Q1 : 0.999998629093, Q2 : -0.000159432398505, Q3 : -0.000423447578214, Q4 : -0.00159557408188}
2019-04-14 03:50:39.91: SIM {TimeUS : 51535211, Roll : -0.04, Pitch : -0.03, Yaw : 359.81, Alt : 45.8400001526, Lat : 49.2835703, Lng : -123.1150206, Q1 : 0.999998509884, Q2 : -0.00041774372221, Q3 : -0.00032074644696, Q4 : -0.00164069386665}
2019-04-14 03:50:40.01: SIM {TimeUS : 51635171, Roll : -0.08, Pitch : -0.02, Yaw : 359.8, Alt : 46.0699996948, Lat : 49.2835703, Lng : -123.1150206, Q1 : 0.999998271465, Q2 : -0.000778362562414, Q3 : -0.000236451654928, Q4 : -0.00168825790752}
2019-04-14 03:50:40.11: SIM {TimeUS : 51735131, Roll : -0.11, Pitch : -0.02, Yaw : 359.8, Alt : 46.2999992371, Lat : 49.2835703, Lng : -123.1150206, Q1 : 0.999997913837, Q2 : -0.00104181130882, Q3 : -0.000194809093955, Q4 : -0.0017314554425}
2019-04-14 03:50:40.21: SIM {TimeUS : 51835091, Roll : -0.12, Pitch : -0.01, Yaw : 359.79, Alt : 46.5200004578, Lat : 49.2835703, Lng : -123.1150206, Q1 : 0.999997854233, Q2 : -0.00110111152753, Q3 : -0.000106991064968, Q4 : -0.0017683923943}
2019-04-14 03:50:40.31: SIM {TimeUS : 51935051, Roll : -0.11, Pitch : 0.0, Yaw : 359.79, Alt : 46.7400016785, Lat : 49.2835703, Lng : -123.1150206, Q1 : 0.999997913837, Q2 : -0.000995569396764, Q3 : 7.21675096429e-05, Q4 : -0.0017976325471}
2019-04-14 03:50:40.41: SIM {TimeUS : 52035011, Roll : -0.09, Pitch : 0.01, Yaw : 359.79, Alt : 46.9500007629, Lat : 49.2835703, Lng : -123.1150206, Q1 : 0.999998033047, Q2 : -0.000787400233094, Q3 : 0.000160776777193, Q4 : -0.00182357861195}
2019-04-14 03:50:40.51: SIM {TimeUS : 52134971, Roll : -0.06, Pitch : 0.01, Yaw : 359.78, Alt : 47.1599998474, Lat : 49.2835703, Lng : -123.1150206, Q1 : 0.999998092651, Q2 : -0.00058579799952, Q3 : 0.00010729659698, Q4 : -0.00184727937449}
2019-04-14 03:50:40.61: SIM {TimeUS : 52234931, Roll : -0.05, Pitch : 0.0, Yaw : 359.78, Alt : 47.3600006104, Lat : 49.2835703, Lng : -123.1150206, Q1 : 0.999998152256, Q2 : -0.000473481428344, Q3 : -5.50070981262e-05, Q4 : -0.0018693942111}
2019-04-14 03:50:40.71: SIM {TimeUS : 52334891, Roll : -0.03, Pitch : -0.03, Yaw : 359.78, Alt : 47.5400009155, Lat : 49.2835703, Lng : -123.1150206, Q1 : 0.999998092651, Q2 : -0.000338366255164, Q3 : -0.000300496409182, Q4 : -0.00188968831208}
2019-04-14 03:50:40.81: SIM {TimeUS : 52434851, Roll : -0.02, Pitch : -0.07, Yaw : 359.78, Alt : 47.7200012207, Lat : 49.2835703, Lng : -123.1150206, Q1 : 0.999997973442, Q2 : -0.000243207585299, Q3 : -0.00063170917565, Q4 : -0.00190610310528}
2019-04-14 03:50:40.91: SIM {TimeUS : 52534811, Roll : -0.03, Pitch : -0.11, Yaw : 359.77, Alt : 47.8899993896, Lat : 49.2835703, Lng : -123.1150206, Q1 : 0.999997615814, Q2 : -0.00027599078021, Q3 : -0.000997869297862, Q4 : -0.00192391115706}
2019-04-14 03:50:41.01: SIM {TimeUS : 52634771, Roll : -0.03, Pitch : -0.14, Yaw : 359.77, Alt : 48.0499992371, Lat : 49.2835703, Lng : -123.1150206, Q1 : 0.999997258186, Q2 : -0.000346716027707, Q3 : -0.00126818241552, Q4 : -0.00194277451374}
2019-04-14 03:50:41.11: SIM {TimeUS : 52734731, Roll : -0.01, Pitch : -0.14, Yaw : 359.77, Alt : 48.1899986267, Lat : 49.2835703, Lng : -123.1150207, Q1 : 0.999997317791, Q2 : -0.000108576830826, Q3 : -0.00123028689995, Q4 : -0.00195929897018}
2019-04-14 03:50:41.21: SIM {TimeUS : 52834691, Roll : 0.02, Pitch : -0.11, Yaw : 359.77, Alt : 48.3199996948, Lat : 49.2835703, Lng : -123.1150207, Q1 : 0.999997496605, Q2 : 0.000247308315011, Q3 : -0.00102756067645, Q4 : -0.00197467417456}
2019-04-14 03:50:41.31: SIM {TimeUS : 52934651, Roll : 0.06, Pitch : -0.08, Yaw : 359.77, Alt : 48.4399986267, Lat : 49.2835703, Lng : -123.1150207, Q1 : 0.999997615814, Q2 : 0.00055394123774, Q3 : -0.000738866219763, Q4 : -0.00199234206229}
2019-04-14 03:50:41.41: SIM {TimeUS : 53034611, Roll : 0.07, Pitch : -0.05, Yaw : 359.76, Alt : 48.5499992371, Lat : 49.2835703, Lng : -123.1150207, Q1 : 0.999997675419, Q2 : 0.000655509880744, Q3 : -0.000445816433057, Q4 : -0.00201505376026}
2019-04-14 03:50:41.51: SIM {TimeUS : 53135404, Roll : 0.07, Pitch : -0.03, Yaw : 359.76, Alt : 48.6500015259, Lat : 49.2835703, Lng : -123.1150207, Q1 : 0.999997675419, Q2 : 0.000693728332408, Q3 : -0.000285166112008, Q4 : -0.00204703444615}
2019-04-14 03:50:41.61: SIM {TimeUS : 53235364, Roll : 0.07, Pitch : -0.03, Yaw : 359.76, Alt : 48.7299995422, Lat : 49.2835703, Lng : -123.1150207, Q1 : 0.99999755621, Q2 : 0.000622602528892, Q3 : -0.000318213860737, Q4 : -0.00208715070039}
2019-04-14 03:50:41.71: SIM {TimeUS : 53335324, Roll : 0.04, Pitch : -0.04, Yaw : 359.75, Alt : 48.8100013733, Lat : 49.2835704, Lng : -123.1150207, Q1 : 0.999997615814, Q2 : 0.000394913135096, Q3 : -0.000356934935553, Q4 : -0.00212634401396}
2019-04-14 03:50:41.81: SIM {TimeUS : 53435284, Roll : 0.02, Pitch : -0.03, Yaw : 359.75, Alt : 48.8699989319, Lat : 49.2835704, Lng : -123.1150207, Q1 : 0.999997615814, Q2 : 0.000246368988883, Q3 : -0.00029865297256, Q4 : -0.00215900782496}
2019-04-14 03:50:41.91: SIM {TimeUS : 53535244, Roll : 0.03, Pitch : -0.05, Yaw : 359.74, Alt : 48.9199981689, Lat : 49.2835704, Lng : -123.1150207, Q1 : 0.999997496605, Q2 : 0.000261093460722, Q3 : -0.000438813411165, Q4 : -0.00218994682655}
2019-04-14 03:50:42.01: SIM {TimeUS : 53635204, Roll : 0.13, Pitch : -0.18, Yaw : 359.74, Alt : 48.9700012207, Lat : 49.2835704, Lng : -123.1150207, Q1 : 0.999995648861, Q2 : 0.00113909365609, Q3 : -0.00158576690592, Q4 : -0.00222145486623}
2019-04-14 03:50:42.11: SIM {TimeUS : 53735164, Roll : 0.4, Pitch : -0.51, Yaw : 359.74, Alt : 49.0099983215, Lat : 49.2835704, Lng : -123.1150207, Q1 : 0.999980986118, Q2 : 0.00351810082793, Q3 : -0.00453991768882, Q4 : -0.00224586366676}
2019-04-14 03:50:42.21: SIM {TimeUS : 53835124, Roll : 0.83, Pitch : -1.09, Yaw : 359.73, Alt : 49.0499992371, Lat : 49.2835704, Lng : -123.1150207, Q1 : 0.999925553799, Q2 : 0.00728119397536, Q3 : -0.00952945649624, Q4 : -0.00226022512652}
2019-04-14 03:50:42.31: SIM {TimeUS : 53935084, Roll : 1.38, Pitch : -1.86, Yaw : 359.71, Alt : 49.0699996948, Lat : 49.2835704, Lng : -123.1150207, Q1 : 0.999792635441, Q2 : 0.0120054977015, Q3 : -0.0162934735417, Q4 : -0.0022527561523}
2019-04-14 03:50:42.41: SIM {TimeUS : 54035044, Roll : 1.96, Pitch : -2.74, Yaw : 359.7, Alt : 49.0999984741, Lat : 49.2835706, Lng : -123.1150206, Q1 : 0.999564707279, Q2 : 0.0170766133815, Q3 : -0.0239581558853, Q4 : -0.00220351992175}
2019-04-14 03:50:42.51: SIM {TimeUS : 54135004, Roll : 2.5, Pitch : -3.58, Yaw : 359.68, Alt : 49.1199989319, Lat : 49.2835707, Lng : -123.1150205, Q1 : 0.999270021915, Q2 : 0.0217438749969, Q3 : -0.0313412882388, Q4 : -0.00209191883914}
2019-04-14 03:50:42.61: SIM {TimeUS : 54234964, Roll : 2.94, Pitch : -4.27, Yaw : 359.67, Alt : 49.1399993896, Lat : 49.2835708, Lng : -123.1150204, Q1 : 0.998972654343, Q2 : 0.0255642142147, Q3 : -0.0373685918748, Q4 : -0.00191345915664}
2019-04-14 03:50:42.71: SIM {TimeUS : 54334924, Roll : 3.27, Pitch : -4.76, Yaw : 359.67, Alt : 49.1599998474, Lat : 49.2835709, Lng : -123.1150202, Q1 : 0.998726725578, Q2 : 0.0284097231925, Q3 : -0.0416537337005, Q4 : -0.00167536595836}
2019-04-14 03:50:42.81: SIM {TimeUS : 54434884, Roll : 3.5, Pitch : -5.12, Yaw : 359.68, Alt : 49.1699981689, Lat : 49.2835713, Lng : -123.11502, Q1 : 0.998533427715, Q2 : 0.0304653886706, Q3 : -0.0447311550379, Q4 : -0.00140616809949}
2019-04-14 03:50:42.91: SIM {TimeUS : 54534844, Roll : 3.71, Pitch : -5.4, Yaw : 359.69, Alt : 49.1800003052, Lat : 49.2835715, Lng : -123.1150197, Q1 : 0.998362064362, Q2 : 0.0322748459876, Q3 : -0.0472255125642, Q4 : -0.00111237284727}
2019-04-14 03:50:43.01: SIM {TimeUS : 54634804, Roll : 3.9, Pitch : -5.67, Yaw : 359.71, Alt : 49.1899986267, Lat : 49.283572, Lng : -123.1150193, Q1 : 0.998193025589, Q2 : 0.0339480005205, Q3 : -0.0495742000639, Q4 : -0.000821678258944}
2019-04-14 03:50:43.11: SIM {TimeUS : 54734764, Roll : 4.1, Pitch : -5.99, Yaw : 359.72, Alt : 49.2000007629, Lat : 49.2835724, Lng : -123.1150189, Q1 : 0.997992217541, Q2 : 0.0356820262969, Q3 : -0.052325874567, Q4 : -0.000555877981242}
2019-04-14 03:50:43.21: SIM {TimeUS : 54834724, Roll : 4.32, Pitch : -6.32, Yaw : 359.72, Alt : 49.2099990845, Lat : 49.2835728, Lng : -123.1150183, Q1 : 0.997764706612, Q2 : 0.0375785604119, Q3 : -0.0552574433386, Q4 : -0.000311182637233}
2019-04-14 03:50:43.31: SIM {TimeUS : 54934684, Roll : 4.53, Pitch : -6.61, Yaw : 359.72, Alt : 49.2200012207, Lat : 49.2835733, Lng : -123.1150177, Q1 : 0.997557401657, Q2 : 0.0393280722201, Q3 : -0.0577286109328, Q4 : -7.97798784333e-05}
2019-04-14 03:50:43.41: SIM {TimeUS : 55034644, Roll : 4.67, Pitch : -6.81, Yaw : 359.73, Alt : 49.2200012207, Lat : 49.283574, Lng : -123.1150171, Q1 : 0.997407793999, Q2 : 0.040534928441, Q3 : -0.0594528615475, Q4 : 0.000119554941193}
2019-04-14 03:50:43.51: SIM {TimeUS : 55134604, Roll : 4.76, Pitch : -6.94, Yaw : 359.74, Alt : 49.2299995422, Lat : 49.2835746, Lng : -123.1150163, Q1 : 0.997305572033, Q2 : 0.0413237288594, Q3 : -0.0606127530336, Q4 : 0.000258138461504}
2019-04-14 03:50:43.61: SIM {TimeUS : 55235397, Roll : 4.8, Pitch : -7.04, Yaw : 359.74, Alt : 49.2400016785, Lat : 49.2835755, Lng : -123.1150156, Q1 : 0.997234284878, Q2 : 0.0417385101318, Q3 : -0.0614943392575, Q4 : 0.000330098002451}
2019-04-14 03:50:43.71: SIM {TimeUS : 55335357, Roll : 4.86, Pitch : -7.13, Yaw : 359.73, Alt : 49.2400016785, Lat : 49.2835763, Lng : -123.1150147, Q1 : 0.997167944908, Q2 : 0.0421813540161, Q3 : -0.0622634254396, Q4 : 0.000366294640116}
2019-04-14 03:50:43.81: SIM {TimeUS : 55435317, Roll : 5.0, Pitch : -7.21, Yaw : 359.75, Alt : 49.25, Lat : 49.2835771, Lng : -123.1150138, Q1 : 0.997071325779, Q2 : 0.0434141233563, Q3 : -0.0629573315382, Q4 : 0.00060056213988}
2019-04-14 03:50:43.91: SIM {TimeUS : 55535277, Roll : 5.41, Pitch : -7.24, Yaw : 0.07, Alt : 49.25, Lat : 49.2835781, Lng : -123.1150129, Q1 : 0.996887624264, Q2 : 0.0471561588347, Q3 : -0.0630711913109, Q4 : 0.00367252877913}
2019-04-14 03:50:44.01: SIM {TimeUS : 55635237, Roll : 6.05, Pitch : -7.28, Yaw : 1.36, Alt : 49.25, Lat : 49.2835789, Lng : -123.1150118, Q1 : 0.996474921703, Q2 : 0.0534828864038, Q3 : -0.0628063678741, Q4 : 0.0152549976483}
2019-04-14 03:50:44.11: SIM {TimeUS : 55735197, Roll : 6.6, Pitch : -7.56, Yaw : 4.17, Alt : 49.2599983215, Lat : 49.28358, Lng : -123.1150107, Q1 : 0.995365142822, Q2 : 0.0598474442959, Q3 : -0.0637419968843, Q4 : 0.0400437563658}
2019-04-14 03:50:44.21: SIM {TimeUS : 55835157, Roll : 6.72, Pitch : -8.19, Yaw : 8.57, Alt : 49.2599983215, Lat : 49.2835811, Lng : -123.1150095, Q1 : 0.992631912231, Q2 : 0.0636703893542, Q3 : -0.0667265355587, Q4 : 0.0785846114159}
2019-04-14 03:50:44.31: SIM {TimeUS : 55935117, Roll : 6.17, Pitch : -9.1, Yaw : 14.39, Alt : 49.2599983215, Lat : 49.2835822, Lng : -123.1150082, Q1 : 0.987016916275, Q2 : 0.0631702691317, Q3 : -0.071916334331, Q4 : 0.128977537155}
2019-04-14 03:50:44.41: SIM {TimeUS : 56035077, Roll : 4.65, Pitch : -10.17, Yaw : 21.26, Alt : 49.2599983215, Lat : 49.2835832, Lng : -123.1150068, Q1 : 0.977480471134, Q2 : 0.0561456270516, Q3 : -0.0796080157161, Q4 : 0.187195673585}
2019-04-14 03:50:44.51: SIM {TimeUS : 56135037, Roll : 2.2, Pitch : -11.17, Yaw : 28.45, Alt : 49.2599983215, Lat : 49.2835844, Lng : -123.1150053, Q1 : 0.964082598686, Q2 : 0.0424502082169, Q3 : -0.0896720960736, Q4 : 0.246376946568}
2019-04-14 03:50:44.61: SIM {TimeUS : 56234997, Roll : -0.73, Pitch : -11.9, Yaw : 35.17, Alt : 49.2700004578, Lat : 49.2835856, Lng : -123.1150037, Q1 : 0.948305606842, Q2 : 0.0252314750105, Q3 : -0.100749872625, Q4 : 0.299882173538}
2019-04-14 03:50:44.71: SIM {TimeUS : 56334957, Roll : -3.51, Pitch : -12.28, Yaw : 40.73, Alt : 49.2700004578, Lat : 49.283587, Lng : -123.1150021, Q1 : 0.932812392712, Q2 : 0.00862715486437, Q3 : -0.110887423158, Q4 : 0.342769056559}
2019-04-14 03:50:44.81: SIM {TimeUS : 56434917, Roll : -5.57, Pitch : -12.42, Yaw : 44.66, Alt : 49.2700004578, Lat : 49.2835884, Lng : -123.1150005, Q1 : 0.92047059536, Q2 : -0.00367924338207, Q3 : -0.118319228292, Q4 : 0.372452676296}
2019-04-14 03:50:44.91: SIM {TimeUS : 56534877, Roll : -6.63, Pitch : -12.48, Yaw : 46.85, Alt : 49.2700004578, Lat : 49.2835898, Lng : -123.1149988, Q1 : 0.913099050522, Q2 : -0.00965142250061, Q3 : -0.122480228543, Q4 : 0.388787418604}
2019-04-14 03:50:45.01: SIM {TimeUS : 56634837, Roll : -6.73, Pitch : -12.61, Yaw : 47.44, Alt : 49.2700004578, Lat : 49.2835916, Lng : -123.1149972, Q1 : 0.910970568657, Q2 : -0.00928809866309, Q3 : -0.123925969005, Q4 : 0.393304824829}
2019-04-14 03:50:45.11: SIM {TimeUS : 56734797, Roll : -6.05, Pitch : -12.92, Yaw : 46.74, Alt : 49.2700004578, Lat : 49.2835933, Lng : -123.1149955, Q1 : 0.913200676441, Q2 : -0.00354927871376, Q3 : -0.124007090926, Q4 : 0.388167768717}
2019-04-14 03:50:45.21: SIM {TimeUS : 56834757, Roll : -4.84, Pitch : -13.43, Yaw : 45.06, Alt : 49.2700004578, Lat : 49.2835951, Lng : -123.1149938, Q1 : 0.918410658836, Q2 : 0.00597788160667, Q3 : -0.124045871198, Q4 : 0.375631272793}
2019-04-14 03:50:45.31: SIM {TimeUS : 56934717, Roll : -3.36, Pitch : -14.04, Yaw : 42.71, Alt : 49.2700004578, Lat : 49.283597, Lng : -123.1149921, Q1 : 0.925254762173, Q2 : 0.0173839107156, Q3 : -0.124461650848, Q4 : 0.357925653458}
2019-04-14 03:50:45.41: SIM {TimeUS : 57034677, Roll : -1.77, Pitch : -14.64, Yaw : 39.99, Alt : 49.2700004578, Lat : 49.2835989, Lng : -123.1149904, Q1 : 0.932595849037, Q2 : 0.0291154831648, Q3 : -0.125042825937, Q4 : 0.337315291166}
2019-04-14 03:50:45.51: SIM {TimeUS : 57134637, Roll : -0.25, Pitch : -15.12, Yaw : 37.23, Alt : 49.2700004578, Lat : 49.283601, Lng : -123.1149885, Q1 : 0.939531624317, Q2 : 0.039918128401, Q3 : -0.125403568149, Q4 : 0.316165864468}
2019-04-14 03:50:45.61: SIM {TimeUS : 57234597, Roll : 1.06, Pitch : -15.41, Yaw : 34.71, Alt : 49.2799987793, Lat : 49.2836031, Lng : -123.1149866, Q1 : 0.945419549942, Q2 : 0.0488301515579, Q3 : -0.12526640296, Q4 : 0.296826273203}
2019-04-14 03:50:45.71: SIM {TimeUS : 57335390, Roll : 2.08, Pitch : -15.54, Yaw : 32.68, Alt : 49.2799987793, Lat : 49.2836051, Lng : -123.1149845, Q1 : 0.949939966202, Q2 : 0.0553746335208, Q3 : -0.124675385654, Q4 : 0.281076073647}
2019-04-14 03:50:45.81: SIM {TimeUS : 57435350, Roll : 2.71, Pitch : -15.56, Yaw : 31.3, Alt : 49.2799987793, Lat : 49.2836074, Lng : -123.1149824, Q1 : 0.952916026115, Q2 : 0.0591268762946, Q3 : -0.124052591622, Q4 : 0.27030724287}
2019-04-14 03:50:45.91: SIM {TimeUS : 57535310, Roll : 2.94, Pitch : -15.55, Yaw : 30.6, Alt : 49.2799987793, Lat : 49.2836096, Lng : -123.1149801, Q1 : 0.954439997673, Q2 : 0.0602432414889, Q3 : -0.123755969107, Q4 : 0.264763236046}
2019-04-14 03:50:46.01: SIM {TimeUS : 57635270, Roll : 2.81, Pitch : -15.56, Yaw : 30.54, Alt : 49.2799987793, Lat : 49.2836118, Lng : -123.1149777, Q1 : 0.954628825188, Q2 : 0.0591145828366, Q3 : -0.124159365892, Q4 : 0.264147132635}
2019-04-14 03:50:46.11: SIM {TimeUS : 57735230, Roll : 2.39, Pitch : -15.61, Yaw : 31.02, Alt : 49.2799987793, Lat : 49.2836141, Lng : -123.1149753, Q1 : 0.953667521477, Q2 : 0.0562669299543, Q3 : -0.125340491533, Q4 : 0.267660349607}
2019-04-14 03:50:46.21: SIM {TimeUS : 57835190, Roll : 1.78, Pitch : -15.71, Yaw : 31.89, Alt : 49.2799987793, Lat : 49.2836165, Lng : -123.1149727, Q1 : 0.951783418655, Q2 : 0.052401650697, Q3 : -0.12722440064, Q4 : 0.274183124304}
2019-04-14 03:50:46.31: SIM {TimeUS : 57935150, Roll : 1.08, Pitch : -15.86, Yaw : 32.98, Alt : 49.2799987793, Lat : 49.2836189, Lng : -123.1149701, Q1 : 0.949257850647, Q2 : 0.0481520295143, Q3 : -0.129679247737, Q4 : 0.282443374395}
2019-04-14 03:50:46.41: SIM {TimeUS : 58035110, Roll : 0.37, Pitch : -16.02, Yaw : 34.15, Alt : 49.2799987793, Lat : 49.2836213, Lng : -123.1149675, Q1 : 0.946441888809, Q2 : 0.0440205894411, Q3 : -0.132290557027, Q4 : 0.291220068932}
2019-04-14 03:50:46.51: SIM {TimeUS : 58135070, Roll : -0.27, Pitch : -16.16, Yaw : 35.24, Alt : 49.2799987793, Lat : 49.2836238, Lng : -123.1149648, Q1 : 0.943692862988, Q2 : 0.0402962639928, Q3 : -0.134747192264, Q4 : 0.299438148737}
2019-04-14 03:50:46.61: SIM {TimeUS : 58235030, Roll : -0.8, Pitch : -16.25, Yaw : 36.16, Alt : 49.2799987793, Lat : 49.2836262, Lng : -123.114962, Q1 : 0.941354036331, Q2 : 0.0372829064727, Q3 : -0.136517673731, Q4 : 0.306309580803}
2019-04-14 03:50:46.71: SIM {TimeUS : 58334990, Roll : -1.13, Pitch : -16.29, Yaw : 36.82, Alt : 49.2799987793, Lat : 49.2836288, Lng : -123.1149592, Q1 : 0.939624667168, Q2 : 0.0354118086398, Q3 : -0.137531295419, Q4 : 0.311346501112}
2019-04-14 03:50:46.81: SIM {TimeUS : 58434950, Roll : -1.3, Pitch : -16.31, Yaw : 37.21, Alt : 49.2799987793, Lat : 49.2836315, Lng : -123.1149564, Q1 : 0.938599407673, Q2 : 0.0345967374742, Q3 : -0.138018295169, Q4 : 0.314301162958}
2019-04-14 03:50:46.91: SIM {TimeUS : 58534910, Roll : -1.28, Pitch : -16.32, Yaw : 37.32, Alt : 49.2799987793, Lat : 49.2836341, Lng : -123.1149535, Q1 : 0.938266277313, Q2 : 0.0349263958633, Q3 : -0.13808350265, Q4 : 0.315229386091}
2019-04-14 03:50:47.01: SIM {TimeUS : 58634870, Roll : -1.1, Pitch : -16.33, Yaw : 37.19, Alt : 49.2799987793, Lat : 49.2836369, Lng : -123.1149506, Q1 : 0.938549220562, Q2 : 0.0362853072584, Q3 : -0.137700811028, Q4 : 0.314399898052}
2019-04-14 03:50:47.11: SIM {TimeUS : 58734830, Roll : -0.82, Pitch : -16.34, Yaw : 36.88, Alt : 49.2799987793, Lat : 49.2836396, Lng : -123.1149476, Q1 : 0.939298093319, Q2 : 0.0381908454001, Q3 : -0.137139469385, Q4 : 0.312175273895}
2019-04-14 03:50:47.21: SIM {TimeUS : 58834790, Roll : -0.53, Pitch : -16.39, Yaw : 36.45, Alt : 49.2799987793, Lat : 49.2836424, Lng : -123.1149448, Q1 : 0.940306127071, Q2 : 0.0402327552438, Q3 : -0.136849313974, Q4 : 0.308995038271}
2019-04-14 03:50:47.31: SIM {TimeUS : 58934750, Roll : -0.24, Pitch : -16.46, Yaw : 35.97, Alt : 49.2799987793, Lat : 49.2836452, Lng : -123.1149418, Q1 : 0.941402733326, Q2 : 0.0422537326813, Q3 : -0.136847242713, Q4 : 0.305366039276}
2019-04-14 03:50:47.41: SIM {TimeUS : 59034710, Roll : 0.02, Pitch : -16.55, Yaw : 35.5, Alt : 49.2799987793, Lat : 49.2836481, Lng : -123.1149388, Q1 : 0.942449688911, Q2 : 0.0440835729241, Q3 : -0.137071967125, Q4 : 0.301755815744}
2019-04-14 03:50:47.51: SIM {TimeUS : 59134670, Roll : 0.23, Pitch : -16.63, Yaw : 35.08, Alt : 49.2799987793, Lat : 49.283651, Lng : -123.1149357, Q1 : 0.94336438179, Q2 : 0.0455484427512, Q3 : -0.137293204665, Q4 : 0.298562496901}
2019-04-14 03:50:47.61: SIM {TimeUS : 59234630, Roll : 0.39, Pitch : -16.69, Yaw : 34.76, Alt : 49.2799987793, Lat : 49.2836539, Lng : -123.1149327, Q1 : 0.944068729877, Q2 : 0.0466284304857, Q3 : -0.137506172061, Q4 : 0.296061009169}
2019-04-14 03:50:47.71: SIM {TimeUS : 59334590, Roll : 0.49, Pitch : -16.72, Yaw : 34.54, Alt : 49.2799987793, Lat : 49.2836567, Lng : -123.1149295, Q1 : 0.944538652897, Q2 : 0.0473058670759, Q3 : -0.13760958612, Q4 : 0.294401913881}
2019-04-14 03:50:47.81: SIM {TimeUS : 59435383, Roll : 0.53, Pitch : -16.75, Yaw : 34.44, Alt : 49.2900009155, Lat : 49.2836597, Lng : -123.1149263, Q1 : 0.944753170013, Q2 : 0.047536816448, Q3 : -0.137793943286, Q4 : 0.293589174747}
2019-04-14 03:50:47.91: SIM {TimeUS : 59535343, Roll : 0.51, Pitch : -16.76, Yaw : 34.44, Alt : 49.2900009155, Lat : 49.2836627, Lng : -123.1149232, Q1 : 0.944741606712, Q2 : 0.0474089160562, Q3 : -0.137969955802, Q4 : 0.293564170599}
2019-04-14 03:50:48.01: SIM {TimeUS : 59635303, Roll : 0.44, Pitch : -16.78, Yaw : 34.52, Alt : 49.2900009155, Lat : 49.2836657, Lng : -123.11492, Q1 : 0.944539487362, Q2 : 0.04696508497, Q3 : -0.138267993927, Q4 : 0.29414537549}
2019-04-14 03:50:48.11: SIM {TimeUS : 59735263, Roll : 0.33, Pitch : -16.8, Yaw : 34.66, Alt : 49.2900009155, Lat : 49.2836687, Lng : -123.1149167, Q1 : 0.944198191166, Q2 : 0.0463167205453, Q3 : -0.13864569366, Q4 : 0.295164316893}
2019-04-14 03:50:48.21: SIM {TimeUS : 59835223, Roll : 0.21, Pitch : -16.84, Yaw : 34.84, Alt : 49.2900009155, Lat : 49.2836717, Lng : -123.1149134, Q1 : 0.943763792515, Q2 : 0.0456058867276, Q3 : -0.139184802771, Q4 : 0.296407818794}
2019-04-14 03:50:48.31: SIM {TimeUS : 59935183, Roll : 0.09, Pitch : -16.88, Yaw : 35.01, Alt : 49.2900009155, Lat : 49.2836747, Lng : -123.1149101, Q1 : 0.943302512169, Q2 : 0.0449548736215, Q3 : -0.139784112573, Q4 : 0.297690868378}
2019-04-14 03:50:48.41: SIM {TimeUS : 60035143, Roll : -0.01, Pitch : -16.93, Yaw : 35.17, Alt : 49.2900009155, Lat : 49.2836778, Lng : -123.1149068, Q1 : 0.942868351936, Q2 : 0.0443640127778, Q3 : -0.140424862504, Q4 : 0.298851191998}
2019-04-14 03:50:48.51: SIM {TimeUS : 60135103, Roll : -0.12, Pitch : -16.97, Yaw : 35.3, Alt : 49.2900009155, Lat : 49.2836809, Lng : -123.1149035, Q1 : 0.942523956299, Q2 : 0.0437615327537, Q3 : -0.140997290611, Q4 : 0.299755483866}
2019-04-14 03:50:48.61: SIM {TimeUS : 60235063, Roll : -0.2, Pitch : -17.01, Yaw : 35.38, Alt : 49.2900009155, Lat : 49.2836839, Lng : -123.1149001, Q1 : 0.942288517952, Q2 : 0.0432960875332, Q3 : -0.141452416778, Q4 : 0.300348132849}
2019-04-14 03:50:48.71: SIM {TimeUS : 60335023, Roll : -0.25, Pitch : -17.04, Yaw : 35.42, Alt : 49.2900009155, Lat : 49.283687, Lng : -123.1148967, Q1 : 0.942166268826, Q2 : 0.0430092439055, Q3 : -0.141844168305, Q4 : 0.300588041544}
2019-04-14 03:50:48.81: SIM {TimeUS : 60434983, Roll : -0.24, Pitch : -17.07, Yaw : 35.42, Alt : 49.2900009155, Lat : 49.2836901, Lng : -123.1148933, Q1 : 0.942143678665, Q2 : 0.043112475425, Q3 : -0.142086952925, Q4 : 0.300529301167}
2019-04-14 03:50:48.91: SIM {TimeUS : 60534943, Roll : -0.19, Pitch : -17.1, Yaw : 35.37, Alt : 49.2999992371, Lat : 49.2836932, Lng : -123.1148899, Q1 : 0.942203164101, Q2 : 0.0435795672238, Q3 : -0.142214953899, Q4 : 0.300214916468}
2019-04-14 03:50:49.01: SIM {TimeUS : 60634903, Roll : -0.11, Pitch : -17.14, Yaw : 35.3, Alt : 49.2999992371, Lat : 49.2836965, Lng : -123.1148865, Q1 : 0.942320942879, Q2 : 0.0442272499204, Q3 : -0.142330050468, Q4 : 0.299695402384}
2019-04-14 03:50:49.11: SIM {TimeUS : 60734863, Roll : -0.03, Pitch : -17.18, Yaw : 35.21, Alt : 49.2999992371, Lat : 49.2836997, Lng : -123.1148831, Q1 : 0.942475318909, Q2 : 0.0449358411133, Q3 : -0.142463028431, Q4 : 0.29904076457}
2019-04-14 03:50:49.21: SIM {TimeUS : 60834823, Roll : 0.04, Pitch : -17.22, Yaw : 35.11, Alt : 49.2999992371, Lat : 49.2837028, Lng : -123.1148796, Q1 : 0.942652881145, Q2 : 0.0454987101257, Q3 : -0.142627492547, Q4 : 0.298316538334}
2019-04-14 03:50:49.31: SIM {TimeUS : 60934783, Roll : 0.08, Pitch : -17.24, Yaw : 35.02, Alt : 49.2999992371, Lat : 49.283706, Lng : -123.1148762, Q1 : 0.942849695683, Q2 : 0.0458081625402, Q3 : -0.142739951611, Q4 : 0.297592669725}
2019-04-14 03:50:49.41: SIM {TimeUS : 61034743, Roll : 0.1, Pitch : -17.25, Yaw : 34.93, Alt : 49.2999992371, Lat : 49.2837093, Lng : -123.1148727, Q1 : 0.943041980267, Q2 : 0.0459042042494, Q3 : -0.142822667956, Q4 : 0.296928197145}
2019-04-14 03:50:49.51: SIM {TimeUS : 61134703, Roll : 0.13, Pitch : -17.25, Yaw : 34.87, Alt : 49.2999992371, Lat : 49.2837125, Lng : -123.1148692, Q1 : 0.94319742918, Q2 : 0.0460745729506, Q3 : -0.142801746726, Q4 : 0.296417564154}
2019-04-14 03:50:49.61: SIM {TimeUS : 61234663, Roll : 0.16, Pitch : -17.26, Yaw : 34.82, Alt : 49.2999992371, Lat : 49.2837157, Lng : -123.1148657, Q1 : 0.943296074867, Q2 : 0.0462955124676, Q3 : -0.142828851938, Q4 : 0.29605615139}
2019-04-14 03:50:49.71: SIM {TimeUS : 61334623, Roll : 0.2, Pitch : -17.3, Yaw : 34.79, Alt : 49.2999992371, Lat : 49.283719, Lng : -123.1148622, Q1 : 0.943312883377, Q2 : 0.0466359704733, Q3 : -0.143032521009, Q4 : 0.295850664377}
2019-04-14 03:50:49.81: SIM {TimeUS : 61434583, Roll : 0.22, Pitch : -17.35, Yaw : 34.78, Alt : 49.3100013733, Lat : 49.2837223, Lng : -123.1148587, Q1 : 0.943262338638, Q2 : 0.0469801723957, Q3 : -0.143418207765, Q4 : 0.295770585537}
2019-04-14 03:50:49.91: SIM {TimeUS : 61535376, Roll : 0.22, Pitch : -17.38, Yaw : 34.78, Alt : 49.3100013733, Lat : 49.2837255, Lng : -123.1148551, Q1 : 0.94321668148, Q2 : 0.0470640845597, Q3 : -0.143651336432, Q4 : 0.295789837837}
2019-04-14 03:50:50.01: SIM {TimeUS : 61635336, Roll : 0.21, Pitch : -17.37, Yaw : 34.79, Alt : 49.3100013733, Lat : 49.2837289, Lng : -123.1148515, Q1 : 0.943203747272, Q2 : 0.0469143614173, Q3 : -0.143615216017, Q4 : 0.295872300863}
2019-04-14 03:50:50.11: SIM {TimeUS : 61735296, Roll : 0.17, Pitch : -17.37, Yaw : 34.81, Alt : 49.3100013733, Lat : 49.2837321, Lng : -123.1148479, Q1 : 0.943173527718, Q2 : 0.0466687232256, Q3 : -0.143649712205, Q4 : 0.295990675688}
2019-04-14 03:50:50.21: SIM {TimeUS : 61835256, Roll : 0.13, Pitch : -17.39, Yaw : 34.83, Alt : 49.3100013733, Lat : 49.2837355, Lng : -123.1148444, Q1 : 0.943111896515, Q2 : 0.0464086830616, Q3 : -0.143929421902, Q4 : 0.296092063189}
2019-04-14 03:50:50.31: SIM {TimeUS : 61935216, Roll : 0.11, Pitch : -17.42, Yaw : 34.85, Alt : 49.3100013733, Lat : 49.2837387, Lng : -123.1148408, Q1 : 0.943047046661, Q2 : 0.0463177077472, Q3 : -0.144219979644, Q4 : 0.296171575785}
2019-04-14 03:50:50.41: SIM {TimeUS : 62035176, Roll : 0.09, Pitch : -17.46, Yaw : 34.85, Alt : 49.3100013733, Lat : 49.2837421, Lng : -123.1148372, Q1 : 0.942984819412, Q2 : 0.0462960526347, Q3 : -0.144590005279, Q4 : 0.296192646027}
2019-04-14 03:50:50.51: SIM {TimeUS : 62135136, Roll : 0.09, Pitch : -17.49, Yaw : 34.85, Alt : 49.3100013733, Lat : 49.2837454, Lng : -123.1148336, Q1 : 0.942949831486, Q2 : 0.0463022515178, Q3 : -0.144884094596, Q4 : 0.296159267426}
2019-04-14 03:50:50.61: SIM {TimeUS : 62235096, Roll : 0.09, Pitch : -17.52, Yaw : 34.85, Alt : 49.3100013733, Lat : 49.2837488, Lng : -123.1148299, Q1 : 0.94293230772, Q2 : 0.0464061722159, Q3 : -0.145098686218, Q4 : 0.296093821526}
2019-04-14 03:50:50.71: SIM {TimeUS : 62335056, Roll : 0.11, Pitch : -17.53, Yaw : 34.83, Alt : 49.3100013733, Lat : 49.2837521, Lng : -123.1148263, Q1 : 0.942946732044, Q2 : 0.0465361177921, Q3 : -0.145150974393, Q4 : 0.296001762152}
2019-04-14 03:50:50.81: SIM {TimeUS : 62435016, Roll : 0.12, Pitch : -17.54, Yaw : 34.82, Alt : 49.3100013733, Lat : 49.2837555, Lng : -123.1148227, Q1 : 0.942969918251, Q2 : 0.0466933473945, Q3 : -0.145211517811, Q4 : 0.295873492956}
2019-04-14 03:50:50.91: SIM {TimeUS : 62534976, Roll : 0.15, Pitch : -17.57, Yaw : 34.79, Alt : 49.3199996948, Lat : 49.2837588, Lng : -123.114819, Q1 : 0.942987859249, Q2 : 0.046920992434, Q3 : -0.145356938243, Q4 : 0.29570877552}
2019-04-14 03:50:51.01: SIM {TimeUS : 62634936, Roll : 0.16, Pitch : -17.6, Yaw : 34.77, Alt : 49.3199996948, Lat : 49.2837622, Lng : -123.1148154, Q1 : 0.94300365448, Q2 : 0.04705921188, Q3 : -0.145661830902, Q4 : 0.295486360788}
2019-04-14 03:50:51.11: SIM {TimeUS : 62734896, Roll : 0.15, Pitch : -17.65, Yaw : 34.74, Alt : 49.3199996948, Lat : 49.2837655, Lng : -123.1148117, Q1 : 0.943024277687, Q2 : 0.0470870621502, Q3 : -0.146022424102, Q4 : 0.295238047838}
2019-04-14 03:50:51.21: SIM {TimeUS : 62834856, Roll : 0.14, Pitch : -17.68, Yaw : 34.71, Alt : 49.3199996948, Lat : 49.283769, Lng : -123.1148081, Q1 : 0.943048477173, Q2 : 0.0470722988248, Q3 : -0.146383881569, Q4 : 0.294984012842}
2019-04-14 03:50:51.31: SIM {TimeUS : 62934816, Roll : 0.15, Pitch : -17.71, Yaw : 34.69, Alt : 49.3199996948, Lat : 49.2837723, Lng : -123.1148044, Q1 : 0.943080723286, Q2 : 0.0471781380475, Q3 : -0.146569594741, Q4 : 0.294771760702}
2019-04-14 03:50:51.41: SIM {TimeUS : 63034776, Roll : 0.16, Pitch : -17.71, Yaw : 34.66, Alt : 49.3199996948, Lat : 49.2837758, Lng : -123.1148007, Q1 : 0.943133115768, Q2 : 0.047265522182, Q3 : -0.146554514766, Q4 : 0.294597476721}
2019-04-14 03:50:51.51: SIM {TimeUS : 63134736, Roll : 0.18, Pitch : -17.69, Yaw : 34.64, Alt : 49.3199996948, Lat : 49.2837792, Lng : -123.114797, Q1 : 0.943201422691, Q2 : 0.0473150536418, Q3 : -0.146385595202, Q4 : 0.294454783201}
2019-04-14 03:50:51.61: SIM {TimeUS : 63234696, Roll : 0.18, Pitch : -17.68, Yaw : 34.63, Alt : 49.3199996948, Lat : 49.2837826, Lng : -123.1147933, Q1 : 0.943259060383, Q2 : 0.0472622849047, Q3 : -0.146285519004, Q4 : 0.29432836175}
2019-04-14 03:50:51.71: SIM {TimeUS : 63334656, Roll : 0.18, Pitch : -17.67, Yaw : 34.61, Alt : 49.3199996948, Lat : 49.2837861, Lng : -123.1147896, Q1 : 0.943309009075, Q2 : 0.0472016967833, Q3 : -0.14620667696, Q4 : 0.294217199087}
2019-04-14 03:50:51.81: SIM {TimeUS : 63434616, Roll : 0.18, Pitch : -17.66, Yaw : 34.6, Alt : 49.3199996948, Lat : 49.2837895, Lng : -123.1147859, Q1 : 0.943349421024, Q2 : 0.0471552088857, Q3 : -0.146117448807, Q4 : 0.294139444828}
2019-04-14 03:50:51.91: SIM {TimeUS : 63534576, Roll : 0.17, Pitch : -17.67, Yaw : 34.59, Alt : 49.3199996948, Lat : 49.2837929, Lng : -123.1147822, Q1 : 0.943353235722, Q2 : 0.047133166343, Q3 : -0.146244898438, Q4 : 0.294067323208}
2019-04-14 03:50:52.01: SIM {TimeUS : 63635369, Roll : 0.16, Pitch : -17.7, Yaw : 34.59, Alt : 49.3199996948, Lat : 49.2837964, Lng : -123.1147784, Q1 : 0.943340063095, Q2 : 0.0471428856254, Q3 : -0.146467760205, Q4 : 0.293997079134}
2019-04-14 03:50:52.11: SIM {TimeUS : 63735329, Roll : 0.15, Pitch : -17.75, Yaw : 34.58, Alt : 49.3199996948, Lat : 49.2837999, Lng : -123.1147747, Q1 : 0.943297147751, Q2 : 0.047130972147, Q3 : -0.146922454238, Q4 : 0.293909668922}
2019-04-14 03:50:52.21: SIM {TimeUS : 63835289, Roll : 0.14, Pitch : -17.8, Yaw : 34.58, Alt : 49.3199996948, Lat : 49.2838032, Lng : -123.1147709, Q1 : 0.943244218826, Q2 : 0.0472146756947, Q3 : -0.147397652268, Q4 : 0.293828159571}
2019-04-14 03:50:52.31: SIM {TimeUS : 63935249, Roll : 0.15, Pitch : -17.84, Yaw : 34.57, Alt : 49.3300018311, Lat : 49.2838068, Lng : -123.1147672, Q1 : 0.943210840225, Q2 : 0.0473465695977, Q3 : -0.147700041533, Q4 : 0.293762385845}
2019-04-14 03:50:52.41: SIM {TimeUS : 64035209, Roll : 0.15, Pitch : -17.88, Yaw : 34.56, Alt : 49.3300018311, Lat : 49.2838103, Lng : -123.1147634, Q1 : 0.943186402321, Q2 : 0.0474082492292, Q3 : -0.147998094559, Q4 : 0.293680787086}
2019-04-14 03:50:52.51: SIM {TimeUS : 64135169, Roll : 0.14, Pitch : -17.89, Yaw : 34.55, Alt : 49.3300018311, Lat : 49.2838136, Lng : -123.1147597, Q1 : 0.943186402321, Q2 : 0.0474104434252, Q3 : -0.148169159889, Q4 : 0.29359421134}
2019-04-14 03:50:52.61: SIM {TimeUS : 64235129, Roll : 0.15, Pitch : -17.88, Yaw : 34.54, Alt : 49.3300018311, Lat : 49.2838171, Lng : -123.1147559, Q1 : 0.943221330643, Q2 : 0.0474809035659, Q3 : -0.148056074977, Q4 : 0.293527781963}
2019-04-14 03:50:52.71: SIM {TimeUS : 64335089, Roll : 0.18, Pitch : -17.89, Yaw : 34.53, Alt : 49.3300018311, Lat : 49.2838207, Lng : -123.1147522, Q1 : 0.943242192268, Q2 : 0.0476659573615, Q3 : -0.148027062416, Q4 : 0.293445408344}
2019-04-14 03:50:52.81: SIM {TimeUS : 64435049, Roll : 0.19, Pitch : -17.9, Yaw : 34.51, Alt : 49.3300018311, Lat : 49.2838242, Lng : -123.1147484, Q1 : 0.943254053593, Q2 : 0.0477857775986, Q3 : -0.148122414947, Q4 : 0.293339580297}
2019-04-14 03:50:52.91: SIM {TimeUS : 64535009, Roll : 0.2, Pitch : -17.91, Yaw : 34.5, Alt : 49.3300018311, Lat : 49.2838276, Lng : -123.1147446, Q1 : 0.94327712059, Q2 : 0.0478657633066, Q3 : -0.148159116507, Q4 : 0.293233662844}
2019-04-14 03:50:53.01: SIM {TimeUS : 64634969, Roll : 0.21, Pitch : -17.9, Yaw : 34.48, Alt : 49.3300018311, Lat : 49.2838311, Lng : -123.1147409, Q1 : 0.943324327469, Q2 : 0.0479037687182, Q3 : -0.148067727685, Q4 : 0.29312184453}
2019-04-14 03:50:53.11: SIM {TimeUS : 64734929, Roll : 0.21, Pitch : -17.9, Yaw : 34.47, Alt : 49.3300018311, Lat : 49.2838347, Lng : -123.1147371, Q1 : 0.943365752697, Q2 : 0.0478758886456, Q3 : -0.148070827127, Q4 : 0.292991518974}
2019-04-14 03:50:53.21: SIM {TimeUS : 64834889, Roll : 0.19, Pitch : -17.92, Yaw : 34.45, Alt : 49.3300018311, Lat : 49.2838382, Lng : -123.1147333, Q1 : 0.943387448788, Q2 : 0.0477323420346, Q3 : -0.148306488991, Q4 : 0.292825758457}
2019-04-14 03:50:53.31: SIM {TimeUS : 64934849, Roll : 0.16, Pitch : -17.96, Yaw : 34.44, Alt : 49.3300018311, Lat : 49.2838416, Lng : -123.1147295, Q1 : 0.943384945393, Q2 : 0.0475487224758, Q3 : -0.148734539747, Q4 : 0.292646467686}
2019-04-14 03:50:53.41: SIM {TimeUS : 65034809, Roll : 0.14, Pitch : -17.97, Yaw : 34.42, Alt : 49.3300018311, Lat : 49.2838451, Lng : -123.1147257, Q1 : 0.943414330482, Q2 : 0.0474339388311, Q3 : -0.14885045588, Q4 : 0.29251152277}
2019-04-14 03:50:53.51: SIM {TimeUS : 65134769, Roll : 0.15, Pitch : -17.96, Yaw : 34.41, Alt : 49.3300018311, Lat : 49.2838487, Lng : -123.1147219, Q1 : 0.943455278873, Q2 : 0.0474672056735, Q3 : -0.148753851652, Q4 : 0.292423188686}
2019-04-14 03:50:53.61: SIM {TimeUS : 65234729, Roll : 0.17, Pitch : -17.95, Yaw : 34.4, Alt : 49.3300018311, Lat : 49.2838523, Lng : -123.1147181, Q1 : 0.943489551544, Q2 : 0.0476028099656, Q3 : -0.14863191545, Q4 : 0.292352616787}
2019-04-14 03:50:53.71: SIM {TimeUS : 65334689, Roll : 0.19, Pitch : -17.96, Yaw : 34.39, Alt : 49.3300018311, Lat : 49.2838558, Lng : -123.1147143, Q1 : 0.943499982357, Q2 : 0.0477433241904, Q3 : -0.148680344224, Q4 : 0.292271226645}
2019-04-14 03:50:53.81: SIM {TimeUS : 65434649, Roll : 0.18, Pitch : -17.98, Yaw : 34.38, Alt : 49.3400001526, Lat : 49.2838592, Lng : -123.1147105, Q1 : 0.94350028038, Q2 : 0.0477311015129, Q3 : -0.148887112737, Q4 : 0.292167216539}
2019-04-14 03:50:53.91: SIM {TimeUS : 65534609, Roll : 0.15, Pitch : -18.01, Yaw : 34.37, Alt : 49.3400001526, Lat : 49.2838627, Lng : -123.1147067, Q1 : 0.943505704403, Q2 : 0.0475560426712, Q3 : -0.149141982198, Q4 : 0.292048186064}
2019-04-14 03:50:54.01: SIM {TimeUS : 65635402, Roll : 0.14, Pitch : -18.02, Yaw : 34.36, Alt : 49.3400001526, Lat : 49.2838664, Lng : -123.1147029, Q1 : 0.943519413471, Q2 : 0.0474515967071, Q3 : -0.149279981852, Q4 : 0.291950315237}
2019-04-14 03:50:54.11: SIM {TimeUS : 65735362, Roll : 0.14, Pitch : -18.03, Yaw : 34.35, Alt : 49.3400001526, Lat : 49.28387, Lng : -123.1146989, Q1 : 0.943529784679, Q2 : 0.0474662296474, Q3 : -0.149377197027, Q4 : 0.291864663363}
2019-04-14 03:50:54.21: SIM {TimeUS : 65835322, Roll : 0.15, Pitch : -18.04, Yaw : 34.34, Alt : 49.3400001526, Lat : 49.2838735, Lng : -123.1146952, Q1 : 0.943537354469, Q2 : 0.0475571230054, Q3 : -0.149438932538, Q4 : 0.291793704033}
2019-04-14 03:50:54.31: SIM {TimeUS : 65935282, Roll : 0.17, Pitch : -18.05, Yaw : 34.33, Alt : 49.3400001526, Lat : 49.2838771, Lng : -123.1146914, Q1 : 0.943531095982, Q2 : 0.0477982796729, Q3 : -0.149496048689, Q4 : 0.291745364666}
2019-04-14 03:50:54.41: SIM {TimeUS : 66035242, Roll : 0.19, Pitch : -18.07, Yaw : 34.32, Alt : 49.3400001526, Lat : 49.2838805, Lng : -123.1146876, Q1 : 0.943523526192, Q2 : 0.0479552708566, Q3 : -0.149612411857, Q4 : 0.291684478521}
2019-04-14 03:50:54.51: SIM {TimeUS : 66135202, Roll : 0.2, Pitch : -18.09, Yaw : 34.31, Alt : 49.3400001526, Lat : 49.2838841, Lng : -123.1146838, Q1 : 0.943513929844, Q2 : 0.0480998679996, Q3 : -0.149754449725, Q4 : 0.291618794203}
2019-04-14 03:50:54.61: SIM {TimeUS : 66235162, Roll : 0.22, Pitch : -18.11, Yaw : 34.3, Alt : 49.3400001526, Lat : 49.2838877, Lng : -123.1146799, Q1 : 0.943503141403, Q2 : 0.0482931062579, Q3 : -0.149857223034, Q4 : 0.29156884551}
2019-04-14 03:50:54.71: SIM {TimeUS : 66335122, Roll : 0.25, Pitch : -18.12, Yaw : 34.3, Alt : 49.3400001526, Lat : 49.2838913, Lng : -123.1146761, Q1 : 0.943493902683, Q2 : 0.0485811121762, Q3 : -0.149861320853, Q4 : 0.291548877954}
2019-04-14 03:50:54.81: SIM {TimeUS : 66435082, Roll : 0.28, Pitch : -18.13, Yaw : 34.29, Alt : 49.3400001526, Lat : 49.2838949, Lng : -123.1146723, Q1 : 0.94348013401, Q2 : 0.04885969311, Q3 : -0.149884298444, Q4 : 0.291535019875}
2019-04-14 03:50:54.91: SIM {TimeUS : 66535042, Roll : 0.28, Pitch : -18.13, Yaw : 34.29, Alt : 49.3400001526, Lat : 49.2838984, Lng : -123.1146685, Q1 : 0.943499028683, Q2 : 0.0487882569432, Q3 : -0.149880617857, Q4 : 0.291487723589}
