2019-04-14 05:16:44.80: SIM {TimeUS : 40616247, Roll : 0.0, Pitch : 0.0, Yaw : 0.0, Alt : 30.1000003815, Lat : 49.28357, Lng : -123.11502, Q1 : 1.0, Q2 : 0.0, Q3 : 0.0, Q4 : 0.0}
2019-04-14 05:16:44.91: SIM {TimeUS : 40735366, Roll : 0.0, Pitch : 0.0, Yaw : 0.0, Alt : 30.1000003815, Lat : 49.28357, Lng : -123.11502, Q1 : 1.0, Q2 : 0.0, Q3 : 0.0, Q4 : 0.0}
2019-04-14 05:16:45.01: SIM {TimeUS : 40835326, Roll : 0.0, Pitch : 0.0, Yaw : 0.0, Alt : 30.1000003815, Lat : 49.28357, Lng : -123.11502, Q1 : 1.0, Q2 : 0.0, Q3 : 0.0, Q4 : 0.0}
2019-04-14 05:16:45.11: SIM {TimeUS : 40935286, Roll : 0.0, Pitch : 0.0, Yaw : 0.0, Alt : 30.1000003815, Lat : 49.28357, Lng : -123.11502, Q1 : 1.0, Q2 : 0.0, Q3 : 0.0, Q4 : 0.0}
2019-04-14 05:16:45.21: SIM {TimeUS : 41035246, Roll : 0.0, Pitch : 0.0, Yaw : 0.0, Alt : 30.1000003815, Lat : 49.28357, Lng : -123.11502, Q1 : 1.0, Q2 : 0.0, Q3 : 0.0, Q4 : 0.0}
2019-04-14 05:16:45.31: SIM {TimeUS : 41135206, Roll : 0.0, Pitch : 0.0, Yaw : 0.0, Alt : 30.1000003815, Lat : 49.28357, Lng : -123.11502, Q1 : 1.0, Q2 : 0.0, Q3 : 0.0, Q4 : 0.0}
2019-04-14 05:16:45.41: SIM {TimeUS : 41235166, Roll : 0.0, Pitch : 0.0, Yaw : 0.0, Alt : 30.1000003815, Lat : 49.28357, Lng : -123.11502, Q1 : 1.0, Q2 : 0.0, Q3 : 0.0, Q4 : 0.0}
2019-04-14 05:16:45.51: SIM {TimeUS : 41335126, Roll : 0.0, Pitch : 0.0, Yaw : 0.0, Alt : 30.1000003815, Lat : 49.28357, Lng : -123.11502, Q1 : 1.0, Q2 : 0.0, Q3 : 0.0, Q4 : 0.0}
2019-04-14 05:16:45.61: SIM {TimeUS : 41435086, Roll : 0.0, Pitch : 0.0, Yaw : 0.0, Alt : 30.1000003815, Lat : 49.28357, Lng : -123.11502, Q1 : 1.0, Q2 : 0.0, Q3 : 0.0, Q4 : 0.0}
2019-04-14 05:16:45.71: SIM {TimeUS : 41535046, Roll : 0.0, Pitch : 0.0, Yaw : 0.0, Alt : 30.1000003815, Lat : 49.28357, Lng : -123.11502, Q1 : 1.0, Q2 : 0.0, Q3 : 0.0, Q4 : 0.0}
2019-04-14 05:16:45.81: SIM {TimeUS : 41635006, Roll : 0.0, Pitch : 0.0, Yaw : 0.0, Alt : 30.1000003815, Lat : 49.28357, Lng : -123.11502, Q1 : 1.0, Q2 : 0.0, Q3 : 0.0, Q4 : 0.0}
2019-04-14 05:16:45.91: SIM {TimeUS : 41734966, Roll : 0.0, Pitch : 0.0, Yaw : 0.0, Alt : 30.1000003815, Lat : 49.28357, Lng : -123.11502, Q1 : 1.0, Q2 : 0.0, Q3 : 0.0, Q4 : 0.0}
2019-04-14 05:16:46.01: SIM {TimeUS : 41834926, Roll : 0.0, Pitch : 0.0, Yaw : 0.0, Alt : 30.1000003815, Lat : 49.28357, Lng : -123.11502, Q1 : 1.0, Q2 : 0.0, Q3 : 0.0, Q4 : 0.0}
2019-04-14 05:16:46.11: SIM {TimeUS : 41934886, Roll : 0.0, Pitch : 0.0, Yaw : 0.0, Alt : 30.1000003815, Lat : 49.28357, Lng : -123.11502, Q1 : 1.0, Q2 : 0.0, Q3 : 0.0, Q4 : 0.0}
2019-04-14 05:16:46.21: SIM {TimeUS : 42034846, Roll : 0.0, Pitch : 0.0, Yaw : 0.0, Alt : 30.1000003815, Lat : 49.28357, Lng : -123.11502, Q1 : 1.0, Q2 : 0.0, Q3 : 0.0, Q4 : 0.0}
2019-04-14 05:16:46.31: SIM {TimeUS : 42134806, Roll : 0.0, Pitch : 0.0, Yaw : 0.0, Alt : 30.1000003815, Lat : 49.28357, Lng : -123.11502, Q1 : 1.0, Q2 : 0.0, Q3 : 0.0, Q4 : 0.0}
2019-04-14 05:16:46.41: SIM {TimeUS : 42234766, Roll : 0.0, Pitch : 0.0, Yaw : 0.0, Alt : 30.1000003815, Lat : 49.28357, Lng : -123.11502, Q1 : 1.0, Q2 : 0.0, Q3 : 0.0, Q4 : 0.0}
2019-04-14 05:16:46.51: SIM {TimeUS : 42334726, Roll : 0.0, Pitch : 0.0, Yaw : 0.0, Alt : 30.1000003815, Lat : 49.28357, Lng : -123.11502, Q1 : 1.0, Q2 : 0.0, Q3 : 0.0, Q4 : 0.0}
2019-04-14 05:16:46.61: SIM {TimeUS : 42434686, Roll : 0.0, Pitch : 0.0, Yaw : 0.0, Alt : 30.1000003815, Lat : 49.28357, Lng : -123.11502, Q1 : 1.0, Q2 : 0.0, Q3 : 0.0, Q4 : 0.0}
2019-04-14 05:16:46.71: SIM {TimeUS : 42534646, Roll : 0.0, Pitch : 0.0, Yaw : 0.0, Alt : 30.1000003815, Lat : 49.28357, Lng : -123.11502, Q1 : 1.0, Q2 : 0.0, Q3 : 0.0, Q4 : 0.0}
2019-04-14 05:16:46.81: SIM {TimeUS : 42634606, Roll : 0.0, Pitch : 0.0, Yaw : 0.0, Alt : 30.1000003815, Lat : 49.28357, Lng : -123.11502, Q1 : 1.0, Q2 : 0.0, Q3 : 0.0, Q4 : 0.0}
2019-04-14 05:16:46.91: SIM {TimeUS : 42735399, Roll : 0.0, Pitch : 0.0, Yaw : 0.0, Alt : 30.1000003815, Lat : 49.28357, Lng : -123.11502, Q1 : 1.0, Q2 : 0.0, Q3 : 0.0, Q4 : 0.0}
2019-04-14 05:16:47.01: SIM {TimeUS : 42835359, Roll : 0.0, Pitch : 0.0, Yaw : 0.0, Alt : 30.1000003815, Lat : 49.28357, Lng : -123.11502, Q1 : 1.0, Q2 : 0.0, Q3 : 0.0, Q4 : 0.0}
2019-04-14 05:16:47.11: SIM {TimeUS : 42935319, Roll : 0.0, Pitch : 0.0, Yaw : 360.0, Alt : 30.1000003815, Lat : 49.28357, Lng : -123.11502, Q1 : 1.0, Q2 : 0.0, Q3 : 0.0, Q4 : -2.34232576911e-12}
2019-04-14 05:16:47.21: SIM {TimeUS : 43035279, Roll : 0.0, Pitch : 0.0, Yaw : 360.0, Alt : 30.1000003815, Lat : 49.28357, Lng : -123.11502, Q1 : 1.0, Q2 : 0.0, Q3 : 0.0, Q4 : -1.59578156245e-10}
2019-04-14 05:16:47.31: SIM {TimeUS : 43135239, Roll : 0.0, Pitch : 0.0, Yaw : 360.0, Alt : 30.1000003815, Lat : 49.28357, Lng : -123.11502, Q1 : 1.0, Q2 : 0.0, Q3 : 0.0, Q4 : -8.89988100994e-08}
2019-04-14 05:16:47.41: SIM {TimeUS : 43235199, Roll : 0.0, Pitch : 0.0, Yaw : 359.99, Alt : 30.1000003815, Lat : 49.28357, Lng : -123.11502, Q1 : 1.0, Q2 : 0.0, Q3 : 0.0, Q4 : -2.17793257207e-07}
2019-04-14 05:16:47.51: SIM {TimeUS : 43335159, Roll : 0.0, Pitch : 0.0, Yaw : 359.99, Alt : 30.1000003815, Lat : 49.28357, Lng : -123.11502, Q1 : 1.0, Q2 : 0.0, Q3 : 0.0, Q4 : -3.78347380092e-07}
2019-04-14 05:16:47.61: SIM {TimeUS : 43435119, Roll : 0.0, Pitch : 0.0, Yaw : 359.99, Alt : 30.1000003815, Lat : 49.28357, Lng : -123.11502, Q1 : 1.0, Q2 : 0.0, Q3 : 0.0, Q4 : -5.84485917443e-07}
2019-04-14 05:16:47.71: SIM {TimeUS : 43535079, Roll : 0.0, Pitch : 0.0, Yaw : 359.99, Alt : 30.1000003815, Lat : 49.28357, Lng : -123.11502, Q1 : 1.0, Q2 : 0.0, Q3 : 0.0, Q4 : -7.81492929036e-07}
2019-04-14 05:16:47.81: SIM {TimeUS : 43635039, Roll : 0.0, Pitch : 0.0, Yaw : 359.99, Alt : 30.1000003815, Lat : 49.28357, Lng : -123.11502, Q1 : 1.0, Q2 : 0.0, Q3 : 0.0, Q4 : -9.99767166832e-07}
2019-04-14 05:16:47.91: SIM {TimeUS : 43734999, Roll : 0.0, Pitch : 0.0, Yaw : 359.99, Alt : 30.1000003815, Lat : 49.28357, Lng : -123.11502, Q1 : 1.0, Q2 : 0.0, Q3 : 0.0, Q4 : -1.16363378311e-06}
2019-04-14 05:16:48.01: SIM {TimeUS : 43834959, Roll : 0.0, Pitch : 0.0, Yaw : 359.99, Alt : 30.1100006104, Lat : 49.28357, Lng : -123.11502, Q1 : 1.0, Q2 : 0.0, Q3 : 0.0, Q4 : -1.36390451644e-06}
2019-04-14 05:16:48.11: SIM {TimeUS : 43934919, Roll : 0.0, Pitch : 0.0, Yaw : 359.99, Alt : 30.1299991608, Lat : 49.28357, Lng : -123.11502, Q1 : 1.0, Q2 : 0.0, Q3 : 0.0, Q4 : -1.51547089899e-06}
2019-04-14 05:16:48.21: SIM {TimeUS : 44034879, Roll : 0.0, Pitch : 0.0, Yaw : 359.99, Alt : 30.1599998474, Lat : 49.28357, Lng : -123.11502, Q1 : 1.0, Q2 : 0.0, Q3 : 0.0, Q4 : -1.73999615072e-06}
2019-04-14 05:16:48.31: SIM {TimeUS : 44134839, Roll : 0.0, Pitch : 0.0, Yaw : 359.99, Alt : 30.1900005341, Lat : 49.28357, Lng : -123.11502, Q1 : 1.0, Q2 : 0.0, Q3 : 0.0, Q4 : -1.97008557734e-06}
2019-04-14 05:16:48.41: SIM {TimeUS : 44234799, Roll : -0.03, Pitch : -0.03, Yaw : 359.99, Alt : 30.2299995422, Lat : 49.28357, Lng : -123.11502, Q1 : 0.999999880791, Q2 : -0.000323128915625, Q3 : -0.000276752427453, Q4 : -4.17231467509e-06}
2019-04-14 05:16:48.51: SIM {TimeUS : 44334759, Roll : -0.29, Pitch : -0.25, Yaw : 359.99, Alt : 30.3099994659, Lat : 49.28357, Lng : -123.11502, Q1 : 0.999994277954, Q2 : -0.00256634945981, Q3 : -0.00220763753168, Q4 : -2.96773414448e-05}
2019-04-14 05:16:48.61: SIM {TimeUS : 44434719, Roll : -0.58, Pitch : -0.53, Yaw : 359.99, Alt : 30.4400005341, Lat : 49.28357, Lng : -123.11502, Q1 : 0.999976217747, Q2 : -0.00506754918024, Q3 : -0.00468155555427, Q4 : -8.27525072964e-05}
2019-04-14 05:16:48.71: SIM {TimeUS : 44534679, Roll : -0.76, Pitch : -0.72, Yaw : 359.98, Alt : 30.5900001526, Lat : 49.28357, Lng : -123.11502, Q1 : 0.999957501888, Q2 : -0.00668659992516, Q3 : -0.00634533120319, Q4 : -0.000155378671479}
2019-04-14 05:16:48.81: SIM {TimeUS : 44634639, Roll : -0.81, Pitch : -0.76, Yaw : 359.97, Alt : 30.75, Lat : 49.28357, Lng : -123.11502, Q1 : 0.999951958656, Q2 : -0.00714077660814, Q3 : -0.00670685153455, Q4 : -0.000238430817262}
2019-04-14 05:16:48.91: SIM {TimeUS : 44734599, Roll : -0.73, Pitch : -0.68, Yaw : 359.96, Alt : 30.9099998474, Lat : 49.28357, Lng : -123.1150201, Q1 : 0.999961733818, Q2 : -0.00639214040712, Q3 : -0.00596187915653, Q4 : -0.0003183959343}
2019-04-14 05:16:49.01: SIM {TimeUS : 44835392, Roll : -0.54, Pitch : -0.51, Yaw : 359.95, Alt : 31.0599994659, Lat : 49.2835701, Lng : -123.1150202, Q1 : 0.999978661537, Q2 : -0.00476403580979, Q3 : -0.00444938195869, Q4 : -0.000388701155316}
2019-04-14 05:16:49.11: SIM {TimeUS : 44935352, Roll : -0.32, Pitch : -0.3, Yaw : 359.94, Alt : 31.2199993134, Lat : 49.2835701, Lng : -123.1150202, Q1 : 0.99999243021, Q2 : -0.00281470455229, Q3 : -0.00264056585729, Q4 : -0.000446885998826}
2019-04-14 05:16:49.21: SIM {TimeUS : 45035312, Roll : -0.11, Pitch : -0.12, Yaw : 359.94, Alt : 31.3799991608, Lat : 49.2835702, Lng : -123.1150203, Q1 : 0.999998807907, Q2 : -0.00100874400232, Q3 : -0.00107633229345, Q4 : -0.000489720201585}
2019-04-14 05:16:49.31: SIM {TimeUS : 45135272, Roll : 0.03, Pitch : 0.0, Yaw : 359.94, Alt : 31.5599994659, Lat : 49.2835702, Lng : -123.1150204, Q1 : 0.999999821186, Q2 : 0.000295007193927, Q3 : -2.67746563622e-05, Q4 : -0.000519390450791}
2019-04-14 05:16:49.41: SIM {TimeUS : 45235232, Roll : 0.1, Pitch : 0.06, Yaw : 359.93, Alt : 31.7299995422, Lat : 49.2835702, Lng : -123.1150205, Q1 : 0.999999344349, Q2 : 0.000880937674083, Q3 : 0.000526238582097, Q4 : -0.000531679950655}
2019-04-14 05:16:49.51: SIM {TimeUS : 45335192, Roll : 0.1, Pitch : 0.08, Yaw : 359.93, Alt : 31.9099998474, Lat : 49.2835703, Lng : -123.1150205, Q1 : 0.99999922514, Q2 : 0.000894328870345, Q3 : 0.000714861205779, Q4 : -0.000541434448678}
2019-04-14 05:16:49.61: SIM {TimeUS : 45435152, Roll : 0.07, Pitch : 0.08, Yaw : 359.93, Alt : 32.0999984741, Lat : 49.2835703, Lng : -123.1150206, Q1 : 0.999999344349, Q2 : 0.000668321445119, Q3 : 0.000779789232183, Q4 : -0.000540732697118}
2019-04-14 05:16:49.71: SIM {TimeUS : 45535112, Roll : 0.06, Pitch : 0.1, Yaw : 359.94, Alt : 32.2900009155, Lat : 49.2835703, Lng : -123.1150206, Q1 : 0.999999284744, Q2 : 0.000586402718909, Q3 : 0.000890269468073, Q4 : -0.000517627457157}
2019-04-14 05:16:49.81: SIM {TimeUS : 45635072, Roll : 0.07, Pitch : 0.11, Yaw : 359.94, Alt : 32.4799995422, Lat : 49.2835703, Lng : -123.1150207, Q1 : 0.99999922514, Q2 : 0.00064780266257, Q3 : 0.000963402446359, Q4 : -0.00049070030218}
2019-04-14 05:16:49.91: SIM {TimeUS : 45735032, Roll : 0.08, Pitch : 0.12, Yaw : 359.94, Alt : 32.6699981689, Lat : 49.2835703, Lng : -123.1150207, Q1 : 0.999999046326, Q2 : 0.000766024400946, Q3 : 0.00107360782567, Q4 : -0.000460309704067}
2019-04-14 05:16:50.01: SIM {TimeUS : 45834992, Roll : 0.1, Pitch : 0.15, Yaw : 359.95, Alt : 32.8699989319, Lat : 49.2835704, Lng : -123.1150208, Q1 : 0.999998629093, Q2 : 0.000898357888218, Q3 : 0.00131867243908, Q4 : -0.000429016305134}
2019-04-14 05:16:50.11: SIM {TimeUS : 45934952, Roll : 0.12, Pitch : 0.14, Yaw : 359.95, Alt : 33.0699996948, Lat : 49.2835704, Lng : -123.1150208, Q1 : 0.999998509884, Q2 : 0.00107792695053, Q3 : 0.00129644514527, Q4 : -0.000410773791373}
2019-04-14 05:16:50.21: SIM {TimeUS : 46034912, Roll : 0.14, Pitch : 0.13, Yaw : 359.95, Alt : 33.2700004578, Lat : 49.2835704, Lng : -123.1150208, Q1 : 0.999998450279, Q2 : 0.00125401024707, Q3 : 0.0011870674789, Q4 : -0.000388566841139}
2019-04-14 05:16:50.31: SIM {TimeUS : 46134872, Roll : 0.15, Pitch : 0.12, Yaw : 359.95, Alt : 33.4799995422, Lat : 49.2835704, Lng : -123.1150208, Q1 : 0.999998390675, Q2 : 0.00139044469688, Q3 : 0.00109492917545, Q4 : -0.00037357583642}
2019-04-14 05:16:50.41: SIM {TimeUS : 46234832, Roll : 0.16, Pitch : 0.13, Yaw : 359.95, Alt : 33.6899986267, Lat : 49.2835704, Lng : -123.1150208, Q1 : 0.999998211861, Q2 : 0.0014544975711, Q3 : 0.00116042327136, Q4 : -0.000383061385946}
2019-04-14 05:16:50.51: SIM {TimeUS : 46334792, Roll : 0.17, Pitch : 0.14, Yaw : 359.95, Alt : 33.8899993896, Lat : 49.2835704, Lng : -123.1150208, Q1 : 0.999997913837, Q2 : 0.00154584879056, Q3 : 0.00127800472546, Q4 : -0.000411490938859}
2019-04-14 05:16:50.61: SIM {TimeUS : 46434752, Roll : 0.17, Pitch : 0.14, Yaw : 359.94, Alt : 34.0999984741, Lat : 49.2835704, Lng : -123.1150208, Q1 : 0.999998033047, Q2 : 0.00150068860967, Q3 : 0.00122560316231, Q4 : -0.000440817035269}
2019-04-14 05:16:50.71: SIM {TimeUS : 46534712, Roll : 0.14, Pitch : 0.12, Yaw : 359.94, Alt : 34.3100013733, Lat : 49.2835704, Lng : -123.1150208, Q1 : 0.999998390675, Q2 : 0.00130844628438, Q3 : 0.00110800832044, Q4 : -0.000468437850941}
2019-04-14 05:16:50.81: SIM {TimeUS : 46634672, Roll : 0.11, Pitch : 0.11, Yaw : 359.94, Alt : 34.5299987793, Lat : 49.2835704, Lng : -123.1150208, Q1 : 0.999998807907, Q2 : 0.00103926484007, Q3 : 0.00100147817284, Q4 : -0.000502251437865}
2019-04-14 05:16:50.91: SIM {TimeUS : 46734632, Roll : 0.08, Pitch : 0.1, Yaw : 359.93, Alt : 34.7400016785, Lat : 49.2835704, Lng : -123.1150208, Q1 : 0.999999165535, Q2 : 0.000783898693044, Q3 : 0.000894163327757, Q4 : -0.000540216336958}
2019-04-14 05:16:51.01: SIM {TimeUS : 46834592, Roll : 0.07, Pitch : 0.06, Yaw : 359.93, Alt : 34.9599990845, Lat : 49.2835704, Lng : -123.1150208, Q1 : 0.999999523163, Q2 : 0.000634828582406, Q3 : 0.000539528904483, Q4 : -0.000578838400543}
2019-04-14 05:16:51.11: SIM {TimeUS : 46935385, Roll : 0.05, Pitch : 0.02, Yaw : 359.92, Alt : 35.1699981689, Lat : 49.2835704, Lng : -123.1150208, Q1 : 0.999999642372, Q2 : 0.000512745056767, Q3 : 0.000204433687031, Q4 : -0.000618383986875}
2019-04-14 05:16:51.21: SIM {TimeUS : 47035345, Roll : 0.03, Pitch : 0.0, Yaw : 359.92, Alt : 35.3899993896, Lat : 49.2835704, Lng : -123.1150208, Q1 : 0.999999701977, Q2 : 0.000329967937432, Q3 : 1.86506385944e-05, Q4 : -0.000657627824694}
2019-04-14 05:16:51.31: SIM {TimeUS : 47135305, Roll : 0.02, Pitch : 0.0, Yaw : 359.92, Alt : 35.6100006104, Lat : 49.2835704, Lng : -123.1150208, Q1 : 0.999999701977, Q2 : 0.000234711813391, Q3 : 1.19979134183e-07, Q4 : -0.000691451248713}
2019-04-14 05:16:51.41: SIM {TimeUS : 47235265, Roll : 0.02, Pitch : 0.0, Yaw : 359.91, Alt : 35.8300018311, Lat : 49.2835704, Lng : -123.1150207, Q1 : 0.999999701977, Q2 : 0.000241482150159, Q3 : 5.09610108566e-05, Q4 : -0.000726412516087}
2019-04-14 05:16:51.51: SIM {TimeUS : 47335225, Roll : 0.0, Pitch : -0.01, Yaw : 359.91, Alt : 36.0499992371, Lat : 49.2835704, Lng : -123.1150207, Q1 : 0.999999701977, Q2 : 5.80479536438e-05, Q3 : -9.72579437075e-05, Q4 : -0.000759221147746}
2019-04-14 05:16:51.61: SIM {TimeUS : 47435185, Roll : -0.03, Pitch : -0.04, Yaw : 359.91, Alt : 36.2700004578, Lat : 49.2835704, Lng : -123.1150207, Q1 : 0.999999582767, Q2 : -0.000264600559603, Q3 : -0.000382957485272, Q4 : -0.000784641888458}
2019-04-14 05:16:51.71: SIM {TimeUS : 47535145, Roll : -0.06, Pitch : -0.06, Yaw : 359.9, Alt : 36.4900016785, Lat : 49.2835704, Lng : -123.1150207, Q1 : 0.999999344349, Q2 : -0.000588498020079, Q3 : -0.000562462490052, Q4 : -0.00080578023335}
2019-04-14 05:16:51.81: SIM {TimeUS : 47635105, Roll : -0.1, Pitch : -0.07, Yaw : 359.9, Alt : 36.7099990845, Lat : 49.2835704, Lng : -123.1150207, Q1 : 0.999999046326, Q2 : -0.000879040686414, Q3 : -0.00068308430491, Q4 : -0.000826237199362}
2019-04-14 05:16:51.91: SIM {TimeUS : 47735065, Roll : -0.1, Pitch : -0.08, Yaw : 359.9, Alt : 36.9399986267, Lat : 49.2835704, Lng : -123.1150207, Q1 : 0.999998986721, Q2 : -0.000896279350854, Q3 : -0.000714445952326, Q4 : -0.000847706047352}
2019-04-14 05:16:52.01: SIM {TimeUS : 47835025, Roll : -0.09, Pitch : -0.07, Yaw : 359.9, Alt : 37.1599998474, Lat : 49.2835704, Lng : -123.1150207, Q1 : 0.999999046326, Q2 : -0.000796093547251, Q3 : -0.000682518410031, Q4 : -0.000870488584042}
2019-04-14 05:16:52.11: SIM {TimeUS : 47934985, Roll : -0.07, Pitch : -0.05, Yaw : 359.89, Alt : 37.3899993896, Lat : 49.2835704, Lng : -123.1150206, Q1 : 0.999999284744, Q2 : -0.000641165126581, Q3 : -0.000492908409797, Q4 : -0.000892830372322}
2019-04-14 05:16:52.21: SIM {TimeUS : 48034945, Roll : -0.05, Pitch : -0.03, Yaw : 359.89, Alt : 37.6100006104, Lat : 49.2835704, Lng : -123.1150206, Q1 : 0.999999403954, Q2 : -0.000484304444399, Q3 : -0.000330894428771, Q4 : -0.000909111869987}
2019-04-14 05:16:52.31: SIM {TimeUS : 48134905, Roll : -0.06, Pitch : -0.03, Yaw : 359.89, Alt : 37.8400001526, Lat : 49.2835704, Lng : -123.1150206, Q1 : 0.999999403954, Q2 : -0.000529489654582, Q3 : -0.000306510715745, Q4 : -0.000912946939934}
2019-04-14 05:16:52.41: SIM {TimeUS : 48234865, Roll : -0.07, Pitch : -0.02, Yaw : 359.89, Alt : 38.0699996948, Lat : 49.2835704, Lng : -123.1150206, Q1 : 0.999999344349, Q2 : -0.000653118418995, Q3 : -0.000178231450263, Q4 : -0.000914679490961}
2019-04-14 05:16:52.51: SIM {TimeUS : 48334825, Roll : -0.09, Pitch : 0.0, Yaw : 359.89, Alt : 38.2900009155, Lat : 49.2835704, Lng : -123.1150206, Q1 : 0.99999922514, Q2 : -0.000848218682222, Q3 : -3.0362227335e-05, Q4 : -0.000918702804483}
2019-04-14 05:16:52.61: SIM {TimeUS : 48434785, Roll : -0.09, Pitch : 0.01, Yaw : 359.89, Alt : 38.5200004578, Lat : 49.2835704, Lng : -123.1150206, Q1 : 0.99999922514, Q2 : -0.000854858080857, Q3 : 9.08446672838e-05, Q4 : -0.000916949473321}
2019-04-14 05:16:52.71: SIM {TimeUS : 48534745, Roll : -0.07, Pitch : 0.03, Yaw : 359.89, Alt : 38.75, Lat : 49.2835706, Lng : -123.1150206, Q1 : 0.999999284744, Q2 : -0.000658958975691, Q3 : 0.000311983283609, Q4 : -0.000919013749808}
2019-04-14 05:16:52.81: SIM {TimeUS : 48634705, Roll : -0.05, Pitch : 0.03, Yaw : 359.89, Alt : 38.9799995422, Lat : 49.2835706, Lng : -123.1150206, Q1 : 0.999999463558, Q2 : -0.000438574585132, Q3 : 0.000284483074211, Q4 : -0.000925037718844}
2019-04-14 05:16:52.91: SIM {TimeUS : 48734665, Roll : -0.02, Pitch : 0.02, Yaw : 359.89, Alt : 39.2099990845, Lat : 49.2835706, Lng : -123.1150206, Q1 : 0.999999523163, Q2 : -0.000198563619051, Q3 : 0.000219163295696, Q4 : -0.000929682166316}
2019-04-14 05:16:53.01: SIM {TimeUS : 48834625, Roll : 0.0, Pitch : 0.03, Yaw : 359.89, Alt : 39.4399986267, Lat : 49.2835706, Lng : -123.1150207, Q1 : 0.999999463558, Q2 : 8.63528985064e-05, Q3 : 0.000347769790096, Q4 : -0.000936739786994}
2019-04-14 05:16:53.11: SIM {TimeUS : 48934585, Roll : 0.04, Pitch : 0.07, Yaw : 359.89, Alt : 39.6699981689, Lat : 49.2835706, Lng : -123.1150207, Q1 : 0.999999284744, Q2 : 0.000399753247621, Q3 : 0.000615052878857, Q4 : -0.000954596791416}
2019-04-14 05:16:53.21: SIM {TimeUS : 49035378, Roll : 0.07, Pitch : 0.1, Yaw : 359.88, Alt : 39.9000015259, Lat : 49.2835706, Lng : -123.1150207, Q1 : 0.999998867512, Q2 : 0.000688394589815, Q3 : 0.000877202081028, Q4 : -0.000981083372608}
2019-04-14 05:16:53.31: SIM {TimeUS : 49135338, Roll : 0.07, Pitch : 0.12, Yaw : 359.88, Alt : 40.1300010681, Lat : 49.2835706, Lng : -123.1150207, Q1 : 0.999998629093, Q2 : 0.000635634351056, Q3 : 0.00111249496695, Q4 : -0.00101561518386}
2019-04-14 05:16:53.41: SIM {TimeUS : 49235298, Roll : 0.02, Pitch : 0.15, Yaw : 359.87, Alt : 40.3600006104, Lat : 49.2835706, Lng : -123.1150207, Q1 : 0.999998509884, Q2 : 0.000219657435082, Q3 : 0.00132880685851, Q4 : -0.00106730614789}
2019-04-14 05:16:53.51: SIM {TimeUS : 49335258, Roll : -0.01, Pitch : 0.16, Yaw : 359.87, Alt : 40.5999984741, Lat : 49.2835706, Lng : -123.1150207, Q1 : 0.99999833107, Q2 : -0.000147723781993, Q3 : 0.00144321855623, Q4 : -0.00111408962402}
2019-04-14 05:16:53.61: SIM {TimeUS : 49435218, Roll : -0.04, Pitch : 0.15, Yaw : 359.86, Alt : 40.8300018311, Lat : 49.2835706, Lng : -123.1150207, Q1 : 0.999998390675, Q2 : -0.000349094130797, Q3 : 0.00132471171673, Q4 : -0.00114772072993}
2019-04-14 05:16:53.71: SIM {TimeUS : 49535178, Roll : -0.04, Pitch : 0.13, Yaw : 359.86, Alt : 41.0600013733, Lat : 49.2835706, Lng : -123.1150207, Q1 : 0.999998509884, Q2 : -0.000398752803449, Q3 : 0.00119550828822, Q4 : -0.00117950991262}
2019-04-14 05:16:53.81: SIM {TimeUS : 49635138, Roll : -0.03, Pitch : 0.14, Yaw : 359.86, Alt : 41.2900009155, Lat : 49.2835706, Lng : -123.1150207, Q1 : 0.999998450279, Q2 : -0.000288305716822, Q3 : 0.00122658023611, Q4 : -0.0012135655852}
2019-04-14 05:16:53.91: SIM {TimeUS : 49735098, Roll : 0.0, Pitch : 0.15, Yaw : 359.85, Alt : 41.5299987793, Lat : 49.2835706, Lng : -123.1150207, Q1 : 0.999998211861, Q2 : 4.30557265645e-05, Q3 : 0.00139531644527, Q4 : -0.00125362840481}
2019-04-14 05:16:54.01: SIM {TimeUS : 49835058, Roll : 0.05, Pitch : 0.16, Yaw : 359.85, Alt : 41.7599983215, Lat : 49.2835706, Lng : -123.1150207, Q1 : 0.999997973442, Q2 : 0.000489271013066, Q3 : 0.00147869775537, Q4 : -0.00129074451979}
2019-04-14 05:16:54.11: SIM {TimeUS : 49935018, Roll : 0.09, Pitch : 0.13, Yaw : 359.84, Alt : 41.9900016785, Lat : 49.2835706, Lng : -123.1150207, Q1 : 0.999998033047, Q2 : 0.000838435487822, Q3 : 0.00119973672554, Q4 : -0.00132264802232}
2019-04-14 05:16:54.21: SIM {TimeUS : 50034978, Roll : 0.1, Pitch : 0.09, Yaw : 359.84, Alt : 42.2299995422, Lat : 49.2835706, Lng : -123.1150207, Q1 : 0.999998390675, Q2 : 0.000901923689526, Q3 : 0.000813382677734, Q4 : -0.00135071540717}
2019-04-14 05:16:54.31: SIM {TimeUS : 50134938, Roll : 0.07, Pitch : 0.06, Yaw : 359.84, Alt : 42.4599990845, Lat : 49.2835706, Lng : -123.1150207, Q1 : 0.999998748302, Q2 : 0.000619217578787, Q3 : 0.000544030684978, Q4 : -0.00136509211734}
2019-04-14 05:16:54.41: SIM {TimeUS : 50234898, Roll : 0.02, Pitch : 0.05, Yaw : 359.84, Alt : 42.7000007629, Lat : 49.2835704, Lng : -123.1150207, Q1 : 0.999998927116, Q2 : 0.000178079077159, Q3 : 0.000446399033535, Q4 : -0.00137171079405}
2019-04-14 05:16:54.51: SIM {TimeUS : 50334858, Roll : -0.01, Pitch : 0.06, Yaw : 359.84, Alt : 42.9300003052, Lat : 49.2835704, Lng : -123.1150207, Q1 : 0.999998867512, Q2 : -0.000149179089931, Q3 : 0.000582322129048, Q4 : -0.00137193559203}
2019-04-14 05:16:54.61: SIM {TimeUS : 50434818, Roll : -0.03, Pitch : 0.07, Yaw : 359.84, Alt : 43.1699981689, Lat : 49.2835704, Lng : -123.1150207, Q1 : 0.999998807907, Q2 : -0.000331508985255, Q3 : 0.000665688654408, Q4 : -0.00137335469481}
2019-04-14 05:16:54.71: SIM {TimeUS : 50534778, Roll : -0.04, Pitch : 0.06, Yaw : 359.84, Alt : 43.4000015259, Lat : 49.2835704, Lng : -123.1150207, Q1 : 0.999998807907, Q2 : -0.000372923212126, Q3 : 0.000589005532674, Q4 : -0.00137987383641}
2019-04-14 05:16:54.81: SIM {TimeUS : 50634738, Roll : -0.05, Pitch : 0.05, Yaw : 359.84, Alt : 43.6399993896, Lat : 49.2835704, Lng : -123.1150207, Q1 : 0.999998807907, Q2 : -0.000468564510811, Q3 : 0.000448928010883, Q4 : -0.00139390095137}
2019-04-14 05:16:54.91: SIM {TimeUS : 50734698, Roll : -0.05, Pitch : 0.03, Yaw : 359.83, Alt : 43.8699989319, Lat : 49.2835704, Lng : -123.1150206, Q1 : 0.999998867512, Q2 : -0.000460065726656, Q3 : 0.000311349838739, Q4 : -0.00141172728036}
2019-04-14 05:16:55.01: SIM {TimeUS : 50834658, Roll : -0.03, Pitch : 0.03, Yaw : 359.83, Alt : 44.1100006104, Lat : 49.2835704, Lng : -123.1150206, Q1 : 0.999998867512, Q2 : -0.000333153875545, Q3 : 0.000266041402938, Q4 : -0.00143494596705}
2019-04-14 05:16:55.11: SIM {TimeUS : 50934618, Roll : -0.02, Pitch : 0.03, Yaw : 359.83, Alt : 44.3400001526, Lat : 49.2835704, Lng : -123.1150206, Q1 : 0.999998867512, Q2 : -0.000231199694099, Q3 : 0.000273089302937, Q4 : -0.00145889748819}
2019-04-14 05:16:55.21: SIM {TimeUS : 51034578, Roll : -0.02, Pitch : 0.01, Yaw : 359.82, Alt : 44.5800018311, Lat : 49.2835704, Lng : -123.1150206, Q1 : 0.999998867512, Q2 : -0.000253286852967, Q3 : 0.000126671555336, Q4 : -0.0014859251678}
2019-04-14 05:16:55.31: SIM {TimeUS : 51135371, Roll : -0.03, Pitch : -0.02, Yaw : 359.82, Alt : 44.8199996948, Lat : 49.2835703, Lng : -123.1150206, Q1 : 0.999998807907, Q2 : -0.000303654029267, Q3 : -0.000178827744094, Q4 : -0.00151516427286}
2019-04-14 05:16:55.41: SIM {TimeUS : 51235331, Roll : -0.03, Pitch : -0.04, Yaw : 359.82, Alt : 45.0499992371, Lat : 49.2835703, Lng : -123.1150206, Q1 : 0.999998688698, Q2 : -0.000289867894026, Q3 : -0.000382512429496, Q4 : -0.00154570885934}
2019-04-14 05:16:55.51: SIM {TimeUS : 51335291, Roll : -0.02, Pitch : -0.04, Yaw : 359.81, Alt : 45.2900009155, Lat : 49.2835703, Lng : -123.1150206, Q1 : 0.999998629093, Q2 : -0.000187195459148, Q3 : -0.000434333254816, Q4 : -0.00158077164087}
2019-04-14 05:16:55.61: SIM {TimeUS : 51435251, Roll : -0.02, Pitch : -0.04, Yaw : 359.81, Alt : 45.5299987793, Lat : 49.2835703, Lng : -123.1150206, Q1 : 0.999998569489, Q2 : -0.000221112000872, Q3 : -0.000427497521741, Q4 : -0.00161641766317}
2019-04-14 05:16:55.71: SIM {TimeUS : 51535211, Roll : -0.04, Pitch : -0.04, Yaw : 359.81, Alt : 45.7599983215, Lat : 49.2835703, Lng : -123.1150206, Q1 : 0.999998509884, Q2 : -0.000419231218984, Q3 : -0.000348653062247, Q4 : -0.00165197940078}
2019-04-14 05:16:55.81: SIM {TimeUS : 51635171, Roll : -0.08, Pitch : -0.03, Yaw : 359.8, Alt : 45.9900016785, Lat : 49.2835703, Lng : -123.1150206, Q1 : 0.999998271465, Q2 : -0.000743493787013, Q3 : -0.000307037204038, Q4 : -0.00168733042665}
2019-04-14 05:16:55.91: SIM {TimeUS : 51735131, Roll : -0.11, Pitch : -0.03, Yaw : 359.8, Alt : 46.2200012207, Lat : 49.2835703, Lng : -123.1150206, Q1 : 0.999997973442, Q2 : -0.00101449410431, Q3 : -0.000292736920528, Q4 : -0.00172539951745}
2019-04-14 05:16:56.01: SIM {TimeUS : 51835091, Roll : -0.12, Pitch : -0.02, Yaw : 359.79, Alt : 46.4500007629, Lat : 49.2835703, Lng : -123.1150206, Q1 : 0.999997794628, Q2 : -0.00109206011984, Q3 : -0.000232370352023, Q4 : -0.00176131178159}
2019-04-14 05:16:56.11: SIM {TimeUS : 51935051, Roll : -0.11, Pitch : 0.0, Yaw : 359.79, Alt : 46.6699981689, Lat : 49.2835703, Lng : -123.1150206, Q1 : 0.999997913837, Q2 : -0.000983382808045, Q3 : -5.63932626392e-05, Q4 : -0.00179250375368}
2019-04-14 05:16:56.21: SIM {TimeUS : 52035011, Roll : -0.08, Pitch : 0.0, Yaw : 359.79, Alt : 46.8800010681, Lat : 49.2835703, Lng : -123.1150206, Q1 : 0.999998033047, Q2 : -0.000746351957787, Q3 : 5.69688891119e-05, Q4 : -0.00182348920498}
2019-04-14 05:16:56.31: SIM {TimeUS : 52134971, Roll : -0.06, Pitch : 0.0, Yaw : 359.78, Alt : 47.0900001526, Lat : 49.2835703, Lng : -123.1150206, Q1 : 0.999998152256, Q2 : -0.000527678988874, Q3 : 4.49915496574e-05, Q4 : -0.00184998975601}
2019-04-14 05:16:56.41: SIM {TimeUS : 52234931, Roll : -0.04, Pitch : -0.01, Yaw : 359.78, Alt : 47.2900009155, Lat : 49.2835703, Lng : -123.1150206, Q1 : 0.999998152256, Q2 : -0.000402462959755, Q3 : -9.37031727517e-05, Q4 : -0.0018739773659}
2019-04-14 05:16:56.51: SIM {TimeUS : 52334891, Roll : -0.02, Pitch : -0.03, Yaw : 359.78, Alt : 47.4799995422, Lat : 49.2835703, Lng : -123.1150206, Q1 : 0.999998092651, Q2 : -0.00024248448608, Q3 : -0.000317357335007, Q4 : -0.00189485691953}
2019-04-14 05:16:56.61: SIM {TimeUS : 52434851, Roll : 0.0, Pitch : -0.07, Yaw : 359.78, Alt : 47.6599998474, Lat : 49.2835703, Lng : -123.1150206, Q1 : 0.999997973442, Q2 : -7.61394840083e-05, Q3 : -0.000617934856564, Q4 : -0.00191062467638}
2019-04-14 05:16:56.71: SIM {TimeUS : 52534811, Roll : -0.01, Pitch : -0.11, Yaw : 359.77, Alt : 47.8300018311, Lat : 49.2835703, Lng : -123.1150206, Q1 : 0.999997675419, Q2 : -0.000104449201899, Q3 : -0.000991591601633, Q4 : -0.00192607473582}
2019-04-14 05:16:56.81: SIM {TimeUS : 52634771, Roll : -0.02, Pitch : -0.14, Yaw : 359.77, Alt : 47.9900016785, Lat : 49.2835703, Lng : -123.1150206, Q1 : 0.999997258186, Q2 : -0.000201236165594, Q3 : -0.00128304515965, Q4 : -0.00194241083227}
2019-04-14 05:16:56.91: SIM {TimeUS : 52734731, Roll : 0.0, Pitch : -0.14, Yaw : 359.77, Alt : 48.1399993896, Lat : 49.2835703, Lng : -123.1150206, Q1 : 0.999997258186, Q2 : -2.25949952437e-05, Q3 : -0.0012773911003, Q4 : -0.00195842958055}
2019-04-14 05:16:57.01: SIM {TimeUS : 52834691, Roll : 0.03, Pitch : -0.12, Yaw : 359.77, Alt : 48.2799987793, Lat : 49.2835703, Lng : -123.1150207, Q1 : 0.999997437, Q2 : 0.000264886621153, Q3 : -0.00109172915109, Q4 : -0.00197779457085}
2019-04-14 05:16:57.11: SIM {TimeUS : 52934651, Roll : 0.06, Pitch : -0.09, Yaw : 359.77, Alt : 48.4000015259, Lat : 49.2835703, Lng : -123.1150207, Q1 : 0.99999755621, Q2 : 0.000528782780748, Q3 : -0.00078963820124, Q4 : -0.0019994257018}
2019-04-14 05:16:57.21: SIM {TimeUS : 53034611, Roll : 0.07, Pitch : -0.05, Yaw : 359.76, Alt : 48.5200004578, Lat : 49.2835703, Lng : -123.1150207, Q1 : 0.999997615814, Q2 : 0.000647858076263, Q3 : -0.000457087095128, Q4 : -0.00202383939177}
2019-04-14 05:16:57.31: SIM {TimeUS : 53135404, Roll : 0.08, Pitch : -0.02, Yaw : 359.76, Alt : 48.6199989319, Lat : 49.2835703, Lng : -123.1150207, Q1 : 0.999997615814, Q2 : 0.000710099528078, Q3 : -0.000249725271715, Q4 : -0.00204652966931}
2019-04-14 05:16:57.41: SIM {TimeUS : 53235364, Roll : 0.07, Pitch : -0.02, Yaw : 359.76, Alt : 48.7000007629, Lat : 49.2835703, Lng : -123.1150207, Q1 : 0.99999755621, Q2 : 0.000665416708216, Q3 : -0.000253151083598, Q4 : -0.00207675388083}
2019-04-14 05:16:57.51: SIM {TimeUS : 53335324, Roll : 0.04, Pitch : -0.02, Yaw : 359.75, Alt : 48.7799987793, Lat : 49.2835704, Lng : -123.1150207, Q1 : 0.999997615814, Q2 : 0.000419337360654, Q3 : -0.000261779816356, Q4 : -0.00211242865771}
2019-04-14 05:16:57.61: SIM {TimeUS : 53435284, Roll : 0.02, Pitch : -0.02, Yaw : 359.75, Alt : 48.8499984741, Lat : 49.2835704, Lng : -123.1150207, Q1 : 0.999997675419, Q2 : 0.000198667694349, Q3 : -0.000209062854992, Q4 : -0.00215143361129}
2019-04-14 05:16:57.71: SIM {TimeUS : 53535244, Roll : 0.0, Pitch : -0.02, Yaw : 359.74, Alt : 48.9099998474, Lat : 49.2835704, Lng : -123.1150207, Q1 : 0.99999755621, Q2 : 2.56242092291e-05, Q3 : -0.000188292251551, Q4 : -0.00218781759031}
2019-04-14 05:16:57.81: SIM {TimeUS : 53635204, Roll : 0.0, Pitch : 0.0, Yaw : 359.74, Alt : 48.9500007629, Lat : 49.2835704, Lng : -123.1150207, Q1 : 0.99999755621, Q2 : -3.28057358274e-05, Q3 : -7.79988040449e-05, Q4 : -0.00221935217269}
2019-04-14 05:16:57.91: SIM {TimeUS : 53735164, Roll : 0.01, Pitch : 0.0, Yaw : 359.74, Alt : 49.0, Lat : 49.2835704, Lng : -123.1150207, Q1 : 0.999997437, Q2 : 0.000159961098689, Q3 : 3.9081365685e-05, Q4 : -0.00225176056847}
2019-04-14 05:16:58.01: SIM {TimeUS : 53835124, Roll : 0.11, Pitch : -0.07, Yaw : 359.73, Alt : 49.0299987793, Lat : 49.2835704, Lng : -123.1150207, Q1 : 0.99999666214, Q2 : 0.000989369815215, Q3 : -0.000685372797307, Q4 : -0.00228148046881}
2019-04-14 05:16:58.11: SIM {TimeUS : 53935084, Roll : 0.33, Pitch : -0.37, Yaw : 359.73, Alt : 49.0600013733, Lat : 49.2835704, Lng : -123.1150207, Q1 : 0.999987661839, Q2 : 0.00289576430805, Q3 : -0.00330284633674, Q4 : -0.00230529904366}
2019-04-14 05:16:58.21: SIM {TimeUS : 54035044, Roll : 0.68, Pitch : -0.91, Yaw : 359.72, Alt : 49.0900001526, Lat : 49.2835704, Lng : -123.1150207, Q1 : 0.999947547913, Q2 : 0.00598107650876, Q3 : -0.00798591319472, Q4 : -0.0023178672418}
2019-04-14 05:16:58.31: SIM {TimeUS : 54135004, Roll : 1.15, Pitch : -1.65, Yaw : 359.71, Alt : 49.1100006104, Lat : 49.2835704, Lng : -123.1150207, Q1 : 0.999841749668, Q2 : 0.010073537007, Q3 : -0.0144801242277, Q4 : -0.00231095822528}
2019-04-14 05:16:58.41: SIM {TimeUS : 54234964, Roll : 1.72, Pitch : -2.52, Yaw : 359.7, Alt : 49.1300010681, Lat : 49.2835706, Lng : -123.1150206, Q1 : 0.999642252922, Q2 : 0.0149599025026, Q3 : -0.0220539607108, Q4 : -0.00227334187366}
2019-04-14 05:16:58.51: SIM {TimeUS : 54334924, Roll : 2.3, Pitch : -3.37, Yaw : 359.68, Alt : 49.1500015259, Lat : 49.2835707, Lng : -123.1150205, Q1 : 0.999362111092, Q2 : 0.020030207932, Q3 : -0.0294879395515, Q4 : -0.00218242686242}
2019-04-14 05:16:58.61: SIM {TimeUS : 54434884, Roll : 2.8, Pitch : -4.09, Yaw : 359.66, Alt : 49.1699981689, Lat : 49.2835708, Lng : -123.1150204, Q1 : 0.999061703682, Q2 : 0.0243506785482, Q3 : -0.0357587523758, Q4 : -0.00202718377113}
2019-04-14 05:16:58.71: SIM {TimeUS : 54534844, Roll : 3.17, Pitch : -4.61, Yaw : 359.66, Alt : 49.1800003052, Lat : 49.2835709, Lng : -123.1150202, Q1 : 0.998802483082, Q2 : 0.0276020020247, Q3 : -0.0403543822467, Q4 : -0.00181026058272}
2019-04-14 05:16:58.81: SIM {TimeUS : 54634804, Roll : 3.43, Pitch : -4.98, Yaw : 359.67, Alt : 49.1899986267, Lat : 49.2835712, Lng : -123.11502, Q1 : 0.998603880405, Q2 : 0.0297935381532, Q3 : -0.0435914248228, Q4 : -0.00156608014368}
2019-04-14 05:16:58.91: SIM {TimeUS : 54734764, Roll : 3.61, Pitch : -5.29, Yaw : 359.68, Alt : 49.2000007629, Lat : 49.2835715, Lng : -123.1150198, Q1 : 0.998433947563, Q2 : 0.0314008407295, Q3 : -0.0462814606726, Q4 : -0.00131337100174}
2019-04-14 05:16:59.01: SIM {TimeUS : 54834724, Roll : 3.8, Pitch : -5.59, Yaw : 359.69, Alt : 49.2099990845, Lat : 49.2835719, Lng : -123.1150194, Q1 : 0.998257577419, Q2 : 0.0330359637737, Q3 : -0.0488818995655, Q4 : -0.00105152965989}
2019-04-14 05:16:59.11: SIM {TimeUS : 54934684, Roll : 4.03, Pitch : -5.91, Yaw : 359.7, Alt : 49.2200012207, Lat : 49.2835722, Lng : -123.115019, Q1 : 0.99805366993, Q2 : 0.0349801406264, Q3 : -0.0516207665205, Q4 : -0.000785103591625}
2019-04-14 05:16:59.21: SIM {TimeUS : 55034644, Roll : 4.25, Pitch : -6.22, Yaw : 359.7, Alt : 49.2200012207, Lat : 49.2835727, Lng : -123.1150185, Q1 : 0.997839748859, Q2 : 0.0369560867548, Q3 : -0.0543121285737, Q4 : -0.000526950985659}
2019-04-14 05:16:59.31: SIM {TimeUS : 55134604, Roll : 4.45, Pitch : -6.49, Yaw : 359.71, Alt : 49.2299995422, Lat : 49.2835733, Lng : -123.1150179, Q1 : 0.997640132904, Q2 : 0.0386888384819, Q3 : -0.0567214079201, Q4 : -0.000287860661047}
2019-04-14 05:16:59.41: SIM {TimeUS : 55235397, Roll : 4.59, Pitch : -6.72, Yaw : 359.72, Alt : 49.2400016785, Lat : 49.2835739, Lng : -123.1150173, Q1 : 0.997480034828, Q2 : 0.0398940443993, Q3 : -0.0586697198451, Q4 : -8.25296665425e-05}
2019-04-14 05:16:59.51: SIM {TimeUS : 55335357, Roll : 4.69, Pitch : -6.87, Yaw : 359.72, Alt : 49.2400016785, Lat : 49.2835745, Lng : -123.1150166, Q1 : 0.997366607189, Q2 : 0.0407140217721, Q3 : -0.0600182302296, Q4 : 7.5957061199e-05}
2019-04-14 05:16:59.61: SIM {TimeUS : 55435317, Roll : 4.75, Pitch : -6.97, Yaw : 359.73, Alt : 49.25, Lat : 49.2835752, Lng : -123.1150158, Q1 : 0.997288405895, Q2 : 0.0412905402482, Q3 : -0.0609169788659, Q4 : 0.000206444019568}
2019-04-14 05:16:59.71: SIM {TimeUS : 55535277, Roll : 4.81, Pitch : -7.07, Yaw : 359.73, Alt : 49.25, Lat : 49.2835761, Lng : -123.115015, Q1 : 0.997216522694, Q2 : 0.0418009124696, Q3 : -0.0617403946817, Q4 : 0.00030505808536}
2019-04-14 05:16:59.81: SIM {TimeUS : 55635237, Roll : 4.93, Pitch : -7.19, Yaw : 359.73, Alt : 49.25, Lat : 49.2835769, Lng : -123.1150141, Q1 : 0.997110426426, Q2 : 0.0428011454642, Q3 : -0.0627594441175, Q4 : 0.000425530393841}
2019-04-14 05:16:59.91: SIM {TimeUS : 55735197, Roll : 5.29, Pitch : -7.25, Yaw : 359.91, Alt : 49.2599983215, Lat : 49.2835777, Lng : -123.1150132, Q1 : 0.996932387352, Q2 : 0.0460526421666, Q3 : -0.0632467418909, Q4 : 0.00219455594197}
2019-04-14 05:17:00.01: SIM {TimeUS : 55835157, Roll : 5.92, Pitch : -7.26, Yaw : 0.84, Alt : 49.2599983215, Lat : 49.2835788, Lng : -123.1150122, Q1 : 0.996604979038, Q2 : 0.0520192049444, Q3 : -0.0629274994135, Q4 : 0.0106124486774}
2019-04-14 05:17:00.11: SIM {TimeUS : 55935117, Roll : 6.52, Pitch : -7.43, Yaw : 3.16, Alt : 49.2599983215, Lat : 49.2835797, Lng : -123.1150111, Q1 : 0.995794475079, Q2 : 0.0585781745613, Q3 : -0.0631491541862, Q4 : 0.0312121883035}
2019-04-14 05:17:00.21: SIM {TimeUS : 56035077, Roll : 6.76, Pitch : -7.93, Yaw : 7.09, Alt : 49.2599983215, Lat : 49.2835807, Lng : -123.1150099, Q1 : 0.993705749512, Q2 : 0.0629933550954, Q3 : -0.0652709975839, Q4 : 0.0657299682498}
2019-04-14 05:17:00.31: SIM {TimeUS : 56135037, Roll : 6.4, Pitch : -8.77, Yaw : 12.52, Alt : 49.2599983215, Lat : 49.2835818, Lng : -123.1150086, Q1 : 0.989110410213, Q2 : 0.0636607408524, Q3 : -0.0698778107762, Q4 : 0.112805180252}
2019-04-14 05:17:00.41: SIM {TimeUS : 56234997, Roll : 5.19, Pitch : -9.86, Yaw : 19.13, Alt : 49.2700004578, Lat : 49.283583, Lng : -123.1150072, Q1 : 0.980783343315, Q2 : 0.0587837174535, Q3 : -0.077194608748, Q4 : 0.169261753559}
2019-04-14 05:17:00.51: SIM {TimeUS : 56334957, Roll : 2.97, Pitch : -10.95, Yaw : 26.31, Alt : 49.2700004578, Lat : 49.2835841, Lng : -123.1150058, Q1 : 0.96842199564, Q2 : 0.046873036772, Q3 : -0.0870025232434, Q4 : 0.228893771768}
2019-04-14 05:17:00.61: SIM {TimeUS : 56434917, Roll : 0.11, Pitch : -11.77, Yaw : 33.25, Alt : 49.2700004578, Lat : 49.2835854, Lng : -123.1150042, Q1 : 0.953103661537, Q2 : 0.0302681587636, Q3 : -0.097995467484, Q4 : 0.284735262394}
2019-04-14 05:17:00.71: SIM {TimeUS : 56534877, Roll : -2.76, Pitch : -12.24, Yaw : 39.22, Alt : 49.2700004578, Lat : 49.2835866, Lng : -123.1150026, Q1 : 0.937197744846, Q2 : 0.0132012413815, Q3 : -0.10844796896, Q4 : 0.331247836351}
2019-04-14 05:17:00.81: SIM {TimeUS : 56634837, Roll : -5.04, Pitch : -12.41, Yaw : 43.68, Alt : 49.2700004578, Lat : 49.2835879, Lng : -123.115001, Q1 : 0.923650681973, Q2 : -0.000415978691308, Q3 : -0.116544887424, Q4 : 0.365084350109}
2019-04-14 05:17:00.91: SIM {TimeUS : 56734797, Roll : -6.38, Pitch : -12.46, Yaw : 46.38, Alt : 49.2700004578, Lat : 49.2835895, Lng : -123.1149993, Q1 : 0.914698719978, Q2 : -0.00815530028194, Q3 : -0.121455468237, Q4 : 0.385367751122}
2019-04-14 05:17:01.01: SIM {TimeUS : 56834757, Roll : -6.74, Pitch : -12.57, Yaw : 47.43, Alt : 49.2700004578, Lat : 49.283591, Lng : -123.1149977, Q1 : 0.911046266556, Q2 : -0.00957109779119, Q3 : -0.123576790094, Q4 : 0.393232613802}
2019-04-14 05:17:01.11: SIM {TimeUS : 56934717, Roll : -6.29, Pitch : -12.81, Yaw : 47.08, Alt : 49.2700004578, Lat : 49.2835928, Lng : -123.114996, Q1 : 0.912103891373, Q2 : -0.00553588196635, Q3 : -0.123930729926, Q4 : 0.39073908329}
2019-04-14 05:17:01.21: SIM {TimeUS : 57034677, Roll : -5.25, Pitch : -13.23, Yaw : 45.66, Alt : 49.2700004578, Lat : 49.2835945, Lng : -123.1149944, Q1 : 0.916591763496, Q2 : 0.002666632412, Q3 : -0.123777672648, Q4 : 0.380173116922}
2019-04-14 05:17:01.31: SIM {TimeUS : 57134637, Roll : -3.86, Pitch : -13.8, Yaw : 43.48, Alt : 49.2700004578, Lat : 49.2835964, Lng : -123.1149926, Q1 : 0.923096001148, Q2 : 0.0134460581467, Q3 : -0.123987577856, Q4 : 0.363785743713}
2019-04-14 05:17:01.41: SIM {TimeUS : 57234597, Roll : -2.3, Pitch : -14.42, Yaw : 40.85, Alt : 49.2700004578, Lat : 49.2835983, Lng : -123.1149909, Q1 : 0.930406391621, Q2 : 0.0250819902867, Q3 : -0.124570697546, Q4 : 0.343797892332}
2019-04-14 05:17:01.51: SIM {TimeUS : 57335390, Roll : -0.74, Pitch : -14.95, Yaw : 38.04, Alt : 49.2799987793, Lat : 49.2836004, Lng : -123.1149891, Q1 : 0.937610507011, Q2 : 0.0363280512393, Q3 : -0.12511087954, Q4 : 0.32235699892}
2019-04-14 05:17:01.61: SIM {TimeUS : 57435350, Roll : 0.64, Pitch : -15.32, Yaw : 35.42, Alt : 49.2799987793, Lat : 49.2836024, Lng : -123.1149871, Q1 : 0.943854629993, Q2 : 0.0459103398025, Q3 : -0.12531453371, Q4 : 0.302203625441}
2019-04-14 05:17:01.71: SIM {TimeUS : 57535310, Roll : 1.76, Pitch : -15.52, Yaw : 33.22, Alt : 49.2799987793, Lat : 49.2836045, Lng : -123.1149852, Q1 : 0.948770344257, Q2 : 0.0532587617636, Q3 : -0.125036582351, Q4 : 0.285244166851}
2019-04-14 05:17:01.81: SIM {TimeUS : 57635270, Roll : 2.52, Pitch : -15.58, Yaw : 31.63, Alt : 49.2799987793, Lat : 49.2836067, Lng : -123.114983, Q1 : 0.952200949192, Q2 : 0.0579804889858, Q3 : -0.124475747347, Q4 : 0.272868931293}
2019-04-14 05:17:01.91: SIM {TimeUS : 57735230, Roll : 2.88, Pitch : -15.58, Yaw : 30.72, Alt : 49.2799987793, Lat : 49.283609, Lng : -123.1149808, Q1 : 0.954159319401, Q2 : 0.0599788948894, Q3 : -0.124070309103, Q4 : 0.265686005354}
2019-04-14 05:17:02.01: SIM {TimeUS : 57835190, Roll : 2.88, Pitch : -15.57, Yaw : 30.47, Alt : 49.2799987793, Lat : 49.2836111, Lng : -123.1149785, Q1 : 0.954743087292, Q2 : 0.0596911609173, Q3 : -0.124142840505, Q4 : 0.263611912727}
2019-04-14 05:17:02.11: SIM {TimeUS : 57935150, Roll : 2.58, Pitch : -15.62, Yaw : 30.79, Alt : 49.2799987793, Lat : 49.2836135, Lng : -123.114976, Q1 : 0.954099416733, Q2 : 0.0576033145189, Q3 : -0.125052064657, Q4 : 0.265966355801}
2019-04-14 05:17:02.21: SIM {TimeUS : 58035110, Roll : 2.04, Pitch : -15.72, Yaw : 31.55, Alt : 49.2799987793, Lat : 49.2836158, Lng : -123.1149735, Q1 : 0.952454805374, Q2 : 0.0541948899627, Q3 : -0.126814782619, Q4 : 0.271681398153}
2019-04-14 05:17:02.31: SIM {TimeUS : 58135070, Roll : 1.34, Pitch : -15.86, Yaw : 32.59, Alt : 49.2799987793, Lat : 49.2836182, Lng : -123.114971, Q1 : 0.95009970665, Q2 : 0.0499213673174, Q3 : -0.129202708602, Q4 : 0.279508531094}
2019-04-14 05:17:02.41: SIM {TimeUS : 58235030, Roll : 0.6, Pitch : -15.99, Yaw : 33.75, Alt : 49.2799987793, Lat : 49.2836206, Lng : -123.1149683, Q1 : 0.947383522987, Q2 : 0.0454367734492, Q3 : -0.131616085768, Q4 : 0.288231104612}
2019-04-14 05:17:02.51: SIM {TimeUS : 58334990, Roll : -0.06, Pitch : -16.09, Yaw : 34.88, Alt : 49.2799987793, Lat : 49.2836231, Lng : -123.1149656, Q1 : 0.944636821747, Q2 : 0.0414260588586, Q3 : -0.133725509048, Q4 : 0.296753555536}
2019-04-14 05:17:02.61: SIM {TimeUS : 58434950, Roll : -0.63, Pitch : -16.16, Yaw : 35.87, Alt : 49.2799987793, Lat : 49.2836256, Lng : -123.1149629, Q1 : 0.942176520824, Q2 : 0.0380761288106, Q3 : -0.135443478823, Q4 : 0.304152399302}
2019-04-14 05:17:02.71: SIM {TimeUS : 58534910, Roll : -1.02, Pitch : -16.21, Yaw : 36.62, Alt : 49.2799987793, Lat : 49.2836281, Lng : -123.1149601, Q1 : 0.940224766731, Q2 : 0.0358875207603, Q3 : -0.136692881584, Q4 : 0.30984595418}
2019-04-14 05:17:02.81: SIM {TimeUS : 58634870, Roll : -1.21, Pitch : -16.25, Yaw : 37.1, Alt : 49.2799987793, Lat : 49.2836308, Lng : -123.1149573, Q1 : 0.938945412636, Q2 : 0.0349793545902, Q3 : -0.137339249253, Q4 : 0.313521683216}
2019-04-14 05:17:02.91: SIM {TimeUS : 58734830, Roll : -1.24, Pitch : -16.27, Yaw : 37.3, Alt : 49.2799987793, Lat : 49.2836334, Lng : -123.1149543, Q1 : 0.93838006258, Q2 : 0.0350921265781, Q3 : -0.137510374188, Q4 : 0.315122663975}
2019-04-14 05:17:03.01: SIM {TimeUS : 58834790, Roll : -1.13, Pitch : -16.3, Yaw : 37.25, Alt : 49.2799987793, Lat : 49.283636, Lng : -123.1149515, Q1 : 0.938451290131, Q2 : 0.0359761491418, Q3 : -0.137546315789, Q4 : 0.314795047045}
2019-04-14 05:17:03.11: SIM {TimeUS : 58934750, Roll : -0.93, Pitch : -16.36, Yaw : 36.99, Alt : 49.2799987793, Lat : 49.2836389, Lng : -123.1149486, Q1 : 0.939022839069, Q2 : 0.0374557040632, Q3 : -0.137536302209, Q4 : 0.312916785479}
2019-04-14 05:17:03.21: SIM {TimeUS : 59034710, Roll : -0.67, Pitch : -16.43, Yaw : 36.59, Alt : 49.2799987793, Lat : 49.2836415, Lng : -123.1149457, Q1 : 0.939920127392, Q2 : 0.0393668152392, Q3 : -0.137561291456, Q4 : 0.309963494539}
2019-04-14 05:17:03.31: SIM {TimeUS : 59134670, Roll : -0.38, Pitch : -16.5, Yaw : 36.13, Alt : 49.2900009155, Lat : 49.2836444, Lng : -123.1149427, Q1 : 0.94100600481, Q2 : 0.0413397699594, Q3 : -0.137465387583, Q4 : 0.306434452534}
2019-04-14 05:17:03.41: SIM {TimeUS : 59234630, Roll : -0.09, Pitch : -16.55, Yaw : 35.65, Alt : 49.2900009155, Lat : 49.2836473, Lng : -123.1149397, Q1 : 0.942113280296, Q2 : 0.0432723164558, Q3 : -0.137308329344, Q4 : 0.302814334631}
2019-04-14 05:17:03.51: SIM {TimeUS : 59334590, Roll : 0.16, Pitch : -16.59, Yaw : 35.21, Alt : 49.2900009155, Lat : 49.28365, Lng : -123.1149367, Q1 : 0.943113803864, Q2 : 0.0450027100742, Q3 : -0.137137278914, Q4 : 0.299506932497}
2019-04-14 05:17:03.61: SIM {TimeUS : 59435383, Roll : 0.36, Pitch : -16.63, Yaw : 34.85, Alt : 49.2900009155, Lat : 49.283653, Lng : -123.1149336, Q1 : 0.943920314312, Q2 : 0.0463655106723, Q3 : -0.137037843466, Q4 : 0.296791642904}
2019-04-14 05:17:03.71: SIM {TimeUS : 59535343, Roll : 0.51, Pitch : -16.66, Yaw : 34.6, Alt : 49.2900009155, Lat : 49.2836559, Lng : -123.1149305, Q1 : 0.944466769695, Q2 : 0.0473327189684, Q3 : -0.137026816607, Q4 : 0.294899642467}
2019-04-14 05:17:03.81: SIM {TimeUS : 59635303, Roll : 0.58, Pitch : -16.69, Yaw : 34.46, Alt : 49.2900009155, Lat : 49.2836589, Lng : -123.1149274, Q1 : 0.944750130177, Q2 : 0.0478311553597, Q3 : -0.137176677585, Q4 : 0.293840050697}
2019-04-14 05:17:03.91: SIM {TimeUS : 59735263, Roll : 0.57, Pitch : -16.72, Yaw : 34.43, Alt : 49.2900009155, Lat : 49.2836618, Lng : -123.1149242, Q1 : 0.944795966148, Q2 : 0.0478137359023, Q3 : -0.137420490384, Q4 : 0.293581426144}
2019-04-14 05:17:04.01: SIM {TimeUS : 59835223, Roll : 0.51, Pitch : -16.74, Yaw : 34.5, Alt : 49.2900009155, Lat : 49.2836647, Lng : -123.114921, Q1 : 0.944630861282, Q2 : 0.0474563613534, Q3 : -0.137767732143, Q4 : 0.294007629156}
2019-04-14 05:17:04.11: SIM {TimeUS : 59935183, Roll : 0.41, Pitch : -16.79, Yaw : 34.62, Alt : 49.2900009155, Lat : 49.2836677, Lng : -123.1149177, Q1 : 0.944286704063, Q2 : 0.0469026044011, Q3 : -0.138356104493, Q4 : 0.294924348593}
2019-04-14 05:17:04.21: SIM {TimeUS : 60035143, Roll : 0.28, Pitch : -16.84, Yaw : 34.79, Alt : 49.2900009155, Lat : 49.2836707, Lng : -123.1149145, Q1 : 0.943844258785, Q2 : 0.0461376681924, Q3 : -0.139076545835, Q4 : 0.296120077372}
2019-04-14 05:17:04.31: SIM {TimeUS : 60135103, Roll : 0.12, Pitch : -16.89, Yaw : 34.97, Alt : 49.2900009155, Lat : 49.2836737, Lng : -123.1149112, Q1 : 0.943376541138, Q2 : 0.0451661460102, Q3 : -0.139835566282, Q4 : 0.297400087118}
2019-04-14 05:17:04.41: SIM {TimeUS : 60235063, Roll : -0.03, Pitch : -16.93, Yaw : 35.14, Alt : 49.2900009155, Lat : 49.2836768, Lng : -123.1149079, Q1 : 0.942948102951, Q2 : 0.0441903211176, Q3 : -0.140450239182, Q4 : 0.298613190651}
2019-04-14 05:17:04.51: SIM {TimeUS : 60335023, Roll : -0.15, Pitch : -16.96, Yaw : 35.29, Alt : 49.2999992371, Lat : 49.2836798, Lng : -123.1149045, Q1 : 0.942588925362, Q2 : 0.0434305369854, Q3 : -0.140965357423, Q4 : 0.29961425066}
2019-04-14 05:17:04.61: SIM {TimeUS : 60434983, Roll : -0.22, Pitch : -17.0, Yaw : 35.38, Alt : 49.2999992371, Lat : 49.2836829, Lng : -123.1149012, Q1 : 0.942308723927, Q2 : 0.0430936068296, Q3 : -0.141413986683, Q4 : 0.300331920385}
2019-04-14 05:17:04.71: SIM {TimeUS : 60534943, Roll : -0.24, Pitch : -17.04, Yaw : 35.44, Alt : 49.2999992371, Lat : 49.2836861, Lng : -123.1148978, Q1 : 0.942132711411, Q2 : 0.0430684238672, Q3 : -0.14177775383, Q4 : 0.300716102123}
2019-04-14 05:17:04.81: SIM {TimeUS : 60634903, Roll : -0.22, Pitch : -17.08, Yaw : 35.44, Alt : 49.2999992371, Lat : 49.2836892, Lng : -123.1148944, Q1 : 0.942060291767, Q2 : 0.0433708876371, Q3 : -0.142063647509, Q4 : 0.300764560699}
2019-04-14 05:17:04.91: SIM {TimeUS : 60734863, Roll : -0.16, Pitch : -17.12, Yaw : 35.4, Alt : 49.2999992371, Lat : 49.2836924, Lng : -123.114891, Q1 : 0.942080378532, Q2 : 0.0439625866711, Q3 : -0.142264977098, Q4 : 0.300520390272}
2019-04-14 05:17:05.01: SIM {TimeUS : 60834823, Roll : -0.08, Pitch : -17.16, Yaw : 35.33, Alt : 49.2999992371, Lat : 49.2836955, Lng : -123.1148876, Q1 : 0.942190468311, Q2 : 0.0445604585111, Q3 : -0.142390877008, Q4 : 0.300027132034}
2019-04-14 05:17:05.11: SIM {TimeUS : 60934783, Roll : -0.02, Pitch : -17.18, Yaw : 35.25, Alt : 49.2999992371, Lat : 49.2836986, Lng : -123.1148842, Q1 : 0.942364752293, Q2 : 0.0450218506157, Q3 : -0.142503783107, Q4 : 0.299356728792}
2019-04-14 05:17:05.21: SIM {TimeUS : 61034743, Roll : 0.01, Pitch : -17.2, Yaw : 35.15, Alt : 49.2999992371, Lat : 49.2837018, Lng : -123.1148807, Q1 : 0.942587733269, Q2 : 0.0452880561352, Q3 : -0.142540365458, Q4 : 0.29859611392}
2019-04-14 05:17:05.31: SIM {TimeUS : 61134703, Roll : 0.06, Pitch : -17.2, Yaw : 35.05, Alt : 49.2999992371, Lat : 49.2837051, Lng : -123.1148773, Q1 : 0.942821860313, Q2 : 0.0455469712615, Q3 : -0.142463162541, Q4 : 0.297853529453}
2019-04-14 05:17:05.41: SIM {TimeUS : 61234663, Roll : 0.1, Pitch : -17.2, Yaw : 34.96, Alt : 49.2999992371, Lat : 49.2837083, Lng : -123.1148738, Q1 : 0.943028688431, Q2 : 0.0457974150777, Q3 : -0.142406463623, Q4 : 0.297186732292}
2019-04-14 05:17:05.51: SIM {TimeUS : 61334623, Roll : 0.15, Pitch : -17.23, Yaw : 34.89, Alt : 49.3100013733, Lat : 49.2837114, Lng : -123.1148703, Q1 : 0.943157315254, Q2 : 0.046173799783, Q3 : -0.142587572336, Q4 : 0.296632945538}
2019-04-14 05:17:05.61: SIM {TimeUS : 61434583, Roll : 0.18, Pitch : -17.29, Yaw : 34.84, Alt : 49.3100013733, Lat : 49.2837148, Lng : -123.1148668, Q1 : 0.94321346283, Q2 : 0.0465673431754, Q3 : -0.142965450883, Q4 : 0.296210646629}
2019-04-14 05:17:05.71: SIM {TimeUS : 61535376, Roll : 0.2, Pitch : -17.32, Yaw : 34.8, Alt : 49.3100013733, Lat : 49.283718, Lng : -123.1148631, Q1 : 0.943255245686, Q2 : 0.0467592477798, Q3 : -0.143204316497, Q4 : 0.295931875706}
2019-04-14 05:17:05.81: SIM {TimeUS : 61635336, Roll : 0.21, Pitch : -17.32, Yaw : 34.78, Alt : 49.3100013733, Lat : 49.2837212, Lng : -123.1148597, Q1 : 0.943293631077, Q2 : 0.0468045063317, Q3 : -0.143173798919, Q4 : 0.29581707716}
2019-04-14 05:17:05.91: SIM {TimeUS : 61735296, Roll : 0.21, Pitch : -17.33, Yaw : 34.79, Alt : 49.3100013733, Lat : 49.2837246, Lng : -123.1148562, Q1 : 0.943280339241, Q2 : 0.0468022190034, Q3 : -0.143276065588, Q4 : 0.295810312033}
2019-04-14 05:17:06.01: SIM {TimeUS : 61835256, Roll : 0.18, Pitch : -17.36, Yaw : 34.8, Alt : 49.3100013733, Lat : 49.2837278, Lng : -123.1148526, Q1 : 0.943225860596, Q2 : 0.0466643124819, Q3 : -0.143580913544, Q4 : 0.295857995749}
2019-04-14 05:17:06.11: SIM {TimeUS : 61935216, Roll : 0.15, Pitch : -17.39, Yaw : 34.82, Alt : 49.3100013733, Lat : 49.2837312, Lng : -123.1148491, Q1 : 0.943148493767, Q2 : 0.0465273782611, Q3 : -0.143902227283, Q4 : 0.295970082283}
2019-04-14 05:17:06.21: SIM {TimeUS : 62035176, Roll : 0.12, Pitch : -17.42, Yaw : 34.84, Alt : 49.3100013733, Lat : 49.2837344, Lng : -123.1148455, Q1 : 0.943073809147, Q2 : 0.0463732965291, Q3 : -0.144195273519, Q4 : 0.296089679003}
2019-04-14 05:17:06.31: SIM {TimeUS : 62135136, Roll : 0.1, Pitch : -17.44, Yaw : 34.85, Alt : 49.3100013733, Lat : 49.2837378, Lng : -123.1148418, Q1 : 0.943016946316, Q2 : 0.0462635569274, Q3 : -0.144392341375, Q4 : 0.296191900969}
2019-04-14 05:17:06.41: SIM {TimeUS : 62235096, Roll : 0.09, Pitch : -17.46, Yaw : 34.87, Alt : 49.3100013733, Lat : 49.2837411, Lng : -123.1148383, Q1 : 0.942958474159, Q2 : 0.0462935343385, Q3 : -0.144585877657, Q4 : 0.29627892375}
2019-04-14 05:17:06.51: SIM {TimeUS : 62335056, Roll : 0.1, Pitch : -17.48, Yaw : 34.87, Alt : 49.3100013733, Lat : 49.2837443, Lng : -123.1148347, Q1 : 0.942921578884, Q2 : 0.0463732741773, Q3 : -0.144706979394, Q4 : 0.296324580908}
2019-04-14 05:17:06.61: SIM {TimeUS : 62435016, Roll : 0.11, Pitch : -17.49, Yaw : 34.87, Alt : 49.3199996948, Lat : 49.2837478, Lng : -123.1148311, Q1 : 0.942899525166, Q2 : 0.0465222336352, Q3 : -0.144831925631, Q4 : 0.296310395002}
2019-04-14 05:17:06.71: SIM {TimeUS : 62534976, Roll : 0.13, Pitch : -17.52, Yaw : 34.86, Alt : 49.3199996948, Lat : 49.283751, Lng : -123.1148274, Q1 : 0.94288790226, Q2 : 0.0467344485223, Q3 : -0.145021244884, Q4 : 0.296221494675}
2019-04-14 05:17:06.81: SIM {TimeUS : 62634936, Roll : 0.13, Pitch : -17.56, Yaw : 34.84, Alt : 49.3199996948, Lat : 49.2837545, Lng : -123.1148238, Q1 : 0.942892730236, Q2 : 0.046838529408, Q3 : -0.145329877734, Q4 : 0.296038419008}
2019-04-14 05:17:06.91: SIM {TimeUS : 62734896, Roll : 0.11, Pitch : -17.6, Yaw : 34.81, Alt : 49.3199996948, Lat : 49.2837577, Lng : -123.1148202, Q1 : 0.942916929722, Q2 : 0.0467240400612, Q3 : -0.145743757486, Q4 : 0.29577589035}
2019-04-14 05:17:07.01: SIM {TimeUS : 62834856, Roll : 0.1, Pitch : -17.64, Yaw : 34.78, Alt : 49.3199996948, Lat : 49.2837612, Lng : -123.1148165, Q1 : 0.942947506905, Q2 : 0.0466916784644, Q3 : -0.146131888032, Q4 : 0.295491784811}
2019-04-14 05:17:07.11: SIM {TimeUS : 62934816, Roll : 0.12, Pitch : -17.67, Yaw : 34.74, Alt : 49.3199996948, Lat : 49.2837646, Lng : -123.1148129, Q1 : 0.942990779877, Q2 : 0.0468808636069, Q3 : -0.146313771605, Q4 : 0.295233666897}
2019-04-14 05:17:07.21: SIM {TimeUS : 63034776, Roll : 0.15, Pitch : -17.67, Yaw : 34.71, Alt : 49.3199996948, Lat : 49.2837679, Lng : -123.1148092, Q1 : 0.943058490753, Q2 : 0.047108348459, Q3 : -0.146250993013, Q4 : 0.295012176037}
2019-04-14 05:17:07.31: SIM {TimeUS : 63134736, Roll : 0.18, Pitch : -17.65, Yaw : 34.68, Alt : 49.3199996948, Lat : 49.2837714, Lng : -123.1148055, Q1 : 0.94315046072, Q2 : 0.0472774840891, Q3 : -0.145982220769, Q4 : 0.29482421279}
2019-04-14 05:17:07.41: SIM {TimeUS : 63234696, Roll : 0.19, Pitch : -17.63, Yaw : 34.66, Alt : 49.3199996948, Lat : 49.2837747, Lng : -123.1148018, Q1 : 0.943238973618, Q2 : 0.0472743958235, Q3 : -0.145801395178, Q4 : 0.294630795717}
2019-04-14 05:17:07.51: SIM {TimeUS : 63334656, Roll : 0.19, Pitch : -17.62, Yaw : 34.64, Alt : 49.3199996948, Lat : 49.2837782, Lng : -123.114798, Q1 : 0.943299233913, Q2 : 0.047238830477, Q3 : -0.145778119564, Q4 : 0.294455140829}
2019-04-14 05:17:07.61: SIM {TimeUS : 63434616, Roll : 0.19, Pitch : -17.62, Yaw : 34.62, Alt : 49.3199996948, Lat : 49.2837816, Lng : -123.1147944, Q1 : 0.943347930908, Q2 : 0.0471910871565, Q3 : -0.145784214139, Q4 : 0.294303804636}
2019-04-14 05:17:07.71: SIM {TimeUS : 63534576, Roll : 0.17, Pitch : -17.65, Yaw : 34.6, Alt : 49.3199996948, Lat : 49.2837849, Lng : -123.1147907, Q1 : 0.943359792233, Q2 : 0.0471111424267, Q3 : -0.146032139659, Q4 : 0.294155478477}
2019-04-14 05:17:07.81: SIM {TimeUS : 63635369, Roll : 0.16, Pitch : -17.68, Yaw : 34.59, Alt : 49.3199996948, Lat : 49.2837885, Lng : -123.114787, Q1 : 0.943350076675, Q2 : 0.0470792092383, Q3 : -0.14636015892, Q4 : 0.294028669596}
2019-04-14 05:17:07.91: SIM {TimeUS : 63735329, Roll : 0.14, Pitch : -17.73, Yaw : 34.58, Alt : 49.3199996948, Lat : 49.2837919, Lng : -123.1147833, Q1 : 0.943319380283, Q2 : 0.0470421798527, Q3 : -0.14676836133, Q4 : 0.293929636478}
2019-04-14 05:17:08.01: SIM {TimeUS : 63835289, Roll : 0.14, Pitch : -17.78, Yaw : 34.58, Alt : 49.3300018311, Lat : 49.2837953, Lng : -123.1147795, Q1 : 0.943264007568, Q2 : 0.047128316015, Q3 : -0.14725035429, Q4 : 0.293852508068}
2019-04-14 05:17:08.11: SIM {TimeUS : 63935249, Roll : 0.14, Pitch : -17.82, Yaw : 34.57, Alt : 49.3300018311, Lat : 49.2837988, Lng : -123.1147758, Q1 : 0.943232893944, Q2 : 0.0472559519112, Q3 : -0.147503271699, Q4 : 0.29380518198}
2019-04-14 05:17:08.21: SIM {TimeUS : 64035209, Roll : 0.14, Pitch : -17.84, Yaw : 34.57, Alt : 49.3300018311, Lat : 49.2838023, Lng : -123.1147721, Q1 : 0.943214058876, Q2 : 0.0473137460649, Q3 : -0.147711589932, Q4 : 0.293751478195}
2019-04-14 05:17:08.31: SIM {TimeUS : 64135169, Roll : 0.14, Pitch : -17.85, Yaw : 34.56, Alt : 49.3300018311, Lat : 49.2838056, Lng : -123.1147683, Q1 : 0.943213641644, Q2 : 0.0473179481924, Q3 : -0.147839531302, Q4 : 0.293687731028}
2019-04-14 05:17:08.41: SIM {TimeUS : 64235129, Roll : 0.15, Pitch : -17.84, Yaw : 34.55, Alt : 49.3300018311, Lat : 49.2838092, Lng : -123.1147646, Q1 : 0.943247437477, Q2 : 0.0473370999098, Q3 : -0.147728636861, Q4 : 0.293631970882}
2019-04-14 05:17:08.51: SIM {TimeUS : 64335089, Roll : 0.17, Pitch : -17.85, Yaw : 34.54, Alt : 49.3300018311, Lat : 49.2838127, Lng : -123.1147608, Q1 : 0.943259954453, Q2 : 0.0474777854979, Q3 : -0.147727489471, Q4 : 0.293569684029}
2019-04-14 05:17:08.61: SIM {TimeUS : 64435049, Roll : 0.18, Pitch : -17.87, Yaw : 34.53, Alt : 49.3300018311, Lat : 49.283816, Lng : -123.1147571, Q1 : 0.943262279034, Q2 : 0.0475925691426, Q3 : -0.147850677371, Q4 : 0.293481558561}
2019-04-14 05:17:08.71: SIM {TimeUS : 64535009, Roll : 0.18, Pitch : -17.88, Yaw : 34.52, Alt : 49.3300018311, Lat : 49.2838196, Lng : -123.1147533, Q1 : 0.943273603916, Q2 : 0.0476592741907, Q3 : -0.147948384285, Q4 : 0.293384999037}
2019-04-14 05:17:08.81: SIM {TimeUS : 64634969, Roll : 0.19, Pitch : -17.88, Yaw : 34.51, Alt : 49.3300018311, Lat : 49.2838231, Lng : -123.1147496, Q1 : 0.943309187889, Q2 : 0.0477207675576, Q3 : -0.147915512323, Q4 : 0.293277144432}
2019-04-14 05:17:08.91: SIM {TimeUS : 64734929, Roll : 0.2, Pitch : -17.88, Yaw : 34.49, Alt : 49.3300018311, Lat : 49.2838266, Lng : -123.1147458, Q1 : 0.943344831467, Q2 : 0.0477495901287, Q3 : -0.147937729955, Q4 : 0.293146669865}
2019-04-14 05:17:09.01: SIM {TimeUS : 64834889, Roll : 0.18, Pitch : -17.9, Yaw : 34.47, Alt : 49.3300018311, Lat : 49.28383, Lng : -123.114742, Q1 : 0.943368375301, Q2 : 0.0476679392159, Q3 : -0.14813169837, Q4 : 0.292986243963}
2019-04-14 05:17:09.11: SIM {TimeUS : 64934849, Roll : 0.16, Pitch : -17.94, Yaw : 34.46, Alt : 49.3300018311, Lat : 49.2838336, Lng : -123.1147382, Q1 : 0.943371891975, Q2 : 0.0475135147572, Q3 : -0.148519292474, Q4 : 0.292803615332}
2019-04-14 05:17:09.21: SIM {TimeUS : 65034809, Roll : 0.14, Pitch : -17.95, Yaw : 34.44, Alt : 49.3300018311, Lat : 49.2838371, Lng : -123.1147345, Q1 : 0.943400740623, Q2 : 0.0474273860455, Q3 : -0.148637071252, Q4 : 0.292664945126}
2019-04-14 05:17:09.31: SIM {TimeUS : 65134769, Roll : 0.15, Pitch : -17.94, Yaw : 34.43, Alt : 49.3300018311, Lat : 49.2838406, Lng : -123.1147307, Q1 : 0.943441748619, Q2 : 0.0474519953132, Q3 : -0.148565620184, Q4 : 0.292564928532}
2019-04-14 05:17:09.41: SIM {TimeUS : 65234729, Roll : 0.17, Pitch : -17.93, Yaw : 34.41, Alt : 49.3300018311, Lat : 49.283844, Lng : -123.1147269, Q1 : 0.943476676941, Q2 : 0.0475825369358, Q3 : -0.148462891579, Q4 : 0.292483299971}
2019-04-14 05:17:09.51: SIM {TimeUS : 65334689, Roll : 0.19, Pitch : -17.94, Yaw : 34.4, Alt : 49.3300018311, Lat : 49.2838476, Lng : -123.1147231, Q1 : 0.943493366241, Q2 : 0.047694478184, Q3 : -0.148498848081, Q4 : 0.29239282012}
2019-04-14 05:17:09.61: SIM {TimeUS : 65434649, Roll : 0.18, Pitch : -17.96, Yaw : 34.39, Alt : 49.3400001526, Lat : 49.2838512, Lng : -123.1147193, Q1 : 0.94350373745, Q2 : 0.0476620495319, Q3 : -0.1486633569, Q4 : 0.29228118062}
2019-04-14 05:17:09.71: SIM {TimeUS : 65534609, Roll : 0.15, Pitch : -17.97, Yaw : 34.38, Alt : 49.3400001526, Lat : 49.2838547, Lng : -123.1147155, Q1 : 0.943517923355, Q2 : 0.0475005954504, Q3 : -0.148868829012, Q4 : 0.292157053947}
2019-04-14 05:17:09.81: SIM {TimeUS : 65635402, Roll : 0.14, Pitch : -17.99, Yaw : 34.37, Alt : 49.3400001526, Lat : 49.2838583, Lng : -123.1147116, Q1 : 0.943523347378, Q2 : 0.0474296957254, Q3 : -0.149064913392, Q4 : 0.292051047087}
2019-04-14 05:17:09.91: SIM {TimeUS : 65735362, Roll : 0.15, Pitch : -18.01, Yaw : 34.36, Alt : 49.3400001526, Lat : 49.2838617, Lng : -123.1147078, Q1 : 0.943522930145, Q2 : 0.0474954023957, Q3 : -0.149227008224, Q4 : 0.291958838701}
2019-04-14 05:17:10.01: SIM {TimeUS : 65835322, Roll : 0.15, Pitch : -18.03, Yaw : 34.35, Alt : 49.3400001526, Lat : 49.2838652, Lng : -123.114704, Q1 : 0.943528413773, Q2 : 0.0475896522403, Q3 : -0.149311989546, Q4 : 0.291882306337}
2019-04-14 05:17:10.11: SIM {TimeUS : 65935282, Roll : 0.18, Pitch : -18.04, Yaw : 34.34, Alt : 49.3400001526, Lat : 49.2838688, Lng : -123.1147002, Q1 : 0.943528234959, Q2 : 0.0477987341583, Q3 : -0.149333268404, Q4 : 0.291837900877}
2019-04-14 05:17:10.21: SIM {TimeUS : 66035242, Roll : 0.19, Pitch : -18.05, Yaw : 34.33, Alt : 49.3400001526, Lat : 49.2838724, Lng : -123.1146964, Q1 : 0.94352388382, Q2 : 0.047927595675, Q3 : -0.149427711964, Q4 : 0.291782468557}
2019-04-14 05:17:10.31: SIM {TimeUS : 66135202, Roll : 0.2, Pitch : -18.07, Yaw : 34.32, Alt : 49.3400001526, Lat : 49.283876, Lng : -123.1146926, Q1 : 0.943509817123, Q2 : 0.048073142767, Q3 : -0.149572342634, Q4 : 0.291729956865}
2019-04-14 05:17:10.41: SIM {TimeUS : 66235162, Roll : 0.22, Pitch : -18.09, Yaw : 34.32, Alt : 49.3400001526, Lat : 49.2838795, Lng : -123.1146888, Q1 : 0.943496525288, Q2 : 0.0482263565063, Q3 : -0.149695128202, Q4 : 0.291684597731}
2019-04-14 05:17:10.51: SIM {TimeUS : 66335122, Roll : 0.24, Pitch : -18.1, Yaw : 34.31, Alt : 49.3400001526, Lat : 49.2838831, Lng : -123.1146849, Q1 : 0.943486988544, Q2 : 0.0484382584691, Q3 : -0.149735927582, Q4 : 0.291659295559}
2019-04-14 05:17:10.61: SIM {TimeUS : 66435082, Roll : 0.27, Pitch : -18.11, Yaw : 34.31, Alt : 49.3400001526, Lat : 49.2838865, Lng : -123.1146811, Q1 : 0.94347268343, Q2 : 0.0487252920866, Q3 : -0.149745702744, Q4 : 0.291652947664}
2019-04-14 05:17:10.71: SIM {TimeUS : 66535042, Roll : 0.27, Pitch : -18.11, Yaw : 34.3, Alt : 49.3400001526, Lat : 49.2838901, Lng : -123.1146773, Q1 : 0.943489193916, Q2 : 0.0486980676651, Q3 : -0.149717271328, Q4 : 0.291618525982}
