2019-04-14 04:52:09.50: SIM {TimeUS : 40116447, Roll : 0.0, Pitch : 0.0, Yaw : 0.0, Alt : 30.1000003815, Lat : 49.28357, Lng : -123.11502, Q1 : 1.0, Q2 : 0.0, Q3 : 0.0, Q4 : 0.0}
2019-04-14 04:52:09.61: SIM {TimeUS : 40235566, Roll : 0.0, Pitch : 0.0, Yaw : 0.0, Alt : 30.1000003815, Lat : 49.28357, Lng : -123.11502, Q1 : 1.0, Q2 : 0.0, Q3 : 0.0, Q4 : 0.0}
2019-04-14 04:52:09.71: SIM {TimeUS : 40335526, Roll : 0.0, Pitch : 0.0, Yaw : 0.0, Alt : 30.1000003815, Lat : 49.28357, Lng : -123.11502, Q1 : 1.0, Q2 : 0.0, Q3 : 0.0, Q4 : 0.0}
2019-04-14 04:52:09.81: SIM {TimeUS : 40435486, Roll : 0.0, Pitch : 0.0, Yaw : 0.0, Alt : 30.1000003815, Lat : 49.28357, Lng : -123.11502, Q1 : 1.0, Q2 : 0.0, Q3 : 0.0, Q4 : 0.0}
2019-04-14 04:52:09.91: SIM {TimeUS : 40535446, Roll : 0.0, Pitch : 0.0, Yaw : 0.0, Alt : 30.1000003815, Lat : 49.28357, Lng : -123.11502, Q1 : 1.0, Q2 : 0.0, Q3 : 0.0, Q4 : 0.0}
2019-04-14 04:52:10.01: SIM {TimeUS : 40635406, Roll : 0.0, Pitch : 0.0, Yaw : 0.0, Alt : 30.1000003815, Lat : 49.28357, Lng : -123.11502, Q1 : 1.0, Q2 : 0.0, Q3 : 0.0, Q4 : 0.0}
2019-04-14 04:52:10.11: SIM {TimeUS : 40735366, Roll : 0.0, Pitch : 0.0, Yaw : 0.0, Alt : 30.1000003815, Lat : 49.28357, Lng : -123.11502, Q1 : 1.0, Q2 : 0.0, Q3 : 0.0, Q4 : 0.0}
2019-04-14 04:52:10.21: SIM {TimeUS : 40835326, Roll : 0.0, Pitch : 0.0, Yaw : 0.0, Alt : 30.1000003815, Lat : 49.28357, Lng : -123.11502, Q1 : 1.0, Q2 : 0.0, Q3 : 0.0, Q4 : 0.0}
2019-04-14 04:52:10.31: SIM {TimeUS : 40935286, Roll : 0.0, Pitch : 0.0, Yaw : 0.0, Alt : 30.1000003815, Lat : 49.28357, Lng : -123.11502, Q1 : 1.0, Q2 : 0.0, Q3 : 0.0, Q4 : 0.0}
2019-04-14 04:52:10.41: SIM {TimeUS : 41035246, Roll : 0.0, Pitch : 0.0, Yaw : 0.0, Alt : 30.1000003815, Lat : 49.28357, Lng : -123.11502, Q1 : 1.0, Q2 : 0.0, Q3 : 0.0, Q4 : 0.0}
2019-04-14 04:52:10.51: SIM {TimeUS : 41135206, Roll : 0.0, Pitch : 0.0, Yaw : 0.0, Alt : 30.1000003815, Lat : 49.28357, Lng : -123.11502, Q1 : 1.0, Q2 : 0.0, Q3 : 0.0, Q4 : 0.0}
2019-04-14 04:52:10.61: SIM {TimeUS : 41235166, Roll : 0.0, Pitch : 0.0, Yaw : 0.0, Alt : 30.1000003815, Lat : 49.28357, Lng : -123.11502, Q1 : 1.0, Q2 : 0.0, Q3 : 0.0, Q4 : 0.0}
2019-04-14 04:52:10.71: SIM {TimeUS : 41335126, Roll : 0.0, Pitch : 0.0, Yaw : 0.0, Alt : 30.1000003815, Lat : 49.28357, Lng : -123.11502, Q1 : 1.0, Q2 : 0.0, Q3 : 0.0, Q4 : 0.0}
2019-04-14 04:52:10.81: SIM {TimeUS : 41435086, Roll : 0.0, Pitch : 0.0, Yaw : 0.0, Alt : 30.1000003815, Lat : 49.28357, Lng : -123.11502, Q1 : 1.0, Q2 : 0.0, Q3 : 0.0, Q4 : 0.0}
2019-04-14 04:52:10.91: SIM {TimeUS : 41535046, Roll : 0.0, Pitch : 0.0, Yaw : 0.0, Alt : 30.1000003815, Lat : 49.28357, Lng : -123.11502, Q1 : 1.0, Q2 : 0.0, Q3 : 0.0, Q4 : 0.0}
2019-04-14 04:52:11.01: SIM {TimeUS : 41635006, Roll : 0.0, Pitch : 0.0, Yaw : 0.0, Alt : 30.1000003815, Lat : 49.28357, Lng : -123.11502, Q1 : 1.0, Q2 : 0.0, Q3 : 0.0, Q4 : 0.0}
2019-04-14 04:52:11.11: SIM {TimeUS : 41734966, Roll : 0.0, Pitch : 0.0, Yaw : 0.0, Alt : 30.1000003815, Lat : 49.28357, Lng : -123.11502, Q1 : 1.0, Q2 : 0.0, Q3 : 0.0, Q4 : 0.0}
2019-04-14 04:52:11.21: SIM {TimeUS : 41834926, Roll : 0.0, Pitch : 0.0, Yaw : 0.0, Alt : 30.1000003815, Lat : 49.28357, Lng : -123.11502, Q1 : 1.0, Q2 : 0.0, Q3 : 0.0, Q4 : 0.0}
2019-04-14 04:52:11.31: SIM {TimeUS : 41934886, Roll : 0.0, Pitch : 0.0, Yaw : 0.0, Alt : 30.1000003815, Lat : 49.28357, Lng : -123.11502, Q1 : 1.0, Q2 : 0.0, Q3 : 0.0, Q4 : 0.0}
2019-04-14 04:52:11.41: SIM {TimeUS : 42034846, Roll : 0.0, Pitch : 0.0, Yaw : 0.0, Alt : 30.1000003815, Lat : 49.28357, Lng : -123.11502, Q1 : 1.0, Q2 : 0.0, Q3 : 0.0, Q4 : 0.0}
2019-04-14 04:52:11.51: SIM {TimeUS : 42134806, Roll : 0.0, Pitch : 0.0, Yaw : 0.0, Alt : 30.1000003815, Lat : 49.28357, Lng : -123.11502, Q1 : 1.0, Q2 : 0.0, Q3 : 0.0, Q4 : 0.0}
2019-04-14 04:52:11.62: SIM {TimeUS : 42235599, Roll : 0.0, Pitch : 0.0, Yaw : 0.0, Alt : 30.1000003815, Lat : 49.28357, Lng : -123.11502, Q1 : 1.0, Q2 : 0.0, Q3 : 0.0, Q4 : 0.0}
2019-04-14 04:52:11.71: SIM {TimeUS : 42335559, Roll : 0.0, Pitch : 0.0, Yaw : 0.0, Alt : 30.1000003815, Lat : 49.28357, Lng : -123.11502, Q1 : 1.0, Q2 : 0.0, Q3 : 0.0, Q4 : 0.0}
2019-04-14 04:52:11.81: SIM {TimeUS : 42435519, Roll : 0.0, Pitch : 0.0, Yaw : 0.0, Alt : 30.1000003815, Lat : 49.28357, Lng : -123.11502, Q1 : 1.0, Q2 : 0.0, Q3 : 0.0, Q4 : 2.92034322072e-12}
2019-04-14 04:52:11.91: SIM {TimeUS : 42535479, Roll : 0.0, Pitch : 0.0, Yaw : 0.0, Alt : 30.1000003815, Lat : 49.28357, Lng : -123.11502, Q1 : 1.0, Q2 : 0.0, Q3 : 0.0, Q4 : 6.72381109124e-11}
2019-04-14 04:52:12.01: SIM {TimeUS : 42635439, Roll : 0.0, Pitch : 0.0, Yaw : 360.0, Alt : 30.1000003815, Lat : 49.28357, Lng : -123.11502, Q1 : 1.0, Q2 : 0.0, Q3 : 0.0, Q4 : -8.86494859742e-08}
2019-04-14 04:52:12.11: SIM {TimeUS : 42735399, Roll : 0.0, Pitch : 0.0, Yaw : 359.99, Alt : 30.1000003815, Lat : 49.28357, Lng : -123.11502, Q1 : 1.0, Q2 : 0.0, Q3 : 0.0, Q4 : -2.48594830055e-07}
2019-04-14 04:52:12.21: SIM {TimeUS : 42835359, Roll : 0.0, Pitch : 0.0, Yaw : 359.99, Alt : 30.1000003815, Lat : 49.28357, Lng : -123.11502, Q1 : 1.0, Q2 : 0.0, Q3 : 0.0, Q4 : -4.24121765263e-07}
2019-04-14 04:52:12.31: SIM {TimeUS : 42935319, Roll : 0.0, Pitch : 0.0, Yaw : 359.99, Alt : 30.1000003815, Lat : 49.28357, Lng : -123.11502, Q1 : 1.0, Q2 : 0.0, Q3 : 0.0, Q4 : -6.2700860326e-07}
2019-04-14 04:52:12.41: SIM {TimeUS : 43035279, Roll : 0.0, Pitch : 0.0, Yaw : 359.99, Alt : 30.1000003815, Lat : 49.28357, Lng : -123.11502, Q1 : 1.0, Q2 : 0.0, Q3 : 0.0, Q4 : -8.15926853193e-07}
2019-04-14 04:52:12.51: SIM {TimeUS : 43135239, Roll : 0.0, Pitch : 0.0, Yaw : 359.99, Alt : 30.1000003815, Lat : 49.28357, Lng : -123.11502, Q1 : 1.0, Q2 : 0.0, Q3 : 0.0, Q4 : -1.00891804777e-06}
2019-04-14 04:52:12.61: SIM {TimeUS : 43235199, Roll : 0.0, Pitch : 0.0, Yaw : 359.99, Alt : 30.1000003815, Lat : 49.28357, Lng : -123.11502, Q1 : 1.0, Q2 : 0.0, Q3 : 0.0, Q4 : -1.2421229485e-06}
2019-04-14 04:52:12.71: SIM {TimeUS : 43335159, Roll : 0.0, Pitch : 0.0, Yaw : 359.99, Alt : 30.1100006104, Lat : 49.28357, Lng : -123.11502, Q1 : 1.0, Q2 : 0.0, Q3 : 0.0, Q4 : -1.46643697008e-06}
2019-04-14 04:52:12.81: SIM {TimeUS : 43435119, Roll : 0.0, Pitch : 0.0, Yaw : 359.99, Alt : 30.1299991608, Lat : 49.28357, Lng : -123.11502, Q1 : 1.0, Q2 : 0.0, Q3 : 0.0, Q4 : -1.71044564468e-06}
2019-04-14 04:52:12.91: SIM {TimeUS : 43535079, Roll : 0.0, Pitch : 0.0, Yaw : 359.99, Alt : 30.1599998474, Lat : 49.28357, Lng : -123.11502, Q1 : 1.0, Q2 : 0.0, Q3 : 0.0, Q4 : -1.95760890165e-06}
2019-04-14 04:52:13.01: SIM {TimeUS : 43635039, Roll : 0.0, Pitch : 0.0, Yaw : 359.99, Alt : 30.1900005341, Lat : 49.28357, Lng : -123.11502, Q1 : 1.0, Q2 : 0.0, Q3 : 0.0, Q4 : -2.17602018893e-06}
2019-04-14 04:52:13.11: SIM {TimeUS : 43734999, Roll : -0.03, Pitch : -0.03, Yaw : 359.99, Alt : 30.2299995422, Lat : 49.28357, Lng : -123.11502, Q1 : 0.999999940395, Q2 : -0.000305180117721, Q3 : -0.000302551401546, Q4 : -4.5205247261e-06}
2019-04-14 04:52:13.21: SIM {TimeUS : 43834959, Roll : -0.29, Pitch : -0.26, Yaw : 359.99, Alt : 30.3099994659, Lat : 49.28357, Lng : -123.11502, Q1 : 0.999994039536, Q2 : -0.00259080529213, Q3 : -0.00228257104754, Q4 : -2.80574204226e-05}
2019-04-14 04:52:13.31: SIM {TimeUS : 43934919, Roll : -0.61, Pitch : -0.5, Yaw : 359.99, Alt : 30.4400005341, Lat : 49.28357, Lng : -123.11502, Q1 : 0.999975800514, Q2 : -0.00537516223267, Q3 : -0.00441657984629, Q4 : -7.47422673157e-05}
2019-04-14 04:52:13.41: SIM {TimeUS : 44034879, Roll : -0.81, Pitch : -0.65, Yaw : 359.98, Alt : 30.5900001526, Lat : 49.28357, Lng : -123.11502, Q1 : 0.999958097935, Q2 : -0.0071338377893, Q3 : -0.00573544856161, Q4 : -0.000147622849909}
2019-04-14 04:52:13.51: SIM {TimeUS : 44134839, Roll : -0.85, Pitch : -0.68, Yaw : 359.97, Alt : 30.75, Lat : 49.28357, Lng : -123.11502, Q1 : 0.999954342842, Q2 : -0.0074360743165, Q3 : -0.00599739933386, Q4 : -0.000234441657085}
2019-04-14 04:52:13.61: SIM {TimeUS : 44234799, Roll : -0.75, Pitch : -0.61, Yaw : 359.96, Alt : 30.9099998474, Lat : 49.28357, Lng : -123.1150201, Q1 : 0.999964058399, Q2 : -0.00658225174993, Q3 : -0.00533942133188, Q4 : -0.000324032327626}
2019-04-14 04:52:13.72: SIM {TimeUS : 44335592, Roll : -0.56, Pitch : -0.46, Yaw : 359.95, Alt : 31.0599994659, Lat : 49.2835701, Lng : -123.1150202, Q1 : 0.999979615211, Q2 : -0.00491439225152, Q3 : -0.00405566208065, Q4 : -0.000412649271311}
2019-04-14 04:52:13.81: SIM {TimeUS : 44435552, Roll : -0.32, Pitch : -0.3, Yaw : 359.94, Alt : 31.2199993134, Lat : 49.2835701, Lng : -123.1150202, Q1 : 0.999992311001, Q2 : -0.00280746934004, Q3 : -0.00268898764625, Q4 : -0.000482415460283}
2019-04-14 04:52:13.91: SIM {TimeUS : 44535512, Roll : -0.11, Pitch : -0.15, Yaw : 359.93, Alt : 31.3899993896, Lat : 49.2835702, Lng : -123.1150203, Q1 : 0.999998450279, Q2 : -0.000967225409113, Q3 : -0.00137673062272, Q4 : -0.000530929071829}
2019-04-14 04:52:14.01: SIM {TimeUS : 44635472, Roll : 0.01, Pitch : -0.03, Yaw : 359.93, Alt : 31.5599994659, Lat : 49.2835702, Lng : -123.1150204, Q1 : 0.999999761581, Q2 : 0.000126594968606, Q3 : -0.000320651422953, Q4 : -0.000566447153687}
2019-04-14 04:52:14.11: SIM {TimeUS : 44735432, Roll : 0.06, Pitch : 0.02, Yaw : 359.93, Alt : 31.7299995422, Lat : 49.2835703, Lng : -123.1150205, Q1 : 0.999999642372, Q2 : 0.000579151441343, Q3 : 0.000259157968685, Q4 : -0.000584646593779}
2019-04-14 04:52:14.21: SIM {TimeUS : 44835392, Roll : 0.06, Pitch : 0.04, Yaw : 359.93, Alt : 31.9099998474, Lat : 49.2835703, Lng : -123.1150206, Q1 : 0.999999582767, Q2 : 0.000589049828704, Q3 : 0.000421409262344, Q4 : -0.000591317832004}
2019-04-14 04:52:14.31: SIM {TimeUS : 44935352, Roll : 0.06, Pitch : 0.04, Yaw : 359.93, Alt : 32.0999984741, Lat : 49.2835703, Lng : -123.1150206, Q1 : 0.999999642372, Q2 : 0.00053530576406, Q3 : 0.000376626412617, Q4 : -0.000584124412853}
2019-04-14 04:52:14.41: SIM {TimeUS : 45035312, Roll : 0.06, Pitch : 0.02, Yaw : 359.93, Alt : 32.2900009155, Lat : 49.2835703, Lng : -123.1150207, Q1 : 0.999999642372, Q2 : 0.000558912579436, Q3 : 0.000246999581577, Q4 : -0.000566247676034}
2019-04-14 04:52:14.51: SIM {TimeUS : 45135272, Roll : 0.08, Pitch : 0.02, Yaw : 359.93, Alt : 32.4799995422, Lat : 49.2835703, Lng : -123.1150207, Q1 : 0.999999582767, Q2 : 0.000704642035998, Q3 : 0.000194852967979, Q4 : -0.000553391757421}
2019-04-14 04:52:14.61: SIM {TimeUS : 45235232, Roll : 0.1, Pitch : 0.04, Yaw : 359.93, Alt : 32.6800003052, Lat : 49.2835703, Lng : -123.1150208, Q1 : 0.999999344349, Q2 : 0.000898618251085, Q3 : 0.00042023442802, Q4 : -0.000543572416063}
2019-04-14 04:52:14.71: SIM {TimeUS : 45335192, Roll : 0.12, Pitch : 0.1, Yaw : 359.93, Alt : 32.8800010681, Lat : 49.2835704, Lng : -123.1150208, Q1 : 0.999998807907, Q2 : 0.00109084171709, Q3 : 0.000914831703994, Q4 : -0.00053908576956}
2019-04-14 04:52:14.81: SIM {TimeUS : 45435152, Roll : 0.13, Pitch : 0.16, Yaw : 359.93, Alt : 33.0800018311, Lat : 49.2835704, Lng : -123.1150208, Q1 : 0.999998152256, Q2 : 0.00122014374938, Q3 : 0.00139842543285, Q4 : -0.000537370739039}
2019-04-14 04:52:14.91: SIM {TimeUS : 45535112, Roll : 0.16, Pitch : 0.2, Yaw : 359.93, Alt : 33.2799987793, Lat : 49.2835704, Lng : -123.1150209, Q1 : 0.999997317791, Q2 : 0.0014152469812, Q3 : 0.00174562889151, Q4 : -0.000539519882295}
2019-04-14 04:52:15.01: SIM {TimeUS : 45635072, Roll : 0.18, Pitch : 0.21, Yaw : 359.93, Alt : 33.4799995422, Lat : 49.2835704, Lng : -123.1150209, Q1 : 0.999996781349, Q2 : 0.00162826490123, Q3 : 0.00186429987662, Q4 : -0.000542988651432}
2019-04-14 04:52:15.11: SIM {TimeUS : 45735032, Roll : 0.2, Pitch : 0.21, Yaw : 359.93, Alt : 33.6899986267, Lat : 49.2835704, Lng : -123.1150209, Q1 : 0.999996542931, Q2 : 0.00175703200512, Q3 : 0.00187569460832, Q4 : -0.00054478016682}
2019-04-14 04:52:15.21: SIM {TimeUS : 45834992, Roll : 0.18, Pitch : 0.2, Yaw : 359.93, Alt : 33.9000015259, Lat : 49.2835706, Lng : -123.1150209, Q1 : 0.999996840954, Q2 : 0.00163382408209, Q3 : 0.00180639803875, Q4 : -0.000556271290407}
2019-04-14 04:52:15.31: SIM {TimeUS : 45934952, Roll : 0.16, Pitch : 0.16, Yaw : 359.93, Alt : 34.1100006104, Lat : 49.2835706, Lng : -123.1150209, Q1 : 0.999997794628, Q2 : 0.00143938988913, Q3 : 0.00142990343738, Q4 : -0.000563140260056}
2019-04-14 04:52:15.41: SIM {TimeUS : 46034912, Roll : 0.13, Pitch : 0.09, Yaw : 359.93, Alt : 34.3199996948, Lat : 49.2835706, Lng : -123.1150209, Q1 : 0.999998748302, Q2 : 0.00119889923371, Q3 : 0.000866420799866, Q4 : -0.000555747188628}
2019-04-14 04:52:15.51: SIM {TimeUS : 46134872, Roll : 0.1, Pitch : 0.05, Yaw : 359.93, Alt : 34.5299987793, Lat : 49.2835706, Lng : -123.1150209, Q1 : 0.999999284744, Q2 : 0.000942972255871, Q3 : 0.00046043866314, Q4 : -0.000558172760066}
2019-04-14 04:52:15.61: SIM {TimeUS : 46234832, Roll : 0.08, Pitch : 0.02, Yaw : 359.93, Alt : 34.75, Lat : 49.2835706, Lng : -123.1150209, Q1 : 0.999999582767, Q2 : 0.000712813343853, Q3 : 0.000240404202486, Q4 : -0.000573451397941}
2019-04-14 04:52:15.71: SIM {TimeUS : 46334792, Roll : 0.07, Pitch : 0.02, Yaw : 359.93, Alt : 34.9599990845, Lat : 49.2835706, Lng : -123.1150208, Q1 : 0.999999582767, Q2 : 0.00061247847043, Q3 : 0.00024158625456, Q4 : -0.000598288024776}
2019-04-14 04:52:15.82: SIM {TimeUS : 46435585, Roll : 0.06, Pitch : 0.02, Yaw : 359.92, Alt : 35.1800003052, Lat : 49.2835706, Lng : -123.1150208, Q1 : 0.999999582767, Q2 : 0.000580301391892, Q3 : 0.000247612537351, Q4 : -0.000635934760794}
2019-04-14 04:52:15.91: SIM {TimeUS : 46535545, Roll : 0.05, Pitch : 0.03, Yaw : 359.92, Alt : 35.4000015259, Lat : 49.2835706, Lng : -123.1150208, Q1 : 0.999999582767, Q2 : 0.000496792956255, Q3 : 0.000292722921586, Q4 : -0.000674537557643}
2019-04-14 04:52:16.01: SIM {TimeUS : 46635505, Roll : 0.04, Pitch : 0.04, Yaw : 359.91, Alt : 35.6100006104, Lat : 49.2835706, Lng : -123.1150208, Q1 : 0.999999582767, Q2 : 0.000366596650565, Q3 : 0.000407028826885, Q4 : -0.000714921683539}
2019-04-14 04:52:16.11: SIM {TimeUS : 46735465, Roll : 0.02, Pitch : 0.06, Yaw : 359.91, Alt : 35.8300018311, Lat : 49.2835704, Lng : -123.1150208, Q1 : 0.999999523163, Q2 : 0.000220414236537, Q3 : 0.00057608372299, Q4 : -0.000753419473767}
2019-04-14 04:52:16.21: SIM {TimeUS : 46835425, Roll : 0.01, Pitch : 0.06, Yaw : 359.91, Alt : 36.0499992371, Lat : 49.2835704, Lng : -123.1150208, Q1 : 0.999999523163, Q2 : 0.000104935206764, Q3 : 0.000530910736416, Q4 : -0.000777725304943}
2019-04-14 04:52:16.31: SIM {TimeUS : 46935385, Roll : 0.0, Pitch : 0.04, Yaw : 359.9, Alt : 36.2799987793, Lat : 49.2835704, Lng : -123.1150207, Q1 : 0.999999582767, Q2 : 2.30553587244e-06, Q3 : 0.00043308880413, Q4 : -0.00079780863598}
2019-04-14 04:52:16.41: SIM {TimeUS : 47035345, Roll : -0.01, Pitch : 0.03, Yaw : 359.9, Alt : 36.5, Lat : 49.2835704, Lng : -123.1150207, Q1 : 0.999999582767, Q2 : -0.000145910336869, Q3 : 0.000340789789334, Q4 : -0.000817132997327}
2019-04-14 04:52:16.51: SIM {TimeUS : 47135305, Roll : -0.02, Pitch : 0.03, Yaw : 359.9, Alt : 36.7200012207, Lat : 49.2835704, Lng : -123.1150207, Q1 : 0.999999582767, Q2 : -0.000243786649662, Q3 : 0.000295618490782, Q4 : -0.000835177022964}
2019-04-14 04:52:16.61: SIM {TimeUS : 47235265, Roll : -0.01, Pitch : 0.02, Yaw : 359.9, Alt : 36.9399986267, Lat : 49.2835704, Lng : -123.1150207, Q1 : 0.999999582767, Q2 : -0.000150117222802, Q3 : 0.000235476865782, Q4 : -0.000852409400977}
2019-04-14 04:52:16.71: SIM {TimeUS : 47335225, Roll : -0.01, Pitch : 0.0, Yaw : 359.9, Alt : 37.1699981689, Lat : 49.2835704, Lng : -123.1150207, Q1 : 0.999999642372, Q2 : -0.000145963946125, Q3 : 6.97835566825e-05, Q4 : -0.00087010167772}
2019-04-14 04:52:16.81: SIM {TimeUS : 47435185, Roll : -0.03, Pitch : -0.02, Yaw : 359.89, Alt : 37.3899993896, Lat : 49.2835704, Lng : -123.1150207, Q1 : 0.999999523163, Q2 : -0.000322591571603, Q3 : -0.000251629564445, Q4 : -0.000887245347258}
2019-04-14 04:52:16.91: SIM {TimeUS : 47535145, Roll : -0.07, Pitch : -0.06, Yaw : 359.89, Alt : 37.6199989319, Lat : 49.2835704, Lng : -123.1150207, Q1 : 0.99999922514, Q2 : -0.000627717934549, Q3 : -0.000557587307412, Q4 : -0.000908856512979}
2019-04-14 04:52:17.01: SIM {TimeUS : 47635105, Roll : -0.1, Pitch : -0.08, Yaw : 359.89, Alt : 37.8400001526, Lat : 49.2835704, Lng : -123.1150206, Q1 : 0.999998927116, Q2 : -0.000913241005037, Q3 : -0.00071319140261, Q4 : -0.000933591101784}
2019-04-14 04:52:17.11: SIM {TimeUS : 47735065, Roll : -0.12, Pitch : -0.09, Yaw : 359.88, Alt : 38.0699996948, Lat : 49.2835704, Lng : -123.1150206, Q1 : 0.999998629093, Q2 : -0.00108551129233, Q3 : -0.000792056496721, Q4 : -0.00096156517975}
2019-04-14 04:52:17.21: SIM {TimeUS : 47835025, Roll : -0.12, Pitch : -0.08, Yaw : 359.88, Alt : 38.2999992371, Lat : 49.2835704, Lng : -123.1150206, Q1 : 0.999998569489, Q2 : -0.00113291596062, Q3 : -0.000769187521655, Q4 : -0.000992546789348}
2019-04-14 04:52:17.31: SIM {TimeUS : 47934985, Roll : -0.11, Pitch : -0.06, Yaw : 359.88, Alt : 38.5299987793, Lat : 49.2835704, Lng : -123.1150206, Q1 : 0.999998807907, Q2 : -0.00100406492129, Q3 : -0.000576753751375, Q4 : -0.00102244666778}
2019-04-14 04:52:17.41: SIM {TimeUS : 48034945, Roll : -0.08, Pitch : -0.05, Yaw : 359.87, Alt : 38.75, Lat : 49.2835704, Lng : -123.1150206, Q1 : 0.999999046326, Q2 : -0.000779354886618, Q3 : -0.000481066381326, Q4 : -0.00104936643038}
2019-04-14 04:52:17.51: SIM {TimeUS : 48134905, Roll : -0.07, Pitch : -0.05, Yaw : 359.87, Alt : 38.9799995422, Lat : 49.2835704, Lng : -123.1150206, Q1 : 0.99999910593, Q2 : -0.00063116219826, Q3 : -0.000476823217468, Q4 : -0.00107944488991}
2019-04-14 04:52:17.61: SIM {TimeUS : 48234865, Roll : -0.06, Pitch : -0.03, Yaw : 359.87, Alt : 39.2099990845, Lat : 49.2835704, Lng : -123.1150206, Q1 : 0.99999922514, Q2 : -0.000559815263841, Q3 : -0.000293331017019, Q4 : -0.00109726481605}
2019-04-14 04:52:17.71: SIM {TimeUS : 48334825, Roll : -0.07, Pitch : 0.0, Yaw : 359.87, Alt : 39.4399986267, Lat : 49.2835704, Lng : -123.1150206, Q1 : 0.999999165535, Q2 : -0.000667426851578, Q3 : -5.71698401473e-05, Q4 : -0.0011111642234}
2019-04-14 04:52:17.81: SIM {TimeUS : 48434785, Roll : -0.07, Pitch : 0.01, Yaw : 359.87, Alt : 39.6699981689, Lat : 49.2835704, Lng : -123.1150206, Q1 : 0.999999165535, Q2 : -0.000653935421724, Q3 : 0.00013670885528, Q4 : -0.00112457899377}
2019-04-14 04:52:17.92: SIM {TimeUS : 48535578, Roll : -0.05, Pitch : 0.04, Yaw : 359.86, Alt : 39.9099998474, Lat : 49.2835704, Lng : -123.1150206, Q1 : 0.999999165535, Q2 : -0.00048063340364, Q3 : 0.000416990718804, Q4 : -0.0011435985798}
2019-04-14 04:52:18.01: SIM {TimeUS : 48635538, Roll : -0.02, Pitch : 0.05, Yaw : 359.86, Alt : 40.1399993896, Lat : 49.2835704, Lng : -123.1150207, Q1 : 0.99999922514, Q2 : -0.000250854616752, Q3 : 0.000455758243334, Q4 : -0.00115820753854}
2019-04-14 04:52:18.11: SIM {TimeUS : 48735498, Roll : 0.0, Pitch : 0.05, Yaw : 359.86, Alt : 40.3699989319, Lat : 49.2835704, Lng : -123.1150207, Q1 : 0.99999922514, Q2 : 1.22759211081e-05, Q3 : 0.000437907059677, Q4 : -0.00116663868539}
2019-04-14 04:52:18.21: SIM {TimeUS : 48835458, Roll : 0.03, Pitch : 0.06, Yaw : 359.86, Alt : 40.5999984741, Lat : 49.2835704, Lng : -123.1150207, Q1 : 0.99999910593, Q2 : 0.000293293880532, Q3 : 0.000546118651982, Q4 : -0.00117791979574}
2019-04-14 04:52:18.31: SIM {TimeUS : 48935418, Roll : 0.07, Pitch : 0.09, Yaw : 359.86, Alt : 40.8300018311, Lat : 49.2835706, Lng : -123.1150207, Q1 : 0.999998748302, Q2 : 0.000694714020938, Q3 : 0.00080575759057, Q4 : -0.00119264074601}
2019-04-14 04:52:18.41: SIM {TimeUS : 49035378, Roll : 0.1, Pitch : 0.12, Yaw : 359.86, Alt : 41.0699996948, Lat : 49.2835706, Lng : -123.1150207, Q1 : 0.999998271465, Q2 : 0.00093291956, Q3 : 0.00106710009277, Q4 : -0.00121249142103}
2019-04-14 04:52:18.51: SIM {TimeUS : 49135338, Roll : 0.09, Pitch : 0.14, Yaw : 359.85, Alt : 41.2999992371, Lat : 49.2835706, Lng : -123.1150207, Q1 : 0.999998152256, Q2 : 0.000823663780466, Q3 : 0.00125378090888, Q4 : -0.00122550153174}
2019-04-14 04:52:18.61: SIM {TimeUS : 49235298, Roll : 0.04, Pitch : 0.15, Yaw : 359.85, Alt : 41.5299987793, Lat : 49.2835706, Lng : -123.1150207, Q1 : 0.999998211861, Q2 : 0.000402232137276, Q3 : 0.00135365512688, Q4 : -0.00124101073015}
2019-04-14 04:52:18.71: SIM {TimeUS : 49335258, Roll : 0.0, Pitch : 0.15, Yaw : 359.85, Alt : 41.7599983215, Lat : 49.2835706, Lng : -123.1150207, Q1 : 0.999998271465, Q2 : 1.28216288431e-06, Q3 : 0.00138034764677, Q4 : -0.00126046303194}
2019-04-14 04:52:18.81: SIM {TimeUS : 49435218, Roll : -0.01, Pitch : 0.12, Yaw : 359.85, Alt : 42.0, Lat : 49.2835706, Lng : -123.1150207, Q1 : 0.999998509884, Q2 : -0.000153452972881, Q3 : 0.00113355915528, Q4 : -0.00127921032254}
2019-04-14 04:52:18.91: SIM {TimeUS : 49535178, Roll : -0.02, Pitch : 0.09, Yaw : 359.85, Alt : 42.2299995422, Lat : 49.2835706, Lng : -123.1150207, Q1 : 0.999998807907, Q2 : -0.000177676774911, Q3 : 0.000820665329229, Q4 : -0.00129671499599}
2019-04-14 04:52:19.01: SIM {TimeUS : 49635138, Roll : 0.0, Pitch : 0.09, Yaw : 359.84, Alt : 42.4700012207, Lat : 49.2835706, Lng : -123.1150207, Q1 : 0.999998807907, Q2 : -7.48213860788e-05, Q3 : 0.000822846021038, Q4 : -0.00132029049564}
2019-04-14 04:52:19.11: SIM {TimeUS : 49735098, Roll : 0.02, Pitch : 0.11, Yaw : 359.84, Alt : 42.7000007629, Lat : 49.2835706, Lng : -123.1150207, Q1 : 0.999998509884, Q2 : 0.000239997185417, Q3 : 0.00101638573688, Q4 : -0.00135697901715}
2019-04-14 04:52:19.21: SIM {TimeUS : 49835058, Roll : 0.07, Pitch : 0.13, Yaw : 359.84, Alt : 42.9399986267, Lat : 49.2835706, Lng : -123.1150207, Q1 : 0.999998092651, Q2 : 0.000669654109515, Q3 : 0.00120748067275, Q4 : -0.00139358628076}
2019-04-14 04:52:19.31: SIM {TimeUS : 49935018, Roll : 0.11, Pitch : 0.13, Yaw : 359.83, Alt : 43.1699981689, Lat : 49.2835704, Lng : -123.1150207, Q1 : 0.999997854233, Q2 : 0.00098542496562, Q3 : 0.00114786450285, Q4 : -0.00143335247412}
2019-04-14 04:52:19.41: SIM {TimeUS : 50034978, Roll : 0.11, Pitch : 0.11, Yaw : 359.83, Alt : 43.4099998474, Lat : 49.2835704, Lng : -123.1150207, Q1 : 0.999997973442, Q2 : 0.00100810127333, Q3 : 0.00095928326482, Q4 : -0.00146807462443}
2019-04-14 04:52:19.51: SIM {TimeUS : 50134938, Roll : 0.07, Pitch : 0.09, Yaw : 359.83, Alt : 43.6399993896, Lat : 49.2835704, Lng : -123.1150207, Q1 : 0.99999833107, Q2 : 0.000677699688822, Q3 : 0.00081262603635, Q4 : -0.00148200138938}
2019-04-14 04:52:19.61: SIM {TimeUS : 50234898, Roll : 0.02, Pitch : 0.08, Yaw : 359.82, Alt : 43.8800010681, Lat : 49.2835704, Lng : -123.1150207, Q1 : 0.999998569489, Q2 : 0.000201106347959, Q3 : 0.000768084602896, Q4 : -0.00149051914923}
2019-04-14 04:52:19.71: SIM {TimeUS : 50334858, Roll : -0.01, Pitch : 0.09, Yaw : 359.82, Alt : 44.1100006104, Lat : 49.2835704, Lng : -123.1150207, Q1 : 0.999998509884, Q2 : -0.000128327912535, Q3 : 0.000829581927974, Q4 : -0.00150334404316}
2019-04-14 04:52:19.81: SIM {TimeUS : 50434818, Roll : -0.03, Pitch : 0.08, Yaw : 359.82, Alt : 44.3499984741, Lat : 49.2835704, Lng : -123.1150206, Q1 : 0.999998509884, Q2 : -0.000293728575343, Q3 : 0.000774303509388, Q4 : -0.00151879398618}
2019-04-14 04:52:19.91: SIM {TimeUS : 50534778, Roll : -0.03, Pitch : 0.06, Yaw : 359.82, Alt : 44.5800018311, Lat : 49.2835704, Lng : -123.1150206, Q1 : 0.999998629093, Q2 : -0.0003047119244, Q3 : 0.000534931547008, Q4 : -0.00154360756278}
2019-04-14 04:52:20.01: SIM {TimeUS : 50635571, Roll : -0.04, Pitch : 0.03, Yaw : 359.81, Alt : 44.8199996948, Lat : 49.2835704, Lng : -123.1150206, Q1 : 0.999998629093, Q2 : -0.000374787428882, Q3 : 0.000287733622827, Q4 : -0.00158237258438}
2019-04-14 04:52:20.11: SIM {TimeUS : 50735531, Roll : -0.03, Pitch : 0.0, Yaw : 359.81, Alt : 45.0600013733, Lat : 49.2835704, Lng : -123.1150206, Q1 : 0.999998629093, Q2 : -0.00034704778227, Q3 : 7.96096646809e-05, Q4 : -0.00162664835807}
2019-04-14 04:52:20.21: SIM {TimeUS : 50835491, Roll : -0.02, Pitch : 0.0, Yaw : 359.8, Alt : 45.2900009155, Lat : 49.2835703, Lng : -123.1150206, Q1 : 0.999998569489, Q2 : -0.000205105752684, Q3 : -5.24159077031e-06, Q4 : -0.00167316850275}
2019-04-14 04:52:20.31: SIM {TimeUS : 50935451, Roll : -0.01, Pitch : 0.0, Yaw : 359.8, Alt : 45.5299987793, Lat : 49.2835703, Lng : -123.1150206, Q1 : 0.999998509884, Q2 : -0.000174419648829, Q3 : -8.72711007105e-06, Q4 : -0.00171767547727}
2019-04-14 04:52:20.41: SIM {TimeUS : 51035411, Roll : -0.02, Pitch : 0.0, Yaw : 359.79, Alt : 45.7599983215, Lat : 49.2835703, Lng : -123.1150206, Q1 : 0.999998390675, Q2 : -0.000243936068728, Q3 : -5.89019909967e-05, Q4 : -0.00176065601408}
2019-04-14 04:52:20.51: SIM {TimeUS : 51135371, Roll : -0.03, Pitch : -0.02, Yaw : 359.79, Alt : 46.0, Lat : 49.2835703, Lng : -123.1150206, Q1 : 0.999998271465, Q2 : -0.000315173529088, Q3 : -0.000234830396948, Q4 : -0.00179944874253}
2019-04-14 04:52:20.61: SIM {TimeUS : 51235331, Roll : -0.03, Pitch : -0.03, Yaw : 359.78, Alt : 46.2200012207, Lat : 49.2835703, Lng : -123.1150206, Q1 : 0.999998211861, Q2 : -0.00030340361991, Q3 : -0.000317737984005, Q4 : -0.00183475145604}
2019-04-14 04:52:20.71: SIM {TimeUS : 51335291, Roll : -0.02, Pitch : -0.03, Yaw : 359.78, Alt : 46.4500007629, Lat : 49.2835703, Lng : -123.1150205, Q1 : 0.999998211861, Q2 : -0.00021529867081, Q3 : -0.00031500129262, Q4 : -0.00186910445336}
2019-04-14 04:52:20.81: SIM {TimeUS : 51435251, Roll : -0.02, Pitch : -0.03, Yaw : 359.78, Alt : 46.6699981689, Lat : 49.2835703, Lng : -123.1150205, Q1 : 0.999998152256, Q2 : -0.000252344121691, Q3 : -0.000292396900477, Q4 : -0.00189748068806}
2019-04-14 04:52:20.91: SIM {TimeUS : 51535211, Roll : -0.05, Pitch : -0.03, Yaw : 359.78, Alt : 46.8800010681, Lat : 49.2835703, Lng : -123.1150205, Q1 : 0.999998033047, Q2 : -0.000448896724265, Q3 : -0.000263432855718, Q4 : -0.0019187242724}
2019-04-14 04:52:21.01: SIM {TimeUS : 51635171, Roll : -0.08, Pitch : -0.03, Yaw : 359.77, Alt : 47.0900001526, Lat : 49.2835703, Lng : -123.1150205, Q1 : 0.999997794628, Q2 : -0.000728345476091, Q3 : -0.000267554511083, Q4 : -0.00193851918448}
2019-04-14 04:52:21.11: SIM {TimeUS : 51735131, Roll : -0.1, Pitch : -0.03, Yaw : 359.77, Alt : 47.2900009155, Lat : 49.2835703, Lng : -123.1150205, Q1 : 0.999997615814, Q2 : -0.000932183000259, Q3 : -0.000292984419502, Q4 : -0.00195504166186}
2019-04-14 04:52:21.21: SIM {TimeUS : 51835091, Roll : -0.11, Pitch : -0.02, Yaw : 359.77, Alt : 47.4799995422, Lat : 49.2835703, Lng : -123.1150205, Q1 : 0.99999755621, Q2 : -0.000978245283477, Q3 : -0.000239579560002, Q4 : -0.00197010836564}
2019-04-14 04:52:21.31: SIM {TimeUS : 51935051, Roll : -0.12, Pitch : -0.01, Yaw : 359.77, Alt : 47.6699981689, Lat : 49.2835703, Lng : -123.1150205, Q1 : 0.999997437, Q2 : -0.00106249004602, Q3 : -0.000161078118253, Q4 : -0.00198329659179}
2019-04-14 04:52:21.41: SIM {TimeUS : 52035011, Roll : -0.14, Pitch : -0.03, Yaw : 359.77, Alt : 47.8400001526, Lat : 49.2835703, Lng : -123.1150205, Q1 : 0.999997198582, Q2 : -0.00122707989067, Q3 : -0.00026216666447, Q4 : -0.00199807505123}
2019-04-14 04:52:21.51: SIM {TimeUS : 52134971, Roll : -0.14, Pitch : -0.03, Yaw : 359.76, Alt : 48.0, Lat : 49.2835703, Lng : -123.1150205, Q1 : 0.999997079372, Q2 : -0.00127947761212, Q3 : -0.000321369385347, Q4 : -0.00201455620117}
2019-04-14 04:52:21.61: SIM {TimeUS : 52234931, Roll : -0.14, Pitch : -0.04, Yaw : 359.76, Alt : 48.1500015259, Lat : 49.2835703, Lng : -123.1150205, Q1 : 0.999997079372, Q2 : -0.00124326895457, Q3 : -0.00036945505417, Q4 : -0.0020368527621}
2019-04-14 04:52:21.71: SIM {TimeUS : 52334891, Roll : -0.11, Pitch : -0.05, Yaw : 359.76, Alt : 48.2799987793, Lat : 49.2835703, Lng : -123.1150205, Q1 : 0.999997258186, Q2 : -0.00103635678533, Q3 : -0.000460943992948, Q4 : -0.00206309882924}
2019-04-14 04:52:21.81: SIM {TimeUS : 52434851, Roll : -0.07, Pitch : -0.06, Yaw : 359.76, Alt : 48.4099998474, Lat : 49.2835703, Lng : -123.1150205, Q1 : 0.999997437, Q2 : -0.000691559282131, Q3 : -0.000562612258364, Q4 : -0.00209042592905}
2019-04-14 04:52:21.91: SIM {TimeUS : 52534811, Roll : -0.05, Pitch : -0.07, Yaw : 359.75, Alt : 48.5200004578, Lat : 49.2835703, Lng : -123.1150206, Q1 : 0.999997437, Q2 : -0.000451829429949, Q3 : -0.000659632554743, Q4 : -0.00212103291415}
2019-04-14 04:52:22.02: SIM {TimeUS : 52635604, Roll : -0.04, Pitch : -0.08, Yaw : 359.75, Alt : 48.6199989319, Lat : 49.2835703, Lng : -123.1150206, Q1 : 0.999997317791, Q2 : -0.00036130254739, Q3 : -0.00074090983253, Q4 : -0.00215325574391}
2019-04-14 04:52:22.11: SIM {TimeUS : 52735564, Roll : -0.01, Pitch : -0.07, Yaw : 359.74, Alt : 48.7099990845, Lat : 49.2835703, Lng : -123.1150206, Q1 : 0.999997377396, Q2 : -0.000107075182314, Q3 : -0.000658931327052, Q4 : -0.00218546180986}
2019-04-14 04:52:22.21: SIM {TimeUS : 52835524, Roll : 0.02, Pitch : -0.05, Yaw : 359.74, Alt : 48.7799987793, Lat : 49.2835703, Lng : -123.1150206, Q1 : 0.999997377396, Q2 : 0.000183794749319, Q3 : -0.000517906562891, Q4 : -0.00221797521226}
2019-04-14 04:52:22.31: SIM {TimeUS : 52935484, Roll : 0.04, Pitch : -0.03, Yaw : 359.74, Alt : 48.8499984741, Lat : 49.2835703, Lng : -123.1150206, Q1 : 0.999997317791, Q2 : 0.000425176374847, Q3 : -0.000336742115906, Q4 : -0.00224780570716}
2019-04-14 04:52:22.41: SIM {TimeUS : 53035444, Roll : 0.05, Pitch : -0.01, Yaw : 359.73, Alt : 48.9099998474, Lat : 49.2835703, Lng : -123.1150206, Q1 : 0.999997258186, Q2 : 0.00050393701531, Q3 : -0.000137315335451, Q4 : -0.00227829278447}
2019-04-14 04:52:22.51: SIM {TimeUS : 53135404, Roll : 0.06, Pitch : 0.0, Yaw : 359.73, Alt : 48.9599990845, Lat : 49.2835703, Lng : -123.1150206, Q1 : 0.999997198582, Q2 : 0.00054702127818, Q3 : -6.49350477033e-05, Q4 : -0.00230695027858}
2019-04-14 04:52:22.61: SIM {TimeUS : 53235364, Roll : 0.07, Pitch : -0.04, Yaw : 359.73, Alt : 49.0, Lat : 49.2835703, Lng : -123.1150206, Q1 : 0.999997019768, Q2 : 0.000657905708067, Q3 : -0.000392740534153, Q4 : -0.00233078352176}
2019-04-14 04:52:22.71: SIM {TimeUS : 53335324, Roll : 0.15, Pitch : -0.2, Yaw : 359.73, Alt : 49.0400009155, Lat : 49.2835703, Lng : -123.1150207, Q1 : 0.999994754791, Q2 : 0.00133623427246, Q3 : -0.00178862747271, Q4 : -0.0023486961145}
2019-04-14 04:52:22.81: SIM {TimeUS : 53435284, Roll : 0.38, Pitch : -0.56, Yaw : 359.72, Alt : 49.0699996948, Lat : 49.2835703, Lng : -123.1150207, Q1 : 0.999979376793, Q2 : 0.003360085655, Q3 : -0.00493414187804, Q4 : -0.00236025429331}
2019-04-14 04:52:22.91: SIM {TimeUS : 53535244, Roll : 0.78, Pitch : -1.14, Yaw : 359.72, Alt : 49.0900001526, Lat : 49.2835703, Lng : -123.1150207, Q1 : 0.999924242496, Q2 : 0.0067892242223, Q3 : -0.00998972821981, Q4 : -0.00236815796234}
2019-04-14 04:52:23.01: SIM {TimeUS : 53635204, Roll : 1.3, Pitch : -1.88, Yaw : 359.7, Alt : 49.1199989319, Lat : 49.2835704, Lng : -123.1150206, Q1 : 0.999797642231, Q2 : 0.0113141415641, Q3 : -0.0164676886052, Q4 : -0.00235424702987}
2019-04-14 04:52:23.11: SIM {TimeUS : 53735164, Roll : 1.91, Pitch : -2.71, Yaw : 359.69, Alt : 49.1399993896, Lat : 49.2835704, Lng : -123.1150206, Q1 : 0.99957793951, Q2 : 0.0166518893093, Q3 : -0.0236951075494, Q4 : -0.00229612714611}
2019-04-14 04:52:23.21: SIM {TimeUS : 53835124, Roll : 2.51, Pitch : -3.5, Yaw : 359.67, Alt : 49.1500015259, Lat : 49.2835706, Lng : -123.1150205, Q1 : 0.999288678169, Q2 : 0.0218354016542, Q3 : -0.0306698344648, Q4 : -0.00218336214311}
2019-04-14 04:52:23.31: SIM {TimeUS : 53935084, Roll : 2.99, Pitch : -4.18, Yaw : 359.65, Alt : 49.1699981689, Lat : 49.2835708, Lng : -123.1150204, Q1 : 0.998990535736, Q2 : 0.0260419081897, Q3 : -0.0365478098392, Q4 : -0.00201108073816}
2019-04-14 04:52:23.41: SIM {TimeUS : 54035044, Roll : 3.33, Pitch : -4.68, Yaw : 359.65, Alt : 49.1800003052, Lat : 49.2835709, Lng : -123.1150202, Q1 : 0.998739898205, Q2 : 0.0289271585643, Q3 : -0.0409711115062, Q4 : -0.00178680033423}
2019-04-14 04:52:23.51: SIM {TimeUS : 54135004, Roll : 3.55, Pitch : -5.07, Yaw : 359.66, Alt : 49.1899986267, Lat : 49.2835712, Lng : -123.11502, Q1 : 0.998538315296, Q2 : 0.0308592431247, Q3 : -0.0443465672433, Q4 : -0.0015467061894}
2019-04-14 04:52:23.61: SIM {TimeUS : 54234964, Roll : 3.72, Pitch : -5.39, Yaw : 359.67, Alt : 49.2000007629, Lat : 49.2835715, Lng : -123.1150197, Q1 : 0.998363852501, Q2 : 0.032354876399, Q3 : -0.0471292100847, Q4 : -0.00128415774088}
2019-04-14 04:52:23.71: SIM {TimeUS : 54334924, Roll : 3.9, Pitch : -5.69, Yaw : 359.68, Alt : 49.2099990845, Lat : 49.2835719, Lng : -123.1150193, Q1 : 0.998187482357, Q2 : 0.0338569767773, Q3 : -0.0497437566519, Q4 : -0.00101332995109}
2019-04-14 04:52:23.81: SIM {TimeUS : 54434884, Roll : 4.1, Pitch : -6.0, Yaw : 359.69, Alt : 49.2200012207, Lat : 49.2835722, Lng : -123.1150189, Q1 : 0.997988581657, Q2 : 0.0356227010489, Q3 : -0.0524335540831, Q4 : -0.000743882672396}
2019-04-14 04:52:23.91: SIM {TimeUS : 54534844, Roll : 4.32, Pitch : -6.31, Yaw : 359.7, Alt : 49.2200012207, Lat : 49.2835727, Lng : -123.1150183, Q1 : 0.997771084309, Q2 : 0.0375720523298, Q3 : -0.0551455430686, Q4 : -0.000482462433865}
2019-04-14 04:52:24.01: SIM {TimeUS : 54634804, Roll : 4.51, Pitch : -6.57, Yaw : 359.71, Alt : 49.2299995422, Lat : 49.2835733, Lng : -123.1150178, Q1 : 0.997581362724, Q2 : 0.0391624346375, Q3 : -0.0574260652065, Q4 : -0.000246237817919}
2019-04-14 04:52:24.12: SIM {TimeUS : 54735597, Roll : 4.65, Pitch : -6.78, Yaw : 359.71, Alt : 49.2400016785, Lat : 49.2835739, Lng : -123.1150171, Q1 : 0.997426331043, Q2 : 0.040356580168, Q3 : -0.0592622980475, Q4 : -4.14961687056e-05}
2019-04-14 04:52:24.21: SIM {TimeUS : 54835557, Roll : 4.74, Pitch : -6.94, Yaw : 359.72, Alt : 49.2400016785, Lat : 49.2835746, Lng : -123.1150163, Q1 : 0.997313082218, Q2 : 0.0411999225616, Q3 : -0.0605735145509, Q4 : 0.000126642407849}
2019-04-14 04:52:24.31: SIM {TimeUS : 54935517, Roll : 4.83, Pitch : -7.05, Yaw : 359.73, Alt : 49.25, Lat : 49.2835753, Lng : -123.1150156, Q1 : 0.997221410275, Q2 : 0.0419762097299, Q3 : -0.0615415796638, Q4 : 0.000259718275629}
2019-04-14 04:52:24.41: SIM {TimeUS : 55035477, Roll : 4.91, Pitch : -7.14, Yaw : 359.73, Alt : 49.25, Lat : 49.2835762, Lng : -123.1150148, Q1 : 0.99714422226, Q2 : 0.0426572300494, Q3 : -0.0623196512461, Q4 : 0.000346585642546}
2019-04-14 04:52:24.51: SIM {TimeUS : 55135437, Roll : 5.07, Pitch : -7.23, Yaw : 359.75, Alt : 49.25, Lat : 49.283577, Lng : -123.1150139, Q1 : 0.997029960155, Q2 : 0.0440686792135, Q3 : -0.0631575807929, Q4 : 0.000624360516667}
2019-04-14 04:52:24.61: SIM {TimeUS : 55235397, Roll : 5.48, Pitch : -7.28, Yaw : 0.09, Alt : 49.2599983215, Lat : 49.283578, Lng : -123.1150129, Q1 : 0.996832787991, Q2 : 0.0478360503912, Q3 : -0.0634148642421, Q4 : 0.00383447553031}
2019-04-14 04:52:24.71: SIM {TimeUS : 55335357, Roll : 6.12, Pitch : -7.32, Yaw : 1.41, Alt : 49.2599983215, Lat : 49.2835788, Lng : -123.1150119, Q1 : 0.996419370174, Q2 : 0.0540592297912, Q3 : -0.0630841478705, Q4 : 0.015697427094}
2019-04-14 04:52:24.81: SIM {TimeUS : 55435317, Roll : 6.62, Pitch : -7.58, Yaw : 4.25, Alt : 49.2599983215, Lat : 49.28358, Lng : -123.1150108, Q1 : 0.995314955711, Q2 : 0.0600654222071, Q3 : -0.0638409405947, Q4 : 0.0407998412848}
2019-04-14 04:52:24.91: SIM {TimeUS : 55535277, Roll : 6.68, Pitch : -8.2, Yaw : 8.69, Alt : 49.2599983215, Lat : 49.283581, Lng : -123.1150096, Q1 : 0.992566168308, Q2 : 0.0633566454053, Q3 : -0.066784337163, Q4 : 0.079612210393}
2019-04-14 04:52:25.01: SIM {TimeUS : 55635237, Roll : 6.08, Pitch : -9.12, Yaw : 14.54, Alt : 49.2599983215, Lat : 49.283582, Lng : -123.1150082, Q1 : 0.986880123615, Q2 : 0.0625388324261, Q3 : -0.0720895156264, Q4 : 0.130229324102}
2019-04-14 04:52:25.11: SIM {TimeUS : 55735197, Roll : 4.56, Pitch : -10.21, Yaw : 21.43, Alt : 49.2599983215, Lat : 49.2835831, Lng : -123.1150068, Q1 : 0.977217137814, Q2 : 0.0555136166513, Q3 : -0.0800251811743, Q4 : 0.188576042652}
2019-04-14 04:52:25.21: SIM {TimeUS : 55835157, Roll : 2.11, Pitch : -11.21, Yaw : 28.62, Alt : 49.2700004578, Lat : 49.2835843, Lng : -123.1150053, Q1 : 0.963715136051, Q2 : 0.0419153682888, Q3 : -0.0900894254446, Q4 : 0.247750207782}
2019-04-14 04:52:25.31: SIM {TimeUS : 55935117, Roll : -0.81, Pitch : -11.89, Yaw : 35.32, Alt : 49.2700004578, Lat : 49.2835855, Lng : -123.1150037, Q1 : 0.94792342186, Q2 : 0.0246835201979, Q3 : -0.100841619074, Q4 : 0.301102787256}
2019-04-14 04:52:25.41: SIM {TimeUS : 56035077, Roll : -3.56, Pitch : -12.21, Yaw : 40.85, Alt : 49.2700004578, Lat : 49.283587, Lng : -123.1150021, Q1 : 0.932505607605, Q2 : 0.00815686862916, Q3 : -0.110479339957, Q4 : 0.343745678663}
2019-04-14 04:52:25.51: SIM {TimeUS : 56135037, Roll : -5.57, Pitch : -12.32, Yaw : 44.74, Alt : 49.2700004578, Lat : 49.2835884, Lng : -123.1150005, Q1 : 0.920282959938, Q2 : -0.00391203397885, Q3 : -0.11759442091, Q4 : 0.373142838478}
2019-04-14 04:52:25.61: SIM {TimeUS : 56234997, Roll : -6.6, Pitch : -12.39, Yaw : 46.89, Alt : 49.2700004578, Lat : 49.2835898, Lng : -123.1149988, Q1 : 0.913038432598, Q2 : -0.00966442655772, Q3 : -0.121672578156, Q4 : 0.38918274641}
2019-04-14 04:52:25.71: SIM {TimeUS : 56334957, Roll : -6.69, Pitch : -12.55, Yaw : 47.45, Alt : 49.2700004578, Lat : 49.2835915, Lng : -123.1149972, Q1 : 0.911005377769, Q2 : -0.00922879204154, Q3 : -0.123331174254, Q4 : 0.393412560225}
2019-04-14 04:52:25.81: SIM {TimeUS : 56434917, Roll : -6.04, Pitch : -12.89, Yaw : 46.71, Alt : 49.2700004578, Lat : 49.2835932, Lng : -123.1149955, Q1 : 0.913310706615, Q2 : -0.00361897936091, Q3 : -0.123690262437, Q4 : 0.388009220362}
2019-04-14 04:52:25.91: SIM {TimeUS : 56534877, Roll : -4.85, Pitch : -13.42, Yaw : 45.01, Alt : 49.2700004578, Lat : 49.283595, Lng : -123.1149938, Q1 : 0.918571054935, Q2 : 0.00586057221517, Q3 : -0.123942196369, Q4 : 0.375274896622}
2019-04-14 04:52:26.01: SIM {TimeUS : 56634837, Roll : -3.35, Pitch : -14.05, Yaw : 42.65, Alt : 49.2700004578, Lat : 49.2835969, Lng : -123.1149921, Q1 : 0.9254296422, Q2 : 0.0174391213804, Q3 : -0.124508865178, Q4 : 0.357454001904}
2019-04-14 04:52:26.11: SIM {TimeUS : 56734797, Roll : -1.74, Pitch : -14.68, Yaw : 39.93, Alt : 49.2799987793, Lat : 49.2835988, Lng : -123.1149904, Q1 : 0.932745695114, Q2 : 0.0294502303004, Q3 : -0.12527666986, Q4 : 0.336784690619}
2019-04-14 04:52:26.22: SIM {TimeUS : 56835590, Roll : -0.17, Pitch : -15.19, Yaw : 37.13, Alt : 49.2799987793, Lat : 49.2836008, Lng : -123.1149885, Q1 : 0.939684450626, Q2 : 0.0406265892088, Q3 : -0.125799104571, Q4 : 0.315463483334}
2019-04-14 04:52:26.31: SIM {TimeUS : 56935550, Roll : 1.15, Pitch : -15.48, Yaw : 34.63, Alt : 49.2799987793, Lat : 49.283603, Lng : -123.1149866, Q1 : 0.945530712605, Q2 : 0.0496347360313, Q3 : -0.125598818064, Q4 : 0.29619756341}
2019-04-14 04:52:26.41: SIM {TimeUS : 57035510, Roll : 2.17, Pitch : -15.58, Yaw : 32.62, Alt : 49.2799987793, Lat : 49.283605, Lng : -123.1149846, Q1 : 0.949992358685, Q2 : 0.0560902804136, Q3 : -0.124837271869, Q4 : 0.280685126781}
2019-04-14 04:52:26.51: SIM {TimeUS : 57135470, Roll : 2.79, Pitch : -15.58, Yaw : 31.26, Alt : 49.2799987793, Lat : 49.2836073, Lng : -123.1149824, Q1 : 0.952955305576, Q2 : 0.0597708672285, Q3 : -0.124021142721, Q4 : 0.270041525364}
2019-04-14 04:52:26.61: SIM {TimeUS : 57235430, Roll : 3.0, Pitch : -15.55, Yaw : 30.58, Alt : 49.2799987793, Lat : 49.2836095, Lng : -123.1149801, Q1 : 0.95446652174, Q2 : 0.0607421845198, Q3 : -0.123623088002, Q4 : 0.264615535736}
2019-04-14 04:52:26.71: SIM {TimeUS : 57335390, Roll : 2.85, Pitch : -15.54, Yaw : 30.54, Alt : 49.2799987793, Lat : 49.2836117, Lng : -123.1149778, Q1 : 0.954648911953, Q2 : 0.0594083629549, Q3 : -0.123930104077, Q4 : 0.264116346836}
2019-04-14 04:52:26.81: SIM {TimeUS : 57435350, Roll : 2.39, Pitch : -15.6, Yaw : 31.03, Alt : 49.2799987793, Lat : 49.2836141, Lng : -123.1149753, Q1 : 0.953668355942, Q2 : 0.0562849380076, Q3 : -0.125234663486, Q4 : 0.267703205347}
2019-04-14 04:52:26.91: SIM {TimeUS : 57535310, Roll : 1.74, Pitch : -15.71, Yaw : 31.9, Alt : 49.2799987793, Lat : 49.2836164, Lng : -123.1149728, Q1 : 0.951765477657, Q2 : 0.0521049015224, Q3 : -0.127314776182, Q4 : 0.274259954691}
2019-04-14 04:52:27.01: SIM {TimeUS : 57635270, Roll : 1.0, Pitch : -15.86, Yaw : 33.0, Alt : 49.2799987793, Lat : 49.2836188, Lng : -123.1149701, Q1 : 0.949243605137, Q2 : 0.0475169792771, Q3 : -0.129832088947, Q4 : 0.282528609037}
2019-04-14 04:52:27.11: SIM {TimeUS : 57735230, Roll : 0.26, Pitch : -15.99, Yaw : 34.17, Alt : 49.2799987793, Lat : 49.2836212, Lng : -123.1149675, Q1 : 0.946451067924, Q2 : 0.0431238971651, Q3 : -0.132342517376, Q4 : 0.291300922632}
2019-04-14 04:52:27.21: SIM {TimeUS : 57835190, Roll : -0.36, Pitch : -16.11, Yaw : 35.26, Alt : 49.2799987793, Lat : 49.2836237, Lng : -123.1149648, Q1 : 0.943726837635, Q2 : 0.0395016260445, Q3 : -0.134537503123, Q4 : 0.29953122139}
2019-04-14 04:52:27.31: SIM {TimeUS : 57935150, Roll : -0.83, Pitch : -16.21, Yaw : 36.17, Alt : 49.2799987793, Lat : 49.2836262, Lng : -123.114962, Q1 : 0.941365003586, Q2 : 0.0369100756943, Q3 : -0.136319562793, Q4 : 0.306409150362}
2019-04-14 04:52:27.41: SIM {TimeUS : 58035110, Roll : -1.14, Pitch : -16.29, Yaw : 36.83, Alt : 49.2799987793, Lat : 49.2836287, Lng : -123.1149592, Q1 : 0.939598977566, Q2 : 0.0353812351823, Q3 : -0.13755518198, Q4 : 0.311416924}
2019-04-14 04:52:27.51: SIM {TimeUS : 58135070, Roll : -1.28, Pitch : -16.35, Yaw : 37.21, Alt : 49.2799987793, Lat : 49.2836314, Lng : -123.1149564, Q1 : 0.938538610935, Q2 : 0.0348259545863, Q3 : -0.138328120112, Q4 : 0.314321190119}
2019-04-14 04:52:27.61: SIM {TimeUS : 58235030, Roll : -1.27, Pitch : -16.38, Yaw : 37.32, Alt : 49.2799987793, Lat : 49.2836341, Lng : -123.1149535, Q1 : 0.938208758831, Q2 : 0.0351258292794, Q3 : -0.138543099165, Q4 : 0.315176665783}
2019-04-14 04:52:27.71: SIM {TimeUS : 58334990, Roll : -1.12, Pitch : -16.39, Yaw : 37.18, Alt : 49.2799987793, Lat : 49.2836367, Lng : -123.1149507, Q1 : 0.938509941101, Q2 : 0.036270480603, Q3 : -0.138271212578, Q4 : 0.314268380404}
2019-04-14 04:52:27.81: SIM {TimeUS : 58434950, Roll : -0.88, Pitch : -16.41, Yaw : 36.87, Alt : 49.2799987793, Lat : 49.2836395, Lng : -123.1149478, Q1 : 0.939278006554, Q2 : 0.0379009246826, Q3 : -0.137829631567, Q4 : 0.311966955662}
2019-04-14 04:52:27.91: SIM {TimeUS : 58534910, Roll : -0.58, Pitch : -16.44, Yaw : 36.44, Alt : 49.2799987793, Lat : 49.2836422, Lng : -123.1149448, Q1 : 0.940307796001, Q2 : 0.0399642549455, Q3 : -0.137437283993, Q4 : 0.308763891459}
2019-04-14 04:52:28.01: SIM {TimeUS : 58634870, Roll : -0.23, Pitch : -16.47, Yaw : 35.95, Alt : 49.2799987793, Lat : 49.2836451, Lng : -123.1149418, Q1 : 0.941449463367, Q2 : 0.0422687456012, Q3 : -0.136928781867, Q4 : 0.305183112621}
2019-04-14 04:52:28.11: SIM {TimeUS : 58734830, Roll : 0.07, Pitch : -16.5, Yaw : 35.48, Alt : 49.2799987793, Lat : 49.283648, Lng : -123.1149388, Q1 : 0.942555844784, Q2 : 0.044364258647, Q3 : -0.136473312974, Q4 : 0.301654398441}
2019-04-14 04:52:28.21: SIM {TimeUS : 58834790, Roll : 0.31, Pitch : -16.54, Yaw : 35.06, Alt : 49.2799987793, Lat : 49.2836509, Lng : -123.1149358, Q1 : 0.943491518497, Q2 : 0.0459864288568, Q3 : -0.136397942901, Q4 : 0.298503935337}
2019-04-14 04:52:28.32: SIM {TimeUS : 58935583, Roll : 0.47, Pitch : -16.6, Yaw : 34.74, Alt : 49.2900009155, Lat : 49.2836537, Lng : -123.1149327, Q1 : 0.944199085236, Q2 : 0.0470571294427, Q3 : -0.136599287391, Q4 : 0.295997202396}
2019-04-14 04:52:28.41: SIM {TimeUS : 59035543, Roll : 0.55, Pitch : -16.67, Yaw : 34.53, Alt : 49.2900009155, Lat : 49.2836566, Lng : -123.1149295, Q1 : 0.944631040096, Q2 : 0.047606356442, Q3 : -0.13701441884, Q4 : 0.294334709644}
2019-04-14 04:52:28.51: SIM {TimeUS : 59135503, Roll : 0.55, Pitch : -16.72, Yaw : 34.43, Alt : 49.2900009155, Lat : 49.2836596, Lng : -123.1149263, Q1 : 0.944811344147, Q2 : 0.0475981496274, Q3 : -0.137522906065, Q4 : 0.293518930674}
2019-04-14 04:52:28.61: SIM {TimeUS : 59235463, Roll : 0.49, Pitch : -16.76, Yaw : 34.44, Alt : 49.2900009155, Lat : 49.2836626, Lng : -123.1149232, Q1 : 0.944764256477, Q2 : 0.0472158752382, Q3 : -0.138031229377, Q4 : 0.2934935987}
2019-04-14 04:52:28.71: SIM {TimeUS : 59335423, Roll : 0.4, Pitch : -16.81, Yaw : 34.53, Alt : 49.2900009155, Lat : 49.2836656, Lng : -123.11492, Q1 : 0.944515347481, Q2 : 0.0467269271612, Q3 : -0.138554856181, Q4 : 0.29412573576}
2019-04-14 04:52:28.81: SIM {TimeUS : 59435383, Roll : 0.3, Pitch : -16.84, Yaw : 34.68, Alt : 49.2900009155, Lat : 49.2836686, Lng : -123.1149167, Q1 : 0.944135606289, Q2 : 0.0461576469243, Q3 : -0.139036357403, Q4 : 0.295205742121}
2019-04-14 04:52:28.91: SIM {TimeUS : 59535343, Roll : 0.2, Pitch : -16.87, Yaw : 34.85, Alt : 49.2900009155, Lat : 49.2836716, Lng : -123.1149135, Q1 : 0.943686664104, Q2 : 0.0455925315619, Q3 : -0.139452442527, Q4 : 0.296529740095}
2019-04-14 04:52:29.01: SIM {TimeUS : 59635303, Roll : 0.09, Pitch : -16.9, Yaw : 35.03, Alt : 49.2900009155, Lat : 49.2836746, Lng : -123.1149102, Q1 : 0.943220198154, Q2 : 0.0450642481446, Q3 : -0.139889523387, Q4 : 0.297885656357}
2019-04-14 04:52:29.11: SIM {TimeUS : 59735263, Roll : 0.0, Pitch : -16.92, Yaw : 35.2, Alt : 49.2900009155, Lat : 49.2836777, Lng : -123.1149068, Q1 : 0.942804217339, Q2 : 0.0445379205048, Q3 : -0.14026285708, Q4 : 0.299103528261}
2019-04-14 04:52:29.21: SIM {TimeUS : 59835223, Roll : -0.07, Pitch : -16.94, Yaw : 35.33, Alt : 49.2900009155, Lat : 49.2836808, Lng : -123.1149035, Q1 : 0.942468762398, Q2 : 0.0440934821963, Q3 : -0.140612497926, Q4 : 0.300060927868}
2019-04-14 04:52:29.31: SIM {TimeUS : 59935183, Roll : -0.12, Pitch : -16.97, Yaw : 35.41, Alt : 49.2900009155, Lat : 49.2836838, Lng : -123.1149001, Q1 : 0.942226469517, Q2 : 0.0438547357917, Q3 : -0.140974715352, Q4 : 0.300686091185}
2019-04-14 04:52:29.41: SIM {TimeUS : 60035143, Roll : -0.15, Pitch : -17.02, Yaw : 35.45, Alt : 49.2999992371, Lat : 49.283687, Lng : -123.1148968, Q1 : 0.942089557648, Q2 : 0.0437734089792, Q3 : -0.141382351518, Q4 : 0.300935566425}
2019-04-14 04:52:29.51: SIM {TimeUS : 60135103, Roll : -0.17, Pitch : -17.06, Yaw : 35.44, Alt : 49.2999992371, Lat : 49.2836901, Lng : -123.1148934, Q1 : 0.942074298859, Q2 : 0.0437361858785, Q3 : -0.141743481159, Q4 : 0.300818890333}
2019-04-14 04:52:29.61: SIM {TimeUS : 60235063, Roll : -0.17, Pitch : -17.08, Yaw : 35.39, Alt : 49.2999992371, Lat : 49.2836931, Lng : -123.11489, Q1 : 0.942172884941, Q2 : 0.0437219105661, Q3 : -0.14196972549, Q4 : 0.300405114889}
2019-04-14 04:52:29.71: SIM {TimeUS : 60335023, Roll : -0.16, Pitch : -17.1, Yaw : 35.31, Alt : 49.2999992371, Lat : 49.2836963, Lng : -123.1148865, Q1 : 0.942343175411, Q2 : 0.0437929332256, Q3 : -0.14215169847, Q4 : 0.29977402091}
2019-04-14 04:52:29.81: SIM {TimeUS : 60434983, Roll : -0.1, Pitch : -17.14, Yaw : 35.22, Alt : 49.2999992371, Lat : 49.2836996, Lng : -123.1148831, Q1 : 0.942530214787, Q2 : 0.0441955216229, Q3 : -0.14231865108, Q4 : 0.299046844244}
2019-04-14 04:52:29.91: SIM {TimeUS : 60534943, Roll : -0.03, Pitch : -17.17, Yaw : 35.12, Alt : 49.2999992371, Lat : 49.2837028, Lng : -123.1148796, Q1 : 0.942716658115, Q2 : 0.0447994172573, Q3 : -0.142475351691, Q4 : 0.29829365015}
2019-04-14 04:52:30.01: SIM {TimeUS : 60634903, Roll : 0.05, Pitch : -17.22, Yaw : 35.02, Alt : 49.2999992371, Lat : 49.2837059, Lng : -123.1148762, Q1 : 0.942874610424, Q2 : 0.0454805791378, Q3 : -0.142698466778, Q4 : 0.297583818436}
2019-04-14 04:52:30.11: SIM {TimeUS : 60734863, Roll : 0.12, Pitch : -17.27, Yaw : 34.94, Alt : 49.2999992371, Lat : 49.2837091, Lng : -123.1148727, Q1 : 0.943007588387, Q2 : 0.0461294911802, Q3 : -0.14288701117, Q4 : 0.296971589327}
2019-04-14 04:52:30.21: SIM {TimeUS : 60834823, Roll : 0.17, Pitch : -17.3, Yaw : 34.87, Alt : 49.2999992371, Lat : 49.2837124, Lng : -123.1148692, Q1 : 0.943112909794, Q2 : 0.0465620309114, Q3 : -0.143107220531, Q4 : 0.296463102102}
2019-04-14 04:52:30.31: SIM {TimeUS : 60934783, Roll : 0.19, Pitch : -17.32, Yaw : 34.82, Alt : 49.3100013733, Lat : 49.2837156, Lng : -123.1148657, Q1 : 0.943205356598, Q2 : 0.0466604419053, Q3 : -0.143258184195, Q4 : 0.296080350876}
2019-04-14 04:52:30.42: SIM {TimeUS : 61035576, Roll : 0.17, Pitch : -17.33, Yaw : 34.79, Alt : 49.3100013733, Lat : 49.2837188, Lng : -123.1148621, Q1 : 0.943276405334, Q2 : 0.0465070493519, Q3 : -0.143350347877, Q4 : 0.295833528042}
2019-04-14 04:52:30.51: SIM {TimeUS : 61135536, Roll : 0.16, Pitch : -17.32, Yaw : 34.78, Alt : 49.3100013733, Lat : 49.2837222, Lng : -123.1148586, Q1 : 0.943326234818, Q2 : 0.0463755019009, Q3 : -0.143262133002, Q4 : 0.295737922192}
2019-04-14 04:52:30.61: SIM {TimeUS : 61235496, Roll : 0.15, Pitch : -17.31, Yaw : 34.78, Alt : 49.3100013733, Lat : 49.2837254, Lng : -123.1148551, Q1 : 0.943333387375, Q2 : 0.0462629199028, Q3 : -0.143250524998, Q4 : 0.295738250017}
2019-04-14 04:52:30.71: SIM {TimeUS : 61335456, Roll : 0.15, Pitch : -17.34, Yaw : 34.79, Alt : 49.3100013733, Lat : 49.2837287, Lng : -123.1148515, Q1 : 0.943270862103, Q2 : 0.0463311634958, Q3 : -0.143498778343, Q4 : 0.295806705952}
2019-04-14 04:52:30.81: SIM {TimeUS : 61435416, Roll : 0.15, Pitch : -17.4, Yaw : 34.81, Alt : 49.3100013733, Lat : 49.283732, Lng : -123.1148479, Q1 : 0.943156063557, Q2 : 0.0465710759163, Q3 : -0.143958941102, Q4 : 0.295911461115}
2019-04-14 04:52:30.91: SIM {TimeUS : 61535376, Roll : 0.15, Pitch : -17.44, Yaw : 34.82, Alt : 49.3100013733, Lat : 49.2837352, Lng : -123.1148444, Q1 : 0.943065047264, Q2 : 0.0466563478112, Q3 : -0.144309833646, Q4 : 0.29601714015}
2019-04-14 04:52:31.01: SIM {TimeUS : 61635336, Roll : 0.14, Pitch : -17.46, Yaw : 34.84, Alt : 49.3100013733, Lat : 49.2837387, Lng : -123.1148408, Q1 : 0.943006753922, Q2 : 0.0466440096498, Q3 : -0.144490420818, Q4 : 0.296116679907}
2019-04-14 04:52:31.11: SIM {TimeUS : 61735296, Roll : 0.13, Pitch : -17.48, Yaw : 34.85, Alt : 49.3100013733, Lat : 49.2837419, Lng : -123.1148372, Q1 : 0.942969679832, Q2 : 0.0465863496065, Q3 : -0.144678086042, Q4 : 0.296152174473}
2019-04-14 04:52:31.21: SIM {TimeUS : 61835256, Roll : 0.1, Pitch : -17.51, Yaw : 34.85, Alt : 49.3100013733, Lat : 49.2837453, Lng : -123.1148336, Q1 : 0.942940711975, Q2 : 0.0464415587485, Q3 : -0.145000115037, Q4 : 0.296109855175}
2019-04-14 04:52:31.31: SIM {TimeUS : 61935216, Roll : 0.09, Pitch : -17.53, Yaw : 34.84, Alt : 49.3100013733, Lat : 49.2837486, Lng : -123.1148299, Q1 : 0.942930459976, Q2 : 0.0464258976281, Q3 : -0.145222827792, Q4 : 0.296035677195}
2019-04-14 04:52:31.41: SIM {TimeUS : 62035176, Roll : 0.08, Pitch : -17.55, Yaw : 34.83, Alt : 49.3199996948, Lat : 49.283752, Lng : -123.1148263, Q1 : 0.942943453789, Q2 : 0.0464002564549, Q3 : -0.145410865545, Q4 : 0.295905858278}
2019-04-14 04:52:31.51: SIM {TimeUS : 62135136, Roll : 0.09, Pitch : -17.57, Yaw : 34.81, Alt : 49.3199996948, Lat : 49.2837553, Lng : -123.1148227, Q1 : 0.942977190018, Q2 : 0.0464299619198, Q3 : -0.145506203175, Q4 : 0.295746952295}
2019-04-14 04:52:31.61: SIM {TimeUS : 62235096, Roll : 0.1, Pitch : -17.58, Yaw : 34.78, Alt : 49.3199996948, Lat : 49.2837587, Lng : -123.114819, Q1 : 0.943015694618, Q2 : 0.0465485714376, Q3 : -0.145621091127, Q4 : 0.295548856258}
2019-04-14 04:52:31.71: SIM {TimeUS : 62335056, Roll : 0.12, Pitch : -17.59, Yaw : 34.75, Alt : 49.3199996948, Lat : 49.283762, Lng : -123.1148154, Q1 : 0.943067193031, Q2 : 0.0466989576817, Q3 : -0.145673111081, Q4 : 0.2953350842}
2019-04-14 04:52:31.81: SIM {TimeUS : 62435016, Roll : 0.14, Pitch : -17.6, Yaw : 34.73, Alt : 49.3199996948, Lat : 49.2837655, Lng : -123.1148117, Q1 : 0.943115711212, Q2 : 0.0468627735972, Q3 : -0.145724162459, Q4 : 0.295129030943}
2019-04-14 04:52:31.91: SIM {TimeUS : 62534976, Roll : 0.16, Pitch : -17.62, Yaw : 34.7, Alt : 49.3199996948, Lat : 49.2837689, Lng : -123.1148081, Q1 : 0.943150520325, Q2 : 0.0470591001213, Q3 : -0.145821034908, Q4 : 0.294938594103}
2019-04-14 04:52:32.01: SIM {TimeUS : 62634936, Roll : 0.17, Pitch : -17.66, Yaw : 34.68, Alt : 49.3199996948, Lat : 49.2837722, Lng : -123.1148044, Q1 : 0.943157792091, Q2 : 0.0472102202475, Q3 : -0.146126806736, Q4 : 0.294739723206}
2019-04-14 04:52:32.11: SIM {TimeUS : 62734896, Roll : 0.17, Pitch : -17.7, Yaw : 34.65, Alt : 49.3199996948, Lat : 49.2837757, Lng : -123.1148007, Q1 : 0.943161010742, Q2 : 0.0472578406334, Q3 : -0.146496936679, Q4 : 0.294538170099}
2019-04-14 04:52:32.21: SIM {TimeUS : 62834856, Roll : 0.16, Pitch : -17.74, Yaw : 34.63, Alt : 49.3199996948, Lat : 49.283779, Lng : -123.114797, Q1 : 0.943167507648, Q2 : 0.0472670532763, Q3 : -0.146827310324, Q4 : 0.294351279736}
2019-04-14 04:52:32.31: SIM {TimeUS : 62934816, Roll : 0.17, Pitch : -17.77, Yaw : 34.62, Alt : 49.3199996948, Lat : 49.2837825, Lng : -123.1147933, Q1 : 0.943175137043, Q2 : 0.0473850294948, Q3 : -0.147023946047, Q4 : 0.294209718704}
2019-04-14 04:52:32.41: SIM {TimeUS : 63034776, Roll : 0.18, Pitch : -17.77, Yaw : 34.6, Alt : 49.3199996948, Lat : 49.2837859, Lng : -123.1147896, Q1 : 0.943199872971, Q2 : 0.0474895499647, Q3 : -0.147052690387, Q4 : 0.294099152088}
2019-04-14 04:52:32.51: SIM {TimeUS : 63135569, Roll : 0.19, Pitch : -17.76, Yaw : 34.59, Alt : 49.3199996948, Lat : 49.2837893, Lng : -123.1147859, Q1 : 0.943256139755, Q2 : 0.0474998168647, Q3 : -0.146886661649, Q4 : 0.293999791145}
2019-04-14 04:52:32.61: SIM {TimeUS : 63235529, Roll : 0.18, Pitch : -17.73, Yaw : 34.58, Alt : 49.3199996948, Lat : 49.2837928, Lng : -123.1147822, Q1 : 0.943312644958, Q2 : 0.0473560169339, Q3 : -0.146743774414, Q4 : 0.293913245201}
2019-04-14 04:52:32.71: SIM {TimeUS : 63335489, Roll : 0.17, Pitch : -17.72, Yaw : 34.57, Alt : 49.3199996948, Lat : 49.2837963, Lng : -123.1147784, Q1 : 0.943358004093, Q2 : 0.0472552105784, Q3 : -0.146622344851, Q4 : 0.293844401836}
2019-04-14 04:52:32.81: SIM {TimeUS : 63435449, Roll : 0.17, Pitch : -17.71, Yaw : 34.56, Alt : 49.3199996948, Lat : 49.2837998, Lng : -123.1147747, Q1 : 0.943381845951, Q2 : 0.0472241565585, Q3 : -0.146596744657, Q4 : 0.29378554225}
2019-04-14 04:52:32.91: SIM {TimeUS : 63535409, Roll : 0.17, Pitch : -17.73, Yaw : 34.56, Alt : 49.3300018311, Lat : 49.2838032, Lng : -123.114771, Q1 : 0.943378508091, Q2 : 0.0472320616245, Q3 : -0.14675731957, Q4 : 0.293714791536}
2019-04-14 04:52:33.01: SIM {TimeUS : 63635369, Roll : 0.17, Pitch : -17.76, Yaw : 34.55, Alt : 49.3300018311, Lat : 49.2838067, Lng : -123.1147672, Q1 : 0.943364262581, Q2 : 0.0472970791161, Q3 : -0.146967977285, Q4 : 0.293644875288}
2019-04-14 04:52:33.11: SIM {TimeUS : 63735329, Roll : 0.16, Pitch : -17.8, Yaw : 34.54, Alt : 49.3300018311, Lat : 49.28381, Lng : -123.1147635, Q1 : 0.943338990211, Q2 : 0.0473163239658, Q3 : -0.14730514586, Q4 : 0.293554037809}
2019-04-14 04:52:33.21: SIM {TimeUS : 63835289, Roll : 0.15, Pitch : -17.84, Yaw : 34.53, Alt : 49.3300018311, Lat : 49.2838135, Lng : -123.1147597, Q1 : 0.943306922913, Q2 : 0.0473503358662, Q3 : -0.147695824504, Q4 : 0.293455213308}
2019-04-14 04:52:33.31: SIM {TimeUS : 63935249, Roll : 0.16, Pitch : -17.88, Yaw : 34.52, Alt : 49.3300018311, Lat : 49.2838171, Lng : -123.114756, Q1 : 0.943286240101, Q2 : 0.0474417954683, Q3 : -0.147989496589, Q4 : 0.293358832598}
2019-04-14 04:52:33.41: SIM {TimeUS : 64035209, Roll : 0.15, Pitch : -17.91, Yaw : 34.51, Alt : 49.3300018311, Lat : 49.2838206, Lng : -123.1147522, Q1 : 0.943275272846, Q2 : 0.0474972948432, Q3 : -0.148260220885, Q4 : 0.293248474598}
2019-04-14 04:52:33.51: SIM {TimeUS : 64135169, Roll : 0.15, Pitch : -17.93, Yaw : 34.5, Alt : 49.3300018311, Lat : 49.283824, Lng : -123.1147484, Q1 : 0.943284749985, Q2 : 0.0474837049842, Q3 : -0.148434013128, Q4 : 0.293132305145}
2019-04-14 04:52:33.61: SIM {TimeUS : 64235129, Roll : 0.16, Pitch : -17.92, Yaw : 34.48, Alt : 49.3300018311, Lat : 49.2838275, Lng : -123.1147447, Q1 : 0.943321108818, Q2 : 0.0475457683206, Q3 : -0.148357585073, Q4 : 0.293043941259}
2019-04-14 04:52:33.71: SIM {TimeUS : 64335089, Roll : 0.18, Pitch : -17.92, Yaw : 34.47, Alt : 49.3300018311, Lat : 49.2838311, Lng : -123.1147409, Q1 : 0.943340241909, Q2 : 0.0477395169437, Q3 : -0.148344486952, Q4 : 0.292957246304}
2019-04-14 04:52:33.81: SIM {TimeUS : 64435049, Roll : 0.19, Pitch : -17.94, Yaw : 34.46, Alt : 49.3300018311, Lat : 49.2838346, Lng : -123.1147371, Q1 : 0.943353652954, Q2 : 0.0478406623006, Q3 : -0.148452118039, Q4 : 0.292843282223}
2019-04-14 04:52:33.91: SIM {TimeUS : 64535009, Roll : 0.21, Pitch : -17.94, Yaw : 34.44, Alt : 49.3300018311, Lat : 49.283838, Lng : -123.1147333, Q1 : 0.943380653858, Q2 : 0.0479275025427, Q3 : -0.148465141654, Q4 : 0.292735427618}
2019-04-14 04:52:34.01: SIM {TimeUS : 64634969, Roll : 0.22, Pitch : -17.94, Yaw : 34.43, Alt : 49.3300018311, Lat : 49.2838415, Lng : -123.1147295, Q1 : 0.943421602249, Q2 : 0.0479801818728, Q3 : -0.148373901844, Q4 : 0.292641103268}
2019-04-14 04:52:34.11: SIM {TimeUS : 64734929, Roll : 0.23, Pitch : -17.93, Yaw : 34.41, Alt : 49.3300018311, Lat : 49.2838451, Lng : -123.1147257, Q1 : 0.943452894688, Q2 : 0.0480237938464, Q3 : -0.148341208696, Q4 : 0.29254963994}
2019-04-14 04:52:34.21: SIM {TimeUS : 64834889, Roll : 0.21, Pitch : -17.95, Yaw : 34.4, Alt : 49.3300018311, Lat : 49.2838486, Lng : -123.114722, Q1 : 0.943464040756, Q2 : 0.0479491278529, Q3 : -0.148518770933, Q4 : 0.292435765266}
2019-04-14 04:52:34.31: SIM {TimeUS : 64934849, Roll : 0.18, Pitch : -17.99, Yaw : 34.39, Alt : 49.3400001526, Lat : 49.2838521, Lng : -123.1147182, Q1 : 0.943451344967, Q2 : 0.0477755889297, Q3 : -0.148920819163, Q4 : 0.292300701141}
2019-04-14 04:52:34.41: SIM {TimeUS : 65034809, Roll : 0.16, Pitch : -18.0, Yaw : 34.39, Alt : 49.3400001526, Lat : 49.2838556, Lng : -123.1147144, Q1 : 0.943468809128, Q2 : 0.0475928485394, Q3 : -0.149056434631, Q4 : 0.29220494628}
2019-04-14 04:52:34.52: SIM {TimeUS : 65135602, Roll : 0.16, Pitch : -17.99, Yaw : 34.38, Alt : 49.3400001526, Lat : 49.2838591, Lng : -123.1147105, Q1 : 0.943498373032, Q2 : 0.0475851856172, Q3 : -0.148969516158, Q4 : 0.292154997587}
2019-04-14 04:52:34.61: SIM {TimeUS : 65235562, Roll : 0.17, Pitch : -17.98, Yaw : 34.37, Alt : 49.3400001526, Lat : 49.2838627, Lng : -123.1147067, Q1 : 0.943522751331, Q2 : 0.0476566776633, Q3 : -0.148864150047, Q4 : 0.292118340731}
2019-04-14 04:52:34.71: SIM {TimeUS : 65335522, Roll : 0.18, Pitch : -17.98, Yaw : 34.36, Alt : 49.3400001526, Lat : 49.2838663, Lng : -123.1147029, Q1 : 0.943536937237, Q2 : 0.0477296672761, Q3 : -0.148846432567, Q4 : 0.292069524527}
2019-04-14 04:52:34.81: SIM {TimeUS : 65435482, Roll : 0.17, Pitch : -18.0, Yaw : 34.36, Alt : 49.3400001526, Lat : 49.2838698, Lng : -123.1146991, Q1 : 0.943538188934, Q2 : 0.0476815402508, Q3 : -0.149011597037, Q4 : 0.291989356279}
2019-04-14 04:52:34.91: SIM {TimeUS : 65535442, Roll : 0.15, Pitch : -18.02, Yaw : 34.35, Alt : 49.3400001526, Lat : 49.2838734, Lng : -123.1146953, Q1 : 0.943536043167, Q2 : 0.0475521795452, Q3 : -0.149260342121, Q4 : 0.291890323162}
2019-04-14 04:52:35.01: SIM {TimeUS : 65635402, Roll : 0.14, Pitch : -18.04, Yaw : 34.34, Alt : 49.3400001526, Lat : 49.2838768, Lng : -123.1146914, Q1 : 0.943536221981, Q2 : 0.0475246235728, Q3 : -0.149457857013, Q4 : 0.291793078184}
2019-04-14 04:52:35.11: SIM {TimeUS : 65735362, Roll : 0.15, Pitch : -18.06, Yaw : 34.33, Alt : 49.3400001526, Lat : 49.2838804, Lng : -123.1146876, Q1 : 0.943532168865, Q2 : 0.0476505681872, Q3 : -0.149604395032, Q4 : 0.291710525751}
2019-04-14 04:52:35.21: SIM {TimeUS : 65835322, Roll : 0.17, Pitch : -18.08, Yaw : 34.32, Alt : 49.3400001526, Lat : 49.283884, Lng : -123.1146838, Q1 : 0.943529546261, Q2 : 0.0478046089411, Q3 : -0.149716585875, Q4 : 0.291636228561}
2019-04-14 04:52:35.31: SIM {TimeUS : 65935282, Roll : 0.19, Pitch : -18.09, Yaw : 34.31, Alt : 49.3400001526, Lat : 49.2838876, Lng : -123.11468, Q1 : 0.943530380726, Q2 : 0.047985676676, Q3 : -0.149779334664, Q4 : 0.291571557522}
2019-04-14 04:52:35.41: SIM {TimeUS : 66035242, Roll : 0.2, Pitch : -18.11, Yaw : 34.3, Alt : 49.3400001526, Lat : 49.2838912, Lng : -123.1146761, Q1 : 0.943528592587, Q2 : 0.0481128059328, Q3 : -0.149890467525, Q4 : 0.291499316692}
