2019-04-14 03:45:33.60: SIM {TimeUS : 40616247, Roll : 0.0, Pitch : 0.0, Yaw : 0.0, Alt : 30.1000003815, Lat : 49.28357, Lng : -123.11502, Q1 : 1.0, Q2 : 0.0, Q3 : 0.0, Q4 : 0.0}
2019-04-14 03:45:33.71: SIM {TimeUS : 40735366, Roll : 0.0, Pitch : 0.0, Yaw : 0.0, Alt : 30.1000003815, Lat : 49.28357, Lng : -123.11502, Q1 : 1.0, Q2 : 0.0, Q3 : 0.0, Q4 : 0.0}
2019-04-14 03:45:33.81: SIM {TimeUS : 40835326, Roll : 0.0, Pitch : 0.0, Yaw : 0.0, Alt : 30.1000003815, Lat : 49.28357, Lng : -123.11502, Q1 : 1.0, Q2 : 0.0, Q3 : 0.0, Q4 : 0.0}
2019-04-14 03:45:33.91: SIM {TimeUS : 40935286, Roll : 0.0, Pitch : 0.0, Yaw : 0.0, Alt : 30.1000003815, Lat : 49.28357, Lng : -123.11502, Q1 : 1.0, Q2 : 0.0, Q3 : 0.0, Q4 : 0.0}
2019-04-14 03:45:34.01: SIM {TimeUS : 41035246, Roll : 0.0, Pitch : 0.0, Yaw : 0.0, Alt : 30.1000003815, Lat : 49.28357, Lng : -123.11502, Q1 : 1.0, Q2 : 0.0, Q3 : 0.0, Q4 : 0.0}
2019-04-14 03:45:34.11: SIM {TimeUS : 41135206, Roll : 0.0, Pitch : 0.0, Yaw : 0.0, Alt : 30.1000003815, Lat : 49.28357, Lng : -123.11502, Q1 : 1.0, Q2 : 0.0, Q3 : 0.0, Q4 : 0.0}
2019-04-14 03:45:34.21: SIM {TimeUS : 41235166, Roll : 0.0, Pitch : 0.0, Yaw : 0.0, Alt : 30.1000003815, Lat : 49.28357, Lng : -123.11502, Q1 : 1.0, Q2 : 0.0, Q3 : 0.0, Q4 : 0.0}
2019-04-14 03:45:34.31: SIM {TimeUS : 41335126, Roll : 0.0, Pitch : 0.0, Yaw : 0.0, Alt : 30.1000003815, Lat : 49.28357, Lng : -123.11502, Q1 : 1.0, Q2 : 0.0, Q3 : 0.0, Q4 : 0.0}
2019-04-14 03:45:34.41: SIM {TimeUS : 41435086, Roll : 0.0, Pitch : 0.0, Yaw : 0.0, Alt : 30.1000003815, Lat : 49.28357, Lng : -123.11502, Q1 : 1.0, Q2 : 0.0, Q3 : 0.0, Q4 : 0.0}
2019-04-14 03:45:34.51: SIM {TimeUS : 41535046, Roll : 0.0, Pitch : 0.0, Yaw : 0.0, Alt : 30.1000003815, Lat : 49.28357, Lng : -123.11502, Q1 : 1.0, Q2 : 0.0, Q3 : 0.0, Q4 : 0.0}
2019-04-14 03:45:34.61: SIM {TimeUS : 41635006, Roll : 0.0, Pitch : 0.0, Yaw : 0.0, Alt : 30.1000003815, Lat : 49.28357, Lng : -123.11502, Q1 : 1.0, Q2 : 0.0, Q3 : 0.0, Q4 : 0.0}
2019-04-14 03:45:34.71: SIM {TimeUS : 41734966, Roll : 0.0, Pitch : 0.0, Yaw : 0.0, Alt : 30.1000003815, Lat : 49.28357, Lng : -123.11502, Q1 : 1.0, Q2 : 0.0, Q3 : 0.0, Q4 : 0.0}
2019-04-14 03:45:34.81: SIM {TimeUS : 41834926, Roll : 0.0, Pitch : 0.0, Yaw : 0.0, Alt : 30.1000003815, Lat : 49.28357, Lng : -123.11502, Q1 : 1.0, Q2 : 0.0, Q3 : 0.0, Q4 : 0.0}
2019-04-14 03:45:34.91: SIM {TimeUS : 41934886, Roll : 0.0, Pitch : 0.0, Yaw : 0.0, Alt : 30.1000003815, Lat : 49.28357, Lng : -123.11502, Q1 : 1.0, Q2 : 0.0, Q3 : 0.0, Q4 : 0.0}
2019-04-14 03:45:35.01: SIM {TimeUS : 42034846, Roll : 0.0, Pitch : 0.0, Yaw : 0.0, Alt : 30.1000003815, Lat : 49.28357, Lng : -123.11502, Q1 : 1.0, Q2 : 0.0, Q3 : 0.0, Q4 : 0.0}
2019-04-14 03:45:35.11: SIM {TimeUS : 42134806, Roll : 0.0, Pitch : 0.0, Yaw : 0.0, Alt : 30.1000003815, Lat : 49.28357, Lng : -123.11502, Q1 : 1.0, Q2 : 0.0, Q3 : 0.0, Q4 : 0.0}
2019-04-14 03:45:35.21: SIM {TimeUS : 42234766, Roll : 0.0, Pitch : 0.0, Yaw : 0.0, Alt : 30.1000003815, Lat : 49.28357, Lng : -123.11502, Q1 : 1.0, Q2 : 0.0, Q3 : 0.0, Q4 : 0.0}
2019-04-14 03:45:35.31: SIM {TimeUS : 42334726, Roll : 0.0, Pitch : 0.0, Yaw : 0.0, Alt : 30.1000003815, Lat : 49.28357, Lng : -123.11502, Q1 : 1.0, Q2 : 0.0, Q3 : 0.0, Q4 : 0.0}
2019-04-14 03:45:35.41: SIM {TimeUS : 42434686, Roll : 0.0, Pitch : 0.0, Yaw : 0.0, Alt : 30.1000003815, Lat : 49.28357, Lng : -123.11502, Q1 : 1.0, Q2 : 0.0, Q3 : 0.0, Q4 : 0.0}
2019-04-14 03:45:35.51: SIM {TimeUS : 42534646, Roll : 0.0, Pitch : 0.0, Yaw : 0.0, Alt : 30.1000003815, Lat : 49.28357, Lng : -123.11502, Q1 : 1.0, Q2 : 0.0, Q3 : 0.0, Q4 : 0.0}
2019-04-14 03:45:35.61: SIM {TimeUS : 42634606, Roll : 0.0, Pitch : 0.0, Yaw : 0.0, Alt : 30.1000003815, Lat : 49.28357, Lng : -123.11502, Q1 : 1.0, Q2 : 0.0, Q3 : 0.0, Q4 : 0.0}
2019-04-14 03:45:35.71: SIM {TimeUS : 42735399, Roll : 0.0, Pitch : 0.0, Yaw : 0.0, Alt : 30.1000003815, Lat : 49.28357, Lng : -123.11502, Q1 : 1.0, Q2 : 0.0, Q3 : 0.0, Q4 : 0.0}
2019-04-14 03:45:35.81: SIM {TimeUS : 42835359, Roll : 0.0, Pitch : 0.0, Yaw : 0.0, Alt : 30.1000003815, Lat : 49.28357, Lng : -123.11502, Q1 : 1.0, Q2 : 0.0, Q3 : 0.0, Q4 : 0.0}
2019-04-14 03:45:35.91: SIM {TimeUS : 42935319, Roll : 0.0, Pitch : 0.0, Yaw : 360.0, Alt : 30.1000003815, Lat : 49.28357, Lng : -123.11502, Q1 : 1.0, Q2 : 0.0, Q3 : 0.0, Q4 : -2.34232576911e-12}
2019-04-14 03:45:36.01: SIM {TimeUS : 43035279, Roll : 0.0, Pitch : 0.0, Yaw : 360.0, Alt : 30.1000003815, Lat : 49.28357, Lng : -123.11502, Q1 : 1.0, Q2 : 0.0, Q3 : 0.0, Q4 : -1.59578156245e-10}
2019-04-14 03:45:36.11: SIM {TimeUS : 43135239, Roll : 0.0, Pitch : 0.0, Yaw : 360.0, Alt : 30.1000003815, Lat : 49.28357, Lng : -123.11502, Q1 : 1.0, Q2 : 0.0, Q3 : 0.0, Q4 : -8.89988100994e-08}
2019-04-14 03:45:36.21: SIM {TimeUS : 43235199, Roll : 0.0, Pitch : 0.0, Yaw : 359.99, Alt : 30.1000003815, Lat : 49.28357, Lng : -123.11502, Q1 : 1.0, Q2 : 0.0, Q3 : 0.0, Q4 : -2.25867694326e-07}
2019-04-14 03:45:36.31: SIM {TimeUS : 43335159, Roll : 0.0, Pitch : 0.0, Yaw : 359.99, Alt : 30.1000003815, Lat : 49.28357, Lng : -123.11502, Q1 : 1.0, Q2 : 0.0, Q3 : 0.0, Q4 : -3.86421646681e-07}
2019-04-14 03:45:36.41: SIM {TimeUS : 43435119, Roll : 0.0, Pitch : 0.0, Yaw : 359.99, Alt : 30.1000003815, Lat : 49.28357, Lng : -123.11502, Q1 : 1.0, Q2 : 0.0, Q3 : 0.0, Q4 : -5.9255933138e-07}
2019-04-14 03:45:36.51: SIM {TimeUS : 43535079, Roll : 0.0, Pitch : 0.0, Yaw : 359.99, Alt : 30.1000003815, Lat : 49.28357, Lng : -123.11502, Q1 : 1.0, Q2 : 0.0, Q3 : 0.0, Q4 : -7.97640495875e-07}
2019-04-14 03:45:36.61: SIM {TimeUS : 43635039, Roll : 0.0, Pitch : 0.0, Yaw : 359.99, Alt : 30.1000003815, Lat : 49.28357, Lng : -123.11502, Q1 : 1.0, Q2 : 0.0, Q3 : 0.0, Q4 : -9.83619088402e-07}
2019-04-14 03:45:36.71: SIM {TimeUS : 43734999, Roll : 0.0, Pitch : 0.0, Yaw : 359.99, Alt : 30.1000003815, Lat : 49.28357, Lng : -123.11502, Q1 : 1.0, Q2 : 0.0, Q3 : 0.0, Q4 : -1.16363355573e-06}
2019-04-14 03:45:36.81: SIM {TimeUS : 43834959, Roll : 0.0, Pitch : 0.0, Yaw : 359.99, Alt : 30.1100006104, Lat : 49.28357, Lng : -123.11502, Q1 : 1.0, Q2 : 0.0, Q3 : 0.0, Q4 : -1.34775746119e-06}
2019-04-14 03:45:36.91: SIM {TimeUS : 43934919, Roll : 0.0, Pitch : 0.0, Yaw : 359.99, Alt : 30.1299991608, Lat : 49.28357, Lng : -123.11502, Q1 : 1.0, Q2 : 0.0, Q3 : 0.0, Q4 : -1.49932532167e-06}
2019-04-14 03:45:37.01: SIM {TimeUS : 44034879, Roll : 0.0, Pitch : 0.0, Yaw : 359.99, Alt : 30.1599998474, Lat : 49.28357, Lng : -123.11502, Q1 : 1.0, Q2 : 0.0, Q3 : 0.0, Q4 : -1.73192461261e-06}
2019-04-14 03:45:37.11: SIM {TimeUS : 44134839, Roll : 0.0, Pitch : 0.0, Yaw : 359.99, Alt : 30.1900005341, Lat : 49.28357, Lng : -123.11502, Q1 : 1.0, Q2 : 0.0, Q3 : 0.0, Q4 : -1.92971901924e-06}
2019-04-14 03:45:37.21: SIM {TimeUS : 44234799, Roll : -0.03, Pitch : -0.03, Yaw : 359.99, Alt : 30.2299995422, Lat : 49.28357, Lng : -123.11502, Q1 : 0.999999880791, Q2 : -0.000323128915625, Q3 : -0.00027705411776, Q4 : -4.43817179985e-06}
2019-04-14 03:45:37.31: SIM {TimeUS : 44334759, Roll : -0.29, Pitch : -0.25, Yaw : 359.99, Alt : 30.3099994659, Lat : 49.28357, Lng : -123.11502, Q1 : 0.999994277954, Q2 : -0.00258251908235, Q3 : -0.00219007767737, Q4 : -2.89772033284e-05}
2019-04-14 03:45:37.41: SIM {TimeUS : 44434719, Roll : -0.58, Pitch : -0.53, Yaw : 359.99, Alt : 30.4400005341, Lat : 49.28357, Lng : -123.11502, Q1 : 0.999976217747, Q2 : -0.00507854903117, Q3 : -0.00467240437865, Q4 : -7.841642946e-05}
2019-04-14 03:45:37.51: SIM {TimeUS : 44534679, Roll : -0.76, Pitch : -0.72, Yaw : 359.98, Alt : 30.5900001526, Lat : 49.28357, Lng : -123.11502, Q1 : 0.999957442284, Q2 : -0.00668888306245, Q3 : -0.00635128095746, Q4 : -0.000149257772136}
2019-04-14 03:45:37.61: SIM {TimeUS : 44634639, Roll : -0.81, Pitch : -0.77, Yaw : 359.97, Alt : 30.75, Lat : 49.28357, Lng : -123.11502, Q1 : 0.999951779842, Q2 : -0.00715160788968, Q3 : -0.0067257466726, Q4 : -0.000230166813708}
2019-04-14 03:45:37.71: SIM {TimeUS : 44734599, Roll : -0.73, Pitch : -0.68, Yaw : 359.96, Alt : 30.9099998474, Lat : 49.28357, Lng : -123.1150201, Q1 : 0.999961495399, Q2 : -0.00641251308843, Q3 : -0.00597978616133, Q4 : -0.00030983943725}
2019-04-14 03:45:37.81: SIM {TimeUS : 44835392, Roll : -0.54, Pitch : -0.51, Yaw : 359.95, Alt : 31.0599994659, Lat : 49.2835701, Lng : -123.1150202, Q1 : 0.999978542328, Q2 : -0.00478323036805, Q3 : -0.00446374062449, Q4 : -0.000382237951271}
2019-04-14 03:45:37.91: SIM {TimeUS : 44935352, Roll : -0.32, Pitch : -0.3, Yaw : 359.94, Alt : 31.2199993134, Lat : 49.2835701, Lng : -123.1150202, Q1 : 0.999992370605, Q2 : -0.0028245174326, Q3 : -0.00265716155991, Q4 : -0.000444278004579}
2019-04-14 03:45:38.01: SIM {TimeUS : 45035312, Roll : -0.11, Pitch : -0.12, Yaw : 359.94, Alt : 31.3799991608, Lat : 49.2835702, Lng : -123.1150203, Q1 : 0.999998748302, Q2 : -0.00100662419572, Q3 : -0.00109406467527, Q4 : -0.000492894556373}
2019-04-14 03:45:38.11: SIM {TimeUS : 45135272, Roll : 0.03, Pitch : 0.0, Yaw : 359.93, Alt : 31.5599994659, Lat : 49.2835702, Lng : -123.1150204, Q1 : 0.999999821186, Q2 : 0.000297699909424, Q3 : -4.40310905105e-05, Q4 : -0.000528451695573}
2019-04-14 03:45:38.21: SIM {TimeUS : 45235232, Roll : 0.1, Pitch : 0.05, Yaw : 359.93, Alt : 31.7299995422, Lat : 49.2835703, Lng : -123.1150205, Q1 : 0.999999344349, Q2 : 0.000873703043908, Q3 : 0.00051357090706, Q4 : -0.000546325114556}
2019-04-14 03:45:38.31: SIM {TimeUS : 45335192, Roll : 0.1, Pitch : 0.07, Yaw : 359.93, Alt : 31.9099998474, Lat : 49.2835703, Lng : -123.1150205, Q1 : 0.99999922514, Q2 : 0.00089370663045, Q3 : 0.000690170680173, Q4 : -0.000557774386834}
2019-04-14 03:45:38.41: SIM {TimeUS : 45435152, Roll : 0.07, Pitch : 0.08, Yaw : 359.93, Alt : 32.0999984741, Lat : 49.2835703, Lng : -123.1150206, Q1 : 0.999999344349, Q2 : 0.000673750415444, Q3 : 0.000743744429201, Q4 : -0.000555448117666}
2019-04-14 03:45:38.51: SIM {TimeUS : 45535112, Roll : 0.06, Pitch : 0.09, Yaw : 359.93, Alt : 32.2900009155, Lat : 49.2835703, Lng : -123.1150206, Q1 : 0.999999284744, Q2 : 0.000579841725994, Q3 : 0.000868037750479, Q4 : -0.000531976169441}
2019-04-14 03:45:38.61: SIM {TimeUS : 45635072, Roll : 0.07, Pitch : 0.1, Yaw : 359.94, Alt : 32.4799995422, Lat : 49.2835703, Lng : -123.1150207, Q1 : 0.99999922514, Q2 : 0.000637979828753, Q3 : 0.000941780570429, Q4 : -0.00050300633302}
2019-04-14 03:45:38.71: SIM {TimeUS : 45735032, Roll : 0.08, Pitch : 0.12, Yaw : 359.94, Alt : 32.6699981689, Lat : 49.2835703, Lng : -123.1150207, Q1 : 0.999999046326, Q2 : 0.000754522625357, Q3 : 0.00105647766031, Q4 : -0.000470529863378}
2019-04-14 03:45:38.81: SIM {TimeUS : 45834992, Roll : 0.1, Pitch : 0.14, Yaw : 359.94, Alt : 32.8699989319, Lat : 49.2835704, Lng : -123.1150208, Q1 : 0.999998629093, Q2 : 0.000896798272151, Q3 : 0.00129989359993, Q4 : -0.000439853989519}
2019-04-14 03:45:38.91: SIM {TimeUS : 45934952, Roll : 0.12, Pitch : 0.14, Yaw : 359.95, Alt : 33.0699996948, Lat : 49.2835704, Lng : -123.1150208, Q1 : 0.999998450279, Q2 : 0.00110060535371, Q3 : 0.00130437663756, Q4 : -0.000420537777245}
2019-04-14 03:45:39.01: SIM {TimeUS : 46034912, Roll : 0.14, Pitch : 0.13, Yaw : 359.95, Alt : 33.2700004578, Lat : 49.2835704, Lng : -123.1150208, Q1 : 0.99999833107, Q2 : 0.00129996694159, Q3 : 0.00121866015252, Q4 : -0.000396150251618}
2019-04-14 03:45:39.11: SIM {TimeUS : 46134872, Roll : 0.16, Pitch : 0.13, Yaw : 359.95, Alt : 33.4799995422, Lat : 49.2835704, Lng : -123.1150208, Q1 : 0.999998271465, Q2 : 0.00143643922638, Q3 : 0.00113538955338, Q4 : -0.000378954369808}
2019-04-14 03:45:39.21: SIM {TimeUS : 46234832, Roll : 0.16, Pitch : 0.13, Yaw : 359.95, Alt : 33.6899986267, Lat : 49.2835704, Lng : -123.1150208, Q1 : 0.999998152256, Q2 : 0.00148000509944, Q3 : 0.00118696456775, Q4 : -0.000389430584619}
2019-04-14 03:45:39.31: SIM {TimeUS : 46334792, Roll : 0.17, Pitch : 0.14, Yaw : 359.95, Alt : 33.8899993896, Lat : 49.2835704, Lng : -123.1150208, Q1 : 0.999997913837, Q2 : 0.00152944086585, Q3 : 0.00128948572092, Q4 : -0.000417259463575}
2019-04-14 03:45:39.41: SIM {TimeUS : 46434752, Roll : 0.16, Pitch : 0.13, Yaw : 359.94, Alt : 34.0999984741, Lat : 49.2835704, Lng : -123.1150208, Q1 : 0.999998092651, Q2 : 0.00144998426549, Q3 : 0.00122068147175, Q4 : -0.000448979699286}
2019-04-14 03:45:39.51: SIM {TimeUS : 46534712, Roll : 0.14, Pitch : 0.12, Yaw : 359.94, Alt : 34.3100013733, Lat : 49.2835704, Lng : -123.1150208, Q1 : 0.999998450279, Q2 : 0.00127658399288, Q3 : 0.0011140863644, Q4 : -0.000481731549371}
2019-04-14 03:45:39.61: SIM {TimeUS : 46634672, Roll : 0.11, Pitch : 0.11, Yaw : 359.94, Alt : 34.5299987793, Lat : 49.2835704, Lng : -123.1150208, Q1 : 0.999998807907, Q2 : 0.00104318244848, Q3 : 0.00100124452729, Q4 : -0.000516239961144}
2019-04-14 03:45:39.71: SIM {TimeUS : 46734632, Roll : 0.08, Pitch : 0.1, Yaw : 359.93, Alt : 34.7400016785, Lat : 49.2835704, Lng : -123.1150208, Q1 : 0.999999165535, Q2 : 0.000764398893807, Q3 : 0.000880960782524, Q4 : -0.000552838377189}
2019-04-14 03:45:39.81: SIM {TimeUS : 46834592, Roll : 0.06, Pitch : 0.06, Yaw : 359.93, Alt : 34.9599990845, Lat : 49.2835704, Lng : -123.1150208, Q1 : 0.999999523163, Q2 : 0.000596742203925, Q3 : 0.000537619867828, Q4 : -0.000594690849539}
2019-04-14 03:45:39.91: SIM {TimeUS : 46935385, Roll : 0.05, Pitch : 0.02, Yaw : 359.92, Alt : 35.1699981689, Lat : 49.2835704, Lng : -123.1150208, Q1 : 0.999999642372, Q2 : 0.000507666321937, Q3 : 0.000220033878577, Q4 : -0.000632127863355}
2019-04-14 03:45:40.01: SIM {TimeUS : 47035345, Roll : 0.03, Pitch : 0.0, Yaw : 359.92, Alt : 35.3899993896, Lat : 49.2835704, Lng : -123.1150208, Q1 : 0.999999701977, Q2 : 0.000317215977702, Q3 : 4.34016837971e-05, Q4 : -0.000667028129101}
2019-04-14 03:45:40.11: SIM {TimeUS : 47135305, Roll : 0.02, Pitch : 0.0, Yaw : 359.92, Alt : 35.6100006104, Lat : 49.2835704, Lng : -123.1150208, Q1 : 0.999999761581, Q2 : 0.000199751884793, Q3 : 9.5355690064e-06, Q4 : -0.000697661831509}
2019-04-14 03:45:40.21: SIM {TimeUS : 47235265, Roll : 0.02, Pitch : 0.0, Yaw : 359.91, Alt : 35.8300018311, Lat : 49.2835704, Lng : -123.1150207, Q1 : 0.999999701977, Q2 : 0.000187253550394, Q3 : 1.59555511345e-05, Q4 : -0.000730534316972}
2019-04-14 03:45:40.31: SIM {TimeUS : 47335225, Roll : 0.0, Pitch : -0.01, Yaw : 359.91, Alt : 36.0499992371, Lat : 49.2835704, Lng : -123.1150207, Q1 : 0.999999701977, Q2 : 3.62554214917e-06, Q3 : -0.000133078938234, Q4 : -0.000753172265831}
2019-04-14 03:45:40.41: SIM {TimeUS : 47435185, Roll : -0.03, Pitch : -0.04, Yaw : 359.91, Alt : 36.2700004578, Lat : 49.2835704, Lng : -123.1150207, Q1 : 0.999999582767, Q2 : -0.00031594466418, Q3 : -0.000403530575568, Q4 : -0.000766189943533}
2019-04-14 03:45:40.51: SIM {TimeUS : 47535145, Roll : -0.06, Pitch : -0.06, Yaw : 359.91, Alt : 36.4900016785, Lat : 49.2835704, Lng : -123.1150207, Q1 : 0.999999344349, Q2 : -0.000590245879721, Q3 : -0.000563477864489, Q4 : -0.000777212670073}
2019-04-14 03:45:40.61: SIM {TimeUS : 47635105, Roll : -0.09, Pitch : -0.07, Yaw : 359.9, Alt : 36.7099990845, Lat : 49.2835704, Lng : -123.1150207, Q1 : 0.99999910593, Q2 : -0.000836989493109, Q3 : -0.000678373849951, Q4 : -0.000788080098573}
2019-04-14 03:45:40.71: SIM {TimeUS : 47735065, Roll : -0.09, Pitch : -0.08, Yaw : 359.9, Alt : 36.9399986267, Lat : 49.2835704, Lng : -123.1150207, Q1 : 0.999999046326, Q2 : -0.000855191145092, Q3 : -0.000703941041138, Q4 : -0.000803825736511}
2019-04-14 03:45:40.81: SIM {TimeUS : 47835025, Roll : -0.09, Pitch : -0.07, Yaw : 359.9, Alt : 37.1599998474, Lat : 49.2835704, Lng : -123.1150207, Q1 : 0.99999910593, Q2 : -0.000812964979559, Q3 : -0.000630195310805, Q4 : -0.000828240008559}
2019-04-14 03:45:40.91: SIM {TimeUS : 47934985, Roll : -0.08, Pitch : -0.05, Yaw : 359.9, Alt : 37.3899993896, Lat : 49.2835704, Lng : -123.1150207, Q1 : 0.999999284744, Q2 : -0.000698790943716, Q3 : -0.000442393793492, Q4 : -0.000854112498928}
2019-04-14 03:45:41.01: SIM {TimeUS : 48034945, Roll : -0.06, Pitch : -0.03, Yaw : 359.89, Alt : 37.6100006104, Lat : 49.2835704, Lng : -123.1150206, Q1 : 0.999999403954, Q2 : -0.000570089090616, Q3 : -0.000310468836688, Q4 : -0.000876115343999}
2019-04-14 03:45:41.11: SIM {TimeUS : 48134905, Roll : -0.06, Pitch : -0.03, Yaw : 359.89, Alt : 37.8400001526, Lat : 49.2835704, Lng : -123.1150206, Q1 : 0.999999344349, Q2 : -0.000581297150347, Q3 : -0.000315117533319, Q4 : -0.000894152675755}
2019-04-14 03:45:41.21: SIM {TimeUS : 48234865, Roll : -0.07, Pitch : -0.02, Yaw : 359.89, Alt : 38.0699996948, Lat : 49.2835704, Lng : -123.1150206, Q1 : 0.999999344349, Q2 : -0.000672131311148, Q3 : -0.000209382909816, Q4 : -0.000905504159164}
2019-04-14 03:45:41.31: SIM {TimeUS : 48334825, Roll : -0.09, Pitch : 0.0, Yaw : 359.89, Alt : 38.2900009155, Lat : 49.2835704, Lng : -123.1150206, Q1 : 0.99999922514, Q2 : -0.000866906251758, Q3 : -6.60886798869e-05, Q4 : -0.000914045900572}
2019-04-14 03:45:41.41: SIM {TimeUS : 48434785, Roll : -0.1, Pitch : 0.0, Yaw : 359.89, Alt : 38.5200004578, Lat : 49.2835704, Lng : -123.1150206, Q1 : 0.99999922514, Q2 : -0.000874317425769, Q3 : 5.86024179938e-05, Q4 : -0.000917182653211}
2019-04-14 03:45:41.51: SIM {TimeUS : 48534745, Roll : -0.07, Pitch : 0.03, Yaw : 359.89, Alt : 38.75, Lat : 49.2835706, Lng : -123.1150206, Q1 : 0.999999284744, Q2 : -0.000695179740433, Q3 : 0.000277461716905, Q4 : -0.000926593726035}
2019-04-14 03:45:41.61: SIM {TimeUS : 48634705, Roll : -0.05, Pitch : 0.02, Yaw : 359.89, Alt : 38.9799995422, Lat : 49.2835706, Lng : -123.1150207, Q1 : 0.999999403954, Q2 : -0.000463300180854, Q3 : 0.000256473198533, Q4 : -0.000936081982218}
2019-04-14 03:45:41.71: SIM {TimeUS : 48734665, Roll : -0.02, Pitch : 0.02, Yaw : 359.89, Alt : 39.2099990845, Lat : 49.2835706, Lng : -123.1150207, Q1 : 0.999999523163, Q2 : -0.000188659061678, Q3 : 0.000186071149074, Q4 : -0.000946486135945}
2019-04-14 03:45:41.81: SIM {TimeUS : 48834625, Roll : 0.01, Pitch : 0.03, Yaw : 359.89, Alt : 39.4399986267, Lat : 49.2835706, Lng : -123.1150207, Q1 : 0.999999463558, Q2 : 0.000128835570649, Q3 : 0.00032333668787, Q4 : -0.000956737028901}
2019-04-14 03:45:41.91: SIM {TimeUS : 48934585, Roll : 0.05, Pitch : 0.06, Yaw : 359.88, Alt : 39.6699981689, Lat : 49.2835706, Lng : -123.1150207, Q1 : 0.99999922514, Q2 : 0.000455657951534, Q3 : 0.000610025716014, Q4 : -0.000973518646788}
2019-04-14 03:45:42.01: SIM {TimeUS : 49035378, Roll : 0.08, Pitch : 0.1, Yaw : 359.88, Alt : 39.9000015259, Lat : 49.2835706, Lng : -123.1150207, Q1 : 0.999998867512, Q2 : 0.000711506232619, Q3 : 0.000884741544724, Q4 : -0.000997136346996}
2019-04-14 03:45:42.11: SIM {TimeUS : 49135338, Roll : 0.07, Pitch : 0.13, Yaw : 359.88, Alt : 40.1300010681, Lat : 49.2835706, Lng : -123.1150207, Q1 : 0.999998629093, Q2 : 0.000633969262708, Q3 : 0.00114407297224, Q4 : -0.00102444377262}
2019-04-14 03:45:42.21: SIM {TimeUS : 49235298, Roll : 0.02, Pitch : 0.15, Yaw : 359.87, Alt : 40.3600006104, Lat : 49.2835706, Lng : -123.1150207, Q1 : 0.999998450279, Q2 : 0.000217313659959, Q3 : 0.00138739251997, Q4 : -0.00106719718315}
2019-04-14 03:45:42.31: SIM {TimeUS : 49335258, Roll : -0.01, Pitch : 0.17, Yaw : 359.87, Alt : 40.5999984741, Lat : 49.2835706, Lng : -123.1150207, Q1 : 0.999998271465, Q2 : -0.000149095780216, Q3 : 0.00150751555339, Q4 : -0.00110313715413}
2019-04-14 03:45:42.41: SIM {TimeUS : 49435218, Roll : -0.04, Pitch : 0.15, Yaw : 359.87, Alt : 40.8300018311, Lat : 49.2835706, Lng : -123.1150207, Q1 : 0.99999833107, Q2 : -0.000365632178728, Q3 : 0.00136534962803, Q4 : -0.00112916552462}
2019-04-14 03:45:42.51: SIM {TimeUS : 49535178, Roll : -0.04, Pitch : 0.13, Yaw : 359.86, Alt : 41.0600013733, Lat : 49.2835706, Lng : -123.1150207, Q1 : 0.999998569489, Q2 : -0.000420065276558, Q3 : 0.00118431285955, Q4 : -0.00115981185809}
2019-04-14 03:45:42.61: SIM {TimeUS : 49635138, Roll : -0.03, Pitch : 0.13, Yaw : 359.86, Alt : 41.2900009155, Lat : 49.2835706, Lng : -123.1150207, Q1 : 0.999998569489, Q2 : -0.000298431463307, Q3 : 0.00118403101806, Q4 : -0.00120014895219}
2019-04-14 03:45:42.71: SIM {TimeUS : 49735098, Roll : 0.0, Pitch : 0.15, Yaw : 359.85, Alt : 41.5299987793, Lat : 49.2835706, Lng : -123.1150207, Q1 : 0.999998390675, Q2 : 7.21344549675e-05, Q3 : 0.0013122522505, Q4 : -0.00124958425295}
2019-04-14 03:45:42.81: SIM {TimeUS : 49835058, Roll : 0.06, Pitch : 0.15, Yaw : 359.85, Alt : 41.7599983215, Lat : 49.2835706, Lng : -123.1150207, Q1 : 0.999998092651, Q2 : 0.00053030840354, Q3 : 0.0013661357807, Q4 : -0.00129914900754}
2019-04-14 03:45:42.91: SIM {TimeUS : 49935018, Roll : 0.09, Pitch : 0.12, Yaw : 359.84, Alt : 41.9900016785, Lat : 49.2835706, Lng : -123.1150207, Q1 : 0.999998152256, Q2 : 0.000866072194185, Q3 : 0.00108923076186, Q4 : -0.00133966386784}
2019-04-14 03:45:43.01: SIM {TimeUS : 50034978, Roll : 0.1, Pitch : 0.07, Yaw : 359.84, Alt : 42.2299995422, Lat : 49.2835706, Lng : -123.1150207, Q1 : 0.999998390675, Q2 : 0.000912613759283, Q3 : 0.000688430096488, Q4 : -0.00137257226743}
2019-04-14 03:45:43.11: SIM {TimeUS : 50134938, Roll : 0.06, Pitch : 0.04, Yaw : 359.84, Alt : 42.4599990845, Lat : 49.2835706, Lng : -123.1150207, Q1 : 0.999998748302, Q2 : 0.000587036891375, Q3 : 0.00042199541349, Q4 : -0.0013895049924}
2019-04-14 03:45:43.21: SIM {TimeUS : 50234898, Roll : 0.01, Pitch : 0.04, Yaw : 359.83, Alt : 42.7000007629, Lat : 49.2835706, Lng : -123.1150207, Q1 : 0.999998927116, Q2 : 9.92731293081e-05, Q3 : 0.000387992709875, Q4 : -0.0013998169452}
2019-04-14 03:45:43.31: SIM {TimeUS : 50334858, Roll : -0.02, Pitch : 0.06, Yaw : 359.83, Alt : 42.9300003052, Lat : 49.2835704, Lng : -123.1150207, Q1 : 0.999998807907, Q2 : -0.000242591049755, Q3 : 0.00060861260863, Q4 : -0.0014033842599}
2019-04-14 03:45:43.41: SIM {TimeUS : 50434818, Roll : -0.04, Pitch : 0.08, Yaw : 359.83, Alt : 43.1699981689, Lat : 49.2835704, Lng : -123.1150207, Q1 : 0.999998629093, Q2 : -0.000418288022047, Q3 : 0.000744268065318, Q4 : -0.00140505994204}
2019-04-14 03:45:43.51: SIM {TimeUS : 50534778, Roll : -0.05, Pitch : 0.07, Yaw : 359.83, Alt : 43.4000015259, Lat : 49.2835704, Lng : -123.1150207, Q1 : 0.999998688698, Q2 : -0.000435496971477, Q3 : 0.000675195478834, Q4 : -0.00140937278047}
2019-04-14 03:45:43.61: SIM {TimeUS : 50634738, Roll : -0.05, Pitch : 0.06, Yaw : 359.83, Alt : 43.6399993896, Lat : 49.2835704, Lng : -123.1150207, Q1 : 0.999998748302, Q2 : -0.000493594852742, Q3 : 0.000536694074981, Q4 : -0.00142194901127}
2019-04-14 03:45:43.71: SIM {TimeUS : 50734698, Roll : -0.05, Pitch : 0.04, Yaw : 359.83, Alt : 43.8699989319, Lat : 49.2835704, Lng : -123.1150207, Q1 : 0.999998748302, Q2 : -0.000446775899036, Q3 : 0.000408650055761, Q4 : -0.00144053553231}
2019-04-14 03:45:43.81: SIM {TimeUS : 50834658, Roll : -0.03, Pitch : 0.03, Yaw : 359.83, Alt : 44.1100006104, Lat : 49.2835704, Lng : -123.1150207, Q1 : 0.999998867512, Q2 : -0.00028937557363, Q3 : 0.000349318666849, Q4 : -0.00146739394404}
2019-04-14 03:45:43.91: SIM {TimeUS : 50934618, Roll : -0.01, Pitch : 0.03, Yaw : 359.82, Alt : 44.3400001526, Lat : 49.2835704, Lng : -123.1150207, Q1 : 0.999998807907, Q2 : -0.000172502550413, Q3 : 0.000331960502081, Q4 : -0.00149797089398}
2019-04-14 03:45:44.01: SIM {TimeUS : 51034578, Roll : -0.02, Pitch : 0.01, Yaw : 359.82, Alt : 44.5800018311, Lat : 49.2835704, Lng : -123.1150206, Q1 : 0.999998807907, Q2 : -0.000201922885026, Q3 : 0.000171580424649, Q4 : -0.0015271641314}
2019-04-14 03:45:44.11: SIM {TimeUS : 51135371, Roll : -0.03, Pitch : -0.01, Yaw : 359.82, Alt : 44.8199996948, Lat : 49.2835704, Lng : -123.1150206, Q1 : 0.999998748302, Q2 : -0.000262641726295, Q3 : -0.000149570507347, Q4 : -0.00155912793707}
2019-04-14 03:45:44.21: SIM {TimeUS : 51235331, Roll : -0.03, Pitch : -0.04, Yaw : 359.81, Alt : 45.0600013733, Lat : 49.2835703, Lng : -123.1150206, Q1 : 0.999998629093, Q2 : -0.00027892718208, Q3 : -0.000355129333911, Q4 : -0.00159330910537}
2019-04-14 03:45:44.31: SIM {TimeUS : 51335291, Roll : -0.01, Pitch : -0.04, Yaw : 359.81, Alt : 45.2900009155, Lat : 49.2835703, Lng : -123.1150206, Q1 : 0.999998569489, Q2 : -0.000151259475388, Q3 : -0.000418753974373, Q4 : -0.00163070915733}
2019-04-14 03:45:44.41: SIM {TimeUS : 51435251, Roll : -0.01, Pitch : -0.05, Yaw : 359.8, Alt : 45.5299987793, Lat : 49.2835703, Lng : -123.1150206, Q1 : 0.999998509884, Q2 : -0.000163407748914, Q3 : -0.000442691991339, Q4 : -0.00167061842512}
2019-04-14 03:45:44.51: SIM {TimeUS : 51535211, Roll : -0.03, Pitch : -0.04, Yaw : 359.8, Alt : 45.7599983215, Lat : 49.2835703, Lng : -123.1150206, Q1 : 0.999998390675, Q2 : -0.000348724803189, Q3 : -0.000375885108951, Q4 : -0.00170761696063}
2019-04-14 03:45:44.61: SIM {TimeUS : 51635171, Roll : -0.07, Pitch : -0.03, Yaw : 359.8, Alt : 45.9900016785, Lat : 49.2835703, Lng : -123.1150206, Q1 : 0.999998211861, Q2 : -0.000682323006913, Q3 : -0.000329036236508, Q4 : -0.00174078450073}
2019-04-14 03:45:44.71: SIM {TimeUS : 51735131, Roll : -0.1, Pitch : -0.03, Yaw : 359.79, Alt : 46.2200012207, Lat : 49.2835703, Lng : -123.1150206, Q1 : 0.999997973442, Q2 : -0.00094234693097, Q3 : -0.000284879555693, Q4 : -0.00177042768337}
2019-04-14 03:45:44.81: SIM {TimeUS : 51835091, Roll : -0.11, Pitch : -0.02, Yaw : 359.79, Alt : 46.4500007629, Lat : 49.2835703, Lng : -123.1150206, Q1 : 0.999997854233, Q2 : -0.00103003589902, Q3 : -0.000189521349967, Q4 : -0.00179431552533}
2019-04-14 03:45:44.91: SIM {TimeUS : 51935051, Roll : -0.1, Pitch : 0.0, Yaw : 359.79, Alt : 46.6699981689, Lat : 49.2835703, Lng : -123.1150206, Q1 : 0.999997913837, Q2 : -0.000953657028731, Q3 : 4.34244975622e-06, Q4 : -0.00181378424168}
2019-04-14 03:45:45.01: SIM {TimeUS : 52035011, Roll : -0.08, Pitch : 0.01, Yaw : 359.78, Alt : 46.8800010681, Lat : 49.2835703, Lng : -123.1150206, Q1 : 0.999998033047, Q2 : -0.000764968222938, Q3 : 0.00011975706002, Q4 : -0.00183308881242}
2019-04-14 03:45:45.11: SIM {TimeUS : 52134971, Roll : -0.06, Pitch : 0.01, Yaw : 359.78, Alt : 47.0900001526, Lat : 49.2835703, Lng : -123.1150206, Q1 : 0.999998152256, Q2 : -0.000549271993805, Q3 : 0.000103131977085, Q4 : -0.00184764305595}
2019-04-14 03:45:45.21: SIM {TimeUS : 52234931, Roll : -0.05, Pitch : 0.0, Yaw : 359.78, Alt : 47.2900009155, Lat : 49.2835703, Lng : -123.1150206, Q1 : 0.999998152256, Q2 : -0.000440433504991, Q3 : -1.23958880067e-05, Q4 : -0.0018591992557}
2019-04-14 03:45:45.31: SIM {TimeUS : 52334891, Roll : -0.03, Pitch : -0.02, Yaw : 359.78, Alt : 47.4799995422, Lat : 49.2835703, Lng : -123.1150206, Q1 : 0.999998152256, Q2 : -0.000304116023472, Q3 : -0.00024141803442, Q4 : -0.00187351100612}
2019-04-14 03:45:45.41: SIM {TimeUS : 52434851, Roll : -0.01, Pitch : -0.06, Yaw : 359.78, Alt : 47.6599998474, Lat : 49.2835703, Lng : -123.1150206, Q1 : 0.999998033047, Q2 : -0.000161953372299, Q3 : -0.000566515082028, Q4 : -0.00188789330423}
2019-04-14 03:45:45.51: SIM {TimeUS : 52534811, Roll : -0.02, Pitch : -0.11, Yaw : 359.78, Alt : 47.8300018311, Lat : 49.2835703, Lng : -123.1150206, Q1 : 0.999997675419, Q2 : -0.000206880897167, Q3 : -0.000976214127149, Q4 : -0.00190656422637}
2019-04-14 03:45:45.61: SIM {TimeUS : 52634771, Roll : -0.03, Pitch : -0.14, Yaw : 359.77, Alt : 47.9900016785, Lat : 49.2835703, Lng : -123.1150207, Q1 : 0.999997258186, Q2 : -0.000305006600684, Q3 : -0.00128844147548, Q4 : -0.00192832713947}
2019-04-14 03:45:45.71: SIM {TimeUS : 52734731, Roll : -0.01, Pitch : -0.14, Yaw : 359.77, Alt : 48.1399993896, Lat : 49.2835703, Lng : -123.1150207, Q1 : 0.999997258186, Q2 : -0.000109496082587, Q3 : -0.00128681585193, Q4 : -0.00194984069094}
2019-04-14 03:45:45.81: SIM {TimeUS : 52834691, Roll : 0.02, Pitch : -0.12, Yaw : 359.77, Alt : 48.2799987793, Lat : 49.2835703, Lng : -123.1150207, Q1 : 0.999997437, Q2 : 0.000214171857806, Q3 : -0.00108395889401, Q4 : -0.00197268649936}
2019-04-14 03:45:45.91: SIM {TimeUS : 52934651, Roll : 0.05, Pitch : -0.08, Yaw : 359.77, Alt : 48.4000015259, Lat : 49.2835703, Lng : -123.1150207, Q1 : 0.99999755621, Q2 : 0.000477826950373, Q3 : -0.000781045877375, Q4 : -0.00199898821302}
2019-04-14 03:45:46.01: SIM {TimeUS : 53034611, Roll : 0.06, Pitch : -0.05, Yaw : 359.76, Alt : 48.5200004578, Lat : 49.2835703, Lng : -123.1150207, Q1 : 0.999997675419, Q2 : 0.000590167532209, Q3 : -0.00046921428293, Q4 : -0.00202630646527}
2019-04-14 03:45:46.11: SIM {TimeUS : 53135404, Roll : 0.07, Pitch : -0.03, Yaw : 359.76, Alt : 48.6199989319, Lat : 49.2835703, Lng : -123.1150207, Q1 : 0.999997615814, Q2 : 0.000657585042063, Q3 : -0.000289535353659, Q4 : -0.00205643032677}
2019-04-14 03:45:46.21: SIM {TimeUS : 53235364, Roll : 0.06, Pitch : -0.03, Yaw : 359.75, Alt : 48.7000007629, Lat : 49.2835703, Lng : -123.1150207, Q1 : 0.999997615814, Q2 : 0.000599393097218, Q3 : -0.000319105514791, Q4 : -0.00209545297548}
2019-04-14 03:45:46.31: SIM {TimeUS : 53335324, Roll : 0.04, Pitch : -0.04, Yaw : 359.75, Alt : 48.7799987793, Lat : 49.2835704, Lng : -123.1150207, Q1 : 0.999997615814, Q2 : 0.000385526567698, Q3 : -0.000364874809748, Q4 : -0.0021302991081}
2019-04-14 03:45:46.41: SIM {TimeUS : 53435284, Roll : 0.02, Pitch : -0.03, Yaw : 359.75, Alt : 48.8499984741, Lat : 49.2835704, Lng : -123.1150207, Q1 : 0.999997615814, Q2 : 0.000217560664169, Q3 : -0.000312613381539, Q4 : -0.00216005649418}
2019-04-14 03:45:46.51: SIM {TimeUS : 53535244, Roll : 0.01, Pitch : -0.03, Yaw : 359.74, Alt : 48.9099998474, Lat : 49.2835704, Lng : -123.1150207, Q1 : 0.99999755621, Q2 : 0.000110713132017, Q3 : -0.000300878309645, Q4 : -0.00218815542758}
2019-04-14 03:45:46.61: SIM {TimeUS : 53635204, Roll : 0.0, Pitch : -0.02, Yaw : 359.74, Alt : 48.9500007629, Lat : 49.2835704, Lng : -123.1150207, Q1 : 0.999997496605, Q2 : 8.61376174726e-05, Q3 : -0.000178011818207, Q4 : -0.0022231573239}
2019-04-14 03:45:46.71: SIM {TimeUS : 53735164, Roll : 0.06, Pitch : -0.04, Yaw : 359.74, Alt : 49.0, Lat : 49.2835704, Lng : -123.1150207, Q1 : 0.999997198582, Q2 : 0.000564830552321, Q3 : -0.000428049155744, Q4 : -0.00225492264144}
2019-04-14 03:45:46.81: SIM {TimeUS : 53835124, Roll : 0.24, Pitch : -0.25, Yaw : 359.73, Alt : 49.0299987793, Lat : 49.2835704, Lng : -123.1150207, Q1 : 0.999992787838, Q2 : 0.00209755660035, Q3 : -0.00220523658209, Q4 : -0.00227376772091}
2019-04-14 03:45:46.91: SIM {TimeUS : 53935084, Roll : 0.56, Pitch : -0.7, Yaw : 359.73, Alt : 49.0600013733, Lat : 49.2835704, Lng : -123.1150207, Q1 : 0.99996638298, Q2 : 0.00487841572613, Q3 : -0.00618401542306, Q4 : -0.00228608353063}
2019-04-14 03:45:47.01: SIM {TimeUS : 54035044, Roll : 1.0, Pitch : -1.38, Yaw : 359.72, Alt : 49.0900001526, Lat : 49.2835704, Lng : -123.1150207, Q1 : 0.999886095524, Q2 : 0.008778385818, Q3 : -0.0120630534366, Q4 : -0.00228580809198}
2019-04-14 03:45:47.11: SIM {TimeUS : 54135004, Roll : 1.55, Pitch : -2.21, Yaw : 359.71, Alt : 49.1100006104, Lat : 49.2835706, Lng : -123.1150207, Q1 : 0.99971973896, Q2 : 0.013482096605, Q3 : -0.0193284805864, Q4 : -0.00225469050929}
2019-04-14 03:45:47.21: SIM {TimeUS : 54234964, Roll : 2.13, Pitch : -3.09, Yaw : 359.69, Alt : 49.1300010681, Lat : 49.2835706, Lng : -123.1150206, Q1 : 0.999461054802, Q2 : 0.0185091719031, Q3 : -0.0270243044943, Q4 : -0.00217190617695}
2019-04-14 03:45:47.31: SIM {TimeUS : 54334924, Roll : 2.65, Pitch : -3.85, Yaw : 359.67, Alt : 49.1500015259, Lat : 49.2835707, Lng : -123.1150205, Q1 : 0.999162018299, Q2 : 0.0230974797159, Q3 : -0.0337292589247, Q4 : -0.00201853993349}
2019-04-14 03:45:47.41: SIM {TimeUS : 54434884, Roll : 3.06, Pitch : -4.46, Yaw : 359.67, Alt : 49.1699981689, Lat : 49.2835709, Lng : -123.1150203, Q1 : 0.998882591724, Q2 : 0.0266512520611, Q3 : -0.0389874577522, Q4 : -0.00181577855255}
2019-04-14 03:45:47.51: SIM {TimeUS : 54534844, Roll : 3.36, Pitch : -4.89, Yaw : 359.67, Alt : 49.1800003052, Lat : 49.283571, Lng : -123.1150201, Q1 : 0.998657047749, Q2 : 0.0292086359113, Q3 : -0.0427607186139, Q4 : -0.00157446425874}
2019-04-14 03:45:47.61: SIM {TimeUS : 54634804, Roll : 3.57, Pitch : -5.2, Yaw : 359.68, Alt : 49.1899986267, Lat : 49.2835714, Lng : -123.1150199, Q1 : 0.998480916023, Q2 : 0.0310419928282, Q3 : -0.0455035306513, Q4 : -0.00131195166614}
2019-04-14 03:45:47.71: SIM {TimeUS : 54734764, Roll : 3.75, Pitch : -5.5, Yaw : 359.69, Alt : 49.2000007629, Lat : 49.2835716, Lng : -123.1150196, Q1 : 0.998310565948, Q2 : 0.0325973331928, Q3 : -0.0480864457786, Q4 : -0.00104758061934}
2019-04-14 03:45:47.81: SIM {TimeUS : 54834724, Roll : 3.95, Pitch : -5.81, Yaw : 359.7, Alt : 49.2099990845, Lat : 49.2835721, Lng : -123.1150192, Q1 : 0.998119473457, Q2 : 0.0343009345233, Q3 : -0.0507971271873, Q4 : -0.00078453484457}
2019-04-14 03:45:47.91: SIM {TimeUS : 54934684, Roll : 4.18, Pitch : -6.14, Yaw : 359.71, Alt : 49.2200012207, Lat : 49.2835726, Lng : -123.1150187, Q1 : 0.997897386551, Q2 : 0.0363377705216, Q3 : -0.0536662451923, Q4 : -0.000520251458511}
2019-04-14 03:45:48.01: SIM {TimeUS : 55034644, Roll : 4.39, Pitch : -6.43, Yaw : 359.72, Alt : 49.2200012207, Lat : 49.2835731, Lng : -123.1150181, Q1 : 0.997688472271, Q2 : 0.0381787084043, Q3 : -0.0562144853175, Q4 : -0.000271962606348}
2019-04-14 03:45:48.11: SIM {TimeUS : 55134604, Roll : 4.56, Pitch : -6.67, Yaw : 359.72, Alt : 49.2299995422, Lat : 49.2835737, Lng : -123.1150175, Q1 : 0.997516691685, Q2 : 0.0396278686821, Q3 : -0.0582247413695, Q4 : -3.87270811189e-05}
2019-04-14 03:45:48.21: SIM {TimeUS : 55235397, Roll : 4.68, Pitch : -6.84, Yaw : 359.73, Alt : 49.2400016785, Lat : 49.2835743, Lng : -123.1150168, Q1 : 0.997387766838, Q2 : 0.0406254045665, Q3 : -0.0597267486155, Q4 : 0.000148012099089}
2019-04-14 03:45:48.31: SIM {TimeUS : 55335357, Roll : 4.76, Pitch : -6.95, Yaw : 359.74, Alt : 49.2400016785, Lat : 49.283575, Lng : -123.1150161, Q1 : 0.997298598289, Q2 : 0.0413464717567, Q3 : -0.0607115700841, Q4 : 0.00028901611222}
2019-04-14 03:45:48.41: SIM {TimeUS : 55435317, Roll : 4.82, Pitch : -7.03, Yaw : 359.74, Alt : 49.25, Lat : 49.2835758, Lng : -123.1150153, Q1 : 0.997235059738, Q2 : 0.0418400391936, Q3 : -0.0614123940468, Q4 : 0.000376917771064}
2019-04-14 03:45:48.51: SIM {TimeUS : 55535277, Roll : 4.88, Pitch : -7.14, Yaw : 359.74, Alt : 49.25, Lat : 49.2835765, Lng : -123.1150144, Q1 : 0.997152864933, Q2 : 0.0424019433558, Q3 : -0.0623548179865, Q4 : 0.000414191948948}
2019-04-14 03:45:48.61: SIM {TimeUS : 55635237, Roll : 5.13, Pitch : -7.23, Yaw : 359.81, Alt : 49.25, Lat : 49.2835775, Lng : -123.1150135, Q1 : 0.997009515762, Q2 : 0.0445668585598, Q3 : -0.0631227493286, Q4 : 0.00118586735334}
2019-04-14 03:45:48.71: SIM {TimeUS : 55735197, Roll : 5.68, Pitch : -7.27, Yaw : 0.41, Alt : 49.2599983215, Lat : 49.2835783, Lng : -123.1150125, Q1 : 0.996742069721, Q2 : 0.049718298018, Q3 : -0.0631525367498, Q4 : 0.00671848515049}
2019-04-14 03:45:48.81: SIM {TimeUS : 55835157, Roll : 6.35, Pitch : -7.37, Yaw : 2.22, Alt : 49.2599983215, Lat : 49.2835794, Lng : -123.1150115, Q1 : 0.996139764786, Q2 : 0.0565641410649, Q3 : -0.0630912482738, Q4 : 0.0229245983064}
2019-04-14 03:45:48.91: SIM {TimeUS : 55935117, Roll : 6.75, Pitch : -7.75, Yaw : 5.63, Alt : 49.2599983215, Lat : 49.2835804, Lng : -123.1150103, Q1 : 0.994574069977, Q2 : 0.0620569773018, Q3 : -0.064549036324, Q4 : 0.0529603771865}
2019-04-14 03:45:49.01: SIM {TimeUS : 56035077, Roll : 6.61, Pitch : -8.48, Yaw : 10.6, Alt : 49.2599983215, Lat : 49.2835814, Lng : -123.1150091, Q1 : 0.990949809551, Q2 : 0.0641124024987, Q3 : -0.0681995153427, Q4 : 0.0962128266692}
2019-04-14 03:45:49.11: SIM {TimeUS : 56135037, Roll : 5.71, Pitch : -9.48, Yaw : 16.87, Alt : 49.2599983215, Lat : 49.2835825, Lng : -123.1150077, Q1 : 0.983952283859, Q2 : 0.061271250248, Q3 : -0.0744175091386, Q4 : 0.150152802467}
2019-04-14 03:45:49.21: SIM {TimeUS : 56234997, Roll : 3.8, Pitch : -10.59, Yaw : 23.95, Alt : 49.2700004578, Lat : 49.2835837, Lng : -123.1150063, Q1 : 0.972866535187, Q2 : 0.0515313409269, Q3 : -0.0834229961038, Q4 : 0.209561154246}
2019-04-14 03:45:49.31: SIM {TimeUS : 56334957, Roll : 1.08, Pitch : -11.53, Yaw : 31.06, Alt : 49.2700004578, Lat : 49.2835849, Lng : -123.1150047, Q1 : 0.958309948444, Q2 : 0.0360189117491, Q3 : -0.094261392951, Q4 : 0.267319172621}
2019-04-14 03:45:49.41: SIM {TimeUS : 56434917, Roll : -1.86, Pitch : -12.11, Yaw : 37.42, Alt : 49.2700004578, Lat : 49.2835861, Lng : -123.1150031, Q1 : 0.942285478115, Q2 : 0.0184907037765, Q3 : -0.105121679604, Q4 : 0.317341387272}
2019-04-14 03:45:49.51: SIM {TimeUS : 56534877, Roll : -4.4, Pitch : -12.36, Yaw : 42.41, Alt : 49.2700004578, Lat : 49.2835876, Lng : -123.1150015, Q1 : 0.92766046524, Q2 : 0.00334254349582, Q3 : -0.114182390273, Q4 : 0.355523914099}
2019-04-14 03:45:49.61: SIM {TimeUS : 56634837, Roll : -6.06, Pitch : -12.44, Yaw : 45.69, Alt : 49.2700004578, Lat : 49.283589, Lng : -123.1149999, Q1 : 0.917046666145, Q2 : -0.00646325713024, Q3 : -0.120175227523, Q4 : 0.380186200142}
2019-04-14 03:45:49.71: SIM {TimeUS : 56734797, Roll : -6.72, Pitch : -12.51, Yaw : 47.26, Alt : 49.2700004578, Lat : 49.2835904, Lng : -123.1149981, Q1 : 0.911678493023, Q2 : -0.00981183163822, Q3 : -0.123065233231, Q4 : 0.391919702291}
2019-04-14 03:45:49.81: SIM {TimeUS : 56834757, Roll : -6.5, Pitch : -12.71, Yaw : 47.33, Alt : 49.2700004578, Lat : 49.2835922, Lng : -123.1149966, Q1 : 0.911312997341, Q2 : -0.00725118676201, Q3 : -0.12385224551, Q4 : 0.392576962709}
2019-04-14 03:45:49.91: SIM {TimeUS : 56934717, Roll : -5.62, Pitch : -13.08, Yaw : 46.22, Alt : 49.2700004578, Lat : 49.283594, Lng : -123.1149949, Q1 : 0.914831459522, Q2 : -0.000174398097442, Q3 : -0.123796761036, Q4 : 0.384392768145}
2019-04-14 03:45:50.01: SIM {TimeUS : 57034677, Roll : -4.32, Pitch : -13.61, Yaw : 44.26, Alt : 49.2700004578, Lat : 49.2835958, Lng : -123.1149932, Q1 : 0.920822203159, Q2 : 0.00995524227619, Q3 : -0.1238585338, Q4 : 0.369657248259}
2019-04-14 03:45:50.11: SIM {TimeUS : 57134637, Roll : -2.79, Pitch : -14.23, Yaw : 41.74, Alt : 49.2700004578, Lat : 49.2835976, Lng : -123.1149914, Q1 : 0.92798435688, Q2 : 0.0214972700924, Q3 : -0.124334722757, Q4 : 0.350604921579}
2019-04-14 03:45:50.21: SIM {TimeUS : 57234597, Roll : -1.22, Pitch : -14.79, Yaw : 38.97, Alt : 49.2799987793, Lat : 49.2835996, Lng : -123.1149897, Q1 : 0.935272097588, Q2 : 0.0329168848693, Q3 : -0.12491196394, Q4 : 0.329514145851}
2019-04-14 03:45:50.31: SIM {TimeUS : 57335390, Roll : 0.24, Pitch : -15.21, Yaw : 36.24, Alt : 49.2799987793, Lat : 49.2836018, Lng : -123.1149878, Q1 : 0.941925883293, Q2 : 0.0431958287954, Q3 : -0.125158473849, Q4 : 0.308618098497}
2019-04-14 03:45:50.41: SIM {TimeUS : 57435350, Roll : 1.45, Pitch : -15.46, Yaw : 33.89, Alt : 49.2799987793, Lat : 49.2836038, Lng : -123.1149858, Q1 : 0.947296977043, Q2 : 0.0512861981988, Q3 : -0.124991439283, Q4 : 0.290474295616}
2019-04-14 03:45:50.51: SIM {TimeUS : 57535310, Roll : 2.33, Pitch : -15.55, Yaw : 32.1, Alt : 49.2799987793, Lat : 49.283606, Lng : -123.1149837, Q1 : 0.951209306717, Q2 : 0.056839030236, Q3 : -0.12447078526, Q4 : 0.276545256376}
2019-04-14 03:45:50.61: SIM {TimeUS : 57635270, Roll : 2.82, Pitch : -15.56, Yaw : 30.97, Alt : 49.2799987793, Lat : 49.2836081, Lng : -123.1149815, Q1 : 0.953632235527, Q2 : 0.0596828907728, Q3 : -0.123975910246, Q4 : 0.26768168807}
2019-04-14 03:45:50.71: SIM {TimeUS : 57735230, Roll : 2.92, Pitch : -15.56, Yaw : 30.51, Alt : 49.2799987793, Lat : 49.2836104, Lng : -123.1149792, Q1 : 0.954643905163, Q2 : 0.0600189492106, Q3 : -0.123926006258, Q4 : 0.26399821043}
2019-04-14 03:45:50.81: SIM {TimeUS : 57835190, Roll : 2.69, Pitch : -15.58, Yaw : 30.66, Alt : 49.2799987793, Lat : 49.2836127, Lng : -123.1149768, Q1 : 0.95438337326, Q2 : 0.0583433546126, Q3 : -0.12457806617, Q4 : 0.265007019043}
2019-04-14 03:45:50.91: SIM {TimeUS : 57935150, Roll : 2.21, Pitch : -15.67, Yaw : 31.3, Alt : 49.2799987793, Lat : 49.2836151, Lng : -123.1149744, Q1 : 0.953034996986, Q2 : 0.0552341677248, Q3 : -0.126119554043, Q4 : 0.269754201174}
2019-04-14 03:45:51.01: SIM {TimeUS : 58035110, Roll : 1.56, Pitch : -15.81, Yaw : 32.26, Alt : 49.2799987793, Lat : 49.2836174, Lng : -123.1149718, Q1 : 0.950870573521, Q2 : 0.0512400828302, Q3 : -0.128341183066, Q4 : 0.277034521103}
2019-04-14 03:45:51.11: SIM {TimeUS : 58135070, Roll : 0.83, Pitch : -15.96, Yaw : 33.4, Alt : 49.2799987793, Lat : 49.2836197, Lng : -123.1149692, Q1 : 0.948210179806, Q2 : 0.0468227490783, Q3 : -0.130970612168, Q4 : 0.285572737455}
2019-04-14 03:45:51.21: SIM {TimeUS : 58235030, Roll : 0.11, Pitch : -16.09, Yaw : 34.55, Alt : 49.2799987793, Lat : 49.2836223, Lng : -123.1149665, Q1 : 0.945429205894, Q2 : 0.0425493232906, Q3 : -0.133361026645, Q4 : 0.294224500656}
2019-04-14 03:45:51.31: SIM {TimeUS : 58334990, Roll : -0.48, Pitch : -16.17, Yaw : 35.59, Alt : 49.2799987793, Lat : 49.2836248, Lng : -123.1149637, Q1 : 0.942849040031, Q2 : 0.039022590965, Q3 : -0.135227143764, Q4 : 0.302037268877}
2019-04-14 03:45:51.41: SIM {TimeUS : 58434950, Roll : -0.94, Pitch : -16.22, Yaw : 36.42, Alt : 49.2799987793, Lat : 49.2836273, Lng : -123.114961, Q1 : 0.9407325387, Q2 : 0.0363408699632, Q3 : -0.136637762189, Q4 : 0.308272272348}
2019-04-14 03:45:51.51: SIM {TimeUS : 58534910, Roll : -1.21, Pitch : -16.26, Yaw : 36.98, Alt : 49.2799987793, Lat : 49.2836299, Lng : -123.1149582, Q1 : 0.939243674278, Q2 : 0.0349111817777, Q3 : -0.137504562736, Q4 : 0.312562078238}
2019-04-14 03:45:51.61: SIM {TimeUS : 58634870, Roll : -1.27, Pitch : -16.28, Yaw : 37.26, Alt : 49.2799987793, Lat : 49.2836324, Lng : -123.1149553, Q1 : 0.938475728035, Q2 : 0.0347778424621, Q3 : -0.137698039412, Q4 : 0.314790576696}
2019-04-14 03:45:51.71: SIM {TimeUS : 58734830, Roll : -1.18, Pitch : -16.29, Yaw : 37.28, Alt : 49.2799987793, Lat : 49.2836352, Lng : -123.1149525, Q1 : 0.93838429451, Q2 : 0.0355678163469, Q3 : -0.137548238039, Q4 : 0.315040200949}
2019-04-14 03:45:51.81: SIM {TimeUS : 58834790, Roll : -0.99, Pitch : -16.33, Yaw : 37.08, Alt : 49.2799987793, Lat : 49.2836378, Lng : -123.1149496, Q1 : 0.938824236393, Q2 : 0.0370129160583, Q3 : -0.137445256114, Q4 : 0.313604712486}
2019-04-14 03:45:51.91: SIM {TimeUS : 58934750, Roll : -0.74, Pitch : -16.4, Yaw : 36.72, Alt : 49.2799987793, Lat : 49.2836407, Lng : -123.1149466, Q1 : 0.939646840096, Q2 : 0.0388387963176, Q3 : -0.137411400676, Q4 : 0.310923546553}
2019-04-14 03:45:52.01: SIM {TimeUS : 59034710, Roll : -0.46, Pitch : -16.48, Yaw : 36.27, Alt : 49.2799987793, Lat : 49.2836434, Lng : -123.1149437, Q1 : 0.940675735474, Q2 : 0.0408282540739, Q3 : -0.137496516109, Q4 : 0.307501167059}
2019-04-14 03:45:52.11: SIM {TimeUS : 59134670, Roll : -0.18, Pitch : -16.55, Yaw : 35.78, Alt : 49.2799987793, Lat : 49.2836463, Lng : -123.1149407, Q1 : 0.941776812077, Q2 : 0.042737595737, Q3 : -0.137507528067, Q4 : 0.303844749928}
2019-04-14 03:45:52.21: SIM {TimeUS : 59234630, Roll : 0.08, Pitch : -16.61, Yaw : 35.33, Alt : 49.2900009155, Lat : 49.2836492, Lng : -123.1149377, Q1 : 0.942809343338, Q2 : 0.044516980648, Q3 : -0.13743236661, Q4 : 0.300401717424}
2019-04-14 03:45:52.31: SIM {TimeUS : 59334590, Roll : 0.3, Pitch : -16.65, Yaw : 34.95, Alt : 49.2900009155, Lat : 49.2836519, Lng : -123.1149346, Q1 : 0.943674683571, Q2 : 0.045969620347, Q3 : -0.13734176755, Q4 : 0.297493129969}
2019-04-14 03:45:52.41: SIM {TimeUS : 59435383, Roll : 0.46, Pitch : -16.67, Yaw : 34.66, Alt : 49.2900009155, Lat : 49.2836549, Lng : -123.1149315, Q1 : 0.944316744804, Q2 : 0.0470229610801, Q3 : -0.137253969908, Q4 : 0.295323759317}
2019-04-14 03:45:52.51: SIM {TimeUS : 59535343, Roll : 0.55, Pitch : -16.69, Yaw : 34.49, Alt : 49.2900009155, Lat : 49.2836578, Lng : -123.1149284, Q1 : 0.944697141647, Q2 : 0.0475880764425, Q3 : -0.137256667018, Q4 : 0.294012486935}
2019-04-14 03:45:52.61: SIM {TimeUS : 59635303, Roll : 0.56, Pitch : -16.71, Yaw : 34.43, Alt : 49.2900009155, Lat : 49.2836608, Lng : -123.1149251, Q1 : 0.944822907448, Q2 : 0.0476643741131, Q3 : -0.137434303761, Q4 : 0.293512374163}
2019-04-14 03:45:52.71: SIM {TimeUS : 59735263, Roll : 0.51, Pitch : -16.74, Yaw : 34.46, Alt : 49.2900009155, Lat : 49.2836638, Lng : -123.114922, Q1 : 0.944722354412, Q2 : 0.0473902188241, Q3 : -0.137755632401, Q4 : 0.293729960918}
2019-04-14 03:45:52.81: SIM {TimeUS : 59835223, Roll : 0.42, Pitch : -16.77, Yaw : 34.57, Alt : 49.2900009155, Lat : 49.2836668, Lng : -123.1149188, Q1 : 0.944442451, Q2 : 0.0468699075282, Q3 : -0.138206601143, Q4 : 0.294500619173}
2019-04-14 03:45:52.91: SIM {TimeUS : 59935183, Roll : 0.31, Pitch : -16.82, Yaw : 34.73, Alt : 49.2900009155, Lat : 49.2836698, Lng : -123.1149155, Q1 : 0.944024503231, Q2 : 0.0462833978236, Q3 : -0.13883638382, Q4 : 0.295635014772}
2019-04-14 03:45:53.01: SIM {TimeUS : 60035143, Roll : 0.18, Pitch : -16.88, Yaw : 34.9, Alt : 49.2900009155, Lat : 49.2836728, Lng : -123.1149122, Q1 : 0.943547725677, Q2 : 0.0455844290555, Q3 : -0.139564871788, Q4 : 0.296919882298}
2019-04-14 03:45:53.11: SIM {TimeUS : 60135103, Roll : 0.04, Pitch : -16.92, Yaw : 35.08, Alt : 49.2900009155, Lat : 49.2836759, Lng : -123.1149089, Q1 : 0.943096101284, Q2 : 0.0447022728622, Q3 : -0.140253424644, Q4 : 0.298161804676}
2019-04-14 03:45:53.21: SIM {TimeUS : 60235063, Roll : -0.09, Pitch : -16.96, Yaw : 35.23, Alt : 49.2900009155, Lat : 49.2836789, Lng : -123.1149056, Q1 : 0.942708849907, Q2 : 0.0438603125513, Q3 : -0.140848875046, Q4 : 0.299228817225}
2019-04-14 03:45:53.31: SIM {TimeUS : 60335023, Roll : -0.2, Pitch : -16.99, Yaw : 35.34, Alt : 49.2900009155, Lat : 49.283682, Lng : -123.1149022, Q1 : 0.942417323589, Q2 : 0.0431796759367, Q3 : -0.141310214996, Q4 : 0.300027519464}
2019-04-14 03:45:53.41: SIM {TimeUS : 60434983, Roll : -0.25, Pitch : -17.02, Yaw : 35.41, Alt : 49.2999992371, Lat : 49.2836851, Lng : -123.1148989, Q1 : 0.942217230797, Q2 : 0.0429715402424, Q3 : -0.14167585969, Q4 : 0.300513118505}
2019-04-14 03:45:53.51: SIM {TimeUS : 60534943, Roll : -0.25, Pitch : -17.06, Yaw : 35.43, Alt : 49.2999992371, Lat : 49.2836882, Lng : -123.1148955, Q1 : 0.942126214504, Q2 : 0.0430661588907, Q3 : -0.141959354281, Q4 : 0.300651013851}
2019-04-14 03:45:53.61: SIM {TimeUS : 60634903, Roll : -0.21, Pitch : -17.09, Yaw : 35.41, Alt : 49.2999992371, Lat : 49.2836913, Lng : -123.1148921, Q1 : 0.942128300667, Q2 : 0.0434751808643, Q3 : -0.142168909311, Q4 : 0.300486445427}
2019-04-14 03:45:53.71: SIM {TimeUS : 60734863, Roll : -0.13, Pitch : -17.13, Yaw : 35.35, Alt : 49.2999992371, Lat : 49.2836944, Lng : -123.1148887, Q1 : 0.942208588123, Q2 : 0.0440912209451, Q3 : -0.14230774343, Q4 : 0.300079107285}
2019-04-14 03:45:53.81: SIM {TimeUS : 60834823, Roll : -0.06, Pitch : -17.16, Yaw : 35.26, Alt : 49.2999992371, Lat : 49.2836977, Lng : -123.1148853, Q1 : 0.942356526852, Q2 : 0.0447097681463, Q3 : -0.142401456833, Q4 : 0.299477934837}
2019-04-14 03:45:53.91: SIM {TimeUS : 60934783, Roll : 0.0, Pitch : -17.18, Yaw : 35.17, Alt : 49.2999992371, Lat : 49.2837009, Lng : -123.1148818, Q1 : 0.942566335201, Q2 : 0.045128185302, Q3 : -0.142401695251, Q4 : 0.29875394702}
2019-04-14 03:45:54.01: SIM {TimeUS : 61034743, Roll : 0.04, Pitch : -17.19, Yaw : 35.07, Alt : 49.2999992371, Lat : 49.283704, Lng : -123.1148784, Q1 : 0.942787647247, Q2 : 0.0453813783824, Q3 : -0.142457470298, Q4 : 0.297989696264}
2019-04-14 03:45:54.11: SIM {TimeUS : 61134703, Roll : 0.08, Pitch : -17.21, Yaw : 34.98, Alt : 49.2999992371, Lat : 49.2837072, Lng : -123.1148749, Q1 : 0.942989885807, Q2 : 0.0457061082125, Q3 : -0.142475575209, Q4 : 0.297290742397}
2019-04-14 03:45:54.21: SIM {TimeUS : 61234663, Roll : 0.13, Pitch : -17.23, Yaw : 34.9, Alt : 49.2999992371, Lat : 49.2837105, Lng : -123.1148714, Q1 : 0.943145513535, Q2 : 0.0460363663733, Q3 : -0.142563119531, Q4 : 0.296703487635}
2019-04-14 03:45:54.31: SIM {TimeUS : 61334623, Roll : 0.18, Pitch : -17.27, Yaw : 34.84, Alt : 49.3100013733, Lat : 49.2837137, Lng : -123.1148679, Q1 : 0.943224728107, Q2 : 0.0464687608182, Q3 : -0.142813906074, Q4 : 0.296263337135}
2019-04-14 03:45:54.41: SIM {TimeUS : 61434583, Roll : 0.21, Pitch : -17.33, Yaw : 34.8, Alt : 49.3100013733, Lat : 49.2837169, Lng : -123.1148643, Q1 : 0.943237543106, Q2 : 0.0468717738986, Q3 : -0.143217921257, Q4 : 0.295964032412}
2019-04-14 03:45:54.51: SIM {TimeUS : 61535376, Roll : 0.22, Pitch : -17.36, Yaw : 34.78, Alt : 49.3100013733, Lat : 49.2837203, Lng : -123.1148609, Q1 : 0.94324362278, Q2 : 0.0469924099743, Q3 : -0.143479481339, Q4 : 0.295798748732}
2019-04-14 03:45:54.61: SIM {TimeUS : 61635336, Roll : 0.21, Pitch : -17.36, Yaw : 34.78, Alt : 49.3100013733, Lat : 49.2837235, Lng : -123.1148573, Q1 : 0.943258881569, Q2 : 0.0468920953572, Q3 : -0.143462240696, Q4 : 0.295774310827}
2019-04-14 03:45:54.71: SIM {TimeUS : 61735296, Roll : 0.19, Pitch : -17.35, Yaw : 34.79, Alt : 49.3100013733, Lat : 49.2837267, Lng : -123.1148538, Q1 : 0.943249225616, Q2 : 0.0467414185405, Q3 : -0.143464177847, Q4 : 0.295827955008}
2019-04-14 03:45:54.81: SIM {TimeUS : 61835256, Roll : 0.16, Pitch : -17.37, Yaw : 34.81, Alt : 49.3100013733, Lat : 49.2837301, Lng : -123.1148502, Q1 : 0.943200051785, Q2 : 0.0465505309403, Q3 : -0.143674254417, Q4 : 0.295912891626}
2019-04-14 03:45:54.91: SIM {TimeUS : 61935216, Roll : 0.14, Pitch : -17.39, Yaw : 34.83, Alt : 49.3100013733, Lat : 49.2837333, Lng : -123.1148466, Q1 : 0.943127512932, Q2 : 0.0464465543628, Q3 : -0.143921911716, Q4 : 0.296040117741}
2019-04-14 03:45:55.01: SIM {TimeUS : 62035176, Roll : 0.12, Pitch : -17.42, Yaw : 34.84, Alt : 49.3100013733, Lat : 49.2837367, Lng : -123.114843, Q1 : 0.94305229187, Q2 : 0.046358730644, Q3 : -0.144238695502, Q4 : 0.296139150858}
2019-04-14 03:45:55.11: SIM {TimeUS : 62135136, Roll : 0.1, Pitch : -17.45, Yaw : 34.85, Alt : 49.3100013733, Lat : 49.2837399, Lng : -123.1148394, Q1 : 0.943002223969, Q2 : 0.0463012345135, Q3 : -0.14447490871, Q4 : 0.29619255662}
2019-04-14 03:45:55.21: SIM {TimeUS : 62235096, Roll : 0.1, Pitch : -17.47, Yaw : 34.86, Alt : 49.3100013733, Lat : 49.2837434, Lng : -123.1148358, Q1 : 0.94295758009, Q2 : 0.0463582463562, Q3 : -0.144691929221, Q4 : 0.296219915152}
2019-04-14 03:45:55.31: SIM {TimeUS : 62335056, Roll : 0.1, Pitch : -17.48, Yaw : 34.86, Alt : 49.3100013733, Lat : 49.2837466, Lng : -123.1148322, Q1 : 0.942948400974, Q2 : 0.0463966950774, Q3 : -0.144776657224, Q4 : 0.296201556921}
2019-04-14 03:45:55.41: SIM {TimeUS : 62435016, Roll : 0.11, Pitch : -17.5, Yaw : 34.85, Alt : 49.3199996948, Lat : 49.28375, Lng : -123.1148286, Q1 : 0.942957103252, Q2 : 0.0465124100447, Q3 : -0.144845113158, Q4 : 0.296122342348}
2019-04-14 03:45:55.51: SIM {TimeUS : 62534976, Roll : 0.13, Pitch : -17.52, Yaw : 34.83, Alt : 49.3199996948, Lat : 49.2837533, Lng : -123.114825, Q1 : 0.942963957787, Q2 : 0.0467362739146, Q3 : -0.145005658269, Q4 : 0.295986562967}
2019-04-14 03:45:55.61: SIM {TimeUS : 62634936, Roll : 0.15, Pitch : -17.56, Yaw : 34.8, Alt : 49.3199996948, Lat : 49.2837568, Lng : -123.1148213, Q1 : 0.942973971367, Q2 : 0.0469165369868, Q3 : -0.145304262638, Q4 : 0.295779705048}
2019-04-14 03:45:55.71: SIM {TimeUS : 62734896, Roll : 0.13, Pitch : -17.6, Yaw : 34.77, Alt : 49.3199996948, Lat : 49.28376, Lng : -123.1148177, Q1 : 0.942996263504, Q2 : 0.0468911901116, Q3 : -0.145698532462, Q4 : 0.295518398285}
2019-04-14 03:45:55.81: SIM {TimeUS : 62834856, Roll : 0.13, Pitch : -17.65, Yaw : 34.74, Alt : 49.3199996948, Lat : 49.2837635, Lng : -123.114814, Q1 : 0.943019747734, Q2 : 0.046909507364, Q3 : -0.146078467369, Q4 : 0.295252978802}
2019-04-14 03:45:55.91: SIM {TimeUS : 62934816, Roll : 0.15, Pitch : -17.67, Yaw : 34.72, Alt : 49.3199996948, Lat : 49.2837668, Lng : -123.1148104, Q1 : 0.943055331707, Q2 : 0.0470938310027, Q3 : -0.146236494184, Q4 : 0.29503172636}
2019-04-14 03:45:56.01: SIM {TimeUS : 63034776, Roll : 0.17, Pitch : -17.67, Yaw : 34.69, Alt : 49.3199996948, Lat : 49.2837703, Lng : -123.1148067, Q1 : 0.943112611771, Q2 : 0.0472704954445, Q3 : -0.146174892783, Q4 : 0.294850856066}
2019-04-14 03:45:56.11: SIM {TimeUS : 63134736, Roll : 0.2, Pitch : -17.65, Yaw : 34.67, Alt : 49.3199996948, Lat : 49.2837737, Lng : -123.114803, Q1 : 0.943190693855, Q2 : 0.0473770275712, Q3 : -0.145933374763, Q4 : 0.294703453779}
2019-04-14 03:45:56.21: SIM {TimeUS : 63234696, Roll : 0.2, Pitch : -17.63, Yaw : 34.65, Alt : 49.3199996948, Lat : 49.283777, Lng : -123.1147993, Q1 : 0.94325530529, Q2 : 0.0473284944892, Q3 : -0.145838886499, Q4 : 0.294551372528}
2019-04-14 03:45:56.31: SIM {TimeUS : 63334656, Roll : 0.19, Pitch : -17.64, Yaw : 34.63, Alt : 49.3199996948, Lat : 49.2837805, Lng : -123.1147956, Q1 : 0.943294644356, Q2 : 0.0472400970757, Q3 : -0.145902216434, Q4 : 0.294408112764}
2019-04-14 03:45:56.41: SIM {TimeUS : 63434616, Roll : 0.18, Pitch : -17.64, Yaw : 34.62, Alt : 49.3199996948, Lat : 49.2837838, Lng : -123.1147919, Q1 : 0.943325042725, Q2 : 0.0471421144903, Q3 : -0.145989432931, Q4 : 0.294283241034}
2019-04-14 03:45:56.51: SIM {TimeUS : 63534576, Roll : 0.16, Pitch : -17.67, Yaw : 34.61, Alt : 49.3199996948, Lat : 49.2837873, Lng : -123.1147882, Q1 : 0.943326294422, Q2 : 0.0470789447427, Q3 : -0.146226286888, Q4 : 0.294171661139}
2019-04-14 03:45:56.61: SIM {TimeUS : 63635369, Roll : 0.15, Pitch : -17.7, Yaw : 34.6, Alt : 49.3199996948, Lat : 49.2837908, Lng : -123.1147845, Q1 : 0.943313777447, Q2 : 0.0470573827624, Q3 : -0.146509334445, Q4 : 0.294074386358}
2019-04-14 03:45:56.71: SIM {TimeUS : 63735329, Roll : 0.13, Pitch : -17.74, Yaw : 34.59, Alt : 49.3199996948, Lat : 49.2837942, Lng : -123.1147807, Q1 : 0.94328391552, Q2 : 0.0470131114125, Q3 : -0.146915465593, Q4 : 0.293974578381}
2019-04-14 03:45:56.81: SIM {TimeUS : 63835289, Roll : 0.13, Pitch : -17.79, Yaw : 34.58, Alt : 49.3199996948, Lat : 49.2837977, Lng : -123.114777, Q1 : 0.943242430687, Q2 : 0.0471106246114, Q3 : -0.147320866585, Q4 : 0.293889194727}
2019-04-14 03:45:56.91: SIM {TimeUS : 63935249, Roll : 0.14, Pitch : -17.82, Yaw : 34.58, Alt : 49.3300018311, Lat : 49.2838012, Lng : -123.1147733, Q1 : 0.943221330643, Q2 : 0.047275736928, Q3 : -0.147524148226, Q4 : 0.293828606606}
2019-04-14 03:45:57.01: SIM {TimeUS : 64035209, Roll : 0.15, Pitch : -17.84, Yaw : 34.57, Alt : 49.3300018311, Lat : 49.2838045, Lng : -123.1147695, Q1 : 0.943210959435, Q2 : 0.047352977097, Q3 : -0.147713437676, Q4 : 0.293754160404}
2019-04-14 03:45:57.11: SIM {TimeUS : 64135169, Roll : 0.15, Pitch : -17.85, Yaw : 34.56, Alt : 49.3300018311, Lat : 49.283808, Lng : -123.1147658, Q1 : 0.943218290806, Q2 : 0.0473531708121, Q3 : -0.147833585739, Q4 : 0.29367017746}
2019-04-14 03:45:57.21: SIM {TimeUS : 64235129, Roll : 0.16, Pitch : -17.84, Yaw : 34.55, Alt : 49.3300018311, Lat : 49.2838115, Lng : -123.1147621, Q1 : 0.943251848221, Q2 : 0.0474028289318, Q3 : -0.147725701332, Q4 : 0.293608635664}
2019-04-14 03:45:57.31: SIM {TimeUS : 64335089, Roll : 0.17, Pitch : -17.85, Yaw : 34.54, Alt : 49.3300018311, Lat : 49.283815, Lng : -123.1147583, Q1 : 0.943261563778, Q2 : 0.0475626811385, Q3 : -0.147746741772, Q4 : 0.293540984392}
2019-04-14 03:45:57.41: SIM {TimeUS : 64435049, Roll : 0.19, Pitch : -17.87, Yaw : 34.53, Alt : 49.3300018311, Lat : 49.2838184, Lng : -123.1147545, Q1 : 0.943258404732, Q2 : 0.0476878322661, Q3 : -0.147896021605, Q4 : 0.293455719948}
2019-04-14 03:45:57.51: SIM {TimeUS : 64535009, Roll : 0.19, Pitch : -17.89, Yaw : 34.52, Alt : 49.3300018311, Lat : 49.283822, Lng : -123.1147508, Q1 : 0.943260073662, Q2 : 0.047766789794, Q3 : -0.148042932153, Q4 : 0.293363511562}
2019-04-14 03:45:57.61: SIM {TimeUS : 64634969, Roll : 0.2, Pitch : -17.89, Yaw : 34.5, Alt : 49.3300018311, Lat : 49.2838255, Lng : -123.114747, Q1 : 0.943284809589, Q2 : 0.0478297583759, Q3 : -0.148045271635, Q4 : 0.29327237606}
2019-04-14 03:45:57.71: SIM {TimeUS : 64734929, Roll : 0.2, Pitch : -17.89, Yaw : 34.49, Alt : 49.3300018311, Lat : 49.283829, Lng : -123.1147432, Q1 : 0.943316936493, Q2 : 0.0478172935545, Q3 : -0.148050710559, Q4 : 0.293168336153}
2019-04-14 03:45:57.81: SIM {TimeUS : 64834889, Roll : 0.19, Pitch : -17.91, Yaw : 34.48, Alt : 49.3300018311, Lat : 49.2838324, Lng : -123.1147395, Q1 : 0.943332791328, Q2 : 0.0477329567075, Q3 : -0.148242369294, Q4 : 0.293034255505}
2019-04-14 03:45:57.91: SIM {TimeUS : 64934849, Roll : 0.16, Pitch : -17.95, Yaw : 34.46, Alt : 49.3300018311, Lat : 49.283836, Lng : -123.1147357, Q1 : 0.943333268166, Q2 : 0.0475713275373, Q3 : -0.1486222893, Q4 : 0.292866408825}
2019-04-14 03:45:58.01: SIM {TimeUS : 65034809, Roll : 0.14, Pitch : -17.95, Yaw : 34.45, Alt : 49.3300018311, Lat : 49.2838395, Lng : -123.1147319, Q1 : 0.943372189999, Q2 : 0.0474250651896, Q3 : -0.148704648018, Q4 : 0.292722940445}
2019-04-14 03:45:58.11: SIM {TimeUS : 65134769, Roll : 0.14, Pitch : -17.94, Yaw : 34.44, Alt : 49.3300018311, Lat : 49.283843, Lng : -123.1147281, Q1 : 0.943424224854, Q2 : 0.0474060438573, Q3 : -0.148590266705, Q4 : 0.292616307735}
2019-04-14 03:45:58.21: SIM {TimeUS : 65234729, Roll : 0.17, Pitch : -17.93, Yaw : 34.42, Alt : 49.3300018311, Lat : 49.2838464, Lng : -123.1147243, Q1 : 0.943467378616, Q2 : 0.0475338473916, Q3 : -0.148450672626, Q4 : 0.292527496815}
2019-04-14 03:45:58.31: SIM {TimeUS : 65334689, Roll : 0.18, Pitch : -17.94, Yaw : 34.41, Alt : 49.3300018311, Lat : 49.28385, Lng : -123.1147205, Q1 : 0.943486452103, Q2 : 0.0476702190936, Q3 : -0.148491293192, Q4 : 0.292423129082}
2019-04-14 03:45:58.41: SIM {TimeUS : 65434649, Roll : 0.17, Pitch : -17.96, Yaw : 34.39, Alt : 49.3400001526, Lat : 49.2838536, Lng : -123.1147167, Q1 : 0.943497776985, Q2 : 0.0476190373302, Q3 : -0.148683845997, Q4 : 0.292297005653}
2019-04-14 03:45:58.51: SIM {TimeUS : 65534609, Roll : 0.15, Pitch : -17.98, Yaw : 34.38, Alt : 49.3400001526, Lat : 49.2838571, Lng : -123.1147129, Q1 : 0.943506538868, Q2 : 0.0474902428687, Q3 : -0.148930504918, Q4 : 0.292164027691}
2019-04-14 03:45:58.61: SIM {TimeUS : 65635402, Roll : 0.14, Pitch : -18.0, Yaw : 34.37, Alt : 49.3400001526, Lat : 49.2838607, Lng : -123.1147091, Q1 : 0.943509340286, Q2 : 0.047446552664, Q3 : -0.149151325226, Q4 : 0.292049318552}
2019-04-14 03:45:58.71: SIM {TimeUS : 65735362, Roll : 0.15, Pitch : -18.02, Yaw : 34.36, Alt : 49.3400001526, Lat : 49.2838641, Lng : -123.1147053, Q1 : 0.943508505821, Q2 : 0.0475386939943, Q3 : -0.149306699634, Q4 : 0.291957825422}
2019-04-14 03:45:58.81: SIM {TimeUS : 65835322, Roll : 0.16, Pitch : -18.04, Yaw : 34.35, Alt : 49.3400001526, Lat : 49.2838676, Lng : -123.1147014, Q1 : 0.94351041317, Q2 : 0.0476617217064, Q3 : -0.149408265948, Q4 : 0.291879504919}
2019-04-14 03:45:58.91: SIM {TimeUS : 65935282, Roll : 0.18, Pitch : -18.05, Yaw : 34.34, Alt : 49.3400001526, Lat : 49.2838713, Lng : -123.1146976, Q1 : 0.943510949612, Q2 : 0.0478666350245, Q3 : -0.149412930012, Q4 : 0.291841924191}
2019-04-14 03:45:59.01: SIM {TimeUS : 66035242, Roll : 0.19, Pitch : -18.06, Yaw : 34.33, Alt : 49.3400001526, Lat : 49.2838748, Lng : -123.1146938, Q1 : 0.943506002426, Q2 : 0.047976128757, Q3 : -0.149488970637, Q4 : 0.291800945997}
2019-04-14 03:45:59.11: SIM {TimeUS : 66135202, Roll : 0.2, Pitch : -18.07, Yaw : 34.33, Alt : 49.3400001526, Lat : 49.2838784, Lng : -123.11469, Q1 : 0.943496525288, Q2 : 0.0480885989964, Q3 : -0.149587839842, Q4 : 0.291762501001}
2019-04-14 03:45:59.21: SIM {TimeUS : 66235162, Roll : 0.22, Pitch : -18.09, Yaw : 34.32, Alt : 49.3400001526, Lat : 49.2838819, Lng : -123.1146862, Q1 : 0.943487167358, Q2 : 0.0482188798487, Q3 : -0.149670243263, Q4 : 0.291728883982}
2019-04-14 03:45:59.31: SIM {TimeUS : 66335122, Roll : 0.24, Pitch : -18.1, Yaw : 34.32, Alt : 49.3400001526, Lat : 49.2838854, Lng : -123.1146824, Q1 : 0.943475902081, Q2 : 0.0484190545976, Q3 : -0.149706810713, Q4 : 0.291713535786}
2019-04-14 03:45:59.41: SIM {TimeUS : 66435082, Roll : 0.27, Pitch : -18.11, Yaw : 34.31, Alt : 49.3400001526, Lat : 49.2838889, Lng : -123.1146785, Q1 : 0.943452179432, Q2 : 0.04873117432, Q3 : -0.149747937918, Q4 : 0.291717112064}
2019-04-14 03:45:59.51: SIM {TimeUS : 66535042, Roll : 0.27, Pitch : -18.11, Yaw : 34.31, Alt : 49.3400001526, Lat : 49.2838925, Lng : -123.1146747, Q1 : 0.943464875221, Q2 : 0.0487099736929, Q3 : -0.149734809995, Q4 : 0.291686236858}
