2019-04-14 05:26:35.20: SIM {TimeUS : 40616247, Roll : 0.0, Pitch : 0.0, Yaw : 0.0, Alt : 30.1000003815, Lat : 49.28357, Lng : -123.11502, Q1 : 1.0, Q2 : 0.0, Q3 : 0.0, Q4 : 0.0}
2019-04-14 05:26:35.31: SIM {TimeUS : 40735366, Roll : 0.0, Pitch : 0.0, Yaw : 0.0, Alt : 30.1000003815, Lat : 49.28357, Lng : -123.11502, Q1 : 1.0, Q2 : 0.0, Q3 : 0.0, Q4 : 0.0}
2019-04-14 05:26:35.41: SIM {TimeUS : 40835326, Roll : 0.0, Pitch : 0.0, Yaw : 0.0, Alt : 30.1000003815, Lat : 49.28357, Lng : -123.11502, Q1 : 1.0, Q2 : 0.0, Q3 : 0.0, Q4 : 0.0}
2019-04-14 05:26:35.51: SIM {TimeUS : 40935286, Roll : 0.0, Pitch : 0.0, Yaw : 0.0, Alt : 30.1000003815, Lat : 49.28357, Lng : -123.11502, Q1 : 1.0, Q2 : 0.0, Q3 : 0.0, Q4 : 0.0}
2019-04-14 05:26:35.61: SIM {TimeUS : 41035246, Roll : 0.0, Pitch : 0.0, Yaw : 0.0, Alt : 30.1000003815, Lat : 49.28357, Lng : -123.11502, Q1 : 1.0, Q2 : 0.0, Q3 : 0.0, Q4 : 0.0}
2019-04-14 05:26:35.71: SIM {TimeUS : 41135206, Roll : 0.0, Pitch : 0.0, Yaw : 0.0, Alt : 30.1000003815, Lat : 49.28357, Lng : -123.11502, Q1 : 1.0, Q2 : 0.0, Q3 : 0.0, Q4 : 0.0}
2019-04-14 05:26:35.81: SIM {TimeUS : 41235166, Roll : 0.0, Pitch : 0.0, Yaw : 0.0, Alt : 30.1000003815, Lat : 49.28357, Lng : -123.11502, Q1 : 1.0, Q2 : 0.0, Q3 : 0.0, Q4 : 0.0}
2019-04-14 05:26:35.91: SIM {TimeUS : 41335126, Roll : 0.0, Pitch : 0.0, Yaw : 0.0, Alt : 30.1000003815, Lat : 49.28357, Lng : -123.11502, Q1 : 1.0, Q2 : 0.0, Q3 : 0.0, Q4 : 0.0}
2019-04-14 05:26:36.01: SIM {TimeUS : 41435086, Roll : 0.0, Pitch : 0.0, Yaw : 0.0, Alt : 30.1000003815, Lat : 49.28357, Lng : -123.11502, Q1 : 1.0, Q2 : 0.0, Q3 : 0.0, Q4 : 0.0}
2019-04-14 05:26:36.11: SIM {TimeUS : 41535046, Roll : 0.0, Pitch : 0.0, Yaw : 0.0, Alt : 30.1000003815, Lat : 49.28357, Lng : -123.11502, Q1 : 1.0, Q2 : 0.0, Q3 : 0.0, Q4 : 0.0}
2019-04-14 05:26:36.21: SIM {TimeUS : 41635006, Roll : 0.0, Pitch : 0.0, Yaw : 0.0, Alt : 30.1000003815, Lat : 49.28357, Lng : -123.11502, Q1 : 1.0, Q2 : 0.0, Q3 : 0.0, Q4 : 0.0}
2019-04-14 05:26:36.31: SIM {TimeUS : 41734966, Roll : 0.0, Pitch : 0.0, Yaw : 0.0, Alt : 30.1000003815, Lat : 49.28357, Lng : -123.11502, Q1 : 1.0, Q2 : 0.0, Q3 : 0.0, Q4 : 0.0}
2019-04-14 05:26:36.41: SIM {TimeUS : 41834926, Roll : 0.0, Pitch : 0.0, Yaw : 0.0, Alt : 30.1000003815, Lat : 49.28357, Lng : -123.11502, Q1 : 1.0, Q2 : 0.0, Q3 : 0.0, Q4 : 0.0}
2019-04-14 05:26:36.51: SIM {TimeUS : 41934886, Roll : 0.0, Pitch : 0.0, Yaw : 0.0, Alt : 30.1000003815, Lat : 49.28357, Lng : -123.11502, Q1 : 1.0, Q2 : 0.0, Q3 : 0.0, Q4 : 0.0}
2019-04-14 05:26:36.61: SIM {TimeUS : 42034846, Roll : 0.0, Pitch : 0.0, Yaw : 0.0, Alt : 30.1000003815, Lat : 49.28357, Lng : -123.11502, Q1 : 1.0, Q2 : 0.0, Q3 : 0.0, Q4 : 0.0}
2019-04-14 05:26:36.71: SIM {TimeUS : 42134806, Roll : 0.0, Pitch : 0.0, Yaw : 0.0, Alt : 30.1000003815, Lat : 49.28357, Lng : -123.11502, Q1 : 1.0, Q2 : 0.0, Q3 : 0.0, Q4 : 0.0}
2019-04-14 05:26:36.81: SIM {TimeUS : 42234766, Roll : 0.0, Pitch : 0.0, Yaw : 0.0, Alt : 30.1000003815, Lat : 49.28357, Lng : -123.11502, Q1 : 1.0, Q2 : 0.0, Q3 : 0.0, Q4 : 0.0}
2019-04-14 05:26:36.91: SIM {TimeUS : 42334726, Roll : 0.0, Pitch : 0.0, Yaw : 0.0, Alt : 30.1000003815, Lat : 49.28357, Lng : -123.11502, Q1 : 1.0, Q2 : 0.0, Q3 : 0.0, Q4 : 0.0}
2019-04-14 05:26:37.01: SIM {TimeUS : 42434686, Roll : 0.0, Pitch : 0.0, Yaw : 0.0, Alt : 30.1000003815, Lat : 49.28357, Lng : -123.11502, Q1 : 1.0, Q2 : 0.0, Q3 : 0.0, Q4 : 0.0}
2019-04-14 05:26:37.11: SIM {TimeUS : 42534646, Roll : 0.0, Pitch : 0.0, Yaw : 0.0, Alt : 30.1000003815, Lat : 49.28357, Lng : -123.11502, Q1 : 1.0, Q2 : 0.0, Q3 : 0.0, Q4 : 0.0}
2019-04-14 05:26:37.21: SIM {TimeUS : 42634606, Roll : 0.0, Pitch : 0.0, Yaw : 0.0, Alt : 30.1000003815, Lat : 49.28357, Lng : -123.11502, Q1 : 1.0, Q2 : 0.0, Q3 : 0.0, Q4 : 0.0}
2019-04-14 05:26:37.31: SIM {TimeUS : 42735399, Roll : 0.0, Pitch : 0.0, Yaw : 0.0, Alt : 30.1000003815, Lat : 49.28357, Lng : -123.11502, Q1 : 1.0, Q2 : 0.0, Q3 : 0.0, Q4 : 0.0}
2019-04-14 05:26:37.41: SIM {TimeUS : 42835359, Roll : 0.0, Pitch : 0.0, Yaw : 0.0, Alt : 30.1000003815, Lat : 49.28357, Lng : -123.11502, Q1 : 1.0, Q2 : 0.0, Q3 : 0.0, Q4 : 0.0}
2019-04-14 05:26:37.51: SIM {TimeUS : 42935319, Roll : 0.0, Pitch : 0.0, Yaw : 0.0, Alt : 30.1000003815, Lat : 49.28357, Lng : -123.11502, Q1 : 1.0, Q2 : 0.0, Q3 : 0.0, Q4 : 4.3591046571e-12}
2019-04-14 05:26:37.61: SIM {TimeUS : 43035279, Roll : 0.0, Pitch : 0.0, Yaw : 360.0, Alt : 30.1000003815, Lat : 49.28357, Lng : -123.11502, Q1 : 1.0, Q2 : 0.0, Q3 : 0.0, Q4 : -2.44827322859e-08}
2019-04-14 05:26:37.71: SIM {TimeUS : 43135239, Roll : 0.0, Pitch : 0.0, Yaw : 360.0, Alt : 30.1000003815, Lat : 49.28357, Lng : -123.11502, Q1 : 1.0, Q2 : 0.0, Q3 : 0.0, Q4 : -1.61603438187e-07}
2019-04-14 05:26:37.81: SIM {TimeUS : 43235199, Roll : 0.0, Pitch : 0.0, Yaw : 359.99, Alt : 30.1000003815, Lat : 49.28357, Lng : -123.11502, Q1 : 1.0, Q2 : 0.0, Q3 : 0.0, Q4 : -3.30683434413e-07}
2019-04-14 05:26:37.91: SIM {TimeUS : 43335159, Roll : 0.0, Pitch : 0.0, Yaw : 359.99, Alt : 30.1000003815, Lat : 49.28357, Lng : -123.11502, Q1 : 1.0, Q2 : 0.0, Q3 : 0.0, Q4 : -5.07304832809e-07}
2019-04-14 05:26:38.01: SIM {TimeUS : 43435119, Roll : 0.0, Pitch : 0.0, Yaw : 359.99, Alt : 30.1000003815, Lat : 49.28357, Lng : -123.11502, Q1 : 1.0, Q2 : 0.0, Q3 : 0.0, Q4 : -6.7279245286e-07}
2019-04-14 05:26:38.11: SIM {TimeUS : 43535079, Roll : 0.0, Pitch : 0.0, Yaw : 359.99, Alt : 30.1000003815, Lat : 49.28357, Lng : -123.11502, Q1 : 1.0, Q2 : 0.0, Q3 : 0.0, Q4 : -8.29657608392e-07}
2019-04-14 05:26:38.21: SIM {TimeUS : 43635039, Roll : 0.0, Pitch : 0.0, Yaw : 359.99, Alt : 30.1000003815, Lat : 49.28357, Lng : -123.11502, Q1 : 1.0, Q2 : 0.0, Q3 : 0.0, Q4 : -1.04796436062e-06}
2019-04-14 05:26:38.31: SIM {TimeUS : 43734999, Roll : 0.0, Pitch : 0.0, Yaw : 359.99, Alt : 30.1000003815, Lat : 49.28357, Lng : -123.11502, Q1 : 1.0, Q2 : 0.0, Q3 : 0.0, Q4 : -1.18744048905e-06}
2019-04-14 05:26:38.41: SIM {TimeUS : 43834959, Roll : 0.0, Pitch : 0.0, Yaw : 359.99, Alt : 30.1200008392, Lat : 49.28357, Lng : -123.11502, Q1 : 1.0, Q2 : 0.0, Q3 : 0.0, Q4 : -1.40381462188e-06}
2019-04-14 05:26:38.51: SIM {TimeUS : 43934919, Roll : 0.0, Pitch : 0.0, Yaw : 359.99, Alt : 30.1399993896, Lat : 49.28357, Lng : -123.11502, Q1 : 1.0, Q2 : 0.0, Q3 : 0.0, Q4 : -1.61160789958e-06}
2019-04-14 05:26:38.61: SIM {TimeUS : 44034879, Roll : 0.0, Pitch : 0.0, Yaw : 359.99, Alt : 30.1700000763, Lat : 49.28357, Lng : -123.11502, Q1 : 1.0, Q2 : 0.0, Q3 : 0.0, Q4 : -1.83633665074e-06}
2019-04-14 05:26:38.71: SIM {TimeUS : 44134839, Roll : 0.0, Pitch : 0.0, Yaw : 359.99, Alt : 30.2099990845, Lat : 49.28357, Lng : -123.11502, Q1 : 1.0, Q2 : 0.0, Q3 : 0.0, Q4 : -1.96943756237e-06}
2019-04-14 05:26:38.81: SIM {TimeUS : 44234799, Roll : -0.05, Pitch : -0.04, Yaw : 359.99, Alt : 30.2600002289, Lat : 49.28357, Lng : -123.11502, Q1 : 0.999999821186, Q2 : -0.000483642070321, Q3 : -0.000351722468622, Q4 : -1.26384484247e-05}
2019-04-14 05:26:38.91: SIM {TimeUS : 44334759, Roll : -0.18, Pitch : -0.12, Yaw : 359.99, Alt : 30.3600006104, Lat : 49.28357, Lng : -123.11502, Q1 : 0.999998152256, Q2 : -0.00160038052127, Q3 : -0.00106282753404, Q4 : -5.11611069669e-05}
2019-04-14 05:26:39.01: SIM {TimeUS : 44434719, Roll : -0.28, Pitch : -0.21, Yaw : 359.98, Alt : 30.5100002289, Lat : 49.28357, Lng : -123.11502, Q1 : 0.999995112419, Q2 : -0.00251277186908, Q3 : -0.00185193680227, Q4 : -0.000110531844257}
2019-04-14 05:26:39.11: SIM {TimeUS : 44534679, Roll : -0.33, Pitch : -0.26, Yaw : 359.97, Alt : 30.6700000763, Lat : 49.28357, Lng : -123.11502, Q1 : 0.999992907047, Q2 : -0.00296265399083, Q3 : -0.00232354155742, Q4 : -0.00018946241471}
2019-04-14 05:26:39.21: SIM {TimeUS : 44634639, Roll : -0.33, Pitch : -0.26, Yaw : 359.96, Alt : 30.8299999237, Lat : 49.28357, Lng : -123.11502, Q1 : 0.999992787838, Q2 : -0.00296540511772, Q3 : -0.00235322164372, Q4 : -0.000270254124189}
2019-04-14 05:26:39.31: SIM {TimeUS : 44734599, Roll : -0.28, Pitch : -0.23, Yaw : 359.96, Alt : 30.9799995422, Lat : 49.28357, Lng : -123.11502, Q1 : 0.999994695187, Q2 : -0.00251248292625, Q3 : -0.00205599539913, Q4 : -0.000346627028193}
2019-04-14 05:26:39.41: SIM {TimeUS : 44835392, Roll : -0.2, Pitch : -0.17, Yaw : 359.95, Alt : 31.1399993896, Lat : 49.28357, Lng : -123.11502, Q1 : 0.999997138977, Q2 : -0.00176966516301, Q3 : -0.00154315610416, Q4 : -0.000412471825257}
2019-04-14 05:26:39.51: SIM {TimeUS : 44935352, Roll : -0.1, Pitch : -0.11, Yaw : 359.94, Alt : 31.2999992371, Lat : 49.28357, Lng : -123.1150201, Q1 : 0.999998986721, Q2 : -0.00095522828633, Q3 : -0.000966261257418, Q4 : -0.000466037396109}
2019-04-14 05:26:39.61: SIM {TimeUS : 45035312, Roll : -0.03, Pitch : -0.05, Yaw : 359.94, Alt : 31.4699993134, Lat : 49.28357, Lng : -123.1150201, Q1 : 0.999999701977, Q2 : -0.000263929454377, Q3 : -0.000508213415742, Q4 : -0.000500904279761}
2019-04-14 05:26:39.71: SIM {TimeUS : 45135272, Roll : 0.02, Pitch : -0.02, Yaw : 359.94, Alt : 31.6399993896, Lat : 49.28357, Lng : -123.1150201, Q1 : 0.999999821186, Q2 : 0.000187174795428, Q3 : -0.000223447263124, Q4 : -0.000520663335919}
2019-04-14 05:26:39.81: SIM {TimeUS : 45235232, Roll : 0.03, Pitch : 0.0, Yaw : 359.94, Alt : 31.8199996948, Lat : 49.2835701, Lng : -123.1150202, Q1 : 0.999999821186, Q2 : 0.000315262295771, Q3 : 2.46688650805e-05, Q4 : -0.00052104354836}
2019-04-14 05:26:39.91: SIM {TimeUS : 45335192, Roll : 0.03, Pitch : 0.03, Yaw : 359.94, Alt : 32.0, Lat : 49.2835701, Lng : -123.1150202, Q1 : 0.999999821186, Q2 : 0.000275865080766, Q3 : 0.00028017477598, Q4 : -0.000519369903486}
2019-04-14 05:26:40.01: SIM {TimeUS : 45435152, Roll : 0.01, Pitch : 0.05, Yaw : 359.94, Alt : 32.1899986267, Lat : 49.2835701, Lng : -123.1150202, Q1 : 0.999999761581, Q2 : 9.50261892285e-05, Q3 : 0.000489691447001, Q4 : -0.000506750075147}
2019-04-14 05:26:40.11: SIM {TimeUS : 45535112, Roll : 0.0, Pitch : 0.07, Yaw : 359.94, Alt : 32.3800010681, Lat : 49.2835701, Lng : -123.1150202, Q1 : 0.999999701977, Q2 : 7.48046795707e-06, Q3 : 0.000623073079623, Q4 : -0.000480542978039}
2019-04-14 05:26:40.21: SIM {TimeUS : 45635072, Roll : 0.0, Pitch : 0.06, Yaw : 359.94, Alt : 32.5800018311, Lat : 49.2835701, Lng : -123.1150202, Q1 : 0.999999701977, Q2 : 7.98075416242e-05, Q3 : 0.000596336729359, Q4 : -0.000451617292129}
2019-04-14 05:26:40.31: SIM {TimeUS : 45735032, Roll : 0.01, Pitch : 0.06, Yaw : 359.95, Alt : 32.7700004578, Lat : 49.2835701, Lng : -123.1150202, Q1 : 0.999999761581, Q2 : 0.000130535510834, Q3 : 0.000573519733734, Q4 : -0.000425573030952}
2019-04-14 05:26:40.41: SIM {TimeUS : 45834992, Roll : 0.01, Pitch : 0.07, Yaw : 359.95, Alt : 32.9700012207, Lat : 49.2835701, Lng : -123.1150203, Q1 : 0.999999701977, Q2 : 0.00014417944476, Q3 : 0.000636319629848, Q4 : -0.000408458698075}
2019-04-14 05:26:40.51: SIM {TimeUS : 45934952, Roll : 0.02, Pitch : 0.06, Yaw : 359.95, Alt : 33.1699981689, Lat : 49.2835701, Lng : -123.1150203, Q1 : 0.999999761581, Q2 : 0.000190559992916, Q3 : 0.000548163428903, Q4 : -0.0003949496313}
2019-04-14 05:26:40.61: SIM {TimeUS : 46034912, Roll : 0.02, Pitch : 0.03, Yaw : 359.95, Alt : 33.3800010681, Lat : 49.2835702, Lng : -123.1150203, Q1 : 0.999999821186, Q2 : 0.000253557867836, Q3 : 0.00030889530899, Q4 : -0.000394553993829}
2019-04-14 05:26:40.71: SIM {TimeUS : 46134872, Roll : 0.03, Pitch : 0.02, Yaw : 359.95, Alt : 33.5800018311, Lat : 49.2835702, Lng : -123.1150203, Q1 : 0.999999880791, Q2 : 0.000278207910014, Q3 : 0.000212099213968, Q4 : -0.000399006617954}
2019-04-14 05:26:40.81: SIM {TimeUS : 46234832, Roll : 0.03, Pitch : 0.03, Yaw : 359.95, Alt : 33.7900009155, Lat : 49.2835702, Lng : -123.1150203, Q1 : 0.999999821186, Q2 : 0.000310983217787, Q3 : 0.000268779258477, Q4 : -0.000424521131208}
2019-04-14 05:26:40.91: SIM {TimeUS : 46334792, Roll : 0.04, Pitch : 0.04, Yaw : 359.94, Alt : 34.0, Lat : 49.2835702, Lng : -123.1150203, Q1 : 0.999999761581, Q2 : 0.000411507149693, Q3 : 0.000388851825846, Q4 : -0.000459024682641}
2019-04-14 05:26:41.01: SIM {TimeUS : 46434752, Roll : 0.04, Pitch : 0.04, Yaw : 359.94, Alt : 34.2099990845, Lat : 49.2835702, Lng : -123.1150203, Q1 : 0.999999701977, Q2 : 0.000408354797401, Q3 : 0.00038667046465, Q4 : -0.000489361525979}
2019-04-14 05:26:41.11: SIM {TimeUS : 46534712, Roll : 0.03, Pitch : 0.04, Yaw : 359.94, Alt : 34.4199981689, Lat : 49.2835702, Lng : -123.1150203, Q1 : 0.999999761581, Q2 : 0.00030558850267, Q3 : 0.000369087647414, Q4 : -0.000515543739311}
2019-04-14 05:26:41.21: SIM {TimeUS : 46634672, Roll : 0.01, Pitch : 0.03, Yaw : 359.93, Alt : 34.6399993896, Lat : 49.2835702, Lng : -123.1150203, Q1 : 0.999999761581, Q2 : 0.00011435864144, Q3 : 0.00034405340557, Q4 : -0.000540577224456}
2019-04-14 05:26:41.31: SIM {TimeUS : 46734632, Roll : 0.0, Pitch : 0.04, Yaw : 359.93, Alt : 34.8499984741, Lat : 49.2835702, Lng : -123.1150203, Q1 : 0.999999761581, Q2 : -4.69979386253e-05, Q3 : 0.000368397770217, Q4 : -0.000560268992558}
2019-04-14 05:26:41.41: SIM {TimeUS : 46834592, Roll : 0.0, Pitch : 0.01, Yaw : 359.93, Alt : 35.0699996948, Lat : 49.2835702, Lng : -123.1150203, Q1 : 0.999999821186, Q2 : -8.70617222972e-05, Q3 : 0.000134616115247, Q4 : -0.000585347297601}
2019-04-14 05:26:41.51: SIM {TimeUS : 46935385, Roll : -0.01, Pitch : -0.01, Yaw : 359.92, Alt : 35.2900009155, Lat : 49.2835702, Lng : -123.1150203, Q1 : 0.999999821186, Q2 : -0.00010462992941, Q3 : -9.13444091566e-05, Q4 : -0.000618023565039}
2019-04-14 05:26:41.61: SIM {TimeUS : 47035345, Roll : -0.02, Pitch : -0.02, Yaw : 359.92, Alt : 35.5, Lat : 49.2835702, Lng : -123.1150203, Q1 : 0.999999761581, Q2 : -0.00019375073316, Q3 : -0.000192941821297, Q4 : -0.000651510374155}
2019-04-14 05:26:41.71: SIM {TimeUS : 47135305, Roll : -0.02, Pitch : -0.01, Yaw : 359.92, Alt : 35.7200012207, Lat : 49.2835702, Lng : -123.1150203, Q1 : 0.999999761581, Q2 : -0.000226480100537, Q3 : -0.000140620482853, Q4 : -0.000682763813529}
2019-04-14 05:26:41.81: SIM {TimeUS : 47235265, Roll : -0.01, Pitch : 0.0, Yaw : 359.91, Alt : 35.9399986267, Lat : 49.2835702, Lng : -123.1150203, Q1 : 0.999999761581, Q2 : -0.000164658486028, Q3 : -3.24677748722e-05, Q4 : -0.000713184126653}
2019-04-14 05:26:41.91: SIM {TimeUS : 47335225, Roll : -0.03, Pitch : -0.01, Yaw : 359.91, Alt : 36.1599998474, Lat : 49.2835702, Lng : -123.1150203, Q1 : 0.999999642372, Q2 : -0.000286747643258, Q3 : -0.000156363588758, Q4 : -0.000742102100048}
2019-04-14 05:26:42.01: SIM {TimeUS : 47435185, Roll : -0.06, Pitch : -0.05, Yaw : 359.91, Alt : 36.3800010681, Lat : 49.2835702, Lng : -123.1150203, Q1 : 0.999999463558, Q2 : -0.000545025046449, Q3 : -0.000449475890491, Q4 : -0.000769377162214}
2019-04-14 05:26:42.11: SIM {TimeUS : 47535145, Roll : -0.09, Pitch : -0.06, Yaw : 359.9, Alt : 36.6100006104, Lat : 49.2835702, Lng : -123.1150203, Q1 : 0.999999165535, Q2 : -0.00081918266369, Q3 : -0.000600120343734, Q4 : -0.000794315477833}
2019-04-14 05:26:42.21: SIM {TimeUS : 47635105, Roll : -0.12, Pitch : -0.08, Yaw : 359.9, Alt : 36.8300018311, Lat : 49.2835702, Lng : -123.1150203, Q1 : 0.999998867512, Q2 : -0.00106788391713, Q3 : -0.000700949924067, Q4 : -0.000819653912913}
2019-04-14 05:26:42.31: SIM {TimeUS : 47735065, Roll : -0.12, Pitch : -0.08, Yaw : 359.9, Alt : 37.0499992371, Lat : 49.2835702, Lng : -123.1150203, Q1 : 0.999998867512, Q2 : -0.00105911702849, Q3 : -0.000704949488863, Q4 : -0.000841615488753}
2019-04-14 05:26:42.41: SIM {TimeUS : 47835025, Roll : -0.1, Pitch : -0.07, Yaw : 359.9, Alt : 37.2799987793, Lat : 49.2835702, Lng : -123.1150203, Q1 : 0.999998986721, Q2 : -0.000915600336157, Q3 : -0.000629002519418, Q4 : -0.000861486245412}
2019-04-14 05:26:42.51: SIM {TimeUS : 47934985, Roll : -0.08, Pitch : -0.05, Yaw : 359.89, Alt : 37.5, Lat : 49.2835702, Lng : -123.1150203, Q1 : 0.99999922514, Q2 : -0.000721276039258, Q3 : -0.000435922323959, Q4 : -0.00087998365052}
2019-04-14 05:26:42.61: SIM {TimeUS : 48034945, Roll : -0.06, Pitch : -0.03, Yaw : 359.89, Alt : 37.7299995422, Lat : 49.2835702, Lng : -123.1150203, Q1 : 0.999999403954, Q2 : -0.000543479400221, Q3 : -0.000294559984468, Q4 : -0.000893124786671}
2019-04-14 05:26:42.71: SIM {TimeUS : 48134905, Roll : -0.06, Pitch : -0.03, Yaw : 359.89, Alt : 37.9500007629, Lat : 49.2835702, Lng : -123.1150203, Q1 : 0.999999403954, Q2 : -0.000553201301955, Q3 : -0.000305704656057, Q4 : -0.000897111895029}
2019-04-14 05:26:42.81: SIM {TimeUS : 48234865, Roll : -0.07, Pitch : -0.02, Yaw : 359.89, Alt : 38.1800003052, Lat : 49.2835702, Lng : -123.1150203, Q1 : 0.999999344349, Q2 : -0.000659813638777, Q3 : -0.000231499201618, Q4 : -0.000902144005522}
2019-04-14 05:26:42.91: SIM {TimeUS : 48334825, Roll : -0.1, Pitch : -0.01, Yaw : 359.89, Alt : 38.4099998474, Lat : 49.2835702, Lng : -123.1150203, Q1 : 0.999999165535, Q2 : -0.000895383243915, Q3 : -0.000101437675767, Q4 : -0.000915787240956}
2019-04-14 05:26:43.01: SIM {TimeUS : 48434785, Roll : -0.1, Pitch : 0.0, Yaw : 359.89, Alt : 38.6399993896, Lat : 49.2835702, Lng : -123.1150203, Q1 : 0.99999910593, Q2 : -0.000942532205954, Q3 : 1.8971533791e-05, Q4 : -0.000927785062231}
2019-04-14 05:26:43.11: SIM {TimeUS : 48534745, Roll : -0.08, Pitch : 0.02, Yaw : 359.89, Alt : 38.8699989319, Lat : 49.2835702, Lng : -123.1150203, Q1 : 0.99999922514, Q2 : -0.000764737487771, Q3 : 0.000257620617049, Q4 : -0.000943762657698}
2019-04-14 05:26:43.21: SIM {TimeUS : 48634705, Roll : -0.05, Pitch : 0.02, Yaw : 359.89, Alt : 39.0900001526, Lat : 49.2835703, Lng : -123.1150204, Q1 : 0.999999403954, Q2 : -0.000505280622747, Q3 : 0.000243478265475, Q4 : -0.000956868403591}
2019-04-14 05:26:43.31: SIM {TimeUS : 48734665, Roll : -0.02, Pitch : 0.01, Yaw : 359.88, Alt : 39.3199996948, Lat : 49.2835703, Lng : -123.1150204, Q1 : 0.999999523163, Q2 : -0.000215875828872, Q3 : 0.000162864060258, Q4 : -0.000967014406342}
2019-04-14 05:26:43.41: SIM {TimeUS : 48834625, Roll : 0.01, Pitch : 0.03, Yaw : 359.88, Alt : 39.5499992371, Lat : 49.2835703, Lng : -123.1150204, Q1 : 0.999999463558, Q2 : 0.000138438932481, Q3 : 0.000320928113069, Q4 : -0.00097862619441}
2019-04-14 05:26:43.51: SIM {TimeUS : 48934585, Roll : 0.05, Pitch : 0.06, Yaw : 359.88, Alt : 39.7900009155, Lat : 49.2835703, Lng : -123.1150204, Q1 : 0.99999922514, Q2 : 0.000517700740602, Q3 : 0.000597303209361, Q4 : -0.000998544855975}
2019-04-14 05:26:43.61: SIM {TimeUS : 49035378, Roll : 0.09, Pitch : 0.09, Yaw : 359.88, Alt : 40.0200004578, Lat : 49.2835703, Lng : -123.1150204, Q1 : 0.999998748302, Q2 : 0.000828252756037, Q3 : 0.000846955110319, Q4 : -0.00102450489067}
2019-04-14 05:26:43.71: SIM {TimeUS : 49135338, Roll : 0.09, Pitch : 0.12, Yaw : 359.87, Alt : 40.25, Lat : 49.2835703, Lng : -123.1150204, Q1 : 0.999998569489, Q2 : 0.000789389712736, Q3 : 0.00106037931982, Q4 : -0.00105743785389}
2019-04-14 05:26:43.81: SIM {TimeUS : 49235298, Roll : 0.04, Pitch : 0.14, Yaw : 359.87, Alt : 40.4799995422, Lat : 49.2835703, Lng : -123.1150204, Q1 : 0.999998509884, Q2 : 0.000371270725736, Q3 : 0.00124951708131, Q4 : -0.00110891892109}
2019-04-14 05:26:43.91: SIM {TimeUS : 49335258, Roll : 0.0, Pitch : 0.14, Yaw : 359.86, Alt : 40.7099990845, Lat : 49.2835703, Lng : -123.1150204, Q1 : 0.999998509884, Q2 : 3.59656291948e-06, Q3 : 0.00128403562121, Q4 : -0.00115223438479}
2019-04-14 05:26:44.01: SIM {TimeUS : 49435218, Roll : -0.02, Pitch : 0.12, Yaw : 359.86, Alt : 40.9500007629, Lat : 49.2835703, Lng : -123.1150204, Q1 : 0.999998629093, Q2 : -0.000210469210288, Q3 : 0.00111138110515, Q4 : -0.00118469435256}
2019-04-14 05:26:44.11: SIM {TimeUS : 49535178, Roll : -0.03, Pitch : 0.11, Yaw : 359.86, Alt : 41.1800003052, Lat : 49.2835703, Lng : -123.1150205, Q1 : 0.999998748302, Q2 : -0.000289215357043, Q3 : 0.000986407627352, Q4 : -0.00121695001144}
2019-04-14 05:26:44.21: SIM {TimeUS : 49635138, Roll : -0.02, Pitch : 0.11, Yaw : 359.85, Alt : 41.4099998474, Lat : 49.2835703, Lng : -123.1150205, Q1 : 0.999998688698, Q2 : -0.000203206349397, Q3 : 0.00104319304228, Q4 : -0.00124959915411}
2019-04-14 05:26:44.31: SIM {TimeUS : 49735098, Roll : 0.01, Pitch : 0.13, Yaw : 359.85, Alt : 41.6399993896, Lat : 49.2835703, Lng : -123.1150205, Q1 : 0.999998450279, Q2 : 0.00014131302305, Q3 : 0.00118748471141, Q4 : -0.00128313875757}
2019-04-14 05:26:44.41: SIM {TimeUS : 49835058, Roll : 0.06, Pitch : 0.14, Yaw : 359.84, Alt : 41.8800010681, Lat : 49.2835703, Lng : -123.1150205, Q1 : 0.999998211861, Q2 : 0.000574893027078, Q3 : 0.00123522605281, Q4 : -0.00131845928263}
2019-04-14 05:26:44.51: SIM {TimeUS : 49935018, Roll : 0.09, Pitch : 0.1, Yaw : 359.84, Alt : 42.1100006104, Lat : 49.2835703, Lng : -123.1150205, Q1 : 0.99999833107, Q2 : 0.000843068934046, Q3 : 0.000896385754459, Q4 : -0.00135285616852}
2019-04-14 05:26:44.61: SIM {TimeUS : 50034978, Roll : 0.09, Pitch : 0.04, Yaw : 359.84, Alt : 42.3499984741, Lat : 49.2835703, Lng : -123.1150205, Q1 : 0.999998629093, Q2 : 0.00080890202662, Q3 : 0.000408598105423, Q4 : -0.00138282298576}
2019-04-14 05:26:44.71: SIM {TimeUS : 50134938, Roll : 0.05, Pitch : 0.01, Yaw : 359.83, Alt : 42.5800018311, Lat : 49.2835703, Lng : -123.1150205, Q1 : 0.999998867512, Q2 : 0.000474877102533, Q3 : 9.27811925067e-05, Q4 : -0.00140324118547}
2019-04-14 05:26:44.81: SIM {TimeUS : 50234898, Roll : 0.0, Pitch : 0.0, Yaw : 359.83, Alt : 42.8100013733, Lat : 49.2835703, Lng : -123.1150205, Q1 : 0.999998986721, Q2 : 6.03880152994e-06, Q3 : 2.32633192354e-05, Q4 : -0.00141279096715}
2019-04-14 05:26:44.91: SIM {TimeUS : 50334858, Roll : -0.03, Pitch : 0.03, Yaw : 359.83, Alt : 43.0499992371, Lat : 49.2835703, Lng : -123.1150205, Q1 : 0.999998927116, Q2 : -0.00031044127536, Q3 : 0.000264694390353, Q4 : -0.00141209887806}
2019-04-14 05:26:45.01: SIM {TimeUS : 50434818, Roll : -0.05, Pitch : 0.05, Yaw : 359.83, Alt : 43.2799987793, Lat : 49.2835703, Lng : -123.1150205, Q1 : 0.999998807907, Q2 : -0.000441938638687, Q3 : 0.000459732575109, Q4 : -0.00140975764953}
2019-04-14 05:26:45.11: SIM {TimeUS : 50534778, Roll : -0.04, Pitch : 0.04, Yaw : 359.83, Alt : 43.5200004578, Lat : 49.2835703, Lng : -123.1150205, Q1 : 0.999998867512, Q2 : -0.000390505505493, Q3 : 0.000428778439527, Q4 : -0.00140702095814}
2019-04-14 05:26:45.21: SIM {TimeUS : 50634738, Roll : -0.04, Pitch : 0.03, Yaw : 359.83, Alt : 43.75, Lat : 49.2835703, Lng : -123.1150205, Q1 : 0.999998867512, Q2 : -0.000419193296693, Q3 : 0.000301030289847, Q4 : -0.0014099846594}
2019-04-14 05:26:45.31: SIM {TimeUS : 50734698, Roll : -0.04, Pitch : 0.01, Yaw : 359.83, Alt : 43.9900016785, Lat : 49.2835703, Lng : -123.1150204, Q1 : 0.999998927116, Q2 : -0.000357880868251, Q3 : 0.000154788052896, Q4 : -0.00142061081715}
2019-04-14 05:26:45.41: SIM {TimeUS : 50834658, Roll : -0.02, Pitch : 0.01, Yaw : 359.83, Alt : 44.2299995422, Lat : 49.2835703, Lng : -123.1150204, Q1 : 0.999998927116, Q2 : -0.000185234486707, Q3 : 0.000101488716609, Q4 : -0.00143900385592}
2019-04-14 05:26:45.51: SIM {TimeUS : 50934618, Roll : 0.0, Pitch : 0.01, Yaw : 359.83, Alt : 44.4599990845, Lat : 49.2835703, Lng : -123.1150204, Q1 : 0.999998927116, Q2 : -7.01399912941e-05, Q3 : 0.000136800561449, Q4 : -0.00145751331002}
2019-04-14 05:26:45.61: SIM {TimeUS : 51034578, Roll : -0.01, Pitch : 0.01, Yaw : 359.83, Alt : 44.7000007629, Lat : 49.2835702, Lng : -123.1150204, Q1 : 0.999998927116, Q2 : -0.000125541715533, Q3 : 0.000106612802483, Q4 : -0.00147778168321}
2019-04-14 05:26:45.71: SIM {TimeUS : 51135371, Roll : -0.02, Pitch : 0.0, Yaw : 359.82, Alt : 44.9399986267, Lat : 49.2835702, Lng : -123.1150204, Q1 : 0.999998867512, Q2 : -0.000223092443775, Q3 : -5.55919650651e-05, Q4 : -0.00150678947102}
2019-04-14 05:26:45.81: SIM {TimeUS : 51235331, Roll : -0.02, Pitch : -0.01, Yaw : 359.82, Alt : 45.1699981689, Lat : 49.2835702, Lng : -123.1150204, Q1 : 0.999998807907, Q2 : -0.000252350582741, Q3 : -9.93496651063e-05, Q4 : -0.00153567409143}
2019-04-14 05:26:45.91: SIM {TimeUS : 51335291, Roll : -0.02, Pitch : -0.01, Yaw : 359.82, Alt : 45.4099998474, Lat : 49.2835702, Lng : -123.1150204, Q1 : 0.999998748302, Q2 : -0.00021812992054, Q3 : -8.9038767328e-05, Q4 : -0.00156276754569}
2019-04-14 05:26:46.01: SIM {TimeUS : 51435251, Roll : -0.03, Pitch : 0.0, Yaw : 359.81, Alt : 45.6399993896, Lat : 49.2835702, Lng : -123.1150204, Q1 : 0.999998688698, Q2 : -0.000268766045338, Q3 : -8.32256846479e-05, Q4 : -0.0015895597171}
2019-04-14 05:26:46.11: SIM {TimeUS : 51535211, Roll : -0.05, Pitch : 0.0, Yaw : 359.81, Alt : 45.8800010681, Lat : 49.2835702, Lng : -123.1150204, Q1 : 0.999998569489, Q2 : -0.000448416918516, Q3 : -5.69631301914e-05, Q4 : -0.00161870010197}
2019-04-14 05:26:46.21: SIM {TimeUS : 51635171, Roll : -0.08, Pitch : 0.0, Yaw : 359.81, Alt : 46.1100006104, Lat : 49.2835702, Lng : -123.1150204, Q1 : 0.999998390675, Q2 : -0.000705171201844, Q3 : -5.64355905226e-05, Q4 : -0.001654651016}
2019-04-14 05:26:46.31: SIM {TimeUS : 51735131, Roll : -0.1, Pitch : 0.0, Yaw : 359.8, Alt : 46.3300018311, Lat : 49.2835702, Lng : -123.1150204, Q1 : 0.999998152256, Q2 : -0.000907946086954, Q3 : -6.60390942357e-05, Q4 : -0.00169319158886}
2019-04-14 05:26:46.41: SIM {TimeUS : 51835091, Roll : -0.1, Pitch : 0.0, Yaw : 359.8, Alt : 46.5499992371, Lat : 49.2835702, Lng : -123.1150204, Q1 : 0.999998033047, Q2 : -0.000953559239861, Q3 : 5.34527453055e-06, Q4 : -0.00173169106711}
2019-04-14 05:26:46.51: SIM {TimeUS : 51935051, Roll : -0.1, Pitch : 0.02, Yaw : 359.79, Alt : 46.7700004578, Lat : 49.2835702, Lng : -123.1150204, Q1 : 0.999998033047, Q2 : -0.000874118995853, Q3 : 0.000183187934454, Q4 : -0.00176866934635}
2019-04-14 05:26:46.61: SIM {TimeUS : 52035011, Roll : -0.08, Pitch : 0.03, Yaw : 359.79, Alt : 46.9799995422, Lat : 49.2835702, Lng : -123.1150204, Q1 : 0.999998092651, Q2 : -0.000699088152032, Q3 : 0.000285447313217, Q4 : -0.00180378230289}
2019-04-14 05:26:46.71: SIM {TimeUS : 52134971, Roll : -0.05, Pitch : 0.03, Yaw : 359.78, Alt : 47.1899986267, Lat : 49.2835702, Lng : -123.1150204, Q1 : 0.999998152256, Q2 : -0.000517150503583, Q3 : 0.000265256123384, Q4 : -0.00183655426372}
2019-04-14 05:26:46.81: SIM {TimeUS : 52234931, Roll : -0.04, Pitch : 0.01, Yaw : 359.78, Alt : 47.3800010681, Lat : 49.2835702, Lng : -123.1150204, Q1 : 0.999998211861, Q2 : -0.000411869637901, Q3 : 0.000148276012624, Q4 : -0.00186507229228}
2019-04-14 05:26:46.91: SIM {TimeUS : 52334891, Roll : -0.03, Pitch : 0.0, Yaw : 359.78, Alt : 47.5699996948, Lat : 49.2835702, Lng : -123.1150204, Q1 : 0.999998211861, Q2 : -0.000262160960119, Q3 : -7.64324722695e-05, Q4 : -0.00188896956388}
2019-04-14 05:26:47.01: SIM {TimeUS : 52434851, Roll : -0.02, Pitch : -0.03, Yaw : 359.78, Alt : 47.75, Lat : 49.2835702, Lng : -123.1150204, Q1 : 0.999998092651, Q2 : -0.00017774036678, Q3 : -0.000347473367583, Q4 : -0.00191115343478}
2019-04-14 05:26:47.11: SIM {TimeUS : 52534811, Roll : -0.01, Pitch : -0.06, Yaw : 359.77, Alt : 47.9099998474, Lat : 49.2835702, Lng : -123.1150204, Q1 : 0.999997973442, Q2 : -0.000164435172337, Q3 : -0.000607253808994, Q4 : -0.00193045008928}
2019-04-14 05:26:47.21: SIM {TimeUS : 52634771, Roll : -0.02, Pitch : -0.09, Yaw : 359.77, Alt : 48.0699996948, Lat : 49.2835702, Lng : -123.1150204, Q1 : 0.999997794628, Q2 : -0.00019880750915, Q3 : -0.000788213219494, Q4 : -0.00194924196694}
2019-04-14 05:26:47.31: SIM {TimeUS : 52734731, Roll : 0.0, Pitch : -0.08, Yaw : 359.77, Alt : 48.2099990845, Lat : 49.2835702, Lng : -123.1150204, Q1 : 0.999997735023, Q2 : 1.64273405971e-05, Q3 : -0.000781714566983, Q4 : -0.0019687411841}
2019-04-14 05:26:47.41: SIM {TimeUS : 52834691, Roll : 0.03, Pitch : -0.07, Yaw : 359.77, Alt : 48.3400001526, Lat : 49.2835702, Lng : -123.1150204, Q1 : 0.999997794628, Q2 : 0.000313869793899, Q3 : -0.000612268224359, Q4 : -0.00198738928884}
2019-04-14 05:26:47.51: SIM {TimeUS : 52934651, Roll : 0.06, Pitch : -0.04, Yaw : 359.76, Alt : 48.4599990845, Lat : 49.2835702, Lng : -123.1150205, Q1 : 0.999997794628, Q2 : 0.000561100372579, Q3 : -0.000376764888642, Q4 : -0.0020104390569}
2019-04-14 05:26:47.61: SIM {TimeUS : 53034611, Roll : 0.07, Pitch : -0.01, Yaw : 359.76, Alt : 48.5699996948, Lat : 49.2835702, Lng : -123.1150205, Q1 : 0.999997735023, Q2 : 0.000654187635519, Q3 : -0.000148555278429, Q4 : -0.00203793263063}
2019-04-14 05:26:47.71: SIM {TimeUS : 53135404, Roll : 0.08, Pitch : 0.0, Yaw : 359.76, Alt : 48.6599998474, Lat : 49.2835702, Lng : -123.1150205, Q1 : 0.999997615814, Q2 : 0.000702457095031, Q3 : -2.14396059164e-05, Q4 : -0.00206875964068}
2019-04-14 05:26:47.81: SIM {TimeUS : 53235364, Roll : 0.06, Pitch : -0.01, Yaw : 359.75, Alt : 48.7400016785, Lat : 49.2835702, Lng : -123.1150205, Q1 : 0.999997615814, Q2 : 0.000599465740379, Q3 : -9.48560409597e-05, Q4 : -0.00210234802216}
2019-04-14 05:26:47.91: SIM {TimeUS : 53335324, Roll : 0.03, Pitch : -0.01, Yaw : 359.75, Alt : 48.8199996948, Lat : 49.2835702, Lng : -123.1150205, Q1 : 0.999997675419, Q2 : 0.000334069045493, Q3 : -0.000152318039909, Q4 : -0.00213644676842}
2019-04-14 05:26:48.01: SIM {TimeUS : 53435284, Roll : 0.01, Pitch : -0.01, Yaw : 359.75, Alt : 48.8800010681, Lat : 49.2835702, Lng : -123.1150205, Q1 : 0.999997615814, Q2 : 0.000132071931148, Q3 : -0.000109700769826, Q4 : -0.00217042048462}
2019-04-14 05:26:48.11: SIM {TimeUS : 53535244, Roll : 0.0, Pitch : 0.0, Yaw : 359.74, Alt : 48.9300003052, Lat : 49.2835702, Lng : -123.1150205, Q1 : 0.99999755621, Q2 : -1.11909957923e-05, Q3 : -8.34336678963e-05, Q4 : -0.00220150430687}
2019-04-14 05:26:48.21: SIM {TimeUS : 53635204, Roll : 0.0, Pitch : 0.0, Yaw : 359.74, Alt : 48.9799995422, Lat : 49.2835702, Lng : -123.1150205, Q1 : 0.999997496605, Q2 : -2.71879489446e-05, Q3 : -5.85873967793e-05, Q4 : -0.00223213923164}
2019-04-14 05:26:48.31: SIM {TimeUS : 53735164, Roll : 0.08, Pitch : -0.07, Yaw : 359.74, Alt : 49.0200004578, Lat : 49.2835702, Lng : -123.1150205, Q1 : 0.999996960163, Q2 : 0.000736547866836, Q3 : -0.000678711629007, Q4 : -0.00226433901116}
2019-04-14 05:26:48.41: SIM {TimeUS : 53835124, Roll : 0.31, Pitch : -0.35, Yaw : 359.73, Alt : 49.0499992371, Lat : 49.2835702, Lng : -123.1150205, Q1 : 0.999988973141, Q2 : 0.00272080604918, Q3 : -0.0030774124898, Q4 : -0.0022896239534}
2019-04-14 05:26:48.51: SIM {TimeUS : 53935084, Roll : 0.68, Pitch : -0.88, Yaw : 359.73, Alt : 49.0800018311, Lat : 49.2835702, Lng : -123.1150205, Q1 : 0.999949455261, Q2 : 0.00597527949139, Q3 : -0.00775500107557, Q4 : -0.00230100564659}
2019-04-14 05:26:48.61: SIM {TimeUS : 54035044, Roll : 1.18, Pitch : -1.62, Yaw : 359.72, Alt : 49.0999984741, Lat : 49.2835703, Lng : -123.1150205, Q1 : 0.999844133854, Q2 : 0.0102628897876, Q3 : -0.0141819259152, Q4 : -0.00229696300812}
2019-04-14 05:26:48.71: SIM {TimeUS : 54135004, Roll : 1.74, Pitch : -2.49, Yaw : 359.7, Alt : 49.1199989319, Lat : 49.2835703, Lng : -123.1150204, Q1 : 0.999644577503, Q2 : 0.0151864048094, Q3 : -0.0217938013375, Q4 : -0.00225909845904}
2019-04-14 05:26:48.81: SIM {TimeUS : 54234964, Roll : 2.31, Pitch : -3.36, Yaw : 359.68, Alt : 49.1399993896, Lat : 49.2835703, Lng : -123.1150203, Q1 : 0.999363362789, Q2 : 0.0201282687485, Q3 : -0.0293788202107, Q4 : -0.00216395361349}
2019-04-14 05:26:48.91: SIM {TimeUS : 54334924, Roll : 2.8, Pitch : -4.08, Yaw : 359.66, Alt : 49.1599998474, Lat : 49.2835704, Lng : -123.1150202, Q1 : 0.999064326286, Q2 : 0.0243483930826, Q3 : -0.0356879718602, Q4 : -0.00200693425722}
2019-04-14 05:26:49.01: SIM {TimeUS : 54434884, Roll : 3.16, Pitch : -4.62, Yaw : 359.66, Alt : 49.1699981689, Lat : 49.2835707, Lng : -123.11502, Q1 : 0.998802065849, Q2 : 0.0275195036083, Q3 : -0.040421910584, Q4 : -0.00178062659688}
2019-04-14 05:26:49.11: SIM {TimeUS : 54534844, Roll : 3.43, Pitch : -5.0, Yaw : 359.67, Alt : 49.1800003052, Lat : 49.2835709, Lng : -123.1150199, Q1 : 0.998595654964, Q2 : 0.0298305097967, Q3 : -0.0437556579709, Q4 : -0.00151585100684}
2019-04-14 05:26:49.21: SIM {TimeUS : 54634804, Roll : 3.63, Pitch : -5.29, Yaw : 359.68, Alt : 49.1899986267, Lat : 49.2835712, Lng : -123.1150196, Q1 : 0.998427867889, Q2 : 0.0315813198686, Q3 : -0.0462910309434, Q4 : -0.00124130037148}
2019-04-14 05:26:49.31: SIM {TimeUS : 54734764, Roll : 3.82, Pitch : -5.59, Yaw : 359.7, Alt : 49.2000007629, Lat : 49.2835715, Lng : -123.1150192, Q1 : 0.998255133629, Q2 : 0.0331731177866, Q3 : -0.0488394163549, Q4 : -0.000974062422756}
2019-04-14 05:26:49.41: SIM {TimeUS : 54834724, Roll : 4.02, Pitch : -5.91, Yaw : 359.7, Alt : 49.2099990845, Lat : 49.283572, Lng : -123.1150188, Q1 : 0.99805110693, Q2 : 0.0349598266184, Q3 : -0.0516842827201, Q4 : -0.000721275049727}
2019-04-14 05:26:49.51: SIM {TimeUS : 54934684, Roll : 4.26, Pitch : -6.25, Yaw : 359.71, Alt : 49.2200012207, Lat : 49.2835724, Lng : -123.1150183, Q1 : 0.997817635536, Q2 : 0.0370582640171, Q3 : -0.0546485297382, Q4 : -0.000465998164145}
2019-04-14 05:26:49.61: SIM {TimeUS : 55034644, Roll : 4.47, Pitch : -6.54, Yaw : 359.71, Alt : 49.2299995422, Lat : 49.2835729, Lng : -123.1150177, Q1 : 0.997610807419, Q2 : 0.0388256981969, Q3 : -0.057142034173, Q4 : -0.000228887482081}
2019-04-14 05:26:49.71: SIM {TimeUS : 55134604, Roll : 4.62, Pitch : -6.76, Yaw : 359.72, Alt : 49.2299995422, Lat : 49.2835735, Lng : -123.1150171, Q1 : 0.997449755669, Q2 : 0.0400939062238, Q3 : -0.059046048671, Q4 : -2.43466747634e-05}
2019-04-14 05:26:49.81: SIM {TimeUS : 55235397, Roll : 4.7, Pitch : -6.92, Yaw : 359.73, Alt : 49.2400016785, Lat : 49.2835741, Lng : -123.1150163, Q1 : 0.997336447239, Q2 : 0.040817823261, Q3 : -0.0604475513101, Q4 : 0.000137841649121}
2019-04-14 05:26:49.91: SIM {TimeUS : 55335357, Roll : 4.76, Pitch : -7.02, Yaw : 359.73, Alt : 49.2400016785, Lat : 49.283575, Lng : -123.1150156, Q1 : 0.997260928154, Q2 : 0.0413266345859, Q3 : -0.061340816319, Q4 : 0.000266900256975}
2019-04-14 05:26:50.01: SIM {TimeUS : 55435317, Roll : 4.8, Pitch : -7.11, Yaw : 359.74, Alt : 49.25, Lat : 49.2835758, Lng : -123.1150148, Q1 : 0.997199952602, Q2 : 0.0417409539223, Q3 : -0.062047097832, Q4 : 0.000339326856192}
2019-04-14 05:26:50.11: SIM {TimeUS : 55535277, Roll : 4.9, Pitch : -7.21, Yaw : 359.73, Alt : 49.25, Lat : 49.2835765, Lng : -123.1150139, Q1 : 0.997105777264, Q2 : 0.0425907336175, Q3 : -0.0629751309752, Q4 : 0.000425144040491}
2019-04-14 05:26:50.21: SIM {TimeUS : 55635237, Roll : 5.25, Pitch : -7.27, Yaw : 359.92, Alt : 49.2599983215, Lat : 49.2835775, Lng : -123.115013, Q1 : 0.996935725212, Q2 : 0.0457364656031, Q3 : -0.0634210109711, Q4 : 0.00225120550022}
2019-04-14 05:26:50.31: SIM {TimeUS : 55735197, Roll : 5.89, Pitch : -7.3, Yaw : 0.87, Alt : 49.2599983215, Lat : 49.2835783, Lng : -123.115012, Q1 : 0.996594250202, Q2 : 0.0518367365003, Q3 : -0.0631982833147, Q4 : 0.0109028164297}
2019-04-14 05:26:50.41: SIM {TimeUS : 55835157, Roll : 6.52, Pitch : -7.48, Yaw : 3.23, Alt : 49.2599983215, Lat : 49.2835794, Lng : -123.1150109, Q1 : 0.995748341084, Q2 : 0.0585846081376, Q3 : -0.0635527148843, Q4 : 0.0318447425961}
2019-04-14 05:26:50.51: SIM {TimeUS : 55935117, Roll : 6.76, Pitch : -7.99, Yaw : 7.2, Alt : 49.2599983215, Lat : 49.2835805, Lng : -123.1150096, Q1 : 0.993601202965, Q2 : 0.0631055533886, Q3 : -0.0657559484243, Q4 : 0.0667120665312}
2019-04-14 05:26:50.61: SIM {TimeUS : 56035077, Roll : 6.39, Pitch : -8.82, Yaw : 12.66, Alt : 49.2599983215, Lat : 49.2835816, Lng : -123.1150084, Q1 : 0.988936781883, Q2 : 0.0637133941054, Q3 : -0.0701835751534, Q4 : 0.11410035193}
2019-04-14 05:26:50.71: SIM {TimeUS : 56135037, Roll : 5.14, Pitch : -9.87, Yaw : 19.3, Alt : 49.2599983215, Lat : 49.2835826, Lng : -123.1150071, Q1 : 0.98053920269, Q2 : 0.0585262067616, Q3 : -0.0772873982787, Q4 : 0.170716792345}
2019-04-14 05:26:50.81: SIM {TimeUS : 56234997, Roll : 2.91, Pitch : -10.94, Yaw : 26.47, Alt : 49.2700004578, Lat : 49.2835837, Lng : -123.1150056, Q1 : 0.968117654324, Q2 : 0.0464470721781, Q3 : -0.0870133265853, Q4 : 0.230259761214}
2019-04-14 05:26:50.91: SIM {TimeUS : 56334957, Roll : 0.03, Pitch : -11.77, Yaw : 33.38, Alt : 49.2700004578, Lat : 49.283585, Lng : -123.115004, Q1 : 0.95279020071, Q2 : 0.0297590103, Q3 : -0.0981287658215, Q4 : 0.285790145397}
2019-04-14 05:26:51.01: SIM {TimeUS : 56434917, Roll : -2.83, Pitch : -12.23, Yaw : 39.31, Alt : 49.2700004578, Lat : 49.2835864, Lng : -123.1150024, Q1 : 0.936971545219, Q2 : 0.0126199098304, Q3 : -0.108575768769, Q4 : 0.331868052483}
2019-04-14 05:26:51.11: SIM {TimeUS : 56534877, Roll : -5.09, Pitch : -12.4, Yaw : 43.7, Alt : 49.2700004578, Lat : 49.2835877, Lng : -123.1150008, Q1 : 0.923571109772, Q2 : -0.000853844627272, Q3 : -0.116646066308, Q4 : 0.36525246501}
2019-04-14 05:26:51.21: SIM {TimeUS : 56634837, Roll : -6.4, Pitch : -12.45, Yaw : 46.36, Alt : 49.2700004578, Lat : 49.2835891, Lng : -123.1149991, Q1 : 0.914792597294, Q2 : -0.00841491203755, Q3 : -0.12146191299, Q4 : 0.385137200356}
2019-04-14 05:26:51.31: SIM {TimeUS : 56734797, Roll : -6.73, Pitch : -12.56, Yaw : 47.36, Alt : 49.2700004578, Lat : 49.2835908, Lng : -123.1149975, Q1 : 0.911297261715, Q2 : -0.00956748612225, Q3 : -0.123440526426, Q4 : 0.392693579197}
2019-04-14 05:26:51.41: SIM {TimeUS : 56834757, Roll : -6.23, Pitch : -12.82, Yaw : 46.98, Alt : 49.2700004578, Lat : 49.2835925, Lng : -123.1149958, Q1 : 0.912449002266, Q2 : -0.00513926707208, Q3 : -0.12381015718, Q4 : 0.389976263046}
2019-04-14 05:26:51.51: SIM {TimeUS : 56934717, Roll : -5.17, Pitch : -13.26, Yaw : 45.54, Alt : 49.2700004578, Lat : 49.2835943, Lng : -123.1149942, Q1 : 0.916975140572, Q2 : 0.0032786836382, Q3 : -0.123776964843, Q4 : 0.379242837429}
2019-04-14 05:26:51.61: SIM {TimeUS : 57034677, Roll : -3.77, Pitch : -13.85, Yaw : 43.35, Alt : 49.2700004578, Lat : 49.283596, Lng : -123.1149925, Q1 : 0.923478603363, Q2 : 0.014143534936, Q3 : -0.124054521322, Q4 : 0.362763941288}
2019-04-14 05:26:51.71: SIM {TimeUS : 57134637, Roll : -2.21, Pitch : -14.46, Yaw : 40.71, Alt : 49.2700004578, Lat : 49.2835981, Lng : -123.1149907, Q1 : 0.930753707886, Q2 : 0.0257967077196, Q3 : -0.124657474458, Q4 : 0.342771917582}
2019-04-14 05:26:51.81: SIM {TimeUS : 57234597, Roll : -0.67, Pitch : -14.98, Yaw : 37.94, Alt : 49.2799987793, Lat : 49.2836001, Lng : -123.1149889, Q1 : 0.93784481287, Q2 : 0.0368462689221, Q3 : -0.125195339322, Q4 : 0.321583032608}
2019-04-14 05:26:51.91: SIM {TimeUS : 57335390, Roll : 0.71, Pitch : -15.33, Yaw : 35.31, Alt : 49.2799987793, Lat : 49.2836022, Lng : -123.114987, Q1 : 0.944082021713, Q2 : 0.0463851466775, Q3 : -0.125262781978, Q4 : 0.301441282034}
2019-04-14 05:26:52.01: SIM {TimeUS : 57435350, Roll : 1.81, Pitch : -15.52, Yaw : 33.15, Alt : 49.2799987793, Lat : 49.2836043, Lng : -123.114985, Q1 : 0.948929548264, Q2 : 0.0535333864391, Q3 : -0.124929726124, Q4 : 0.284709364176}
2019-04-14 05:26:52.11: SIM {TimeUS : 57535310, Roll : 2.55, Pitch : -15.57, Yaw : 31.59, Alt : 49.2799987793, Lat : 49.2836065, Lng : -123.1149829, Q1 : 0.952286422253, Q2 : 0.058113861829, Q3 : -0.124384410679, Q4 : 0.27258387208}
2019-04-14 05:26:52.21: SIM {TimeUS : 57635270, Roll : 2.89, Pitch : -15.57, Yaw : 30.71, Alt : 49.2799987793, Lat : 49.2836086, Lng : -123.1149806, Q1 : 0.954176783562, Q2 : 0.0600166991353, Q3 : -0.124003633857, Q4 : 0.265645980835}
2019-04-14 05:26:52.31: SIM {TimeUS : 57735230, Roll : 2.86, Pitch : -15.57, Yaw : 30.49, Alt : 49.2799987793, Lat : 49.2836109, Lng : -123.1149783, Q1 : 0.95470815897, Q2 : 0.0595303475857, Q3 : -0.124150402844, Q4 : 0.263771057129}
2019-04-14 05:26:52.41: SIM {TimeUS : 57835190, Roll : 2.53, Pitch : -15.6, Yaw : 30.84, Alt : 49.2799987793, Lat : 49.2836132, Lng : -123.1149759, Q1 : 0.954036355019, Q2 : 0.0572473630309, Q3 : -0.12502618134, Q4 : 0.266281574965}
2019-04-14 05:26:52.51: SIM {TimeUS : 57935150, Roll : 1.98, Pitch : -15.7, Yaw : 31.61, Alt : 49.2799987793, Lat : 49.2836156, Lng : -123.1149733, Q1 : 0.952362239361, Q2 : 0.0537671558559, Q3 : -0.126790240407, Q4 : 0.27210187912}
2019-04-14 05:26:52.61: SIM {TimeUS : 58035110, Roll : 1.3, Pitch : -15.85, Yaw : 32.66, Alt : 49.2799987793, Lat : 49.283618, Lng : -123.1149708, Q1 : 0.949983656406, Q2 : 0.0495987571776, Q3 : -0.129140913486, Q4 : 0.279988735914}
2019-04-14 05:26:52.71: SIM {TimeUS : 58135070, Roll : 0.57, Pitch : -16.0, Yaw : 33.81, Alt : 49.2799987793, Lat : 49.2836203, Lng : -123.1149681, Q1 : 0.947233319283, Q2 : 0.0452224649489, Q3 : -0.131765335798, Q4 : 0.28868997097}
2019-04-14 05:26:52.81: SIM {TimeUS : 58235030, Roll : -0.11, Pitch : -16.12, Yaw : 34.94, Alt : 49.2799987793, Lat : 49.2836227, Lng : -123.1149654, Q1 : 0.944483280182, Q2 : 0.0411579795182, Q3 : -0.134086310863, Q4 : 0.297116458416}
2019-04-14 05:26:52.91: SIM {TimeUS : 58334990, Roll : -0.66, Pitch : -16.2, Yaw : 35.91, Alt : 49.2799987793, Lat : 49.2836254, Lng : -123.1149627, Q1 : 0.942038178444, Q2 : 0.0379886068404, Q3 : -0.135820180178, Q4 : 0.304423838854}
2019-04-14 05:26:53.01: SIM {TimeUS : 58434950, Roll : -1.06, Pitch : -16.24, Yaw : 36.64, Alt : 49.2799987793, Lat : 49.2836279, Lng : -123.1149599, Q1 : 0.940138339996, Q2 : 0.0357080325484, Q3 : -0.137027814984, Q4 : 0.3099809587}
2019-04-14 05:26:53.11: SIM {TimeUS : 58534910, Roll : -1.26, Pitch : -16.28, Yaw : 37.11, Alt : 49.2799987793, Lat : 49.2836305, Lng : -123.1149571, Q1 : 0.938895761967, Q2 : 0.0347104519606, Q3 : -0.137707605958, Q4 : 0.313538789749}
2019-04-14 05:26:53.21: SIM {TimeUS : 58634870, Roll : -1.25, Pitch : -16.29, Yaw : 37.3, Alt : 49.2799987793, Lat : 49.2836332, Lng : -123.1149542, Q1 : 0.938363969326, Q2 : 0.035023573786, Q3 : -0.137749537826, Q4 : 0.315073788166}
2019-04-14 05:26:53.31: SIM {TimeUS : 58734830, Roll : -1.11, Pitch : -16.3, Yaw : 37.24, Alt : 49.2799987793, Lat : 49.2836359, Lng : -123.1149513, Q1 : 0.93847823143, Q2 : 0.0361357294023, Q3 : -0.13744597137, Q4 : 0.314740300179}
2019-04-14 05:26:53.41: SIM {TimeUS : 58834790, Roll : -0.89, Pitch : -16.34, Yaw : 36.97, Alt : 49.2799987793, Lat : 49.2836385, Lng : -123.1149484, Q1 : 0.939077138901, Q2 : 0.0377142466605, Q3 : -0.137239709496, Q4 : 0.312853217125}
2019-04-14 05:26:53.51: SIM {TimeUS : 58934750, Roll : -0.63, Pitch : -16.4, Yaw : 36.58, Alt : 49.2799987793, Lat : 49.2836414, Lng : -123.1149455, Q1 : 0.939992249012, Q2 : 0.0395791567862, Q3 : -0.137197360396, Q4 : 0.309878855944}
2019-04-14 05:26:53.61: SIM {TimeUS : 59034710, Roll : -0.35, Pitch : -16.49, Yaw : 36.11, Alt : 49.2799987793, Lat : 49.2836442, Lng : -123.1149425, Q1 : 0.941050648689, Q2 : 0.0415566265583, Q3 : -0.137331917882, Q4 : 0.306327730417}
2019-04-14 05:26:53.71: SIM {TimeUS : 59134670, Roll : -0.08, Pitch : -16.56, Yaw : 35.63, Alt : 49.2799987793, Lat : 49.2836469, Lng : -123.1149395, Q1 : 0.942134797573, Q2 : 0.0433839969337, Q3 : -0.137395128608, Q4 : 0.302691966295}
2019-04-14 05:26:53.81: SIM {TimeUS : 59234630, Roll : 0.15, Pitch : -16.62, Yaw : 35.2, Alt : 49.2799987793, Lat : 49.2836499, Lng : -123.1149365, Q1 : 0.943112492561, Q2 : 0.0450138002634, Q3 : -0.137393400073, Q4 : 0.299392074347}
2019-04-14 05:26:53.91: SIM {TimeUS : 59334590, Roll : 0.35, Pitch : -16.66, Yaw : 34.85, Alt : 49.2900009155, Lat : 49.2836528, Lng : -123.1149334, Q1 : 0.943896353245, Q2 : 0.0463280305266, Q3 : -0.13735806942, Q4 : 0.296725809574}
2019-04-14 05:26:54.01: SIM {TimeUS : 59435383, Roll : 0.48, Pitch : -16.69, Yaw : 34.6, Alt : 49.2900009155, Lat : 49.2836557, Lng : -123.1149303, Q1 : 0.944446146488, Q2 : 0.0471726767719, Q3 : -0.137352854013, Q4 : 0.29483962059}
2019-04-14 05:26:54.11: SIM {TimeUS : 59535343, Roll : 0.54, Pitch : -16.71, Yaw : 34.47, Alt : 49.2900009155, Lat : 49.2836585, Lng : -123.1149272, Q1 : 0.944741785526, Q2 : 0.0475431345403, Q3 : -0.137405738235, Q4 : 0.293806552887}
2019-04-14 05:26:54.21: SIM {TimeUS : 59635303, Roll : 0.54, Pitch : -16.73, Yaw : 34.44, Alt : 49.2900009155, Lat : 49.2836615, Lng : -123.1149239, Q1 : 0.944789350033, Q2 : 0.0475653447211, Q3 : -0.137585163116, Q4 : 0.293565988541}
2019-04-14 05:26:54.31: SIM {TimeUS : 59735263, Roll : 0.48, Pitch : -16.75, Yaw : 34.5, Alt : 49.2900009155, Lat : 49.2836645, Lng : -123.1149208, Q1 : 0.944628953934, Q2 : 0.0472403950989, Q3 : -0.137867614627, Q4 : 0.29400190711}
2019-04-14 05:26:54.41: SIM {TimeUS : 59835223, Roll : 0.39, Pitch : -16.79, Yaw : 34.63, Alt : 49.2900009155, Lat : 49.2836675, Lng : -123.1149175, Q1 : 0.944296598434, Q2 : 0.0466876327991, Q3 : -0.1383831352, Q4 : 0.294914066792}
2019-04-14 05:26:54.51: SIM {TimeUS : 59935183, Roll : 0.26, Pitch : -16.83, Yaw : 34.79, Alt : 49.2900009155, Lat : 49.2836706, Lng : -123.1149143, Q1 : 0.943867087364, Q2 : 0.0459373630583, Q3 : -0.139022290707, Q4 : 0.296103805304}
2019-04-14 05:26:54.61: SIM {TimeUS : 60035143, Roll : 0.12, Pitch : -16.88, Yaw : 34.97, Alt : 49.2900009155, Lat : 49.2836736, Lng : -123.114911, Q1 : 0.943397462368, Q2 : 0.0451846197248, Q3 : -0.139700099826, Q4 : 0.297394454479}
2019-04-14 05:26:54.71: SIM {TimeUS : 60135103, Roll : 0.0, Pitch : -16.92, Yaw : 35.14, Alt : 49.2900009155, Lat : 49.2836766, Lng : -123.1149077, Q1 : 0.942965447903, Q2 : 0.044392131269, Q3 : -0.140297502279, Q4 : 0.298600316048}
2019-04-14 05:26:54.81: SIM {TimeUS : 60235063, Roll : -0.12, Pitch : -16.95, Yaw : 35.28, Alt : 49.2900009155, Lat : 49.2836797, Lng : -123.1149043, Q1 : 0.942612051964, Q2 : 0.0436318852007, Q3 : -0.140798717737, Q4 : 0.299590647221}
2019-04-14 05:26:54.91: SIM {TimeUS : 60335023, Roll : -0.22, Pitch : -16.98, Yaw : 35.38, Alt : 49.2900009155, Lat : 49.2836828, Lng : -123.114901, Q1 : 0.942344844341, Q2 : 0.043072860688, Q3 : -0.141298517585, Q4 : 0.300275921822}
2019-04-14 05:26:55.01: SIM {TimeUS : 60434983, Roll : -0.25, Pitch : -17.03, Yaw : 35.43, Alt : 49.2900009155, Lat : 49.2836858, Lng : -123.1148976, Q1 : 0.942171573639, Q2 : 0.0429609268904, Q3 : -0.141743540764, Q4 : 0.300625860691}
2019-04-14 05:26:55.11: SIM {TimeUS : 60534943, Roll : -0.25, Pitch : -17.07, Yaw : 35.43, Alt : 49.2999992371, Lat : 49.2836889, Lng : -123.1148942, Q1 : 0.942109465599, Q2 : 0.0431213527918, Q3 : -0.142095804214, Q4 : 0.300631076097}
2019-04-14 05:26:55.21: SIM {TimeUS : 60634903, Roll : -0.19, Pitch : -17.12, Yaw : 35.39, Alt : 49.2999992371, Lat : 49.2836922, Lng : -123.1148908, Q1 : 0.94213616848, Q2 : 0.0436156690121, Q3 : -0.142352178693, Q4 : 0.300354748964}
2019-04-14 05:26:55.31: SIM {TimeUS : 60734863, Roll : -0.11, Pitch : -17.16, Yaw : 35.32, Alt : 49.2999992371, Lat : 49.2836953, Lng : -123.1148874, Q1 : 0.942238509655, Q2 : 0.0443551614881, Q3 : -0.14249137044, Q4 : 0.299859017134}
2019-04-14 05:26:55.41: SIM {TimeUS : 60834823, Roll : -0.02, Pitch : -17.19, Yaw : 35.23, Alt : 49.2999992371, Lat : 49.2836985, Lng : -123.114884, Q1 : 0.942411601543, Q2 : 0.0449948310852, Q3 : -0.142549827695, Q4 : 0.299191296101}
2019-04-14 05:26:55.51: SIM {TimeUS : 60934783, Roll : 0.03, Pitch : -17.2, Yaw : 35.13, Alt : 49.2999992371, Lat : 49.2837016, Lng : -123.1148805, Q1 : 0.942633271217, Q2 : 0.0454078912735, Q3 : -0.142530024052, Q4 : 0.298439085484}
2019-04-14 05:26:55.61: SIM {TimeUS : 61034743, Roll : 0.07, Pitch : -17.21, Yaw : 35.03, Alt : 49.2999992371, Lat : 49.2837048, Lng : -123.1148771, Q1 : 0.942861735821, Q2 : 0.0456976071, Q3 : -0.142508417368, Q4 : 0.297682493925}
2019-04-14 05:26:55.71: SIM {TimeUS : 61134703, Roll : 0.12, Pitch : -17.21, Yaw : 34.94, Alt : 49.2999992371, Lat : 49.2837081, Lng : -123.1148736, Q1 : 0.943069815636, Q2 : 0.0459634959698, Q3 : -0.1424690485, Q4 : 0.297000467777}
2019-04-14 05:26:55.81: SIM {TimeUS : 61234663, Roll : 0.15, Pitch : -17.23, Yaw : 34.86, Alt : 49.2999992371, Lat : 49.2837113, Lng : -123.1148701, Q1 : 0.943220973015, Q2 : 0.0461943335831, Q3 : -0.142575666308, Q4 : 0.29643291235}
2019-04-14 05:26:55.91: SIM {TimeUS : 61334623, Roll : 0.19, Pitch : -17.28, Yaw : 34.81, Alt : 49.3100013733, Lat : 49.2837145, Lng : -123.1148666, Q1 : 0.943287372589, Q2 : 0.0465742088854, Q3 : -0.142840176821, Q4 : 0.296034634113}
2019-04-14 05:26:56.01: SIM {TimeUS : 61434583, Roll : 0.22, Pitch : -17.34, Yaw : 34.78, Alt : 49.3100013733, Lat : 49.2837178, Lng : -123.1148631, Q1 : 0.943283557892, Q2 : 0.0469155982137, Q3 : -0.143288478255, Q4 : 0.295776039362}
2019-04-14 05:26:56.11: SIM {TimeUS : 61535376, Roll : 0.22, Pitch : -17.37, Yaw : 34.77, Alt : 49.3100013733, Lat : 49.2837211, Lng : -123.1148595, Q1 : 0.943270981312, Q2 : 0.0470275245607, Q3 : -0.143565803766, Q4 : 0.295663803816}
2019-04-14 05:26:56.21: SIM {TimeUS : 61635336, Roll : 0.21, Pitch : -17.37, Yaw : 34.77, Alt : 49.3100013733, Lat : 49.2837243, Lng : -123.114856, Q1 : 0.943271517754, Q2 : 0.0469247400761, Q3 : -0.14354069531, Q4 : 0.295690745115}
2019-04-14 05:26:56.31: SIM {TimeUS : 61735296, Roll : 0.19, Pitch : -17.36, Yaw : 34.79, Alt : 49.3100013733, Lat : 49.2837277, Lng : -123.1148524, Q1 : 0.943249225616, Q2 : 0.0467553213239, Q3 : -0.143547341228, Q4 : 0.2957855165}
2019-04-14 05:26:56.41: SIM {TimeUS : 61835256, Roll : 0.16, Pitch : -17.38, Yaw : 34.81, Alt : 49.3100013733, Lat : 49.2837309, Lng : -123.1148489, Q1 : 0.943186461926, Q2 : 0.0465380549431, Q3 : -0.143807277083, Q4 : 0.295893579721}
2019-04-14 05:26:56.51: SIM {TimeUS : 61935216, Roll : 0.13, Pitch : -17.41, Yaw : 34.83, Alt : 49.3100013733, Lat : 49.2837343, Lng : -123.1148453, Q1 : 0.943110823631, Q2 : 0.0464029423892, Q3 : -0.144091680646, Q4 : 0.296017378569}
2019-04-14 05:26:56.61: SIM {TimeUS : 62035176, Roll : 0.1, Pitch : -17.44, Yaw : 34.84, Alt : 49.3100013733, Lat : 49.2837375, Lng : -123.1148417, Q1 : 0.943037867546, Q2 : 0.0462930314243, Q3 : -0.144427135587, Q4 : 0.29610362649}
2019-04-14 05:26:56.71: SIM {TimeUS : 62135136, Roll : 0.08, Pitch : -17.47, Yaw : 34.85, Alt : 49.3100013733, Lat : 49.2837409, Lng : -123.1148381, Q1 : 0.942991137505, Q2 : 0.0462134927511, Q3 : -0.144681811333, Q4 : 0.296140491962}
2019-04-14 05:26:56.81: SIM {TimeUS : 62235096, Roll : 0.08, Pitch : -17.49, Yaw : 34.85, Alt : 49.3100013733, Lat : 49.2837442, Lng : -123.1148345, Q1 : 0.94295579195, Q2 : 0.0462734997272, Q3 : -0.14487478137, Q4 : 0.296149402857}
2019-04-14 05:26:56.91: SIM {TimeUS : 62335056, Roll : 0.09, Pitch : -17.5, Yaw : 34.85, Alt : 49.3100013733, Lat : 49.2837476, Lng : -123.1148309, Q1 : 0.942952573299, Q2 : 0.046366084367, Q3 : -0.144943848252, Q4 : 0.296111494303}
2019-04-14 05:26:57.01: SIM {TimeUS : 62435016, Roll : 0.11, Pitch : -17.52, Yaw : 34.83, Alt : 49.3100013733, Lat : 49.2837509, Lng : -123.1148272, Q1 : 0.942962944508, Q2 : 0.0465318225324, Q3 : -0.145019844174, Q4 : 0.29601508379}
2019-04-14 05:26:57.11: SIM {TimeUS : 62534976, Roll : 0.13, Pitch : -17.54, Yaw : 34.81, Alt : 49.3199996948, Lat : 49.2837543, Lng : -123.1148236, Q1 : 0.942975580692, Q2 : 0.0467655807734, Q3 : -0.145171701908, Q4 : 0.295863449574}
2019-04-14 05:26:57.21: SIM {TimeUS : 62634936, Roll : 0.15, Pitch : -17.58, Yaw : 34.79, Alt : 49.3199996948, Lat : 49.2837576, Lng : -123.11482, Q1 : 0.942989706993, Q2 : 0.0469456203282, Q3 : -0.145480722189, Q4 : 0.295638144016}
2019-04-14 05:26:57.31: SIM {TimeUS : 62734896, Roll : 0.14, Pitch : -17.62, Yaw : 34.76, Alt : 49.3199996948, Lat : 49.283761, Lng : -123.1148163, Q1 : 0.943014979362, Q2 : 0.046964943409, Q3 : -0.145855501294, Q4 : 0.295369684696}
2019-04-14 05:26:57.41: SIM {TimeUS : 62834856, Roll : 0.13, Pitch : -17.66, Yaw : 34.72, Alt : 49.3199996948, Lat : 49.2837643, Lng : -123.1148126, Q1 : 0.943045198917, Q2 : 0.0469593442976, Q3 : -0.146225824952, Q4 : 0.295090913773}
2019-04-14 05:26:57.51: SIM {TimeUS : 62934816, Roll : 0.14, Pitch : -17.69, Yaw : 34.7, Alt : 49.3199996948, Lat : 49.2837678, Lng : -123.114809, Q1 : 0.943086564541, Q2 : 0.0470638796687, Q3 : -0.146408811212, Q4 : 0.294851124287}
2019-04-14 05:26:57.61: SIM {TimeUS : 63034776, Roll : 0.16, Pitch : -17.69, Yaw : 34.67, Alt : 49.3199996948, Lat : 49.2837711, Lng : -123.1148053, Q1 : 0.943149209023, Q2 : 0.0471492819488, Q3 : -0.146392419934, Q4 : 0.294645249844}
2019-04-14 05:26:57.71: SIM {TimeUS : 63134736, Roll : 0.17, Pitch : -17.67, Yaw : 34.64, Alt : 49.3199996948, Lat : 49.2837746, Lng : -123.1148017, Q1 : 0.943232834339, Q2 : 0.0471743158996, Q3 : -0.146199285984, Q4 : 0.294469445944}
2019-04-14 05:26:57.81: SIM {TimeUS : 63234696, Roll : 0.16, Pitch : -17.65, Yaw : 34.62, Alt : 49.3199996948, Lat : 49.283778, Lng : -123.114798, Q1 : 0.943308711052, Q2 : 0.0470621809363, Q3 : -0.14609785378, Q4 : 0.294294476509}
2019-04-14 05:26:57.91: SIM {TimeUS : 63334656, Roll : 0.16, Pitch : -17.65, Yaw : 34.6, Alt : 49.3199996948, Lat : 49.2837813, Lng : -123.1147943, Q1 : 0.943364322186, Q2 : 0.0469736903906, Q3 : -0.146079555154, Q4 : 0.294139534235}
2019-04-14 05:26:58.01: SIM {TimeUS : 63434616, Roll : 0.16, Pitch : -17.64, Yaw : 34.59, Alt : 49.3199996948, Lat : 49.2837849, Lng : -123.1147906, Q1 : 0.943405389786, Q2 : 0.0469716303051, Q3 : -0.146044030786, Q4 : 0.294025689363}
2019-04-14 05:26:58.11: SIM {TimeUS : 63534576, Roll : 0.16, Pitch : -17.66, Yaw : 34.58, Alt : 49.3199996948, Lat : 49.2837883, Lng : -123.1147868, Q1 : 0.943409144878, Q2 : 0.04700069502, Q3 : -0.146215692163, Q4 : 0.293923616409}
2019-04-14 05:26:58.21: SIM {TimeUS : 63635369, Roll : 0.16, Pitch : -17.7, Yaw : 34.57, Alt : 49.3199996948, Lat : 49.2837917, Lng : -123.1147831, Q1 : 0.943392693996, Q2 : 0.0470879860222, Q3 : -0.146471947432, Q4 : 0.293834924698}
2019-04-14 05:26:58.31: SIM {TimeUS : 63735329, Roll : 0.15, Pitch : -17.74, Yaw : 34.56, Alt : 49.3199996948, Lat : 49.2837952, Lng : -123.1147794, Q1 : 0.943354904652, Q2 : 0.0471216998994, Q3 : -0.146874129772, Q4 : 0.293750017881}
2019-04-14 05:26:58.41: SIM {TimeUS : 63835289, Roll : 0.15, Pitch : -17.79, Yaw : 34.56, Alt : 49.3199996948, Lat : 49.2837986, Lng : -123.1147756, Q1 : 0.943307161331, Q2 : 0.0472198612988, Q3 : -0.147294849157, Q4 : 0.293676793575}
2019-04-14 05:26:58.51: SIM {TimeUS : 63935249, Roll : 0.16, Pitch : -17.82, Yaw : 34.55, Alt : 49.3300018311, Lat : 49.283802, Lng : -123.1147719, Q1 : 0.943283498287, Q2 : 0.047355055809, Q3 : -0.147499680519, Q4 : 0.293628424406}
2019-04-14 05:26:58.61: SIM {TimeUS : 64035209, Roll : 0.16, Pitch : -17.85, Yaw : 34.54, Alt : 49.3300018311, Lat : 49.2838056, Lng : -123.1147682, Q1 : 0.943262994289, Q2 : 0.0474460497499, Q3 : -0.147721245885, Q4 : 0.29356816411}
2019-04-14 05:26:58.71: SIM {TimeUS : 64135169, Roll : 0.16, Pitch : -17.86, Yaw : 34.54, Alt : 49.3300018311, Lat : 49.283809, Lng : -123.1147644, Q1 : 0.943262934685, Q2 : 0.0474474728107, Q3 : -0.147865906358, Q4 : 0.293495178223}
2019-04-14 05:26:58.81: SIM {TimeUS : 64235129, Roll : 0.16, Pitch : -17.85, Yaw : 34.53, Alt : 49.3300018311, Lat : 49.2838124, Lng : -123.1147607, Q1 : 0.943294525146, Q2 : 0.0474611148238, Q3 : -0.147770047188, Q4 : 0.293439865112}
2019-04-14 05:26:58.91: SIM {TimeUS : 64335089, Roll : 0.18, Pitch : -17.86, Yaw : 34.52, Alt : 49.3300018311, Lat : 49.2838159, Lng : -123.1147569, Q1 : 0.943302810192, Q2 : 0.0475753135979, Q3 : -0.147807970643, Q4 : 0.29337567091}
2019-04-14 05:26:59.01: SIM {TimeUS : 64435049, Roll : 0.19, Pitch : -17.88, Yaw : 34.51, Alt : 49.3300018311, Lat : 49.2838195, Lng : -123.1147532, Q1 : 0.943296909332, Q2 : 0.0476873405278, Q3 : -0.147971406579, Q4 : 0.293293982744}
2019-04-14 05:26:59.11: SIM {TimeUS : 64535009, Roll : 0.19, Pitch : -17.9, Yaw : 34.5, Alt : 49.3300018311, Lat : 49.2838228, Lng : -123.1147494, Q1 : 0.943298578262, Q2 : 0.0477874353528, Q3 : -0.1480833143, Q4 : 0.29321590066}
2019-04-14 05:26:59.21: SIM {TimeUS : 64634969, Roll : 0.21, Pitch : -17.89, Yaw : 34.49, Alt : 49.3300018311, Lat : 49.2838263, Lng : -123.1147456, Q1 : 0.943328559399, Q2 : 0.0478587448597, Q3 : -0.148020014167, Q4 : 0.293139755726}
2019-04-14 05:26:59.31: SIM {TimeUS : 64734929, Roll : 0.21, Pitch : -17.89, Yaw : 34.47, Alt : 49.3300018311, Lat : 49.2838299, Lng : -123.1147419, Q1 : 0.943360865116, Q2 : 0.047868873924, Q3 : -0.148006573319, Q4 : 0.293040841818}
2019-04-14 05:26:59.41: SIM {TimeUS : 64834889, Roll : 0.19, Pitch : -17.91, Yaw : 34.46, Alt : 49.3300018311, Lat : 49.2838334, Lng : -123.1147381, Q1 : 0.943379461765, Q2 : 0.0477442145348, Q3 : -0.148196831346, Q4 : 0.292905151844}
2019-04-14 05:26:59.51: SIM {TimeUS : 64934849, Roll : 0.16, Pitch : -17.94, Yaw : 34.45, Alt : 49.3300018311, Lat : 49.2838369, Lng : -123.1147343, Q1 : 0.943380773067, Q2 : 0.047564893961, Q3 : -0.148568496108, Q4 : 0.292741656303}
2019-04-14 05:26:59.61: SIM {TimeUS : 65034809, Roll : 0.15, Pitch : -17.95, Yaw : 34.43, Alt : 49.3300018311, Lat : 49.2838404, Lng : -123.1147305, Q1 : 0.943415343761, Q2 : 0.0474347770214, Q3 : -0.148662015796, Q4 : 0.292603969574}
2019-04-14 05:26:59.71: SIM {TimeUS : 65134769, Roll : 0.15, Pitch : -17.94, Yaw : 34.42, Alt : 49.3300018311, Lat : 49.2838439, Lng : -123.1147267, Q1 : 0.943463802338, Q2 : 0.0474398508668, Q3 : -0.148555338383, Q4 : 0.292501032352}
2019-04-14 05:26:59.81: SIM {TimeUS : 65234729, Roll : 0.17, Pitch : -17.93, Yaw : 34.41, Alt : 49.3300018311, Lat : 49.2838475, Lng : -123.1147229, Q1 : 0.943506419659, Q2 : 0.0475658625364, Q3 : -0.14840978384, Q4 : 0.29241707921}
2019-04-14 05:26:59.91: SIM {TimeUS : 65334689, Roll : 0.19, Pitch : -17.93, Yaw : 34.39, Alt : 49.3300018311, Lat : 49.283851, Lng : -123.114719, Q1 : 0.943525791168, Q2 : 0.0476985089481, Q3 : -0.148439332843, Q4 : 0.292317837477}
2019-04-14 05:27:00.01: SIM {TimeUS : 65434649, Roll : 0.19, Pitch : -17.96, Yaw : 34.38, Alt : 49.3400001526, Lat : 49.2838544, Lng : -123.1147153, Q1 : 0.943530499935, Q2 : 0.0477133132517, Q3 : -0.148628011346, Q4 : 0.292204350233}
2019-04-14 05:27:00.11: SIM {TimeUS : 65534609, Roll : 0.17, Pitch : -17.98, Yaw : 34.37, Alt : 49.3400001526, Lat : 49.283858, Lng : -123.1147115, Q1 : 0.94353556633, Q2 : 0.0475896075368, Q3 : -0.148893564939, Q4 : 0.292072921991}
2019-04-14 05:27:00.21: SIM {TimeUS : 65635402, Roll : 0.15, Pitch : -18.01, Yaw : 34.36, Alt : 49.3400001526, Lat : 49.2838615, Lng : -123.1147077, Q1 : 0.943537056446, Q2 : 0.0475082397461, Q3 : -0.149143442512, Q4 : 0.291953802109}
2019-04-14 05:27:00.31: SIM {TimeUS : 65735362, Roll : 0.15, Pitch : -18.02, Yaw : 34.35, Alt : 49.3400001526, Lat : 49.2838652, Lng : -123.1147039, Q1 : 0.943539440632, Q2 : 0.0475761033595, Q3 : -0.149291530252, Q4 : 0.291859328747}
2019-04-14 05:27:00.41: SIM {TimeUS : 65835322, Roll : 0.16, Pitch : -18.04, Yaw : 34.34, Alt : 49.3400001526, Lat : 49.2838687, Lng : -123.1147, Q1 : 0.94354403019, Q2 : 0.0476779378951, Q3 : -0.149381816387, Q4 : 0.291781723499}
2019-04-14 05:27:00.51: SIM {TimeUS : 65935282, Roll : 0.19, Pitch : -18.05, Yaw : 34.33, Alt : 49.3400001526, Lat : 49.2838723, Lng : -123.1146962, Q1 : 0.943540513515, Q2 : 0.0478743501008, Q3 : -0.149403095245, Q4 : 0.291750043631}
2019-04-14 05:27:00.61: SIM {TimeUS : 66035242, Roll : 0.2, Pitch : -18.06, Yaw : 34.32, Alt : 49.3400001526, Lat : 49.2838757, Lng : -123.1146924, Q1 : 0.943528711796, Q2 : 0.0479968525469, Q3 : -0.149502128363, Q4 : 0.291717290878}
2019-04-14 05:27:00.71: SIM {TimeUS : 66135202, Roll : 0.21, Pitch : -18.08, Yaw : 34.32, Alt : 49.3400001526, Lat : 49.2838793, Lng : -123.1146886, Q1 : 0.943512320518, Q2 : 0.0481249578297, Q3 : -0.149621218443, Q4 : 0.291688203812}
2019-04-14 05:27:00.81: SIM {TimeUS : 66235162, Roll : 0.22, Pitch : -18.1, Yaw : 34.32, Alt : 49.3400001526, Lat : 49.2838828, Lng : -123.1146848, Q1 : 0.943495213985, Q2 : 0.0482523776591, Q3 : -0.14973706007, Q4 : 0.291663020849}
2019-04-14 05:27:00.91: SIM {TimeUS : 66335122, Roll : 0.24, Pitch : -18.11, Yaw : 34.31, Alt : 49.3400001526, Lat : 49.2838865, Lng : -123.114681, Q1 : 0.943480849266, Q2 : 0.0484439767897, Q3 : -0.149786487222, Q4 : 0.291652321815}
2019-04-14 05:27:01.01: SIM {TimeUS : 66435082, Roll : 0.27, Pitch : -18.12, Yaw : 34.31, Alt : 49.3400001526, Lat : 49.28389, Lng : -123.1146771, Q1 : 0.943462193012, Q2 : 0.0487378239632, Q3 : -0.149803236127, Q4 : 0.291655093431}
2019-04-14 05:27:01.11: SIM {TimeUS : 66535042, Roll : 0.27, Pitch : -18.11, Yaw : 34.3, Alt : 49.3400001526, Lat : 49.2838936, Lng : -123.1146733, Q1 : 0.943482637405, Q2 : 0.0487220920622, Q3 : -0.149737030268, Q4 : 0.291625529528}
