2019-04-14 03:55:25.40: SIM {TimeUS : 40816167, Roll : 0.0, Pitch : 0.0, Yaw : 0.0, Alt : 30.1000003815, Lat : 49.28357, Lng : -123.11502, Q1 : 1.0, Q2 : 0.0, Q3 : 0.0, Q4 : 0.0}
2019-04-14 03:55:25.51: SIM {TimeUS : 40935286, Roll : 0.0, Pitch : 0.0, Yaw : 0.0, Alt : 30.1000003815, Lat : 49.28357, Lng : -123.11502, Q1 : 1.0, Q2 : 0.0, Q3 : 0.0, Q4 : 0.0}
2019-04-14 03:55:25.61: SIM {TimeUS : 41035246, Roll : 0.0, Pitch : 0.0, Yaw : 0.0, Alt : 30.1000003815, Lat : 49.28357, Lng : -123.11502, Q1 : 1.0, Q2 : 0.0, Q3 : 0.0, Q4 : 0.0}
2019-04-14 03:55:25.71: SIM {TimeUS : 41135206, Roll : 0.0, Pitch : 0.0, Yaw : 0.0, Alt : 30.1000003815, Lat : 49.28357, Lng : -123.11502, Q1 : 1.0, Q2 : 0.0, Q3 : 0.0, Q4 : 0.0}
2019-04-14 03:55:25.81: SIM {TimeUS : 41235166, Roll : 0.0, Pitch : 0.0, Yaw : 0.0, Alt : 30.1000003815, Lat : 49.28357, Lng : -123.11502, Q1 : 1.0, Q2 : 0.0, Q3 : 0.0, Q4 : 0.0}
2019-04-14 03:55:25.91: SIM {TimeUS : 41335126, Roll : 0.0, Pitch : 0.0, Yaw : 0.0, Alt : 30.1000003815, Lat : 49.28357, Lng : -123.11502, Q1 : 1.0, Q2 : 0.0, Q3 : 0.0, Q4 : 0.0}
2019-04-14 03:55:26.01: SIM {TimeUS : 41435086, Roll : 0.0, Pitch : 0.0, Yaw : 0.0, Alt : 30.1000003815, Lat : 49.28357, Lng : -123.11502, Q1 : 1.0, Q2 : 0.0, Q3 : 0.0, Q4 : 0.0}
2019-04-14 03:55:26.11: SIM {TimeUS : 41535046, Roll : 0.0, Pitch : 0.0, Yaw : 0.0, Alt : 30.1000003815, Lat : 49.28357, Lng : -123.11502, Q1 : 1.0, Q2 : 0.0, Q3 : 0.0, Q4 : 0.0}
2019-04-14 03:55:26.21: SIM {TimeUS : 41635006, Roll : 0.0, Pitch : 0.0, Yaw : 0.0, Alt : 30.1000003815, Lat : 49.28357, Lng : -123.11502, Q1 : 1.0, Q2 : 0.0, Q3 : 0.0, Q4 : 0.0}
2019-04-14 03:55:26.31: SIM {TimeUS : 41734966, Roll : 0.0, Pitch : 0.0, Yaw : 0.0, Alt : 30.1000003815, Lat : 49.28357, Lng : -123.11502, Q1 : 1.0, Q2 : 0.0, Q3 : 0.0, Q4 : 0.0}
2019-04-14 03:55:26.41: SIM {TimeUS : 41834926, Roll : 0.0, Pitch : 0.0, Yaw : 0.0, Alt : 30.1000003815, Lat : 49.28357, Lng : -123.11502, Q1 : 1.0, Q2 : 0.0, Q3 : 0.0, Q4 : 0.0}
2019-04-14 03:55:26.51: SIM {TimeUS : 41934886, Roll : 0.0, Pitch : 0.0, Yaw : 0.0, Alt : 30.1000003815, Lat : 49.28357, Lng : -123.11502, Q1 : 1.0, Q2 : 0.0, Q3 : 0.0, Q4 : 0.0}
2019-04-14 03:55:26.61: SIM {TimeUS : 42034846, Roll : 0.0, Pitch : 0.0, Yaw : 0.0, Alt : 30.1000003815, Lat : 49.28357, Lng : -123.11502, Q1 : 1.0, Q2 : 0.0, Q3 : 0.0, Q4 : 0.0}
2019-04-14 03:55:26.71: SIM {TimeUS : 42134806, Roll : 0.0, Pitch : 0.0, Yaw : 0.0, Alt : 30.1000003815, Lat : 49.28357, Lng : -123.11502, Q1 : 1.0, Q2 : 0.0, Q3 : 0.0, Q4 : 0.0}
2019-04-14 03:55:26.81: SIM {TimeUS : 42234766, Roll : 0.0, Pitch : 0.0, Yaw : 0.0, Alt : 30.1000003815, Lat : 49.28357, Lng : -123.11502, Q1 : 1.0, Q2 : 0.0, Q3 : 0.0, Q4 : 0.0}
2019-04-14 03:55:26.91: SIM {TimeUS : 42334726, Roll : 0.0, Pitch : 0.0, Yaw : 0.0, Alt : 30.1000003815, Lat : 49.28357, Lng : -123.11502, Q1 : 1.0, Q2 : 0.0, Q3 : 0.0, Q4 : 0.0}
2019-04-14 03:55:27.01: SIM {TimeUS : 42434686, Roll : 0.0, Pitch : 0.0, Yaw : 0.0, Alt : 30.1000003815, Lat : 49.28357, Lng : -123.11502, Q1 : 1.0, Q2 : 0.0, Q3 : 0.0, Q4 : 0.0}
2019-04-14 03:55:27.11: SIM {TimeUS : 42534646, Roll : 0.0, Pitch : 0.0, Yaw : 0.0, Alt : 30.1000003815, Lat : 49.28357, Lng : -123.11502, Q1 : 1.0, Q2 : 0.0, Q3 : 0.0, Q4 : 0.0}
2019-04-14 03:55:27.21: SIM {TimeUS : 42634606, Roll : 0.0, Pitch : 0.0, Yaw : 0.0, Alt : 30.1000003815, Lat : 49.28357, Lng : -123.11502, Q1 : 1.0, Q2 : 0.0, Q3 : 0.0, Q4 : 0.0}
2019-04-14 03:55:27.31: SIM {TimeUS : 42734566, Roll : 0.0, Pitch : 0.0, Yaw : 0.0, Alt : 30.1000003815, Lat : 49.28357, Lng : -123.11502, Q1 : 1.0, Q2 : 0.0, Q3 : 0.0, Q4 : 0.0}
2019-04-14 03:55:27.41: SIM {TimeUS : 42834526, Roll : 0.0, Pitch : 0.0, Yaw : 0.0, Alt : 30.1000003815, Lat : 49.28357, Lng : -123.11502, Q1 : 1.0, Q2 : 0.0, Q3 : 0.0, Q4 : 0.0}
2019-04-14 03:55:27.51: SIM {TimeUS : 42935319, Roll : 0.0, Pitch : 0.0, Yaw : 0.0, Alt : 30.1000003815, Lat : 49.28357, Lng : -123.11502, Q1 : 1.0, Q2 : 0.0, Q3 : 0.0, Q4 : 0.0}
2019-04-14 03:55:27.61: SIM {TimeUS : 43035279, Roll : 0.0, Pitch : 0.0, Yaw : 0.0, Alt : 30.1000003815, Lat : 49.28357, Lng : -123.11502, Q1 : 1.0, Q2 : 0.0, Q3 : 0.0, Q4 : 0.0}
2019-04-14 03:55:27.71: SIM {TimeUS : 43135239, Roll : 0.0, Pitch : 0.0, Yaw : 360.0, Alt : 30.1000003815, Lat : 49.28357, Lng : -123.11502, Q1 : 1.0, Q2 : 0.0, Q3 : 0.0, Q4 : -1.30378364355e-11}
2019-04-14 03:55:27.81: SIM {TimeUS : 43235199, Roll : 0.0, Pitch : 0.0, Yaw : 360.0, Alt : 30.1000003815, Lat : 49.28357, Lng : -123.11502, Q1 : 1.0, Q2 : 0.0, Q3 : 0.0, Q4 : -1.61347042393e-08}
2019-04-14 03:55:27.91: SIM {TimeUS : 43335159, Roll : 0.0, Pitch : 0.0, Yaw : 359.99, Alt : 30.1000003815, Lat : 49.28357, Lng : -123.11502, Q1 : 1.0, Q2 : 0.0, Q3 : 0.0, Q4 : -2.09382506e-07}
2019-04-14 03:55:28.01: SIM {TimeUS : 43435119, Roll : 0.0, Pitch : 0.0, Yaw : 359.99, Alt : 30.1000003815, Lat : 49.28357, Lng : -123.11502, Q1 : 1.0, Q2 : 0.0, Q3 : 0.0, Q4 : -4.00170875992e-07}
2019-04-14 03:55:28.11: SIM {TimeUS : 43535079, Roll : 0.0, Pitch : 0.0, Yaw : 359.99, Alt : 30.1000003815, Lat : 49.28357, Lng : -123.11502, Q1 : 1.0, Q2 : 0.0, Q3 : 0.0, Q4 : -6.04654758263e-07}
2019-04-14 03:55:28.21: SIM {TimeUS : 43635039, Roll : 0.0, Pitch : 0.0, Yaw : 359.99, Alt : 30.1000003815, Lat : 49.28357, Lng : -123.11502, Q1 : 1.0, Q2 : 0.0, Q3 : 0.0, Q4 : -8.06728564839e-07}
2019-04-14 03:55:28.31: SIM {TimeUS : 43734999, Roll : 0.0, Pitch : 0.0, Yaw : 359.99, Alt : 30.1000003815, Lat : 49.28357, Lng : -123.11502, Q1 : 1.0, Q2 : 0.0, Q3 : 0.0, Q4 : -9.79351852948e-07}
2019-04-14 03:55:28.41: SIM {TimeUS : 43834959, Roll : 0.0, Pitch : 0.0, Yaw : 359.99, Alt : 30.1000003815, Lat : 49.28357, Lng : -123.11502, Q1 : 1.0, Q2 : 0.0, Q3 : 0.0, Q4 : -1.15550847113e-06}
2019-04-14 03:55:28.51: SIM {TimeUS : 43934919, Roll : 0.0, Pitch : 0.0, Yaw : 359.99, Alt : 30.1000003815, Lat : 49.28357, Lng : -123.11502, Q1 : 1.0, Q2 : 0.0, Q3 : 0.0, Q4 : -1.34824722409e-06}
2019-04-14 03:55:28.61: SIM {TimeUS : 44034879, Roll : 0.0, Pitch : 0.0, Yaw : 359.99, Alt : 30.1200008392, Lat : 49.28357, Lng : -123.11502, Q1 : 1.0, Q2 : 0.0, Q3 : 0.0, Q4 : -1.54802899033e-06}
2019-04-14 03:55:28.71: SIM {TimeUS : 44134839, Roll : 0.0, Pitch : 0.0, Yaw : 359.99, Alt : 30.1499996185, Lat : 49.28357, Lng : -123.11502, Q1 : 1.0, Q2 : 0.0, Q3 : 0.0, Q4 : -1.81072743999e-06}
2019-04-14 03:55:28.81: SIM {TimeUS : 44234799, Roll : 0.0, Pitch : 0.0, Yaw : 359.99, Alt : 30.1800003052, Lat : 49.28357, Lng : -123.11502, Q1 : 1.0, Q2 : 0.0, Q3 : 0.0, Q4 : -2.05376659324e-06}
2019-04-14 03:55:28.91: SIM {TimeUS : 44334759, Roll : 0.0, Pitch : 0.0, Yaw : 359.99, Alt : 30.2099990845, Lat : 49.28357, Lng : -123.11502, Q1 : 1.0, Q2 : -7.32536864234e-06, Q3 : -7.54408029024e-06, Q4 : -2.19450043915e-06}
2019-04-14 03:55:29.01: SIM {TimeUS : 44434719, Roll : -0.16, Pitch : -0.16, Yaw : 359.99, Alt : 30.2700004578, Lat : 49.28357, Lng : -123.11502, Q1 : 0.999998033047, Q2 : -0.00141344894655, Q3 : -0.00140721537173, Q4 : -1.87944333447e-05}
2019-04-14 03:55:29.11: SIM {TimeUS : 44534679, Roll : -0.47, Pitch : -0.41, Yaw : 359.99, Alt : 30.3899993896, Lat : 49.28357, Lng : -123.11502, Q1 : 0.999985039234, Q2 : -0.00413374090567, Q3 : -0.00357812922448, Q4 : -6.40045982436e-05}
2019-04-14 03:55:29.21: SIM {TimeUS : 44634639, Roll : -0.76, Pitch : -0.6, Yaw : 359.98, Alt : 30.5400009155, Lat : 49.28357, Lng : -123.11502, Q1 : 0.999964177608, Q2 : -0.00664353044704, Q3 : -0.00524007482454, Q4 : -0.000127744846395}
2019-04-14 03:55:29.31: SIM {TimeUS : 44734599, Roll : -0.88, Pitch : -0.68, Yaw : 359.98, Alt : 30.7000007629, Lat : 49.28357, Lng : -123.11502, Q1 : 0.99995213747, Q2 : -0.00774709042162, Q3 : -0.00597025780007, Q4 : -0.000202490162337}
2019-04-14 03:55:29.41: SIM {TimeUS : 44834559, Roll : -0.82, Pitch : -0.65, Yaw : 359.97, Alt : 30.8500003815, Lat : 49.28357, Lng : -123.11502, Q1 : 0.999957442284, Q2 : -0.007237568032, Q3 : -0.00571205932647, Q4 : -0.000285149086267}
2019-04-14 03:55:29.51: SIM {TimeUS : 44934519, Roll : -0.63, Pitch : -0.53, Yaw : 359.96, Alt : 31.0100002289, Lat : 49.28357, Lng : -123.1150201, Q1 : 0.999973416328, Q2 : -0.00558473961428, Q3 : -0.00467423023656, Q4 : -0.000361985818017}
2019-04-14 03:55:29.61: SIM {TimeUS : 45035312, Roll : -0.38, Pitch : -0.36, Yaw : 359.95, Alt : 31.1599998474, Lat : 49.2835701, Lng : -123.1150202, Q1 : 0.999989151955, Q2 : -0.00337795657106, Q3 : -0.00318684242666, Q4 : -0.000425897393143}
2019-04-14 03:55:29.71: SIM {TimeUS : 45135272, Roll : -0.14, Pitch : -0.19, Yaw : 359.94, Alt : 31.3299999237, Lat : 49.2835701, Lng : -123.1150203, Q1 : 0.999997675419, Q2 : -0.00130936014466, Q3 : -0.00167182192672, Q4 : -0.000470719882287}
2019-04-14 03:55:29.81: SIM {TimeUS : 45235232, Roll : 0.01, Pitch : -0.04, Yaw : 359.94, Alt : 31.5, Lat : 49.2835702, Lng : -123.1150203, Q1 : 0.999999761581, Q2 : 0.000123129604617, Q3 : -0.000370087887859, Q4 : -0.000499729649164}
2019-04-14 03:55:29.91: SIM {TimeUS : 45335192, Roll : 0.08, Pitch : 0.06, Yaw : 359.94, Alt : 31.6700000763, Lat : 49.2835702, Lng : -123.1150204, Q1 : 0.999999403954, Q2 : 0.000762238749303, Q3 : 0.000545750604942, Q4 : -0.000515538675245}
2019-04-14 03:55:30.01: SIM {TimeUS : 45435152, Roll : 0.07, Pitch : 0.11, Yaw : 359.94, Alt : 31.8500003815, Lat : 49.2835703, Lng : -123.1150205, Q1 : 0.99999910593, Q2 : 0.000681286561303, Q3 : 0.00100679846946, Q4 : -0.000519846915267}
2019-04-14 03:55:30.11: SIM {TimeUS : 45535112, Roll : 0.05, Pitch : 0.13, Yaw : 359.93, Alt : 32.0400009155, Lat : 49.2835703, Lng : -123.1150205, Q1 : 0.999999046326, Q2 : 0.00047142256517, Q3 : 0.00119497301057, Q4 : -0.000528775446583}
2019-04-14 03:55:30.21: SIM {TimeUS : 45635072, Roll : 0.03, Pitch : 0.13, Yaw : 359.93, Alt : 32.2200012207, Lat : 49.2835703, Lng : -123.1150206, Q1 : 0.999999046326, Q2 : 0.000345491047483, Q3 : 0.00121017894708, Q4 : -0.000541343528312}
2019-04-14 03:55:30.31: SIM {TimeUS : 45735032, Roll : 0.03, Pitch : 0.14, Yaw : 359.93, Alt : 32.4199981689, Lat : 49.2835703, Lng : -123.1150206, Q1 : 0.999999046326, Q2 : 0.000318237172905, Q3 : 0.00122822960839, Q4 : -0.000549621763639}
2019-04-14 03:55:30.41: SIM {TimeUS : 45834992, Roll : 0.05, Pitch : 0.15, Yaw : 359.93, Alt : 32.6100006104, Lat : 49.2835703, Lng : -123.1150207, Q1 : 0.999998807907, Q2 : 0.00046713554184, Q3 : 0.0013564277906, Q4 : -0.000542909721844}
2019-04-14 03:55:30.51: SIM {TimeUS : 45934952, Roll : 0.08, Pitch : 0.14, Yaw : 359.93, Alt : 32.8100013733, Lat : 49.2835703, Lng : -123.1150207, Q1 : 0.999998748302, Q2 : 0.000741919502616, Q3 : 0.00127643032465, Q4 : -0.00052837858675}
2019-04-14 03:55:30.61: SIM {TimeUS : 46034912, Roll : 0.12, Pitch : 0.11, Yaw : 359.94, Alt : 33.0099983215, Lat : 49.2835704, Lng : -123.1150207, Q1 : 0.999998748302, Q2 : 0.00108484295197, Q3 : 0.00104591727722, Q4 : -0.000512533995789}
2019-04-14 03:55:30.71: SIM {TimeUS : 46134872, Roll : 0.15, Pitch : 0.1, Yaw : 359.94, Alt : 33.2099990845, Lat : 49.2835704, Lng : -123.1150208, Q1 : 0.999998509884, Q2 : 0.00138176511973, Q3 : 0.000899655278772, Q4 : -0.000497842207551}
2019-04-14 03:55:30.81: SIM {TimeUS : 46234832, Roll : 0.18, Pitch : 0.1, Yaw : 359.94, Alt : 33.4099998474, Lat : 49.2835704, Lng : -123.1150208, Q1 : 0.999998271465, Q2 : 0.0015764440177, Q3 : 0.000881770043634, Q4 : -0.000481695460621}
2019-04-14 03:55:30.91: SIM {TimeUS : 46334792, Roll : 0.19, Pitch : 0.11, Yaw : 359.94, Alt : 33.6199989319, Lat : 49.2835704, Lng : -123.1150208, Q1 : 0.999997973442, Q2 : 0.001677150256, Q3 : 0.00103023345582, Q4 : -0.000460604962427}
2019-04-14 03:55:31.01: SIM {TimeUS : 46434752, Roll : 0.18, Pitch : 0.12, Yaw : 359.94, Alt : 33.8300018311, Lat : 49.2835704, Lng : -123.1150208, Q1 : 0.999997973442, Q2 : 0.00162803730927, Q3 : 0.0011076630326, Q4 : -0.000441742799012}
2019-04-14 03:55:31.11: SIM {TimeUS : 46534712, Roll : 0.16, Pitch : 0.13, Yaw : 359.95, Alt : 34.0400009155, Lat : 49.2835704, Lng : -123.1150208, Q1 : 0.999998211861, Q2 : 0.00143699138425, Q3 : 0.00114373711403, Q4 : -0.000425624311902}
2019-04-14 03:55:31.21: SIM {TimeUS : 46634672, Roll : 0.13, Pitch : 0.13, Yaw : 359.95, Alt : 34.25, Lat : 49.2835704, Lng : -123.1150208, Q1 : 0.999998569489, Q2 : 0.00117825018242, Q3 : 0.00114569405559, Q4 : -0.000420793250669}
2019-04-14 03:55:31.31: SIM {TimeUS : 46734632, Roll : 0.1, Pitch : 0.12, Yaw : 359.95, Alt : 34.4599990845, Lat : 49.2835704, Lng : -123.1150208, Q1 : 0.999998867512, Q2 : 0.000937154691201, Q3 : 0.00108249869663, Q4 : -0.000422661891207}
2019-04-14 03:55:31.41: SIM {TimeUS : 46834592, Roll : 0.09, Pitch : 0.08, Yaw : 359.94, Alt : 34.6699981689, Lat : 49.2835704, Lng : -123.1150208, Q1 : 0.999999284744, Q2 : 0.000821020861622, Q3 : 0.000746224075556, Q4 : -0.000446431949968}
2019-04-14 03:55:31.51: SIM {TimeUS : 46934552, Roll : 0.08, Pitch : 0.04, Yaw : 359.94, Alt : 34.8899993896, Lat : 49.2835704, Lng : -123.1150208, Q1 : 0.999999523163, Q2 : 0.000763648189604, Q3 : 0.000431333493907, Q4 : -0.000487130717374}
2019-04-14 03:55:31.61: SIM {TimeUS : 47034512, Roll : 0.07, Pitch : 0.03, Yaw : 359.93, Alt : 35.0999984741, Lat : 49.2835704, Lng : -123.1150207, Q1 : 0.999999642372, Q2 : 0.000618990045041, Q3 : 0.000270960270427, Q4 : -0.000532345322426}
2019-04-14 03:55:31.71: SIM {TimeUS : 47135305, Roll : 0.05, Pitch : 0.02, Yaw : 359.93, Alt : 35.3199996948, Lat : 49.2835704, Lng : -123.1150207, Q1 : 0.999999701977, Q2 : 0.00050110934535, Q3 : 0.000222759219469, Q4 : -0.000574188481551}
2019-04-14 03:55:31.81: SIM {TimeUS : 47235265, Roll : 0.05, Pitch : 0.02, Yaw : 359.92, Alt : 35.5400009155, Lat : 49.2835704, Lng : -123.1150207, Q1 : 0.999999701977, Q2 : 0.00046029072837, Q3 : 0.000185387136298, Q4 : -0.000613021024037}
2019-04-14 03:55:31.91: SIM {TimeUS : 47335225, Roll : 0.02, Pitch : 0.0, Yaw : 359.92, Alt : 35.7599983215, Lat : 49.2835704, Lng : -123.1150207, Q1 : 0.999999761581, Q2 : 0.000249869364779, Q3 : -1.380577487e-05, Q4 : -0.000653427385259}
2019-04-14 03:55:32.01: SIM {TimeUS : 47435185, Roll : 0.0, Pitch : -0.03, Yaw : 359.92, Alt : 35.9799995422, Lat : 49.2835704, Lng : -123.1150207, Q1 : 0.999999701977, Q2 : -5.52371893718e-05, Q3 : -0.000306558358716, Q4 : -0.000691118068062}
2019-04-14 03:55:32.11: SIM {TimeUS : 47535145, Roll : -0.04, Pitch : -0.06, Yaw : 359.91, Alt : 36.2000007629, Lat : 49.2835704, Lng : -123.1150207, Q1 : 0.999999523163, Q2 : -0.000372617854737, Q3 : -0.000524230417795, Q4 : -0.000729141989723}
2019-04-14 03:55:32.21: SIM {TimeUS : 47635105, Roll : -0.07, Pitch : -0.07, Yaw : 359.91, Alt : 36.4199981689, Lat : 49.2835704, Lng : -123.1150207, Q1 : 0.999999284744, Q2 : -0.000635399657767, Q3 : -0.000635146570858, Q4 : -0.000763991556596}
2019-04-14 03:55:32.31: SIM {TimeUS : 47735065, Roll : -0.07, Pitch : -0.07, Yaw : 359.9, Alt : 36.6399993896, Lat : 49.2835704, Lng : -123.1150206, Q1 : 0.999999284744, Q2 : -0.000677777512465, Q3 : -0.000642888131551, Q4 : -0.000788892677519}
2019-04-14 03:55:32.41: SIM {TimeUS : 47835025, Roll : -0.07, Pitch : -0.06, Yaw : 359.9, Alt : 36.8699989319, Lat : 49.2835704, Lng : -123.1150206, Q1 : 0.999999284744, Q2 : -0.000675301358569, Q3 : -0.000603273219895, Q4 : -0.000811043544672}
2019-04-14 03:55:32.51: SIM {TimeUS : 47934985, Roll : -0.07, Pitch : -0.05, Yaw : 359.9, Alt : 37.0900001526, Lat : 49.2835704, Lng : -123.1150206, Q1 : 0.999999403954, Q2 : -0.000613311305642, Q3 : -0.000456181733171, Q4 : -0.00082977686543}
2019-04-14 03:55:32.61: SIM {TimeUS : 48034945, Roll : -0.05, Pitch : -0.04, Yaw : 359.9, Alt : 37.3199996948, Lat : 49.2835704, Lng : -123.1150206, Q1 : 0.999999463558, Q2 : -0.000508754048496, Q3 : -0.000375689502107, Q4 : -0.000840692780912}
2019-04-14 03:55:32.71: SIM {TimeUS : 48134905, Roll : -0.06, Pitch : -0.04, Yaw : 359.9, Alt : 37.5400009155, Lat : 49.2835704, Lng : -123.1150206, Q1 : 0.999999403954, Q2 : -0.000591347226873, Q3 : -0.000397290074034, Q4 : -0.000848209310789}
2019-04-14 03:55:32.81: SIM {TimeUS : 48234865, Roll : -0.08, Pitch : -0.02, Yaw : 359.9, Alt : 37.7700004578, Lat : 49.2835704, Lng : -123.1150206, Q1 : 0.999999344349, Q2 : -0.000701301964, Q3 : -0.000244723487413, Q4 : -0.000857865437865}
2019-04-14 03:55:32.91: SIM {TimeUS : 48334825, Roll : -0.1, Pitch : 0.0, Yaw : 359.9, Alt : 37.9900016785, Lat : 49.2835704, Lng : -123.1150206, Q1 : 0.99999922514, Q2 : -0.000904682790861, Q3 : -4.75766391901e-05, Q4 : -0.000868601142429}
2019-04-14 03:55:33.01: SIM {TimeUS : 48434785, Roll : -0.1, Pitch : 0.01, Yaw : 359.89, Alt : 38.2200012207, Lat : 49.2835704, Lng : -123.1150206, Q1 : 0.999999165535, Q2 : -0.000948720844463, Q3 : 0.000102910635178, Q4 : -0.00087343796622}
2019-04-14 03:55:33.11: SIM {TimeUS : 48534745, Roll : -0.08, Pitch : 0.04, Yaw : 359.89, Alt : 38.4500007629, Lat : 49.2835704, Lng : -123.1150206, Q1 : 0.999999284744, Q2 : -0.000764769501984, Q3 : 0.000352343340637, Q4 : -0.000880931562278}
2019-04-14 03:55:33.21: SIM {TimeUS : 48634705, Roll : -0.06, Pitch : 0.03, Yaw : 359.89, Alt : 38.6800003052, Lat : 49.2835704, Lng : -123.1150206, Q1 : 0.999999403954, Q2 : -0.000555824721232, Q3 : 0.000307157868519, Q4 : -0.000895895820577}
2019-04-14 03:55:33.31: SIM {TimeUS : 48734665, Roll : -0.03, Pitch : 0.02, Yaw : 359.89, Alt : 38.9099998474, Lat : 49.2835704, Lng : -123.1150206, Q1 : 0.999999523163, Q2 : -0.00030386421713, Q3 : 0.000177711932338, Q4 : -0.000911652401555}
2019-04-14 03:55:33.41: SIM {TimeUS : 48834625, Roll : 0.0, Pitch : 0.02, Yaw : 359.89, Alt : 39.1399993896, Lat : 49.2835704, Lng : -123.1150206, Q1 : 0.999999523163, Q2 : 2.88473947876e-05, Q3 : 0.000248463795288, Q4 : -0.000927392742597}
2019-04-14 03:55:33.51: SIM {TimeUS : 48934585, Roll : 0.04, Pitch : 0.05, Yaw : 359.89, Alt : 39.3699989319, Lat : 49.2835704, Lng : -123.1150206, Q1 : 0.999999344349, Q2 : 0.000373801856767, Q3 : 0.000442230666522, Q4 : -0.000951098685618}
2019-04-14 03:55:33.61: SIM {TimeUS : 49034545, Roll : 0.07, Pitch : 0.07, Yaw : 359.88, Alt : 39.5999984741, Lat : 49.2835704, Lng : -123.1150206, Q1 : 0.99999910593, Q2 : 0.000646473490633, Q3 : 0.000688305764925, Q4 : -0.000979872886091}
2019-04-14 03:55:33.71: SIM {TimeUS : 49134505, Roll : 0.06, Pitch : 0.1, Yaw : 359.88, Alt : 39.8300018311, Lat : 49.2835706, Lng : -123.1150206, Q1 : 0.999998867512, Q2 : 0.000602597196121, Q3 : 0.00093498302158, Q4 : -0.00100650079548}
2019-04-14 03:55:33.81: SIM {TimeUS : 49235298, Roll : 0.02, Pitch : 0.13, Yaw : 359.87, Alt : 40.0600013733, Lat : 49.2835706, Lng : -123.1150206, Q1 : 0.999998807907, Q2 : 0.000220026966417, Q3 : 0.00114513060544, Q4 : -0.00105064234231}
2019-04-14 03:55:33.91: SIM {TimeUS : 49335258, Roll : -0.01, Pitch : 0.12, Yaw : 359.87, Alt : 40.2900009155, Lat : 49.2835706, Lng : -123.1150206, Q1 : 0.999998867512, Q2 : -0.000117833908007, Q3 : 0.00106879964005, Q4 : -0.00107831833884}
2019-04-14 03:55:34.01: SIM {TimeUS : 49435218, Roll : -0.03, Pitch : 0.09, Yaw : 359.87, Alt : 40.5200004578, Lat : 49.2835706, Lng : -123.1150206, Q1 : 0.999998986721, Q2 : -0.000327781861415, Q3 : 0.000819759909064, Q4 : -0.00110453087837}
2019-04-14 03:55:34.11: SIM {TimeUS : 49535178, Roll : -0.04, Pitch : 0.07, Yaw : 359.87, Alt : 40.75, Lat : 49.2835706, Lng : -123.1150206, Q1 : 0.999999046326, Q2 : -0.000412172696088, Q3 : 0.000652754970361, Q4 : -0.00113303016406}
2019-04-14 03:55:34.21: SIM {TimeUS : 49635138, Roll : -0.03, Pitch : 0.08, Yaw : 359.86, Alt : 40.9900016785, Lat : 49.2835706, Lng : -123.1150206, Q1 : 0.999998986721, Q2 : -0.00032439728966, Q3 : 0.00075841153739, Q4 : -0.00116613903083}
2019-04-14 03:55:34.31: SIM {TimeUS : 49735098, Roll : 0.0, Pitch : 0.11, Yaw : 359.86, Alt : 41.2200012207, Lat : 49.2835706, Lng : -123.1150206, Q1 : 0.999998748302, Q2 : 5.55484475626e-05, Q3 : 0.00102446146775, Q4 : -0.00119510444347}
2019-04-14 03:55:34.41: SIM {TimeUS : 49835058, Roll : 0.05, Pitch : 0.13, Yaw : 359.85, Alt : 41.4500007629, Lat : 49.2835706, Lng : -123.1150207, Q1 : 0.999998390675, Q2 : 0.00050045712851, Q3 : 0.00120571337175, Q4 : -0.00122358114459}
2019-04-14 03:55:34.51: SIM {TimeUS : 49935018, Roll : 0.08, Pitch : 0.11, Yaw : 359.85, Alt : 41.6899986267, Lat : 49.2835706, Lng : -123.1150207, Q1 : 0.999998390675, Q2 : 0.000786131364293, Q3 : 0.000985395978205, Q4 : -0.0012519286247}
2019-04-14 03:55:34.61: SIM {TimeUS : 50034978, Roll : 0.08, Pitch : 0.07, Yaw : 359.85, Alt : 41.9199981689, Lat : 49.2835706, Lng : -123.1150207, Q1 : 0.999998688698, Q2 : 0.000768546422478, Q3 : 0.000610317802057, Q4 : -0.00127547502052}
2019-04-14 03:55:34.71: SIM {TimeUS : 50134938, Roll : 0.05, Pitch : 0.03, Yaw : 359.85, Alt : 42.1500015259, Lat : 49.2835706, Lng : -123.1150207, Q1 : 0.999999046326, Q2 : 0.000440719013568, Q3 : 0.000321184430504, Q4 : -0.00128674076404}
2019-04-14 03:55:34.81: SIM {TimeUS : 50234898, Roll : 0.0, Pitch : 0.03, Yaw : 359.85, Alt : 42.3899993896, Lat : 49.2835706, Lng : -123.1150207, Q1 : 0.999999165535, Q2 : -4.32638844359e-05, Q3 : 0.000267250579782, Q4 : -0.00129110296257}
2019-04-14 03:55:34.91: SIM {TimeUS : 50334858, Roll : -0.04, Pitch : 0.06, Yaw : 359.85, Alt : 42.6199989319, Lat : 49.2835704, Lng : -123.1150206, Q1 : 0.999998986721, Q2 : -0.000363297847798, Q3 : 0.000536188541446, Q4 : -0.00128849397879}
2019-04-14 03:55:35.01: SIM {TimeUS : 50434818, Roll : -0.06, Pitch : 0.08, Yaw : 359.85, Alt : 42.8600006104, Lat : 49.2835704, Lng : -123.1150206, Q1 : 0.999998748302, Q2 : -0.000527431257069, Q3 : 0.000753654399887, Q4 : -0.00128533737734}
2019-04-14 03:55:35.11: SIM {TimeUS : 50534778, Roll : -0.05, Pitch : 0.08, Yaw : 359.85, Alt : 43.0900001526, Lat : 49.2835704, Lng : -123.1150206, Q1 : 0.999998748302, Q2 : -0.000489507510792, Q3 : 0.000747024780139, Q4 : -0.00128823961131}
2019-04-14 03:55:35.21: SIM {TimeUS : 50634738, Roll : -0.05, Pitch : 0.07, Yaw : 359.85, Alt : 43.3300018311, Lat : 49.2835704, Lng : -123.1150206, Q1 : 0.999998867512, Q2 : -0.000477295863675, Q3 : 0.00061432167422, Q4 : -0.00130315322895}
2019-04-14 03:55:35.31: SIM {TimeUS : 50734698, Roll : -0.04, Pitch : 0.05, Yaw : 359.84, Alt : 43.5600013733, Lat : 49.2835704, Lng : -123.1150206, Q1 : 0.999998927116, Q2 : -0.000383869250072, Q3 : 0.000462084339233, Q4 : -0.00132451951504}
2019-04-14 03:55:35.41: SIM {TimeUS : 50834658, Roll : -0.02, Pitch : 0.04, Yaw : 359.84, Alt : 43.7999992371, Lat : 49.2835704, Lng : -123.1150206, Q1 : 0.999998986721, Q2 : -0.000182815929293, Q3 : 0.000376620941097, Q4 : -0.0013557584025}
2019-04-14 03:55:35.51: SIM {TimeUS : 50934618, Roll : 0.0, Pitch : 0.03, Yaw : 359.84, Alt : 44.0299987793, Lat : 49.2835704, Lng : -123.1150206, Q1 : 0.999998986721, Q2 : -3.84694467357e-05, Q3 : 0.000346370448824, Q4 : -0.00138896587305}
2019-04-14 03:55:35.61: SIM {TimeUS : 51034578, Roll : 0.0, Pitch : 0.02, Yaw : 359.83, Alt : 44.2700004578, Lat : 49.2835704, Lng : -123.1150206, Q1 : 0.999998986721, Q2 : -7.66468947404e-05, Q3 : 0.000183518088306, Q4 : -0.00141847948544}
2019-04-14 03:55:35.71: SIM {TimeUS : 51134538, Roll : -0.02, Pitch : -0.01, Yaw : 359.83, Alt : 44.5, Lat : 49.2835704, Lng : -123.1150206, Q1 : 0.999998927116, Q2 : -0.000174714703462, Q3 : -0.000103398655483, Q4 : -0.00144213903695}
2019-04-14 03:55:35.81: SIM {TimeUS : 51234498, Roll : -0.02, Pitch : -0.03, Yaw : 359.83, Alt : 44.7400016785, Lat : 49.2835704, Lng : -123.1150206, Q1 : 0.999998867512, Q2 : -0.000227993979934, Q3 : -0.000281193730189, Q4 : -0.00146713526919}
2019-04-14 03:55:35.91: SIM {TimeUS : 51335291, Roll : -0.02, Pitch : -0.04, Yaw : 359.82, Alt : 44.9799995422, Lat : 49.2835704, Lng : -123.1150206, Q1 : 0.999998807907, Q2 : -0.000196773034986, Q3 : -0.000353433453711, Q4 : -0.00149604538456}
2019-04-14 03:55:36.01: SIM {TimeUS : 51435251, Roll : -0.02, Pitch : -0.04, Yaw : 359.82, Alt : 45.2099990845, Lat : 49.2835704, Lng : -123.1150206, Q1 : 0.999998748302, Q2 : -0.000222783273784, Q3 : -0.000366368913092, Q4 : -0.00152879091911}
2019-04-14 03:55:36.11: SIM {TimeUS : 51535211, Roll : -0.04, Pitch : -0.03, Yaw : 359.82, Alt : 45.4500007629, Lat : 49.2835703, Lng : -123.1150206, Q1 : 0.999998629093, Q2 : -0.000413323141402, Q3 : -0.000337788893376, Q4 : -0.0015658386983}
2019-04-14 03:55:36.21: SIM {TimeUS : 51635171, Roll : -0.08, Pitch : -0.03, Yaw : 359.81, Alt : 45.6800003052, Lat : 49.2835703, Lng : -123.1150206, Q1 : 0.999998390675, Q2 : -0.000715824193321, Q3 : -0.000296769692795, Q4 : -0.00160121591762}
2019-04-14 03:55:36.31: SIM {TimeUS : 51735131, Roll : -0.1, Pitch : -0.03, Yaw : 359.81, Alt : 45.9199981689, Lat : 49.2835703, Lng : -123.1150206, Q1 : 0.999998211861, Q2 : -0.000917552155443, Q3 : -0.000288249575533, Q4 : -0.0016378586879}
2019-04-14 03:55:36.41: SIM {TimeUS : 51835091, Roll : -0.1, Pitch : -0.01, Yaw : 359.8, Alt : 46.1500015259, Lat : 49.2835703, Lng : -123.1150206, Q1 : 0.999998152256, Q2 : -0.000928382214624, Q3 : -0.000161258940352, Q4 : -0.0016764474567}
2019-04-14 03:55:36.51: SIM {TimeUS : 51935051, Roll : -0.09, Pitch : 0.01, Yaw : 359.8, Alt : 46.3699989319, Lat : 49.2835703, Lng : -123.1150206, Q1 : 0.999998211861, Q2 : -0.000792434439063, Q3 : 0.000102899743069, Q4 : -0.00171122443862}
2019-04-14 03:55:36.61: SIM {TimeUS : 52035011, Roll : -0.06, Pitch : 0.03, Yaw : 359.8, Alt : 46.5900001526, Lat : 49.2835703, Lng : -123.1150206, Q1 : 0.999998271465, Q2 : -0.000567650015, Q3 : 0.000288248003926, Q4 : -0.00174084655009}
2019-04-14 03:55:36.71: SIM {TimeUS : 52134971, Roll : -0.04, Pitch : 0.03, Yaw : 359.79, Alt : 46.8100013733, Lat : 49.2835703, Lng : -123.1150206, Q1 : 0.99999833107, Q2 : -0.000390909262933, Q3 : 0.000277833256405, Q4 : -0.00176743697375}
2019-04-14 03:55:36.81: SIM {TimeUS : 52234931, Roll : -0.03, Pitch : 0.01, Yaw : 359.79, Alt : 47.0200004578, Lat : 49.2835703, Lng : -123.1150206, Q1 : 0.99999833107, Q2 : -0.000311078765662, Q3 : 0.000109708482341, Q4 : -0.0017944984138}
2019-04-14 03:55:36.91: SIM {TimeUS : 52334891, Roll : -0.02, Pitch : -0.01, Yaw : 359.79, Alt : 47.2200012207, Lat : 49.2835703, Lng : -123.1150206, Q1 : 0.99999833107, Q2 : -0.000183508076589, Q3 : -0.000158026668942, Q4 : -0.00182161456905}
2019-04-14 03:55:37.01: SIM {TimeUS : 52434851, Roll : 0.0, Pitch : -0.04, Yaw : 359.78, Alt : 47.4199981689, Lat : 49.2835703, Lng : -123.1150206, Q1 : 0.999998211861, Q2 : 5.22483196619e-06, Q3 : -0.000426350597991, Q4 : -0.00184441381134}
2019-04-14 03:55:37.11: SIM {TimeUS : 52534811, Roll : 0.01, Pitch : -0.08, Yaw : 359.78, Alt : 47.5999984741, Lat : 49.2835703, Lng : -123.1150206, Q1 : 0.999997973442, Q2 : 9.96580783976e-05, Q3 : -0.000704448786564, Q4 : -0.00186502677388}
2019-04-14 03:55:37.21: SIM {TimeUS : 52634771, Roll : 0.02, Pitch : -0.12, Yaw : 359.78, Alt : 47.7799987793, Lat : 49.2835703, Lng : -123.1150206, Q1 : 0.99999755621, Q2 : 0.000180403876584, Q3 : -0.00112633430399, Q4 : -0.00188083783723}
2019-04-14 03:55:37.31: SIM {TimeUS : 52734731, Roll : 0.04, Pitch : -0.15, Yaw : 359.78, Alt : 47.9399986267, Lat : 49.2835703, Lng : -123.1150206, Q1 : 0.999997198582, Q2 : 0.000418560579419, Q3 : -0.00134756276384, Q4 : -0.00189549801871}
2019-04-14 03:55:37.41: SIM {TimeUS : 52834691, Roll : 0.07, Pitch : -0.15, Yaw : 359.78, Alt : 48.0999984741, Lat : 49.2835703, Lng : -123.1150206, Q1 : 0.999997079372, Q2 : 0.000657996570226, Q3 : -0.00132793711964, Q4 : -0.00190904550254}
2019-04-14 03:55:37.51: SIM {TimeUS : 52934651, Roll : 0.09, Pitch : -0.12, Yaw : 359.77, Alt : 48.2400016785, Lat : 49.2835704, Lng : -123.1150206, Q1 : 0.999997198582, Q2 : 0.00080156623153, Q3 : -0.00110794010106, Q4 : -0.00192314106971}
2019-04-14 03:55:37.61: SIM {TimeUS : 53034611, Roll : 0.08, Pitch : -0.09, Yaw : 359.77, Alt : 48.3600006104, Lat : 49.2835704, Lng : -123.1150206, Q1 : 0.999997496605, Q2 : 0.000781076902058, Q3 : -0.000807129836176, Q4 : -0.00193939404562}
2019-04-14 03:55:37.71: SIM {TimeUS : 53134571, Roll : 0.08, Pitch : -0.06, Yaw : 359.77, Alt : 48.4799995422, Lat : 49.2835704, Lng : -123.1150206, Q1 : 0.999997615814, Q2 : 0.000755619083066, Q3 : -0.000560648913961, Q4 : -0.00195788498968}
2019-04-14 03:55:37.81: SIM {TimeUS : 53234531, Roll : 0.07, Pitch : -0.05, Yaw : 359.77, Alt : 48.5800018311, Lat : 49.2835704, Lng : -123.1150206, Q1 : 0.999997675419, Q2 : 0.000635021715425, Q3 : -0.000516773550771, Q4 : -0.00198734924197}
2019-04-14 03:55:37.91: SIM {TimeUS : 53335324, Roll : 0.04, Pitch : -0.05, Yaw : 359.76, Alt : 48.6800003052, Lat : 49.2835704, Lng : -123.1150206, Q1 : 0.999997735023, Q2 : 0.000389234162867, Q3 : -0.000475646695122, Q4 : -0.00202690437436}
2019-04-14 03:55:38.01: SIM {TimeUS : 53435284, Roll : 0.02, Pitch : -0.04, Yaw : 359.76, Alt : 48.7599983215, Lat : 49.2835704, Lng : -123.1150206, Q1 : 0.999997794628, Q2 : 0.000199633766897, Q3 : -0.000353787938366, Q4 : -0.00206435052678}
2019-04-14 03:55:38.11: SIM {TimeUS : 53535244, Roll : 0.0, Pitch : -0.02, Yaw : 359.75, Alt : 48.8300018311, Lat : 49.2835704, Lng : -123.1150206, Q1 : 0.999997794628, Q2 : 4.83249459649e-05, Q3 : -0.000187275756616, Q4 : -0.00210410286672}
2019-04-14 03:55:38.21: SIM {TimeUS : 53635204, Roll : 0.0, Pitch : 0.0, Yaw : 359.75, Alt : 48.8899993896, Lat : 49.2835704, Lng : -123.1150206, Q1 : 0.999997735023, Q2 : -1.51852200361e-05, Q3 : 3.14734061249e-05, Q4 : -0.00213921139948}
2019-04-14 03:55:38.31: SIM {TimeUS : 53735164, Roll : 0.0, Pitch : 0.03, Yaw : 359.75, Alt : 48.9399986267, Lat : 49.2835704, Lng : -123.1150206, Q1 : 0.999997615814, Q2 : 8.42259250931e-05, Q3 : 0.000311397539917, Q4 : -0.00217039743438}
2019-04-14 03:55:38.41: SIM {TimeUS : 53835124, Roll : 0.03, Pitch : 0.04, Yaw : 359.74, Alt : 48.9799995422, Lat : 49.2835704, Lng : -123.1150206, Q1 : 0.999997437, Q2 : 0.00032218178967, Q3 : 0.000405361060984, Q4 : -0.00219991337508}
2019-04-14 03:55:38.51: SIM {TimeUS : 53935084, Roll : 0.12, Pitch : -0.06, Yaw : 359.74, Alt : 49.0200004578, Lat : 49.2835704, Lng : -123.1150206, Q1 : 0.999996781349, Q2 : 0.0010586763965, Q3 : -0.000585169997066, Q4 : -0.00223326752894}
2019-04-14 03:55:38.61: SIM {TimeUS : 54035044, Roll : 0.32, Pitch : -0.38, Yaw : 359.74, Alt : 49.0499992371, Lat : 49.2835704, Lng : -123.1150206, Q1 : 0.999987900257, Q2 : 0.00281119719148, Q3 : -0.00334955146536, Q4 : -0.00225827400573}
2019-04-14 03:55:38.71: SIM {TimeUS : 54135004, Roll : 0.66, Pitch : -0.93, Yaw : 359.73, Alt : 49.0800018311, Lat : 49.2835706, Lng : -123.1150206, Q1 : 0.999947369099, Q2 : 0.00574550870806, Q3 : -0.0081877624616, Q4 : -0.00226904870942}
2019-04-14 03:55:38.81: SIM {TimeUS : 54234964, Roll : 1.13, Pitch : -1.68, Yaw : 359.72, Alt : 49.1100006104, Lat : 49.2835706, Lng : -123.1150206, Q1 : 0.99983972311, Q2 : 0.0098979473114, Q3 : -0.0147461891174, Q4 : -0.00226176599972}
2019-04-14 03:55:38.91: SIM {TimeUS : 54334924, Roll : 1.71, Pitch : -2.53, Yaw : 359.7, Alt : 49.1300010681, Lat : 49.2835706, Lng : -123.1150205, Q1 : 0.999640643597, Q2 : 0.0148713598028, Q3 : -0.0221907738596, Q4 : -0.00222711567767}
2019-04-14 03:55:39.01: SIM {TimeUS : 54434884, Roll : 2.29, Pitch : -3.38, Yaw : 359.68, Alt : 49.1399993896, Lat : 49.2835707, Lng : -123.1150204, Q1 : 0.999360382557, Q2 : 0.0199344474822, Q3 : -0.0296134613454, Q4 : -0.00213432963938}
2019-04-14 03:55:39.11: SIM {TimeUS : 54534844, Roll : 2.79, Pitch : -4.1, Yaw : 359.67, Alt : 49.1599998474, Lat : 49.2835708, Lng : -123.1150203, Q1 : 0.999061286449, Q2 : 0.0242322199047, Q3 : -0.0358542427421, Q4 : -0.00198021158576}
2019-04-14 03:55:39.21: SIM {TimeUS : 54634804, Roll : 3.15, Pitch : -4.62, Yaw : 359.67, Alt : 49.1699981689, Lat : 49.2835709, Lng : -123.1150201, Q1 : 0.998804926872, Q2 : 0.0274186991155, Q3 : -0.0404210276902, Q4 : -0.0017574360827}
2019-04-14 03:55:39.31: SIM {TimeUS : 54734764, Roll : 3.41, Pitch : -5.01, Yaw : 359.67, Alt : 49.1899986267, Lat : 49.2835713, Lng : -123.11502, Q1 : 0.998600959778, Q2 : 0.0296317245811, Q3 : -0.0437712483108, Q4 : -0.00150574801955}
2019-04-14 03:55:39.41: SIM {TimeUS : 54834724, Roll : 3.62, Pitch : -5.32, Yaw : 359.68, Alt : 49.2000007629, Lat : 49.2835715, Lng : -123.1150197, Q1 : 0.998423337936, Q2 : 0.0314558334649, Q3 : -0.0464741773903, Q4 : -0.00124564906582}
2019-04-14 03:55:39.51: SIM {TimeUS : 54934684, Roll : 3.83, Pitch : -5.6, Yaw : 359.7, Alt : 49.2099990845, Lat : 49.2835719, Lng : -123.1150193, Q1 : 0.998246908188, Q2 : 0.0332838408649, Q3 : -0.0489316470921, Q4 : -0.00097735284362}
2019-04-14 03:55:39.61: SIM {TimeUS : 55034644, Roll : 4.04, Pitch : -5.88, Yaw : 359.7, Alt : 49.2099990845, Lat : 49.2835722, Lng : -123.1150189, Q1 : 0.998058915138, Q2 : 0.0351480506361, Q3 : -0.0514049082994, Q4 : -0.00071809743531}
2019-04-14 03:55:39.71: SIM {TimeUS : 55134604, Roll : 4.26, Pitch : -6.19, Yaw : 359.71, Alt : 49.2200012207, Lat : 49.2835727, Lng : -123.1150184, Q1 : 0.9978479743, Q2 : 0.0370122008026, Q3 : -0.0541231930256, Q4 : -0.000486606993945}
2019-04-14 03:55:39.81: SIM {TimeUS : 55234564, Roll : 4.44, Pitch : -6.48, Yaw : 359.71, Alt : 49.2299995422, Lat : 49.2835733, Lng : -123.1150178, Q1 : 0.997648894787, Q2 : 0.0385636910796, Q3 : -0.0566529668868, Q4 : -0.000283121480606}
2019-04-14 03:55:39.91: SIM {TimeUS : 55334524, Roll : 4.58, Pitch : -6.7, Yaw : 359.72, Alt : 49.2299995422, Lat : 49.2835739, Lng : -123.1150172, Q1 : 0.997491717339, Q2 : 0.0397598780692, Q3 : -0.0585612989962, Q4 : -9.59654207691e-05}
2019-04-14 03:55:40.01: SIM {TimeUS : 55435317, Roll : 4.67, Pitch : -6.85, Yaw : 359.72, Alt : 49.2400016785, Lat : 49.2835745, Lng : -123.1150165, Q1 : 0.997384667397, Q2 : 0.0405882447958, Q3 : -0.0598035305738, Q4 : 6.49131034152e-05}
2019-04-14 03:55:40.11: SIM {TimeUS : 55535277, Roll : 4.74, Pitch : -6.96, Yaw : 359.73, Alt : 49.2400016785, Lat : 49.2835752, Lng : -123.1150157, Q1 : 0.997301697731, Q2 : 0.0411861613393, Q3 : -0.0607700310647, Q4 : 0.000183391704923}
2019-04-14 03:55:40.21: SIM {TimeUS : 55635237, Roll : 4.81, Pitch : -7.05, Yaw : 359.73, Alt : 49.25, Lat : 49.2835761, Lng : -123.1150149, Q1 : 0.997226297855, Q2 : 0.0418003760278, Q3 : -0.0615824460983, Q4 : 0.00027841742849}
2019-04-14 03:55:40.31: SIM {TimeUS : 55735197, Roll : 4.95, Pitch : -7.17, Yaw : 359.73, Alt : 49.25, Lat : 49.283577, Lng : -123.1150139, Q1 : 0.997114002705, Q2 : 0.0429897680879, Q3 : -0.0625732764602, Q4 : 0.000408110121498}
2019-04-14 03:55:40.41: SIM {TimeUS : 55835157, Roll : 5.31, Pitch : -7.23, Yaw : 359.9, Alt : 49.2599983215, Lat : 49.2835777, Lng : -123.1150131, Q1 : 0.996933102608, Q2 : 0.0462335795164, Q3 : -0.0631065964699, Q4 : 0.00209776032716}
2019-04-14 03:55:40.51: SIM {TimeUS : 55935117, Roll : 5.92, Pitch : -7.25, Yaw : 0.8, Alt : 49.2599983215, Lat : 49.2835788, Lng : -123.115012, Q1 : 0.996612787247, Q2 : 0.052024345845, Q3 : -0.062855347991, Q4 : 0.0102786440402}
2019-04-14 03:55:40.61: SIM {TimeUS : 56035077, Roll : 6.51, Pitch : -7.42, Yaw : 3.09, Alt : 49.2599983215, Lat : 49.2835798, Lng : -123.115011, Q1 : 0.995825111866, Q2 : 0.0584700442851, Q3 : -0.0630933046341, Q4 : 0.0305430553854}
2019-04-14 03:55:40.71: SIM {TimeUS : 56135037, Roll : 6.76, Pitch : -7.93, Yaw : 6.98, Alt : 49.2599983215, Lat : 49.2835807, Lng : -123.1150098, Q1 : 0.993766129017, Q2 : 0.0629525333643, Q3 : -0.0653912350535, Q4 : 0.0647293105721}
2019-04-14 03:55:40.81: SIM {TimeUS : 56234997, Roll : 6.42, Pitch : -8.79, Yaw : 12.37, Alt : 49.2599983215, Lat : 49.2835818, Lng : -123.1150084, Q1 : 0.989228606224, Q2 : 0.0637878030539, Q3 : -0.0701258182526, Q4 : 0.111536048353}
2019-04-14 03:55:40.91: SIM {TimeUS : 56334957, Roll : 5.23, Pitch : -9.88, Yaw : 18.96, Alt : 49.2599983215, Lat : 49.283583, Lng : -123.1150071, Q1 : 0.980995237827, Q2 : 0.059054363519, Q3 : -0.0773633494973, Q4 : 0.167856737971}
2019-04-14 03:55:41.01: SIM {TimeUS : 56434917, Roll : 3.04, Pitch : -10.95, Yaw : 26.14, Alt : 49.2700004578, Lat : 49.2835842, Lng : -123.1150057, Q1 : 0.968717098236, Q2 : 0.0473483875394, Q3 : -0.086978957057, Q4 : 0.22755214572}
2019-04-14 03:55:41.11: SIM {TimeUS : 56534877, Roll : 0.2, Pitch : -11.78, Yaw : 33.11, Alt : 49.2700004578, Lat : 49.2835854, Lng : -123.1150041, Q1 : 0.953428208828, Q2 : 0.030944077298, Q3 : -0.0978959947824, Q4 : 0.28360798955}
2019-04-14 03:55:41.21: SIM {TimeUS : 56634837, Roll : -2.67, Pitch : -12.24, Yaw : 39.11, Alt : 49.2700004578, Lat : 49.2835867, Lng : -123.1150025, Q1 : 0.937495827675, Q2 : 0.0138183264062, Q3 : -0.108283013105, Q4 : 0.330432146788}
2019-04-14 03:55:41.31: SIM {TimeUS : 56734797, Roll : -4.98, Pitch : -12.42, Yaw : 43.61, Alt : 49.2700004578, Lat : 49.283588, Lng : -123.1150008, Q1 : 0.923847436905, Q2 : 4.87008910568e-05, Q3 : -0.11646886915, Q4 : 0.364610761404}
2019-04-14 03:55:41.41: SIM {TimeUS : 56834757, Roll : -6.36, Pitch : -12.49, Yaw : 46.36, Alt : 49.2700004578, Lat : 49.2835895, Lng : -123.1149992, Q1 : 0.914756536484, Q2 : -0.00799056980759, Q3 : -0.121578000486, Q4 : 0.385195404291}
2019-04-14 03:55:41.51: SIM {TimeUS : 56934717, Roll : -6.77, Pitch : -12.57, Yaw : 47.45, Alt : 49.2700004578, Lat : 49.283591, Lng : -123.1149975, Q1 : 0.910991966724, Q2 : -0.00982050225139, Q3 : -0.123714998364, Q4 : 0.393308877945}
2019-04-14 03:55:41.61: SIM {TimeUS : 57034677, Roll : -6.35, Pitch : -12.79, Yaw : 47.12, Alt : 49.2700004578, Lat : 49.2835928, Lng : -123.1149959, Q1 : 0.911970019341, Q2 : -0.00602061813697, Q3 : -0.123989440501, Q4 : 0.391025662422}
2019-04-14 03:55:41.71: SIM {TimeUS : 57134637, Roll : -5.32, Pitch : -13.2, Yaw : 45.72, Alt : 49.2700004578, Lat : 49.2835946, Lng : -123.1149942, Q1 : 0.916408479214, Q2 : 0.00210435292684, Q3 : -0.123799555004, Q4 : 0.380611032248}
2019-04-14 03:55:41.81: SIM {TimeUS : 57234597, Roll : -3.93, Pitch : -13.78, Yaw : 43.55, Alt : 49.2700004578, Lat : 49.2835964, Lng : -123.1149925, Q1 : 0.922900438309, Q2 : 0.0128745026886, Q3 : -0.12397556752, Q4 : 0.364306330681}
2019-04-14 03:55:41.91: SIM {TimeUS : 57334557, Roll : -2.36, Pitch : -14.39, Yaw : 40.92, Alt : 49.2700004578, Lat : 49.2835983, Lng : -123.1149908, Q1 : 0.930220723152, Q2 : 0.0246265549213, Q3 : -0.124522425234, Q4 : 0.34435030818}
2019-04-14 03:55:42.01: SIM {TimeUS : 57434517, Roll : -0.8, Pitch : -14.94, Yaw : 38.13, Alt : 49.2799987793, Lat : 49.2836004, Lng : -123.1149889, Q1 : 0.937378585339, Q2 : 0.0359126776457, Q3 : -0.125195086002, Q4 : 0.323044657707}
2019-04-14 03:55:42.11: SIM {TimeUS : 57535310, Roll : 0.62, Pitch : -15.34, Yaw : 35.47, Alt : 49.2799987793, Lat : 49.2836025, Lng : -123.114987, Q1 : 0.94369250536, Q2 : 0.045796893537, Q3 : -0.125497698784, Q4 : 0.302650809288}
2019-04-14 03:55:42.21: SIM {TimeUS : 57635270, Roll : 1.75, Pitch : -15.54, Yaw : 33.26, Alt : 49.2799987793, Lat : 49.2836045, Lng : -123.114985, Q1 : 0.94864243269, Q2 : 0.0532769449055, Q3 : -0.125219509006, Q4 : 0.285585671663}
2019-04-14 03:55:42.31: SIM {TimeUS : 57735230, Roll : 2.53, Pitch : -15.6, Yaw : 31.66, Alt : 49.2799987793, Lat : 49.2836068, Lng : -123.1149829, Q1 : 0.952117979527, Q2 : 0.0581015013158, Q3 : -0.124559000134, Q4 : 0.273094624281}
2019-04-14 03:55:42.41: SIM {TimeUS : 57835190, Roll : 2.93, Pitch : -15.58, Yaw : 30.73, Alt : 49.2799987793, Lat : 49.283609, Lng : -123.1149807, Q1 : 0.954107999802, Q2 : 0.0603818371892, Q3 : -0.123983897269, Q4 : 0.265819340944}
2019-04-14 03:55:42.51: SIM {TimeUS : 57935150, Roll : 2.95, Pitch : -15.58, Yaw : 30.46, Alt : 49.2799987793, Lat : 49.2836111, Lng : -123.1149783, Q1 : 0.954703390598, Q2 : 0.0602948591113, Q3 : -0.124096252024, Q4 : 0.263640195131}
2019-04-14 03:55:42.61: SIM {TimeUS : 58035110, Roll : 2.64, Pitch : -15.64, Yaw : 30.78, Alt : 49.2799987793, Lat : 49.2836135, Lng : -123.1149759, Q1 : 0.954081952572, Q2 : 0.0581675507128, Q3 : -0.125081673265, Q4 : 0.265892326832}
2019-04-14 03:55:42.71: SIM {TimeUS : 58135070, Roll : 2.07, Pitch : -15.74, Yaw : 31.53, Alt : 49.2799987793, Lat : 49.2836159, Lng : -123.1149734, Q1 : 0.952467083931, Q2 : 0.0544839426875, Q3 : -0.126951888204, Q4 : 0.271516561508}
2019-04-14 03:55:42.81: SIM {TimeUS : 58235030, Roll : 1.35, Pitch : -15.86, Yaw : 32.57, Alt : 49.2799987793, Lat : 49.2836183, Lng : -123.1149708, Q1 : 0.950157999992, Q2 : 0.0499466359615, Q3 : -0.129188150167, Q4 : 0.279312670231}
2019-04-14 03:55:42.91: SIM {TimeUS : 58334990, Roll : 0.61, Pitch : -15.97, Yaw : 33.73, Alt : 49.2799987793, Lat : 49.2836207, Lng : -123.1149681, Q1 : 0.947458982468, Q2 : 0.045413851738, Q3 : -0.131460726261, Q4 : 0.288057535887}
2019-04-14 03:55:43.01: SIM {TimeUS : 58434950, Roll : -0.08, Pitch : -16.07, Yaw : 34.87, Alt : 49.2799987793, Lat : 49.2836231, Lng : -123.1149654, Q1 : 0.944710314274, Q2 : 0.0412224270403, Q3 : -0.133640021086, Q4 : 0.296586424112}
2019-04-14 03:55:43.11: SIM {TimeUS : 58534910, Roll : -0.64, Pitch : -16.16, Yaw : 35.85, Alt : 49.2799987793, Lat : 49.2836256, Lng : -123.1149627, Q1 : 0.942212581635, Q2 : 0.0379883311689, Q3 : -0.135487467051, Q4 : 0.304032057524}
2019-04-14 03:55:43.21: SIM {TimeUS : 58634870, Roll : -1.01, Pitch : -16.21, Yaw : 36.61, Alt : 49.2799987793, Lat : 49.2836281, Lng : -123.1149599, Q1 : 0.940240561962, Q2 : 0.0359782390296, Q3 : -0.136654868722, Q4 : 0.309804439545}
2019-04-14 03:55:43.31: SIM {TimeUS : 58734830, Roll : -1.21, Pitch : -16.24, Yaw : 37.1, Alt : 49.2799987793, Lat : 49.2836308, Lng : -123.1149571, Q1 : 0.938951969147, Q2 : 0.0350035652518, Q3 : -0.137262105942, Q4 : 0.313533306122}
2019-04-14 03:55:43.41: SIM {TimeUS : 58834790, Roll : -1.25, Pitch : -16.27, Yaw : 37.31, Alt : 49.2799987793, Lat : 49.2836335, Lng : -123.1149542, Q1 : 0.938359677792, Q2 : 0.0349837392569, Q3 : -0.137599885464, Q4 : 0.315156459808}
2019-04-14 03:55:43.51: SIM {TimeUS : 58934750, Roll : -1.16, Pitch : -16.32, Yaw : 37.26, Alt : 49.2799987793, Lat : 49.2836361, Lng : -123.1149514, Q1 : 0.938403248787, Q2 : 0.035812895745, Q3 : -0.137752309442, Q4 : 0.314866662025}
2019-04-14 03:55:43.61: SIM {TimeUS : 59034710, Roll : -0.96, Pitch : -16.39, Yaw : 37.01, Alt : 49.2799987793, Lat : 49.2836389, Lng : -123.1149485, Q1 : 0.938953220844, Q2 : 0.0373018570244, Q3 : -0.13783800602, Q4 : 0.313011318445}
2019-04-14 03:55:43.71: SIM {TimeUS : 59134670, Roll : -0.7, Pitch : -16.45, Yaw : 36.61, Alt : 49.2799987793, Lat : 49.2836416, Lng : -123.1149455, Q1 : 0.939864635468, Q2 : 0.0391494631767, Q3 : -0.137770995498, Q4 : 0.310066133738}
2019-04-14 03:55:43.81: SIM {TimeUS : 59234630, Roll : -0.4, Pitch : -16.51, Yaw : 36.14, Alt : 49.2799987793, Lat : 49.2836445, Lng : -123.1149426, Q1 : 0.940952658653, Q2 : 0.0412014834583, Q3 : -0.137636363506, Q4 : 0.306540071964}
2019-04-14 03:55:43.91: SIM {TimeUS : 59334590, Roll : -0.1, Pitch : -16.56, Yaw : 35.66, Alt : 49.2799987793, Lat : 49.2836473, Lng : -123.1149396, Q1 : 0.942063391209, Q2 : 0.0432451888919, Q3 : -0.13743776083, Q4 : 0.302914708853}
2019-04-14 03:55:44.01: SIM {TimeUS : 59434550, Roll : 0.16, Pitch : -16.6, Yaw : 35.22, Alt : 49.2900009155, Lat : 49.2836501, Lng : -123.1149365, Q1 : 0.943072974682, Q2 : 0.045029938221, Q3 : -0.137214064598, Q4 : 0.299596399069}
2019-04-14 03:55:44.11: SIM {TimeUS : 59534510, Roll : 0.38, Pitch : -16.63, Yaw : 34.86, Alt : 49.2900009155, Lat : 49.283653, Lng : -123.1149335, Q1 : 0.9438829422, Q2 : 0.0464784130454, Q3 : -0.13702827692, Q4 : 0.296897262335}
2019-04-14 03:55:44.21: SIM {TimeUS : 59635303, Roll : 0.53, Pitch : -16.66, Yaw : 34.61, Alt : 49.2900009155, Lat : 49.283656, Lng : -123.1149303, Q1 : 0.944439888, Q2 : 0.0475110709667, Q3 : -0.136965662241, Q4 : 0.294985532761}
2019-04-14 03:55:44.31: SIM {TimeUS : 59735263, Roll : 0.59, Pitch : -16.69, Yaw : 34.47, Alt : 49.2900009155, Lat : 49.2836589, Lng : -123.1149272, Q1 : 0.944733738899, Q2 : 0.0479483641684, Q3 : -0.137088015676, Q4 : 0.293914973736}
2019-04-14 03:55:44.41: SIM {TimeUS : 59835223, Roll : 0.58, Pitch : -16.71, Yaw : 34.44, Alt : 49.2900009155, Lat : 49.2836619, Lng : -123.1149239, Q1 : 0.944785118103, Q2 : 0.047832865268, Q3 : -0.137385457754, Q4 : 0.293629616499}
2019-04-14 03:55:44.51: SIM {TimeUS : 59935183, Roll : 0.5, Pitch : -16.76, Yaw : 34.5, Alt : 49.2900009155, Lat : 49.2836647, Lng : -123.1149208, Q1 : 0.944610476494, Q2 : 0.0473627634346, Q3 : -0.137926772237, Q4 : 0.294013649225}
2019-04-14 03:55:44.61: SIM {TimeUS : 60035143, Roll : 0.37, Pitch : -16.81, Yaw : 34.63, Alt : 49.2900009155, Lat : 49.2836677, Lng : -123.1149176, Q1 : 0.94426882267, Q2 : 0.0466445945203, Q3 : -0.138626769185, Q4 : 0.294895410538}
2019-04-14 03:55:44.71: SIM {TimeUS : 60135103, Roll : 0.21, Pitch : -16.86, Yaw : 34.79, Alt : 49.2900009155, Lat : 49.2836707, Lng : -123.1149143, Q1 : 0.943846523762, Q2 : 0.0456454753876, Q3 : -0.139366537333, Q4 : 0.296052575111}
2019-04-14 03:55:44.81: SIM {TimeUS : 60235063, Roll : 0.06, Pitch : -16.89, Yaw : 34.97, Alt : 49.2900009155, Lat : 49.2836738, Lng : -123.114911, Q1 : 0.943402528763, Q2 : 0.0446531288326, Q3 : -0.139984458685, Q4 : 0.297324925661}
2019-04-14 03:55:44.91: SIM {TimeUS : 60335023, Roll : -0.07, Pitch : -16.92, Yaw : 35.14, Alt : 49.2900009155, Lat : 49.2836768, Lng : -123.1149077, Q1 : 0.942980349064, Q2 : 0.0438318811357, Q3 : -0.140520125628, Q4 : 0.298531234264}
2019-04-14 03:55:45.01: SIM {TimeUS : 60434983, Roll : -0.16, Pitch : -16.96, Yaw : 35.28, Alt : 49.2900009155, Lat : 49.2836799, Lng : -123.1149043, Q1 : 0.942609846592, Q2 : 0.0433707349002, Q3 : -0.141005679965, Q4 : 0.299538165331}
2019-04-14 03:55:45.11: SIM {TimeUS : 60534943, Roll : -0.2, Pitch : -17.0, Yaw : 35.37, Alt : 49.2900009155, Lat : 49.2836831, Lng : -123.114901, Q1 : 0.942328929901, Q2 : 0.043215058744, Q3 : -0.141405001283, Q4 : 0.300255358219}
2019-04-14 03:55:45.21: SIM {TimeUS : 60634903, Roll : -0.2, Pitch : -17.04, Yaw : 35.42, Alt : 49.2999992371, Lat : 49.2836862, Lng : -123.1148976, Q1 : 0.942148089409, Q2 : 0.043394651264, Q3 : -0.141735419631, Q4 : 0.300640970469}
2019-04-14 03:55:45.31: SIM {TimeUS : 60734863, Roll : -0.16, Pitch : -17.09, Yaw : 35.42, Alt : 49.2999992371, Lat : 49.2836893, Lng : -123.1148942, Q1 : 0.942071318626, Q2 : 0.0438614115119, Q3 : -0.141997337341, Q4 : 0.3006901443}
2019-04-14 03:55:45.41: SIM {TimeUS : 60834823, Roll : -0.12, Pitch : -17.12, Yaw : 35.39, Alt : 49.2999992371, Lat : 49.2836924, Lng : -123.1148908, Q1 : 0.942114830017, Q2 : 0.0442478470504, Q3 : -0.142178297043, Q4 : 0.3004116714}
2019-04-14 03:55:45.51: SIM {TimeUS : 60934783, Roll : -0.08, Pitch : -17.13, Yaw : 35.32, Alt : 49.2999992371, Lat : 49.2836955, Lng : -123.1148874, Q1 : 0.94226372242, Q2 : 0.044474426657, Q3 : -0.142208218575, Q4 : 0.299896597862}
2019-04-14 03:55:45.61: SIM {TimeUS : 61034743, Roll : -0.06, Pitch : -17.14, Yaw : 35.23, Alt : 49.2999992371, Lat : 49.2836987, Lng : -123.114884, Q1 : 0.942469716072, Q2 : 0.04461318627, Q3 : -0.142211169004, Q4 : 0.29922658205}
2019-04-14 03:55:45.71: SIM {TimeUS : 61134703, Roll : 0.0, Pitch : -17.15, Yaw : 35.14, Alt : 49.2999992371, Lat : 49.283702, Lng : -123.1148805, Q1 : 0.942682981491, Q2 : 0.0449492372572, Q3 : -0.142190992832, Q4 : 0.298513054848}
2019-04-14 03:55:45.81: SIM {TimeUS : 61234663, Roll : 0.05, Pitch : -17.17, Yaw : 35.04, Alt : 49.2999992371, Lat : 49.2837052, Lng : -123.1148771, Q1 : 0.94287610054, Q2 : 0.0453934520483, Q3 : -0.142240017653, Q4 : 0.297811806202}
2019-04-14 03:55:45.91: SIM {TimeUS : 61334623, Roll : 0.12, Pitch : -17.2, Yaw : 34.96, Alt : 49.2999992371, Lat : 49.2837083, Lng : -123.1148736, Q1 : 0.943023860455, Q2 : 0.0459599755704, Q3 : -0.142385572195, Q4 : 0.297186851501}
2019-04-14 03:55:46.01: SIM {TimeUS : 61434583, Roll : 0.18, Pitch : -17.26, Yaw : 34.89, Alt : 49.2999992371, Lat : 49.2837115, Lng : -123.1148701, Q1 : 0.943101346493, Q2 : 0.0465270876884, Q3 : -0.142755314708, Q4 : 0.296674847603}
2019-04-14 03:55:46.11: SIM {TimeUS : 61534543, Roll : 0.21, Pitch : -17.3, Yaw : 34.84, Alt : 49.3100013733, Lat : 49.2837148, Lng : -123.1148666, Q1 : 0.943172574043, Q2 : 0.0468212626874, Q3 : -0.142986550927, Q4 : 0.296290546656}
2019-04-14 03:55:46.21: SIM {TimeUS : 61634503, Roll : 0.22, Pitch : -17.3, Yaw : 34.81, Alt : 49.3100013733, Lat : 49.283718, Lng : -123.1148631, Q1 : 0.943243682384, Q2 : 0.0469053201377, Q3 : -0.142988041043, Q4 : 0.296050131321}
2019-04-14 03:55:46.31: SIM {TimeUS : 61735296, Roll : 0.22, Pitch : -17.31, Yaw : 34.8, Alt : 49.3100013733, Lat : 49.2837214, Lng : -123.1148596, Q1 : 0.943265557289, Q2 : 0.0468870736659, Q3 : -0.143092110753, Q4 : 0.295932978392}
2019-04-14 03:55:46.41: SIM {TimeUS : 61835256, Roll : 0.18, Pitch : -17.34, Yaw : 34.8, Alt : 49.3100013733, Lat : 49.2837247, Lng : -123.114856, Q1 : 0.943250238895, Q2 : 0.0466337837279, Q3 : -0.14337541163, Q4 : 0.295884847641}
2019-04-14 03:55:46.51: SIM {TimeUS : 61935216, Roll : 0.15, Pitch : -17.36, Yaw : 34.81, Alt : 49.3100013733, Lat : 49.2837278, Lng : -123.1148525, Q1 : 0.943208396435, Q2 : 0.0464115105569, Q3 : -0.143658831716, Q4 : 0.295915603638}
2019-04-14 03:55:46.61: SIM {TimeUS : 62035176, Roll : 0.12, Pitch : -17.38, Yaw : 34.82, Alt : 49.3100013733, Lat : 49.2837312, Lng : -123.1148489, Q1 : 0.943150758743, Q2 : 0.0462463647127, Q3 : -0.143922120333, Q4 : 0.295997142792}
2019-04-14 03:55:46.71: SIM {TimeUS : 62135136, Roll : 0.1, Pitch : -17.4, Yaw : 34.84, Alt : 49.3100013733, Lat : 49.2837344, Lng : -123.1148453, Q1 : 0.943092405796, Q2 : 0.0461560077965, Q3 : -0.144125550985, Q4 : 0.296098232269}
2019-04-14 03:55:46.81: SIM {TimeUS : 62235096, Roll : 0.09, Pitch : -17.43, Yaw : 34.85, Alt : 49.3100013733, Lat : 49.2837378, Lng : -123.1148417, Q1 : 0.94302546978, Q2 : 0.0461928285658, Q3 : -0.14433889091, Q4 : 0.29620179534}
2019-04-14 03:55:46.91: SIM {TimeUS : 62335056, Roll : 0.1, Pitch : -17.45, Yaw : 34.87, Alt : 49.3100013733, Lat : 49.2837411, Lng : -123.1148381, Q1 : 0.942967057228, Q2 : 0.0463216640055, Q3 : -0.144502386451, Q4 : 0.296287864447}
2019-04-14 03:55:47.01: SIM {TimeUS : 62435016, Roll : 0.11, Pitch : -17.47, Yaw : 34.87, Alt : 49.3100013733, Lat : 49.2837445, Lng : -123.1148345, Q1 : 0.942925930023, Q2 : 0.0465166866779, Q3 : -0.144655168056, Q4 : 0.296313673258}
2019-04-14 03:55:47.11: SIM {TimeUS : 62534976, Roll : 0.13, Pitch : -17.51, Yaw : 34.86, Alt : 49.3100013733, Lat : 49.2837478, Lng : -123.1148309, Q1 : 0.942894458771, Q2 : 0.0467304326594, Q3 : -0.14489454031, Q4 : 0.296263128519}
2019-04-14 03:55:47.21: SIM {TimeUS : 62634936, Roll : 0.13, Pitch : -17.55, Yaw : 34.84, Alt : 49.3100013733, Lat : 49.2837512, Lng : -123.1148272, Q1 : 0.942878484726, Q2 : 0.0468223467469, Q3 : -0.145264133811, Q4 : 0.296118497849}
2019-04-14 03:55:47.31: SIM {TimeUS : 62734896, Roll : 0.11, Pitch : -17.6, Yaw : 34.82, Alt : 49.3199996948, Lat : 49.2837545, Lng : -123.1148237, Q1 : 0.9428820014, Q2 : 0.046762842685, Q3 : -0.145677164197, Q4 : 0.295913666487}
2019-04-14 03:55:47.41: SIM {TimeUS : 62834856, Roll : 0.11, Pitch : -17.64, Yaw : 34.8, Alt : 49.3199996948, Lat : 49.2837579, Lng : -123.11482, Q1 : 0.94289624691, Q2 : 0.046779692173, Q3 : -0.146033734083, Q4 : 0.295689880848}
2019-04-14 03:55:47.51: SIM {TimeUS : 62934816, Roll : 0.13, Pitch : -17.66, Yaw : 34.77, Alt : 49.3199996948, Lat : 49.2837612, Lng : -123.1148164, Q1 : 0.942928910255, Q2 : 0.0469710081816, Q3 : -0.146195337176, Q4 : 0.295475363731}
2019-04-14 03:55:47.61: SIM {TimeUS : 63034776, Roll : 0.15, Pitch : -17.66, Yaw : 34.74, Alt : 49.3199996948, Lat : 49.2837646, Lng : -123.1148126, Q1 : 0.9429910779, Q2 : 0.0471459664404, Q3 : -0.146139293909, Q4 : 0.295276939869}
2019-04-14 03:55:47.71: SIM {TimeUS : 63134736, Roll : 0.17, Pitch : -17.64, Yaw : 34.72, Alt : 49.3199996948, Lat : 49.2837679, Lng : -123.114809, Q1 : 0.943076312542, Q2 : 0.047242552042, Q3 : -0.145919382572, Q4 : 0.295097857714}
2019-04-14 03:55:47.81: SIM {TimeUS : 63234696, Roll : 0.18, Pitch : -17.62, Yaw : 34.69, Alt : 49.3199996948, Lat : 49.2837714, Lng : -123.1148054, Q1 : 0.943162322044, Q2 : 0.0471924431622, Q3 : -0.145757198334, Q4 : 0.294911146164}
2019-04-14 03:55:47.91: SIM {TimeUS : 63334656, Roll : 0.17, Pitch : -17.6, Yaw : 34.67, Alt : 49.3199996948, Lat : 49.2837747, Lng : -123.1148017, Q1 : 0.943247973919, Q2 : 0.0470809452236, Q3 : -0.145617797971, Q4 : 0.29472386837}
2019-04-14 03:55:48.01: SIM {TimeUS : 63434616, Roll : 0.17, Pitch : -17.58, Yaw : 34.65, Alt : 49.3199996948, Lat : 49.2837782, Lng : -123.114798, Q1 : 0.943327903748, Q2 : 0.0469463728368, Q3 : -0.145505174994, Q4 : 0.294545084238}
2019-04-14 03:55:48.11: SIM {TimeUS : 63534576, Roll : 0.16, Pitch : -17.6, Yaw : 34.63, Alt : 49.3199996948, Lat : 49.2837817, Lng : -123.1147943, Q1 : 0.943353533745, Q2 : 0.0468879304826, Q3 : -0.14570902288, Q4 : 0.294371426105}
2019-04-14 03:55:48.21: SIM {TimeUS : 63634536, Roll : 0.15, Pitch : -17.65, Yaw : 34.62, Alt : 49.3199996948, Lat : 49.283785, Lng : -123.1147906, Q1 : 0.943338513374, Q2 : 0.0469612292945, Q3 : -0.146073892713, Q4 : 0.294227033854}
2019-04-14 03:55:48.31: SIM {TimeUS : 63734496, Roll : 0.14, Pitch : -17.7, Yaw : 34.6, Alt : 49.3199996948, Lat : 49.2837885, Lng : -123.1147869, Q1 : 0.943300426006, Q2 : 0.046998206526, Q3 : -0.146568715572, Q4 : 0.29409712553}
2019-04-14 03:55:48.41: SIM {TimeUS : 63835289, Roll : 0.14, Pitch : -17.77, Yaw : 34.59, Alt : 49.3199996948, Lat : 49.283792, Lng : -123.1147831, Q1 : 0.943244218826, Q2 : 0.0471323356032, Q3 : -0.147104471922, Q4 : 0.293988406658}
2019-04-14 03:55:48.51: SIM {TimeUS : 63935249, Roll : 0.15, Pitch : -17.8, Yaw : 34.59, Alt : 49.3199996948, Lat : 49.2837953, Lng : -123.1147794, Q1 : 0.943223953247, Q2 : 0.0472543127835, Q3 : -0.147340640426, Q4 : 0.293915659189}
2019-04-14 03:55:48.61: SIM {TimeUS : 64035209, Roll : 0.15, Pitch : -17.82, Yaw : 34.58, Alt : 49.3300018311, Lat : 49.2837989, Lng : -123.1147757, Q1 : 0.943212687969, Q2 : 0.0473360568285, Q3 : -0.147527545691, Q4 : 0.293844848871}
2019-04-14 03:55:48.71: SIM {TimeUS : 64135169, Roll : 0.15, Pitch : -17.83, Yaw : 34.57, Alt : 49.3300018311, Lat : 49.2838023, Lng : -123.1147719, Q1 : 0.943221449852, Q2 : 0.0473142154515, Q3 : -0.147642821074, Q4 : 0.29376244545}
2019-04-14 03:55:48.81: SIM {TimeUS : 64235129, Roll : 0.15, Pitch : -17.82, Yaw : 34.56, Alt : 49.3300018311, Lat : 49.2838057, Lng : -123.1147682, Q1 : 0.943260371685, Q2 : 0.0473009087145, Q3 : -0.147529184818, Q4 : 0.293696671724}
2019-04-14 03:55:48.91: SIM {TimeUS : 64335089, Roll : 0.16, Pitch : -17.83, Yaw : 34.55, Alt : 49.3300018311, Lat : 49.2838092, Lng : -123.1147644, Q1 : 0.943271994591, Q2 : 0.0474148578942, Q3 : -0.14756038785, Q4 : 0.293625056744}
2019-04-14 03:55:49.01: SIM {TimeUS : 64435049, Roll : 0.17, Pitch : -17.85, Yaw : 34.54, Alt : 49.3300018311, Lat : 49.2838127, Lng : -123.1147607, Q1 : 0.943269371986, Q2 : 0.0475300513208, Q3 : -0.147723779082, Q4 : 0.293532669544}
2019-04-14 03:55:49.11: SIM {TimeUS : 64535009, Roll : 0.18, Pitch : -17.87, Yaw : 34.53, Alt : 49.3300018311, Lat : 49.2838161, Lng : -123.1147569, Q1 : 0.943275153637, Q2 : 0.0476156882942, Q3 : -0.147848278284, Q4 : 0.29343765974}
2019-04-14 03:55:49.21: SIM {TimeUS : 64634969, Roll : 0.19, Pitch : -17.86, Yaw : 34.51, Alt : 49.3300018311, Lat : 49.2838196, Lng : -123.1147532, Q1 : 0.94330739975, Q2 : 0.0476779453456, Q3 : -0.147821262479, Q4 : 0.293337613344}
2019-04-14 03:55:49.31: SIM {TimeUS : 64734929, Roll : 0.19, Pitch : -17.87, Yaw : 34.5, Alt : 49.3300018311, Lat : 49.2838232, Lng : -123.1147494, Q1 : 0.943336486816, Q2 : 0.0476975217462, Q3 : -0.147859767079, Q4 : 0.293221414089}
2019-04-14 03:55:49.41: SIM {TimeUS : 64834889, Roll : 0.18, Pitch : -17.89, Yaw : 34.48, Alt : 49.3300018311, Lat : 49.2838267, Lng : -123.1147456, Q1 : 0.943353652954, Q2 : 0.0476311966777, Q3 : -0.14805431664, Q4 : 0.293078750372}
2019-04-14 03:55:49.51: SIM {TimeUS : 64934849, Roll : 0.15, Pitch : -17.93, Yaw : 34.47, Alt : 49.3300018311, Lat : 49.2838302, Lng : -123.1147419, Q1 : 0.943351924419, Q2 : 0.0474943444133, Q3 : -0.148436546326, Q4 : 0.292912989855}
2019-04-14 03:55:49.61: SIM {TimeUS : 65034809, Roll : 0.14, Pitch : -17.94, Yaw : 34.46, Alt : 49.3300018311, Lat : 49.2838336, Lng : -123.1147381, Q1 : 0.943378508091, Q2 : 0.0474084690213, Q3 : -0.148544117808, Q4 : 0.292786717415}
2019-04-14 03:55:49.71: SIM {TimeUS : 65134769, Roll : 0.15, Pitch : -17.93, Yaw : 34.44, Alt : 49.3300018311, Lat : 49.2838372, Lng : -123.1147343, Q1 : 0.943420112133, Q2 : 0.0474219433963, Q3 : -0.148454606533, Q4 : 0.292695850134}
2019-04-14 03:55:49.81: SIM {TimeUS : 65234729, Roll : 0.17, Pitch : -17.92, Yaw : 34.43, Alt : 49.3300018311, Lat : 49.2838407, Lng : -123.1147305, Q1 : 0.943455457687, Q2 : 0.0475722327828, Q3 : -0.148323178291, Q4 : 0.292624175549}
2019-04-14 03:55:49.91: SIM {TimeUS : 65334689, Roll : 0.19, Pitch : -17.93, Yaw : 34.42, Alt : 49.3300018311, Lat : 49.2838442, Lng : -123.1147267, Q1 : 0.943470656872, Q2 : 0.0476953312755, Q3 : -0.148380219936, Q4 : 0.292526364326}
2019-04-14 03:55:50.01: SIM {TimeUS : 65434649, Roll : 0.18, Pitch : -17.95, Yaw : 34.4, Alt : 49.3300018311, Lat : 49.2838476, Lng : -123.1147229, Q1 : 0.943480372429, Q2 : 0.047644328326, Q3 : -0.148574531078, Q4 : 0.292404562235}
2019-04-14 03:55:50.11: SIM {TimeUS : 65534609, Roll : 0.15, Pitch : -17.97, Yaw : 34.39, Alt : 49.3400001526, Lat : 49.2838512, Lng : -123.114719, Q1 : 0.943489968777, Q2 : 0.0474820770323, Q3 : -0.148833885789, Q4 : 0.292268037796}
2019-04-14 03:55:50.21: SIM {TimeUS : 65634569, Roll : 0.14, Pitch : -17.99, Yaw : 34.38, Alt : 49.3400001526, Lat : 49.2838548, Lng : -123.1147153, Q1 : 0.943496108055, Q2 : 0.0474072135985, Q3 : -0.149059385061, Q4 : 0.292145460844}
2019-04-14 03:55:50.31: SIM {TimeUS : 65734529, Roll : 0.14, Pitch : -18.01, Yaw : 34.37, Alt : 49.3400001526, Lat : 49.2838583, Lng : -123.1147115, Q1 : 0.94350117445, Q2 : 0.0474696904421, Q3 : -0.149209827185, Q4 : 0.292042136192}
2019-04-14 03:55:50.41: SIM {TimeUS : 65835322, Roll : 0.15, Pitch : -18.03, Yaw : 34.36, Alt : 49.3400001526, Lat : 49.2838619, Lng : -123.1147077, Q1 : 0.943506598473, Q2 : 0.0475934892893, Q3 : -0.149306461215, Q4 : 0.291955024004}
2019-04-14 03:55:50.51: SIM {TimeUS : 65935282, Roll : 0.18, Pitch : -18.03, Yaw : 34.35, Alt : 49.3400001526, Lat : 49.2838653, Lng : -123.1147039, Q1 : 0.943508446217, Q2 : 0.0478170029819, Q3 : -0.149311691523, Q4 : 0.291909873486}
2019-04-14 03:55:50.61: SIM {TimeUS : 66035242, Roll : 0.19, Pitch : -18.05, Yaw : 34.34, Alt : 49.3400001526, Lat : 49.2838688, Lng : -123.1147001, Q1 : 0.943502306938, Q2 : 0.0479486882687, Q3 : -0.149393871427, Q4 : 0.291866213083}
2019-04-14 03:55:50.71: SIM {TimeUS : 66135202, Roll : 0.2, Pitch : -18.07, Yaw : 34.34, Alt : 49.3400001526, Lat : 49.2838725, Lng : -123.1146963, Q1 : 0.9434877038, Q2 : 0.0480931364, Q3 : -0.14951980114, Q4 : 0.291825056076}
2019-04-14 03:55:50.81: SIM {TimeUS : 66235162, Roll : 0.22, Pitch : -18.08, Yaw : 34.33, Alt : 49.3400001526, Lat : 49.283876, Lng : -123.1146924, Q1 : 0.943474829197, Q2 : 0.0482363253832, Q3 : -0.149629205465, Q4 : 0.291786968708}
2019-04-14 03:55:50.91: SIM {TimeUS : 66335122, Roll : 0.24, Pitch : -18.09, Yaw : 34.32, Alt : 49.3400001526, Lat : 49.2838796, Lng : -123.1146886, Q1 : 0.943471431732, Q2 : 0.0484051704407, Q3 : -0.149649649858, Q4 : 0.29175940156}
2019-04-14 03:55:51.01: SIM {TimeUS : 66435082, Roll : 0.26, Pitch : -18.1, Yaw : 34.32, Alt : 49.3400001526, Lat : 49.2838832, Lng : -123.1146848, Q1 : 0.94346088171, Q2 : 0.0486370511353, Q3 : -0.149664029479, Q4 : 0.291747540236}
2019-04-14 03:55:51.11: SIM {TimeUS : 66535042, Roll : 0.26, Pitch : -18.1, Yaw : 34.31, Alt : 49.3400001526, Lat : 49.2838866, Lng : -123.114681, Q1 : 0.943473637104, Q2 : 0.0486111231148, Q3 : -0.14966571331, Q4 : 0.291709929705}
2019-04-14 03:55:51.21: SIM {TimeUS : 66635002, Roll : 0.23, Pitch : -18.11, Yaw : 34.31, Alt : 49.3400001526, Lat : 49.2838902, Lng : -123.1146771, Q1 : 0.943482637405, Q2 : 0.0484154671431, Q3 : -0.149809762836, Q4 : 0.291639357805}
2019-04-14 03:55:51.31: SIM {TimeUS : 66734962, Roll : 0.21, Pitch : -18.13, Yaw : 34.31, Alt : 49.3499984741, Lat : 49.2838938, Lng : -123.1146733, Q1 : 0.943473577499, Q2 : 0.0482460483909, Q3 : -0.150078207254, Q4 : 0.291558742523}
