2019-04-14 05:21:40.00: SIM {TimeUS : 40416327, Roll : 0.0, Pitch : 0.0, Yaw : 0.0, Alt : 30.1000003815, Lat : 49.28357, Lng : -123.11502, Q1 : 1.0, Q2 : 0.0, Q3 : 0.0, Q4 : 0.0}
2019-04-14 05:21:40.11: SIM {TimeUS : 40535446, Roll : 0.0, Pitch : 0.0, Yaw : 0.0, Alt : 30.1000003815, Lat : 49.28357, Lng : -123.11502, Q1 : 1.0, Q2 : 0.0, Q3 : 0.0, Q4 : 0.0}
2019-04-14 05:21:40.21: SIM {TimeUS : 40635406, Roll : 0.0, Pitch : 0.0, Yaw : 0.0, Alt : 30.1000003815, Lat : 49.28357, Lng : -123.11502, Q1 : 1.0, Q2 : 0.0, Q3 : 0.0, Q4 : 0.0}
2019-04-14 05:21:40.31: SIM {TimeUS : 40735366, Roll : 0.0, Pitch : 0.0, Yaw : 0.0, Alt : 30.1000003815, Lat : 49.28357, Lng : -123.11502, Q1 : 1.0, Q2 : 0.0, Q3 : 0.0, Q4 : 0.0}
2019-04-14 05:21:40.41: SIM {TimeUS : 40835326, Roll : 0.0, Pitch : 0.0, Yaw : 0.0, Alt : 30.1000003815, Lat : 49.28357, Lng : -123.11502, Q1 : 1.0, Q2 : 0.0, Q3 : 0.0, Q4 : 0.0}
2019-04-14 05:21:40.51: SIM {TimeUS : 40935286, Roll : 0.0, Pitch : 0.0, Yaw : 0.0, Alt : 30.1000003815, Lat : 49.28357, Lng : -123.11502, Q1 : 1.0, Q2 : 0.0, Q3 : 0.0, Q4 : 0.0}
2019-04-14 05:21:40.61: SIM {TimeUS : 41035246, Roll : 0.0, Pitch : 0.0, Yaw : 0.0, Alt : 30.1000003815, Lat : 49.28357, Lng : -123.11502, Q1 : 1.0, Q2 : 0.0, Q3 : 0.0, Q4 : 0.0}
2019-04-14 05:21:40.71: SIM {TimeUS : 41135206, Roll : 0.0, Pitch : 0.0, Yaw : 0.0, Alt : 30.1000003815, Lat : 49.28357, Lng : -123.11502, Q1 : 1.0, Q2 : 0.0, Q3 : 0.0, Q4 : 0.0}
2019-04-14 05:21:40.81: SIM {TimeUS : 41235166, Roll : 0.0, Pitch : 0.0, Yaw : 0.0, Alt : 30.1000003815, Lat : 49.28357, Lng : -123.11502, Q1 : 1.0, Q2 : 0.0, Q3 : 0.0, Q4 : 0.0}
2019-04-14 05:21:40.91: SIM {TimeUS : 41335126, Roll : 0.0, Pitch : 0.0, Yaw : 0.0, Alt : 30.1000003815, Lat : 49.28357, Lng : -123.11502, Q1 : 1.0, Q2 : 0.0, Q3 : 0.0, Q4 : 0.0}
2019-04-14 05:21:41.01: SIM {TimeUS : 41435086, Roll : 0.0, Pitch : 0.0, Yaw : 0.0, Alt : 30.1000003815, Lat : 49.28357, Lng : -123.11502, Q1 : 1.0, Q2 : 0.0, Q3 : 0.0, Q4 : 0.0}
2019-04-14 05:21:41.11: SIM {TimeUS : 41535046, Roll : 0.0, Pitch : 0.0, Yaw : 0.0, Alt : 30.1000003815, Lat : 49.28357, Lng : -123.11502, Q1 : 1.0, Q2 : 0.0, Q3 : 0.0, Q4 : 0.0}
2019-04-14 05:21:41.21: SIM {TimeUS : 41635006, Roll : 0.0, Pitch : 0.0, Yaw : 0.0, Alt : 30.1000003815, Lat : 49.28357, Lng : -123.11502, Q1 : 1.0, Q2 : 0.0, Q3 : 0.0, Q4 : 0.0}
2019-04-14 05:21:41.31: SIM {TimeUS : 41734966, Roll : 0.0, Pitch : 0.0, Yaw : 0.0, Alt : 30.1000003815, Lat : 49.28357, Lng : -123.11502, Q1 : 1.0, Q2 : 0.0, Q3 : 0.0, Q4 : 0.0}
2019-04-14 05:21:41.41: SIM {TimeUS : 41834926, Roll : 0.0, Pitch : 0.0, Yaw : 0.0, Alt : 30.1000003815, Lat : 49.28357, Lng : -123.11502, Q1 : 1.0, Q2 : 0.0, Q3 : 0.0, Q4 : 0.0}
2019-04-14 05:21:41.51: SIM {TimeUS : 41934886, Roll : 0.0, Pitch : 0.0, Yaw : 0.0, Alt : 30.1000003815, Lat : 49.28357, Lng : -123.11502, Q1 : 1.0, Q2 : 0.0, Q3 : 0.0, Q4 : 0.0}
2019-04-14 05:21:41.61: SIM {TimeUS : 42034846, Roll : 0.0, Pitch : 0.0, Yaw : 0.0, Alt : 30.1000003815, Lat : 49.28357, Lng : -123.11502, Q1 : 1.0, Q2 : 0.0, Q3 : 0.0, Q4 : 0.0}
2019-04-14 05:21:41.71: SIM {TimeUS : 42134806, Roll : 0.0, Pitch : 0.0, Yaw : 0.0, Alt : 30.1000003815, Lat : 49.28357, Lng : -123.11502, Q1 : 1.0, Q2 : 0.0, Q3 : 0.0, Q4 : 0.0}
2019-04-14 05:21:41.81: SIM {TimeUS : 42234766, Roll : 0.0, Pitch : 0.0, Yaw : 0.0, Alt : 30.1000003815, Lat : 49.28357, Lng : -123.11502, Q1 : 1.0, Q2 : 0.0, Q3 : 0.0, Q4 : 0.0}
2019-04-14 05:21:41.91: SIM {TimeUS : 42334726, Roll : 0.0, Pitch : 0.0, Yaw : 0.0, Alt : 30.1000003815, Lat : 49.28357, Lng : -123.11502, Q1 : 1.0, Q2 : 0.0, Q3 : 0.0, Q4 : 0.0}
2019-04-14 05:21:42.01: SIM {TimeUS : 42434686, Roll : 0.0, Pitch : 0.0, Yaw : 0.0, Alt : 30.1000003815, Lat : 49.28357, Lng : -123.11502, Q1 : 1.0, Q2 : 0.0, Q3 : 0.0, Q4 : 0.0}
2019-04-14 05:21:42.11: SIM {TimeUS : 42535479, Roll : 0.0, Pitch : 0.0, Yaw : 0.0, Alt : 30.1000003815, Lat : 49.28357, Lng : -123.11502, Q1 : 1.0, Q2 : 0.0, Q3 : 0.0, Q4 : 0.0}
2019-04-14 05:21:42.21: SIM {TimeUS : 42635439, Roll : 0.0, Pitch : 0.0, Yaw : 0.0, Alt : 30.1000003815, Lat : 49.28357, Lng : -123.11502, Q1 : 1.0, Q2 : 0.0, Q3 : 0.0, Q4 : 0.0}
2019-04-14 05:21:42.31: SIM {TimeUS : 42735399, Roll : 0.0, Pitch : 0.0, Yaw : 0.0, Alt : 30.1000003815, Lat : 49.28357, Lng : -123.11502, Q1 : 1.0, Q2 : 0.0, Q3 : 0.0, Q4 : 6.82903594784e-11}
2019-04-14 05:21:42.41: SIM {TimeUS : 42835359, Roll : 0.0, Pitch : 0.0, Yaw : 0.0, Alt : 30.1000003815, Lat : 49.28357, Lng : -123.11502, Q1 : 1.0, Q2 : 0.0, Q3 : 0.0, Q4 : 2.50326148699e-10}
2019-04-14 05:21:42.51: SIM {TimeUS : 42935319, Roll : 0.0, Pitch : 0.0, Yaw : 360.0, Alt : 30.1000003815, Lat : 49.28357, Lng : -123.11502, Q1 : 1.0, Q2 : 0.0, Q3 : 0.0, Q4 : -1.69380413695e-07}
2019-04-14 05:21:42.61: SIM {TimeUS : 43035279, Roll : 0.0, Pitch : 0.0, Yaw : 359.99, Alt : 30.1000003815, Lat : 49.28357, Lng : -123.11502, Q1 : 1.0, Q2 : 0.0, Q3 : 0.0, Q4 : -3.49062020177e-07}
2019-04-14 05:21:42.71: SIM {TimeUS : 43135239, Roll : 0.0, Pitch : 0.0, Yaw : 359.99, Alt : 30.1000003815, Lat : 49.28357, Lng : -123.11502, Q1 : 1.0, Q2 : 0.0, Q3 : 0.0, Q4 : -5.82690972806e-07}
2019-04-14 05:21:42.81: SIM {TimeUS : 43235199, Roll : 0.0, Pitch : 0.0, Yaw : 359.99, Alt : 30.1000003815, Lat : 49.28357, Lng : -123.11502, Q1 : 1.0, Q2 : 0.0, Q3 : 0.0, Q4 : -7.43505324863e-07}
2019-04-14 05:21:42.91: SIM {TimeUS : 43335159, Roll : 0.0, Pitch : 0.0, Yaw : 359.99, Alt : 30.1000003815, Lat : 49.28357, Lng : -123.11502, Q1 : 1.0, Q2 : 0.0, Q3 : 0.0, Q4 : -9.60154579843e-07}
2019-04-14 05:21:43.01: SIM {TimeUS : 43435119, Roll : 0.0, Pitch : 0.0, Yaw : 359.99, Alt : 30.1000003815, Lat : 49.28357, Lng : -123.11502, Q1 : 1.0, Q2 : 0.0, Q3 : 0.0, Q4 : -1.17296974622e-06}
2019-04-14 05:21:43.11: SIM {TimeUS : 43535079, Roll : 0.0, Pitch : 0.0, Yaw : 359.99, Alt : 30.1000003815, Lat : 49.28357, Lng : -123.11502, Q1 : 1.0, Q2 : 0.0, Q3 : 0.0, Q4 : -1.3951598703e-06}
2019-04-14 05:21:43.21: SIM {TimeUS : 43635039, Roll : 0.0, Pitch : 0.0, Yaw : 359.99, Alt : 30.1100006104, Lat : 49.28357, Lng : -123.11502, Q1 : 1.0, Q2 : 0.0, Q3 : 0.0, Q4 : -1.5973535028e-06}
2019-04-14 05:21:43.31: SIM {TimeUS : 43734999, Roll : 0.0, Pitch : 0.0, Yaw : 359.99, Alt : 30.1399993896, Lat : 49.28357, Lng : -123.11502, Q1 : 1.0, Q2 : 0.0, Q3 : 0.0, Q4 : -1.8168468614e-06}
2019-04-14 05:21:43.41: SIM {TimeUS : 43834959, Roll : 0.0, Pitch : 0.0, Yaw : 359.99, Alt : 30.1700000763, Lat : 49.28357, Lng : -123.11502, Q1 : 1.0, Q2 : 0.0, Q3 : 0.0, Q4 : -2.00072531698e-06}
2019-04-14 05:21:43.51: SIM {TimeUS : 43934919, Roll : 0.0, Pitch : 0.0, Yaw : 359.99, Alt : 30.2000007629, Lat : 49.28357, Lng : -123.11502, Q1 : 1.0, Q2 : 0.0, Q3 : 0.0, Q4 : -2.21538857659e-06}
2019-04-14 05:21:43.61: SIM {TimeUS : 44034879, Roll : -0.1, Pitch : -0.09, Yaw : 359.99, Alt : 30.25, Lat : 49.28357, Lng : -123.11502, Q1 : 0.999999284744, Q2 : -0.00088410108583, Q3 : -0.00081121257972, Q4 : -9.7759111668e-06}
2019-04-14 05:21:43.71: SIM {TimeUS : 44134839, Roll : -0.4, Pitch : -0.36, Yaw : 359.99, Alt : 30.3400001526, Lat : 49.28357, Lng : -123.11502, Q1 : 0.999988496304, Q2 : -0.00356861576438, Q3 : -0.00321631180122, Q4 : -4.14524620282e-05}
2019-04-14 05:21:43.81: SIM {TimeUS : 44234799, Roll : -0.72, Pitch : -0.63, Yaw : 359.99, Alt : 30.4899997711, Lat : 49.28357, Lng : -123.11502, Q1 : 0.999964773655, Q2 : -0.00629699183628, Q3 : -0.00555035099387, Q4 : -0.000101353107311}
2019-04-14 05:21:43.91: SIM {TimeUS : 44334759, Roll : -0.89, Pitch : -0.77, Yaw : 359.98, Alt : 30.6499996185, Lat : 49.28357, Lng : -123.11502, Q1 : 0.99994713068, Q2 : -0.00776982866228, Q3 : -0.00673892907798, Q4 : -0.000182086747373}
2019-04-14 05:21:44.01: SIM {TimeUS : 44434719, Roll : -0.86, Pitch : -0.77, Yaw : 359.97, Alt : 30.8099994659, Lat : 49.28357, Lng : -123.11502, Q1 : 0.999948859215, Q2 : -0.00751882372424, Q3 : -0.0067537506111, Q4 : -0.000266746908892}
2019-04-14 05:21:44.11: SIM {TimeUS : 44534679, Roll : -0.69, Pitch : -0.64, Yaw : 359.96, Alt : 30.9599990845, Lat : 49.28357, Lng : -123.1150201, Q1 : 0.999965429306, Q2 : -0.00610380945727, Q3 : -0.00563738215715, Q4 : -0.000348227913491}
2019-04-14 05:21:44.21: SIM {TimeUS : 44635472, Roll : -0.48, Pitch : -0.43, Yaw : 359.95, Alt : 31.1100006104, Lat : 49.2835701, Lng : -123.1150202, Q1 : 0.999983787537, Q2 : -0.0041998308152, Q3 : -0.0038181305863, Q4 : -0.000418608688051}
2019-04-14 05:21:44.31: SIM {TimeUS : 44735432, Roll : -0.26, Pitch : -0.22, Yaw : 359.94, Alt : 31.2700004578, Lat : 49.2835701, Lng : -123.1150203, Q1 : 0.999995291233, Q2 : -0.00229497440159, Q3 : -0.00199537165463, Q4 : -0.000477049994515}
2019-04-14 05:21:44.41: SIM {TimeUS : 44835392, Roll : -0.08, Pitch : -0.06, Yaw : 359.94, Alt : 31.4400005341, Lat : 49.2835702, Lng : -123.1150203, Q1 : 0.999999463558, Q2 : -0.000707851548214, Q3 : -0.000567566079553, Q4 : -0.000522728718352}
2019-04-14 05:21:44.51: SIM {TimeUS : 44935352, Roll : 0.03, Pitch : 0.03, Yaw : 359.93, Alt : 31.6200008392, Lat : 49.2835702, Lng : -123.1150204, Q1 : 0.999999761581, Q2 : 0.000298290600767, Q3 : 0.000270599906798, Q4 : -0.000554016442038}
2019-04-14 05:21:44.61: SIM {TimeUS : 45035312, Roll : 0.09, Pitch : 0.05, Yaw : 359.93, Alt : 31.7900009155, Lat : 49.2835703, Lng : -123.1150205, Q1 : 0.999999403954, Q2 : 0.00079041859135, Q3 : 0.000520429050084, Q4 : -0.000559199484996}
2019-04-14 05:21:44.71: SIM {TimeUS : 45135272, Roll : 0.1, Pitch : 0.04, Yaw : 359.93, Alt : 31.9799995422, Lat : 49.2835703, Lng : -123.1150206, Q1 : 0.999999344349, Q2 : 0.000927105080336, Q3 : 0.000428224739153, Q4 : -0.00054384325631}
2019-04-14 05:21:44.81: SIM {TimeUS : 45235232, Roll : 0.1, Pitch : 0.03, Yaw : 359.94, Alt : 32.1599998474, Lat : 49.2835703, Lng : -123.1150206, Q1 : 0.999999463558, Q2 : 0.000878826656844, Q3 : 0.000325924193021, Q4 : -0.000516633910593}
2019-04-14 05:21:44.91: SIM {TimeUS : 45335192, Roll : 0.08, Pitch : 0.04, Yaw : 359.94, Alt : 32.3600006104, Lat : 49.2835703, Lng : -123.1150207, Q1 : 0.999999523163, Q2 : 0.000773560954258, Q3 : 0.000396170769818, Q4 : -0.000486029486638}
2019-04-14 05:21:45.01: SIM {TimeUS : 45435152, Roll : 0.06, Pitch : 0.08, Yaw : 359.94, Alt : 32.5499992371, Lat : 49.2835703, Lng : -123.1150207, Q1 : 0.999999463558, Q2 : 0.000575383019168, Q3 : 0.000740184041206, Q4 : -0.000476632936625}
2019-04-14 05:21:45.11: SIM {TimeUS : 45535112, Roll : 0.07, Pitch : 0.13, Yaw : 359.94, Alt : 32.75, Lat : 49.2835703, Lng : -123.1150208, Q1 : 0.999998986721, Q2 : 0.000637787219603, Q3 : 0.00119243189692, Q4 : -0.000469344202429}
2019-04-14 05:21:45.21: SIM {TimeUS : 45635072, Roll : 0.1, Pitch : 0.17, Yaw : 359.94, Alt : 32.9399986267, Lat : 49.2835704, Lng : -123.1150208, Q1 : 0.999998271465, Q2 : 0.000921848637518, Q3 : 0.00155475211795, Q4 : -0.00046571547864}
2019-04-14 05:21:45.31: SIM {TimeUS : 45735032, Roll : 0.14, Pitch : 0.2, Yaw : 359.94, Alt : 33.1500015259, Lat : 49.2835704, Lng : -123.1150208, Q1 : 0.999997615814, Q2 : 0.00122572667897, Q3 : 0.00176259409636, Q4 : -0.000457295478554}
2019-04-14 05:21:45.41: SIM {TimeUS : 45834992, Roll : 0.15, Pitch : 0.21, Yaw : 359.94, Alt : 33.3499984741, Lat : 49.2835704, Lng : -123.1150208, Q1 : 0.999997258186, Q2 : 0.00134775904007, Q3 : 0.00185695406981, Q4 : -0.000452219916042}
2019-04-14 05:21:45.51: SIM {TimeUS : 45934952, Roll : 0.16, Pitch : 0.18, Yaw : 359.94, Alt : 33.5499992371, Lat : 49.2835704, Lng : -123.1150209, Q1 : 0.999997615814, Q2 : 0.00141508074012, Q3 : 0.0015930616064, Q4 : -0.000467754667625}
2019-04-14 05:21:45.61: SIM {TimeUS : 46034912, Roll : 0.16, Pitch : 0.14, Yaw : 359.94, Alt : 33.7599983215, Lat : 49.2835704, Lng : -123.1150209, Q1 : 0.999998092651, Q2 : 0.00141624582466, Q3 : 0.00124820019118, Q4 : -0.000491429702379}
2019-04-14 05:21:45.71: SIM {TimeUS : 46134872, Roll : 0.15, Pitch : 0.11, Yaw : 359.94, Alt : 33.9700012207, Lat : 49.2835704, Lng : -123.1150209, Q1 : 0.999998450279, Q2 : 0.0013459691545, Q3 : 0.00101820705459, Q4 : -0.000522757589351}
2019-04-14 05:21:45.81: SIM {TimeUS : 46234832, Roll : 0.14, Pitch : 0.1, Yaw : 359.93, Alt : 34.1800003052, Lat : 49.2835704, Lng : -123.1150209, Q1 : 0.999998569489, Q2 : 0.00130254856776, Q3 : 0.000880449719261, Q4 : -0.000563803710975}
2019-04-14 05:21:45.91: SIM {TimeUS : 46334792, Roll : 0.15, Pitch : 0.1, Yaw : 359.93, Alt : 34.3899993896, Lat : 49.2835704, Lng : -123.1150209, Q1 : 0.999998509884, Q2 : 0.00132019130979, Q3 : 0.000912198622245, Q4 : -0.000608113827184}
2019-04-14 05:21:46.01: SIM {TimeUS : 46434752, Roll : 0.13, Pitch : 0.08, Yaw : 359.92, Alt : 34.6100006104, Lat : 49.2835704, Lng : -123.1150209, Q1 : 0.999998748302, Q2 : 0.00121973140631, Q3 : 0.000782819988672, Q4 : -0.000637554505374}
2019-04-14 05:21:46.11: SIM {TimeUS : 46534712, Roll : 0.11, Pitch : 0.07, Yaw : 359.92, Alt : 34.8199996948, Lat : 49.2835704, Lng : -123.1150209, Q1 : 0.999999046326, Q2 : 0.00101809122134, Q3 : 0.000666187435854, Q4 : -0.000660407589749}
2019-04-14 05:21:46.21: SIM {TimeUS : 46634672, Roll : 0.08, Pitch : 0.06, Yaw : 359.92, Alt : 35.0400009155, Lat : 49.2835704, Lng : -123.1150208, Q1 : 0.999999284744, Q2 : 0.000783120980486, Q3 : 0.000572506396566, Q4 : -0.000681203790009}
2019-04-14 05:21:46.31: SIM {TimeUS : 46735465, Roll : 0.06, Pitch : 0.05, Yaw : 359.92, Alt : 35.25, Lat : 49.2835704, Lng : -123.1150208, Q1 : 0.999999523163, Q2 : 0.000544337788597, Q3 : 0.00048643728951, Q4 : -0.000698328134604}
2019-04-14 05:21:46.41: SIM {TimeUS : 46835425, Roll : 0.04, Pitch : 0.02, Yaw : 359.91, Alt : 35.4700012207, Lat : 49.2835704, Lng : -123.1150208, Q1 : 0.999999642372, Q2 : 0.000430793123087, Q3 : 0.000181060822797, Q4 : -0.000706531107426}
2019-04-14 05:21:46.51: SIM {TimeUS : 46935385, Roll : 0.04, Pitch : 0.0, Yaw : 359.91, Alt : 35.6899986267, Lat : 49.2835704, Lng : -123.1150208, Q1 : 0.999999701977, Q2 : 0.00034961901838, Q3 : -6.05988934694e-05, Q4 : -0.000711722357664}
2019-04-14 05:21:46.61: SIM {TimeUS : 47035345, Roll : 0.01, Pitch : -0.01, Yaw : 359.91, Alt : 35.9099998474, Lat : 49.2835704, Lng : -123.1150208, Q1 : 0.999999701977, Q2 : 0.000148386578076, Q3 : -0.000129956097226, Q4 : -0.000720683077816}
2019-04-14 05:21:46.71: SIM {TimeUS : 47135305, Roll : 0.01, Pitch : -0.01, Yaw : 359.91, Alt : 36.1300010681, Lat : 49.2835704, Lng : -123.1150208, Q1 : 0.999999761581, Q2 : 9.09844675334e-05, Q3 : -9.84738653642e-05, Q4 : -0.000728340295609}
2019-04-14 05:21:46.81: SIM {TimeUS : 47235265, Roll : 0.01, Pitch : 0.0, Yaw : 359.91, Alt : 36.3499984741, Lat : 49.2835704, Lng : -123.1150207, Q1 : 0.999999701977, Q2 : 0.000129946012748, Q3 : -3.73507391487e-05, Q4 : -0.000738178030588}
2019-04-14 05:21:46.91: SIM {TimeUS : 47335225, Roll : 0.0, Pitch : -0.01, Yaw : 359.91, Alt : 36.5699996948, Lat : 49.2835704, Lng : -123.1150207, Q1 : 0.999999701977, Q2 : 1.4266072867e-05, Q3 : -0.000147181082866, Q4 : -0.000751864223275}
2019-04-14 05:21:47.01: SIM {TimeUS : 47435185, Roll : -0.03, Pitch : -0.05, Yaw : 359.91, Alt : 36.7999992371, Lat : 49.2835704, Lng : -123.1150207, Q1 : 0.999999582767, Q2 : -0.000283098721411, Q3 : -0.000441218930064, Q4 : -0.000773130974267}
2019-04-14 05:21:47.11: SIM {TimeUS : 47535145, Roll : -0.07, Pitch : -0.07, Yaw : 359.9, Alt : 37.0200004578, Lat : 49.2835704, Lng : -123.1150207, Q1 : 0.99999922514, Q2 : -0.000638431229163, Q3 : -0.000688420317601, Q4 : -0.000800913607236}
2019-04-14 05:21:47.21: SIM {TimeUS : 47635105, Roll : -0.11, Pitch : -0.1, Yaw : 359.9, Alt : 37.25, Lat : 49.2835704, Lng : -123.1150207, Q1 : 0.999998807907, Q2 : -0.000982942176051, Q3 : -0.000880344421603, Q4 : -0.000830866687465}
2019-04-14 05:21:47.31: SIM {TimeUS : 47735065, Roll : -0.12, Pitch : -0.1, Yaw : 359.9, Alt : 37.4700012207, Lat : 49.2835704, Lng : -123.1150207, Q1 : 0.999998569489, Q2 : -0.00110720004886, Q3 : -0.000940418511163, Q4 : -0.000864639412612}
2019-04-14 05:21:47.41: SIM {TimeUS : 47835025, Roll : -0.11, Pitch : -0.09, Yaw : 359.89, Alt : 37.7000007629, Lat : 49.2835704, Lng : -123.1150207, Q1 : 0.999998748302, Q2 : -0.0010446223896, Q3 : -0.0008176532574, Q4 : -0.000901145860553}
2019-04-14 05:21:47.51: SIM {TimeUS : 47934985, Roll : -0.09, Pitch : -0.05, Yaw : 359.89, Alt : 37.9199981689, Lat : 49.2835704, Lng : -123.1150206, Q1 : 0.999999046326, Q2 : -0.000862335087731, Q3 : -0.000497798901051, Q4 : -0.000938218377996}
2019-04-14 05:21:47.61: SIM {TimeUS : 48034945, Roll : -0.07, Pitch : -0.02, Yaw : 359.88, Alt : 38.1500015259, Lat : 49.2835704, Lng : -123.1150206, Q1 : 0.999999284744, Q2 : -0.000657898839563, Q3 : -0.000249054108281, Q4 : -0.000976061448455}
2019-04-14 05:21:47.71: SIM {TimeUS : 48134905, Roll : -0.07, Pitch : -0.02, Yaw : 359.88, Alt : 38.3800010681, Lat : 49.2835704, Lng : -123.1150206, Q1 : 0.999999284744, Q2 : -0.000611865893006, Q3 : -0.000228338161833, Q4 : -0.00101636908948}
2019-04-14 05:21:47.81: SIM {TimeUS : 48234865, Roll : -0.07, Pitch : -0.01, Yaw : 359.88, Alt : 38.5999984741, Lat : 49.2835704, Lng : -123.1150206, Q1 : 0.99999922514, Q2 : -0.000623206258751, Q3 : -0.000134875692311, Q4 : -0.00104274030309}
2019-04-14 05:21:47.91: SIM {TimeUS : 48334825, Roll : -0.08, Pitch : 0.0, Yaw : 359.87, Alt : 38.8300018311, Lat : 49.2835704, Lng : -123.1150206, Q1 : 0.999999165535, Q2 : -0.000766666489653, Q3 : -3.09324536829e-06, Q4 : -0.00105511397123}
2019-04-14 05:21:48.01: SIM {TimeUS : 48434785, Roll : -0.08, Pitch : 0.01, Yaw : 359.87, Alt : 39.0600013733, Lat : 49.2835706, Lng : -123.1150206, Q1 : 0.999999165535, Q2 : -0.0007516471087, Q3 : 0.00011373549205, Q4 : -0.00106070295442}
2019-04-14 05:21:48.11: SIM {TimeUS : 48534745, Roll : -0.06, Pitch : 0.03, Yaw : 359.87, Alt : 39.2900009155, Lat : 49.2835706, Lng : -123.1150206, Q1 : 0.99999922514, Q2 : -0.000579557323363, Q3 : 0.00030054920353, Q4 : -0.00106337585021}
2019-04-14 05:21:48.21: SIM {TimeUS : 48634705, Roll : -0.04, Pitch : 0.03, Yaw : 359.87, Alt : 39.5200004578, Lat : 49.2835706, Lng : -123.1150207, Q1 : 0.999999344349, Q2 : -0.000380572339054, Q3 : 0.000288180250209, Q4 : -0.00105821830221}
2019-04-14 05:21:48.31: SIM {TimeUS : 48734665, Roll : -0.01, Pitch : 0.02, Yaw : 359.87, Alt : 39.75, Lat : 49.2835706, Lng : -123.1150207, Q1 : 0.999999403954, Q2 : -0.00013908672554, Q3 : 0.000253972684732, Q4 : -0.00105172663461}
2019-04-14 05:21:48.41: SIM {TimeUS : 48835458, Roll : 0.02, Pitch : 0.04, Yaw : 359.88, Alt : 39.9900016785, Lat : 49.2835706, Lng : -123.1150207, Q1 : 0.999999344349, Q2 : 0.000187919824384, Q3 : 0.000417391274823, Q4 : -0.00104538421147}
2019-04-14 05:21:48.51: SIM {TimeUS : 48935418, Roll : 0.06, Pitch : 0.07, Yaw : 359.88, Alt : 40.2200012207, Lat : 49.2835706, Lng : -123.1150207, Q1 : 0.999999046326, Q2 : 0.000538687745575, Q3 : 0.000672736903653, Q4 : -0.00104577816091}
2019-04-14 05:21:48.61: SIM {TimeUS : 49035378, Roll : 0.09, Pitch : 0.11, Yaw : 359.87, Alt : 40.4500007629, Lat : 49.2835706, Lng : -123.1150207, Q1 : 0.999998629093, Q2 : 0.000816552084871, Q3 : 0.000990733737126, Q4 : -0.00105744693428}
2019-04-14 05:21:48.71: SIM {TimeUS : 49135338, Roll : 0.08, Pitch : 0.14, Yaw : 359.87, Alt : 40.6800003052, Lat : 49.2835706, Lng : -123.1150207, Q1 : 0.999998271465, Q2 : 0.000758484529797, Q3 : 0.00130388315301, Q4 : -0.00106206140481}
2019-04-14 05:21:48.81: SIM {TimeUS : 49235298, Roll : 0.03, Pitch : 0.17, Yaw : 359.87, Alt : 40.9099998474, Lat : 49.2835706, Lng : -123.1150207, Q1 : 0.999998152256, Q2 : 0.000346123648342, Q3 : 0.00154453306459, Q4 : -0.00108457228635}
2019-04-14 05:21:48.91: SIM {TimeUS : 49335258, Roll : 0.0, Pitch : 0.19, Yaw : 359.87, Alt : 41.1500015259, Lat : 49.2835706, Lng : -123.1150207, Q1 : 0.999998033047, Q2 : -3.89322995034e-05, Q3 : 0.00166247179732, Q4 : -0.00110817432869}
2019-04-14 05:21:49.01: SIM {TimeUS : 49435218, Roll : -0.02, Pitch : 0.17, Yaw : 359.86, Alt : 41.3800010681, Lat : 49.2835706, Lng : -123.1150207, Q1 : 0.999998211861, Q2 : -0.000238339416683, Q3 : 0.00149288401008, Q4 : -0.00113920320291}
2019-04-14 05:21:49.11: SIM {TimeUS : 49535178, Roll : -0.03, Pitch : 0.13, Yaw : 359.86, Alt : 41.6100006104, Lat : 49.2835706, Lng : -123.1150207, Q1 : 0.999998569489, Q2 : -0.000268015050096, Q3 : 0.00119842309505, Q4 : -0.00118006544653}
2019-04-14 05:21:49.21: SIM {TimeUS : 49635138, Roll : -0.01, Pitch : 0.12, Yaw : 359.85, Alt : 41.8499984741, Lat : 49.2835706, Lng : -123.1150207, Q1 : 0.999998569489, Q2 : -0.000150109393871, Q3 : 0.0011267074151, Q4 : -0.0012286414858}
2019-04-14 05:21:49.31: SIM {TimeUS : 49735098, Roll : 0.02, Pitch : 0.14, Yaw : 359.85, Alt : 42.0800018311, Lat : 49.2835706, Lng : -123.1150207, Q1 : 0.999998390675, Q2 : 0.000189341852092, Q3 : 0.0012327489676, Q4 : -0.00127988960594}
2019-04-14 05:21:49.41: SIM {TimeUS : 49835058, Roll : 0.06, Pitch : 0.14, Yaw : 359.84, Alt : 42.3100013733, Lat : 49.2835706, Lng : -123.1150207, Q1 : 0.999998092651, Q2 : 0.000609500450082, Q3 : 0.00128402432892, Q4 : -0.0013299175771}
2019-04-14 05:21:49.51: SIM {TimeUS : 49935018, Roll : 0.1, Pitch : 0.12, Yaw : 359.84, Alt : 42.5499992371, Lat : 49.2835706, Lng : -123.1150207, Q1 : 0.999998033047, Q2 : 0.000912033312488, Q3 : 0.00108179985546, Q4 : -0.00137545738835}
2019-04-14 05:21:49.61: SIM {TimeUS : 50034978, Roll : 0.1, Pitch : 0.08, Yaw : 359.83, Alt : 42.7799987793, Lat : 49.2835706, Lng : -123.1150207, Q1 : 0.999998271465, Q2 : 0.000954151619226, Q3 : 0.000764048600104, Q4 : -0.00141421554144}
2019-04-14 05:21:49.71: SIM {TimeUS : 50134938, Roll : 0.07, Pitch : 0.06, Yaw : 359.83, Alt : 43.0200004578, Lat : 49.2835706, Lng : -123.1150207, Q1 : 0.999998629093, Q2 : 0.000645094260108, Q3 : 0.000531249970663, Q4 : -0.00143849500455}
2019-04-14 05:21:49.81: SIM {TimeUS : 50234898, Roll : 0.01, Pitch : 0.05, Yaw : 359.83, Alt : 43.25, Lat : 49.2835706, Lng : -123.1150207, Q1 : 0.999998807907, Q2 : 0.000157497721375, Q3 : 0.000470548256999, Q4 : -0.00145160767715}
2019-04-14 05:21:49.91: SIM {TimeUS : 50334858, Roll : -0.02, Pitch : 0.07, Yaw : 359.83, Alt : 43.4900016785, Lat : 49.2835704, Lng : -123.1150207, Q1 : 0.999998688698, Q2 : -0.00019560995861, Q3 : 0.000678486889228, Q4 : -0.00145479035564}
2019-04-14 05:21:50.01: SIM {TimeUS : 50434818, Roll : -0.04, Pitch : 0.09, Yaw : 359.83, Alt : 43.7200012207, Lat : 49.2835704, Lng : -123.1150207, Q1 : 0.999998509884, Q2 : -0.000383219390642, Q3 : 0.000820183136966, Q4 : -0.00145477906335}
2019-04-14 05:21:50.11: SIM {TimeUS : 50534778, Roll : -0.04, Pitch : 0.08, Yaw : 359.83, Alt : 43.9599990845, Lat : 49.2835704, Lng : -123.1150207, Q1 : 0.999998569489, Q2 : -0.000382585829357, Q3 : 0.000740361050703, Q4 : -0.00146184652112}
2019-04-14 05:21:50.21: SIM {TimeUS : 50634738, Roll : -0.05, Pitch : 0.06, Yaw : 359.83, Alt : 44.1899986267, Lat : 49.2835704, Lng : -123.1150206, Q1 : 0.999998629093, Q2 : -0.000457876129076, Q3 : 0.000600217666943, Q4 : -0.00148339115549}
2019-04-14 05:21:50.31: SIM {TimeUS : 50734698, Roll : -0.05, Pitch : 0.04, Yaw : 359.82, Alt : 44.4300003052, Lat : 49.2835704, Lng : -123.1150206, Q1 : 0.999998688698, Q2 : -0.000451871135738, Q3 : 0.000431834865594, Q4 : -0.00150787935127}
2019-04-14 05:21:50.41: SIM {TimeUS : 50834658, Roll : -0.03, Pitch : 0.03, Yaw : 359.82, Alt : 44.6699981689, Lat : 49.2835704, Lng : -123.1150206, Q1 : 0.999998688698, Q2 : -0.000311601208523, Q3 : 0.000326446373947, Q4 : -0.00153939786833}
2019-04-14 05:21:50.51: SIM {TimeUS : 50935451, Roll : -0.02, Pitch : 0.03, Yaw : 359.81, Alt : 44.9000015259, Lat : 49.2835704, Lng : -123.1150206, Q1 : 0.999998748302, Q2 : -0.000177420544787, Q3 : 0.000273066980299, Q4 : -0.00157377927098}
2019-04-14 05:21:50.61: SIM {TimeUS : 51035411, Roll : -0.02, Pitch : 0.01, Yaw : 359.81, Alt : 45.1399993896, Lat : 49.2835704, Lng : -123.1150206, Q1 : 0.999998688698, Q2 : -0.000198287860258, Q3 : 9.61754194577e-05, Q4 : -0.00160871027038}
2019-04-14 05:21:50.71: SIM {TimeUS : 51135371, Roll : -0.02, Pitch : -0.02, Yaw : 359.81, Alt : 45.3800010681, Lat : 49.2835703, Lng : -123.1150206, Q1 : 0.999998629093, Q2 : -0.000257878680713, Q3 : -0.000189144091564, Q4 : -0.00164271134418}
2019-04-14 05:21:50.81: SIM {TimeUS : 51235331, Roll : -0.03, Pitch : -0.04, Yaw : 359.8, Alt : 45.6100006104, Lat : 49.2835703, Lng : -123.1150206, Q1 : 0.999998450279, Q2 : -0.000308179995045, Q3 : -0.000400933175115, Q4 : -0.00167577387765}
2019-04-14 05:21:50.91: SIM {TimeUS : 51335291, Roll : -0.03, Pitch : -0.05, Yaw : 359.8, Alt : 45.8400001526, Lat : 49.2835703, Lng : -123.1150206, Q1 : 0.999998390675, Q2 : -0.00027369565214, Q3 : -0.000509242876433, Q4 : -0.00170661858283}
2019-04-14 05:21:51.01: SIM {TimeUS : 51435251, Roll : -0.03, Pitch : -0.05, Yaw : 359.8, Alt : 46.0699996948, Lat : 49.2835703, Lng : -123.1150206, Q1 : 0.99999833107, Q2 : -0.000327186891809, Q3 : -0.000496658380143, Q4 : -0.00173480354715}
2019-04-14 05:21:51.11: SIM {TimeUS : 51535211, Roll : -0.05, Pitch : -0.04, Yaw : 359.79, Alt : 46.2999992371, Lat : 49.2835703, Lng : -123.1150206, Q1 : 0.999998211861, Q2 : -0.000521572597791, Q3 : -0.000395393726649, Q4 : -0.00175910617691}
2019-04-14 05:21:51.21: SIM {TimeUS : 51635171, Roll : -0.09, Pitch : -0.03, Yaw : 359.79, Alt : 46.5200004578, Lat : 49.2835703, Lng : -123.1150206, Q1 : 0.999998033047, Q2 : -0.000805815274362, Q3 : -0.000303925975459, Q4 : -0.00178440380841}
2019-04-14 05:21:51.31: SIM {TimeUS : 51735131, Roll : -0.11, Pitch : -0.02, Yaw : 359.79, Alt : 46.7400016785, Lat : 49.2835703, Lng : -123.1150206, Q1 : 0.999997854233, Q2 : -0.000993586611003, Q3 : -0.000250881188549, Q4 : -0.0018058726564}
2019-04-14 05:21:51.41: SIM {TimeUS : 51835091, Roll : -0.11, Pitch : -0.01, Yaw : 359.79, Alt : 46.9599990845, Lat : 49.2835703, Lng : -123.1150206, Q1 : 0.999997794628, Q2 : -0.00103817111813, Q3 : -0.000154947148985, Q4 : -0.00182290677913}
2019-04-14 05:21:51.51: SIM {TimeUS : 51935051, Roll : -0.1, Pitch : 0.0, Yaw : 359.78, Alt : 47.1599998474, Lat : 49.2835703, Lng : -123.1150206, Q1 : 0.999997913837, Q2 : -0.000934454903472, Q3 : 3.78490003641e-05, Q4 : -0.00183669768739}
2019-04-14 05:21:51.61: SIM {TimeUS : 52035011, Roll : -0.08, Pitch : 0.01, Yaw : 359.78, Alt : 47.3600006104, Lat : 49.2835703, Lng : -123.1150206, Q1 : 0.999998033047, Q2 : -0.000732420419808, Q3 : 0.000124447004055, Q4 : -0.0018509599613}
2019-04-14 05:21:51.71: SIM {TimeUS : 52134971, Roll : -0.06, Pitch : 0.0, Yaw : 359.78, Alt : 47.5499992371, Lat : 49.2835703, Lng : -123.1150206, Q1 : 0.999998092651, Q2 : -0.000539798638783, Q3 : 7.82870847615e-05, Q4 : -0.00187115406152}
2019-04-14 05:21:51.81: SIM {TimeUS : 52234931, Roll : -0.06, Pitch : -0.01, Yaw : 359.78, Alt : 47.7299995422, Lat : 49.2835703, Lng : -123.1150206, Q1 : 0.999998033047, Q2 : -0.000527498777956, Q3 : -0.000128144936753, Q4 : -0.00189453922212}
2019-04-14 05:21:51.91: SIM {TimeUS : 52334891, Roll : -0.05, Pitch : -0.04, Yaw : 359.77, Alt : 47.8899993896, Lat : 49.2835703, Lng : -123.1150206, Q1 : 0.999997973442, Q2 : -0.000502453534864, Q3 : -0.000409378350014, Q4 : -0.0019207932055}
2019-04-14 05:21:52.01: SIM {TimeUS : 52434851, Roll : -0.04, Pitch : -0.07, Yaw : 359.77, Alt : 48.0499992371, Lat : 49.2835703, Lng : -123.1150206, Q1 : 0.999997794628, Q2 : -0.000366497843061, Q3 : -0.000674913055263, Q4 : -0.00194959237706}
2019-04-14 05:21:52.11: SIM {TimeUS : 52534811, Roll : -0.03, Pitch : -0.09, Yaw : 359.77, Alt : 48.1899986267, Lat : 49.2835703, Lng : -123.1150206, Q1 : 0.999997615814, Q2 : -0.000278808962321, Q3 : -0.000858172541484, Q4 : -0.00198015244678}
2019-04-14 05:21:52.21: SIM {TimeUS : 52634771, Roll : -0.02, Pitch : -0.11, Yaw : 359.76, Alt : 48.3300018311, Lat : 49.2835703, Lng : -123.1150206, Q1 : 0.999997496605, Q2 : -0.000263553636614, Q3 : -0.000974836759269, Q4 : -0.00201165652834}
2019-04-14 05:21:52.31: SIM {TimeUS : 52734731, Roll : 0.0, Pitch : -0.1, Yaw : 359.76, Alt : 48.4500007629, Lat : 49.2835703, Lng : -123.1150206, Q1 : 0.999997496605, Q2 : -3.3658790926e-05, Q3 : -0.000900057784747, Q4 : -0.00204138620757}
2019-04-14 05:21:52.41: SIM {TimeUS : 52834691, Roll : 0.02, Pitch : -0.08, Yaw : 359.76, Alt : 48.5499992371, Lat : 49.2835703, Lng : -123.1150206, Q1 : 0.99999755621, Q2 : 0.000243154019699, Q3 : -0.000704713806044, Q4 : -0.00206964276731}
2019-04-14 05:21:52.51: SIM {TimeUS : 52935484, Roll : 0.05, Pitch : -0.04, Yaw : 359.75, Alt : 48.6500015259, Lat : 49.2835703, Lng : -123.1150206, Q1 : 0.999997615814, Q2 : 0.000489291502163, Q3 : -0.000432578934124, Q4 : -0.00209550280124}
2019-04-14 05:21:52.61: SIM {TimeUS : 53035444, Roll : 0.06, Pitch : -0.02, Yaw : 359.75, Alt : 48.7299995422, Lat : 49.2835703, Lng : -123.1150206, Q1 : 0.99999755621, Q2 : 0.000591104151681, Q3 : -0.000198819732759, Q4 : -0.0021266695112}
2019-04-14 05:21:52.71: SIM {TimeUS : 53135404, Roll : 0.07, Pitch : -0.01, Yaw : 359.75, Alt : 48.8100013733, Lat : 49.2835703, Lng : -123.1150207, Q1 : 0.999997437, Q2 : 0.000671321584377, Q3 : -0.00011757323955, Q4 : -0.00216060783714}
2019-04-14 05:21:52.81: SIM {TimeUS : 53235364, Roll : 0.07, Pitch : -0.03, Yaw : 359.74, Alt : 48.8699989319, Lat : 49.2835703, Lng : -123.1150207, Q1 : 0.999997317791, Q2 : 0.000659787212498, Q3 : -0.000313147174893, Q4 : -0.00219221506268}
2019-04-14 05:21:52.91: SIM {TimeUS : 53335324, Roll : 0.12, Pitch : -0.14, Yaw : 359.74, Alt : 48.9300003052, Lat : 49.2835703, Lng : -123.1150207, Q1 : 0.999996125698, Q2 : 0.00105092755985, Q3 : -0.00130138627719, Q4 : -0.00222262949683}
2019-04-14 05:21:53.01: SIM {TimeUS : 53435284, Roll : 0.3, Pitch : -0.43, Yaw : 359.74, Alt : 48.9700012207, Lat : 49.2835703, Lng : -123.1150207, Q1 : 0.999986708164, Q2 : 0.00264540244825, Q3 : -0.00381721602753, Q4 : -0.00224688905291}
2019-04-14 05:21:53.11: SIM {TimeUS : 53535244, Roll : 0.64, Pitch : -0.94, Yaw : 359.73, Alt : 49.0099983215, Lat : 49.2835703, Lng : -123.1150207, Q1 : 0.999947786331, Q2 : 0.00559757556766, Q3 : -0.00824330653995, Q4 : -0.00225853361189}
2019-04-14 05:21:53.21: SIM {TimeUS : 53635204, Roll : 1.12, Pitch : -1.63, Yaw : 359.72, Alt : 49.0499992371, Lat : 49.2835704, Lng : -123.1150206, Q1 : 0.999847471714, Q2 : 0.00977462250739, Q3 : -0.014296782203, Q4 : -0.00224812258966}
2019-04-14 05:21:53.31: SIM {TimeUS : 53735164, Roll : 1.71, Pitch : -2.44, Yaw : 359.71, Alt : 49.0800018311, Lat : 49.2835704, Lng : -123.1150206, Q1 : 0.99965763092, Q2 : 0.0149332731962, Q3 : -0.0213739555329, Q4 : -0.0022009529639}
2019-04-14 05:21:53.41: SIM {TimeUS : 53835124, Roll : 2.33, Pitch : -3.27, Yaw : 359.69, Alt : 49.0999984741, Lat : 49.2835706, Lng : -123.1150205, Q1 : 0.999383211136, Q2 : 0.0202467385679, Q3 : -0.0286163277924, Q4 : -0.00210318015888}
2019-04-14 05:21:53.51: SIM {TimeUS : 53935084, Roll : 2.84, Pitch : -4.0, Yaw : 359.67, Alt : 49.1199989319, Lat : 49.2835707, Lng : -123.1150204, Q1 : 0.999078691006, Q2 : 0.0247387997806, Q3 : -0.0350138582289, Q4 : -0.00195101031568}
2019-04-14 05:21:53.61: SIM {TimeUS : 54035044, Roll : 3.22, Pitch : -4.57, Yaw : 359.67, Alt : 49.1399993896, Lat : 49.2835709, Lng : -123.1150202, Q1 : 0.998807489872, Q2 : 0.0280070770532, Q3 : -0.0399533510208, Q4 : -0.00174530455843}
2019-04-14 05:21:53.71: SIM {TimeUS : 54135004, Roll : 3.48, Pitch : -5.0, Yaw : 359.67, Alt : 49.1599998474, Lat : 49.283571, Lng : -123.11502, Q1 : 0.998586058617, Q2 : 0.0302157942206, Q3 : -0.04371060431, Q4 : -0.0015094508417}
2019-04-14 05:21:53.81: SIM {TimeUS : 54234964, Roll : 3.67, Pitch : -5.33, Yaw : 359.68, Alt : 49.1699981689, Lat : 49.2835714, Lng : -123.1150198, Q1 : 0.998401761055, Q2 : 0.0319141708314, Q3 : -0.0466256774962, Q4 : -0.0012482261518}
2019-04-14 05:21:53.91: SIM {TimeUS : 54334924, Roll : 3.86, Pitch : -5.62, Yaw : 359.69, Alt : 49.1800003052, Lat : 49.2835718, Lng : -123.1150194, Q1 : 0.998229682446, Q2 : 0.0335589833558, Q3 : -0.0490954406559, Q4 : -0.000981070566922}
2019-04-14 05:21:54.01: SIM {TimeUS : 54434884, Roll : 4.07, Pitch : -5.92, Yaw : 359.7, Alt : 49.1899986267, Lat : 49.2835721, Lng : -123.115019, Q1 : 0.998033344746, Q2 : 0.0353888235986, Q3 : -0.0517363138497, Q4 : -0.000717212620657}
2019-04-14 05:21:54.11: SIM {TimeUS : 54534844, Roll : 4.29, Pitch : -6.23, Yaw : 359.71, Alt : 49.2000007629, Lat : 49.2835727, Lng : -123.1150185, Q1 : 0.997823417187, Q2 : 0.0372607633471, Q3 : -0.0544042438269, Q4 : -0.000459615868749}
2019-04-14 05:21:54.21: SIM {TimeUS : 54634804, Roll : 4.47, Pitch : -6.5, Yaw : 359.71, Alt : 49.2099990845, Lat : 49.2835732, Lng : -123.1150179, Q1 : 0.997627615929, Q2 : 0.0388787053525, Q3 : -0.0568115897477, Q4 : -0.000219705427298}
2019-04-14 05:21:54.31: SIM {TimeUS : 54734764, Roll : 4.61, Pitch : -6.74, Yaw : 359.72, Alt : 49.2200012207, Lat : 49.2835738, Lng : -123.1150173, Q1 : 0.997461497784, Q2 : 0.0400655753911, Q3 : -0.0588666088879, Q4 : -1.75216773641e-05}
2019-04-14 05:21:54.41: SIM {TimeUS : 54834724, Roll : 4.73, Pitch : -6.92, Yaw : 359.73, Alt : 49.2299995422, Lat : 49.2835745, Lng : -123.1150166, Q1 : 0.997327625751, Q2 : 0.0410529710352, Q3 : -0.0604343302548, Q4 : 0.000155031550094}
2019-04-14 05:21:54.51: SIM {TimeUS : 54934684, Roll : 4.82, Pitch : -7.05, Yaw : 359.73, Alt : 49.2299995422, Lat : 49.2835751, Lng : -123.1150158, Q1 : 0.997223377228, Q2 : 0.0418925583363, Q3 : -0.061566542834, Q4 : 0.000295501202345}
2019-04-14 05:21:54.61: SIM {TimeUS : 55035477, Roll : 4.89, Pitch : -7.14, Yaw : 359.73, Alt : 49.2400016785, Lat : 49.2835759, Lng : -123.115015, Q1 : 0.99714922905, Q2 : 0.0424667485058, Q3 : -0.0623688772321, Q4 : 0.000391537905671}
2019-04-14 05:21:54.71: SIM {TimeUS : 55135437, Roll : 4.99, Pitch : -7.24, Yaw : 359.74, Alt : 49.2400016785, Lat : 49.2835768, Lng : -123.1150141, Q1 : 0.997060954571, Q2 : 0.0433328635991, Q3 : -0.0631780922413, Q4 : 0.000499799149111}
2019-04-14 05:21:54.81: SIM {TimeUS : 55235397, Roll : 5.3, Pitch : -7.28, Yaw : 359.92, Alt : 49.25, Lat : 49.2835776, Lng : -123.1150132, Q1 : 0.996908783913, Q2 : 0.0461673736572, Q3 : -0.0635299235582, Q4 : 0.00232095993124}
2019-04-14 05:21:54.91: SIM {TimeUS : 55335357, Roll : 5.88, Pitch : -7.3, Yaw : 0.88, Alt : 49.25, Lat : 49.2835786, Lng : -123.1150122, Q1 : 0.996598601341, Q2 : 0.0517482049763, Q3 : -0.0631932318211, Q4 : 0.0109539451078}
2019-04-14 05:21:55.01: SIM {TimeUS : 55435317, Roll : 6.46, Pitch : -7.47, Yaw : 3.24, Alt : 49.25, Lat : 49.2835795, Lng : -123.1150111, Q1 : 0.995782375336, Q2 : 0.0580775924027, Q3 : -0.0634683147073, Q4 : 0.0318786799908}
2019-04-14 05:21:55.11: SIM {TimeUS : 55535277, Roll : 6.68, Pitch : -7.98, Yaw : 7.21, Alt : 49.25, Lat : 49.2835806, Lng : -123.1150099, Q1 : 0.993645906448, Q2 : 0.0624258928001, Q3 : -0.0657123029232, Q4 : 0.0667290017009}
2019-04-14 05:21:55.21: SIM {TimeUS : 55635237, Roll : 6.32, Pitch : -8.82, Yaw : 12.67, Alt : 49.2599983215, Lat : 49.2835818, Lng : -123.1150086, Q1 : 0.988966166973, Q2 : 0.0631210058928, Q3 : -0.0702754184604, Q4 : 0.114118903875}
2019-04-14 05:21:55.31: SIM {TimeUS : 55735197, Roll : 5.11, Pitch : -9.88, Yaw : 19.31, Alt : 49.2599983215, Lat : 49.2835829, Lng : -123.1150072, Q1 : 0.980538070202, Q2 : 0.0582798756659, Q3 : -0.0773504674435, Q4 : 0.170779123902}
2019-04-14 05:21:55.41: SIM {TimeUS : 55835157, Roll : 2.92, Pitch : -10.92, Yaw : 26.49, Alt : 49.2599983215, Lat : 49.283584, Lng : -123.1150058, Q1 : 0.968099892139, Q2 : 0.046529661864, Q3 : -0.0867994204164, Q4 : 0.230398520827}
2019-04-14 05:21:55.51: SIM {TimeUS : 55935117, Roll : 0.08, Pitch : -11.7, Yaw : 33.4, Alt : 49.2599983215, Lat : 49.2835853, Lng : -123.1150042, Q1 : 0.952787697315, Q2 : 0.0299974028021, Q3 : -0.097413815558, Q4 : 0.286018073559}
2019-04-14 05:21:55.61: SIM {TimeUS : 56035077, Roll : -2.77, Pitch : -12.12, Yaw : 39.33, Alt : 49.2599983215, Lat : 49.2835866, Lng : -123.1150026, Q1 : 0.936986088753, Q2 : 0.0128338802606, Q3 : -0.107526339591, Q4 : 0.332160204649}
2019-04-14 05:21:55.71: SIM {TimeUS : 56135037, Roll : -5.04, Pitch : -12.28, Yaw : 43.73, Alt : 49.2700004578, Lat : 49.2835879, Lng : -123.115001, Q1 : 0.923582494259, Q2 : -0.000796656880993, Q3 : -0.115545868874, Q4 : 0.365573316813}
2019-04-14 05:21:55.81: SIM {TimeUS : 56234997, Roll : -6.37, Pitch : -12.36, Yaw : 46.38, Alt : 49.2700004578, Lat : 49.2835893, Lng : -123.1149993, Q1 : 0.914767444134, Q2 : -0.00846631638706, Q3 : -0.120637707412, Q4 : 0.385454773903}
2019-04-14 05:21:55.91: SIM {TimeUS : 56334957, Roll : -6.74, Pitch : -12.5, Yaw : 47.39, Alt : 49.2700004578, Lat : 49.283591, Lng : -123.1149977, Q1 : 0.911229431629, Q2 : -0.00984833668917, Q3 : -0.123051151633, Q4 : 0.392966121435}
2019-04-14 05:21:56.01: SIM {TimeUS : 56434917, Roll : -6.29, Pitch : -12.78, Yaw : 47.01, Alt : 49.2700004578, Lat : 49.2835927, Lng : -123.114996, Q1 : 0.912369191647, Q2 : -0.00570306740701, Q3 : -0.1237237975, Q4 : 0.390182465315}
2019-04-14 05:21:56.11: SIM {TimeUS : 56534877, Roll : -5.23, Pitch : -13.26, Yaw : 45.56, Alt : 49.2700004578, Lat : 49.2835944, Lng : -123.1149944, Q1 : 0.916887283325, Q2 : 0.00280928728171, Q3 : -0.123932622373, Q4 : 0.379408240318}
2019-04-14 05:21:56.21: SIM {TimeUS : 56634837, Roll : -3.81, Pitch : -13.87, Yaw : 43.37, Alt : 49.2700004578, Lat : 49.2835963, Lng : -123.1149926, Q1 : 0.923390865326, Q2 : 0.013918585144, Q3 : -0.124350696802, Q4 : 0.362894713879}
2019-04-14 05:21:56.31: SIM {TimeUS : 56734797, Roll : -2.21, Pitch : -14.5, Yaw : 40.73, Alt : 49.2700004578, Lat : 49.2835982, Lng : -123.1149909, Q1 : 0.930662691593, Q2 : 0.0259521603584, Q3 : -0.125021934509, Q4 : 0.342874616385}
2019-04-14 05:21:56.41: SIM {TimeUS : 56834757, Roll : -0.62, Pitch : -15.05, Yaw : 37.94, Alt : 49.2700004578, Lat : 49.2836001, Lng : -123.1149891, Q1 : 0.937734425068, Q2 : 0.0374505445361, Q3 : -0.12562648952, Q4 : 0.321666836739}
2019-04-14 05:21:56.51: SIM {TimeUS : 56934717, Roll : 0.78, Pitch : -15.4, Yaw : 35.34, Alt : 49.2799987793, Lat : 49.2836023, Lng : -123.1149871, Q1 : 0.943916916847, Q2 : 0.0471821203828, Q3 : -0.125666081905, Q4 : 0.301666617393}
2019-04-14 05:21:56.61: SIM {TimeUS : 57034677, Roll : 1.91, Pitch : -15.57, Yaw : 33.16, Alt : 49.2799987793, Lat : 49.2836043, Lng : -123.1149852, Q1 : 0.948786795139, Q2 : 0.0544917918742, Q3 : -0.125104054809, Q4 : 0.284926593304}
2019-04-14 05:21:56.71: SIM {TimeUS : 57135470, Roll : 2.65, Pitch : -15.59, Yaw : 31.6, Alt : 49.2799987793, Lat : 49.2836066, Lng : -123.1149831, Q1 : 0.952200949192, Q2 : 0.0590665340424, Q3 : -0.124281667173, Q4 : 0.272724330425}
2019-04-14 05:21:56.81: SIM {TimeUS : 57235430, Roll : 2.98, Pitch : -15.56, Yaw : 30.72, Alt : 49.2799987793, Lat : 49.2836087, Lng : -123.1149809, Q1 : 0.954123675823, Q2 : 0.0607408024371, Q3 : -0.123669214547, Q4 : 0.265827983618}
2019-04-14 05:21:56.91: SIM {TimeUS : 57335390, Roll : 2.92, Pitch : -15.53, Yaw : 30.51, Alt : 49.2799987793, Lat : 49.283611, Lng : -123.1149785, Q1 : 0.954676628113, Q2 : 0.0599908940494, Q3 : -0.123694293201, Q4 : 0.263995140791}
2019-04-14 05:21:57.01: SIM {TimeUS : 57435350, Roll : 2.54, Pitch : -15.57, Yaw : 30.86, Alt : 49.2799987793, Lat : 49.2836134, Lng : -123.1149761, Q1 : 0.95401185751, Q2 : 0.057288184762, Q3 : -0.124701224267, Q4 : 0.266512721777}
2019-04-14 05:21:57.11: SIM {TimeUS : 57535310, Roll : 1.94, Pitch : -15.67, Yaw : 31.64, Alt : 49.2799987793, Lat : 49.2836157, Lng : -123.1149736, Q1 : 0.952345013618, Q2 : 0.0533774830401, Q3 : -0.126568928361, Q4 : 0.272342085838}
2019-04-14 05:21:57.21: SIM {TimeUS : 57635270, Roll : 1.22, Pitch : -15.8, Yaw : 32.7, Alt : 49.2799987793, Lat : 49.2836181, Lng : -123.114971, Q1 : 0.94996958971, Q2 : 0.0488535799086, Q3 : -0.128985077143, Q4 : 0.280239075422}
2019-04-14 05:21:57.31: SIM {TimeUS : 57735230, Roll : 0.47, Pitch : -15.95, Yaw : 33.86, Alt : 49.2799987793, Lat : 49.2836205, Lng : -123.1149683, Q1 : 0.947220563889, Q2 : 0.0443597957492, Q3 : -0.131526902318, Q4 : 0.288974195719}
2019-04-14 05:21:57.41: SIM {TimeUS : 57835190, Roll : -0.18, Pitch : -16.07, Yaw : 34.98, Alt : 49.2799987793, Lat : 49.283623, Lng : -123.1149656, Q1 : 0.944440484047, Q2 : 0.0405169911683, Q3 : -0.133844509721, Q4 : 0.297449618578}
2019-04-14 05:21:57.51: SIM {TimeUS : 57935150, Roll : -0.7, Pitch : -16.18, Yaw : 35.95, Alt : 49.2799987793, Lat : 49.2836255, Lng : -123.1149629, Q1 : 0.941939592361, Q2 : 0.0376519672573, Q3 : -0.135803684592, Q4 : 0.304777771235}
2019-04-14 05:21:57.61: SIM {TimeUS : 58035110, Roll : -1.06, Pitch : -16.27, Yaw : 36.69, Alt : 49.2799987793, Lat : 49.283628, Lng : -123.1149601, Q1 : 0.939978778362, Q2 : 0.0357910916209, Q3 : -0.137283816934, Q4 : 0.310341864824}
2019-04-14 05:21:57.71: SIM {TimeUS : 58135070, Roll : -1.27, Pitch : -16.35, Yaw : 37.15, Alt : 49.2799987793, Lat : 49.2836305, Lng : -123.1149573, Q1 : 0.938704550266, Q2 : 0.0349006131291, Q3 : -0.138291314244, Q4 : 0.31383317709}
2019-04-14 05:21:57.81: SIM {TimeUS : 58235030, Roll : -1.31, Pitch : -16.38, Yaw : 37.33, Alt : 49.2799987793, Lat : 49.2836333, Lng : -123.1149543, Q1 : 0.938185691833, Q2 : 0.0348777361214, Q3 : -0.138645470142, Q4 : 0.315227866173}
2019-04-14 05:21:57.91: SIM {TimeUS : 58334990, Roll : -1.19, Pitch : -16.4, Yaw : 37.26, Alt : 49.2799987793, Lat : 49.2836359, Lng : -123.1149516, Q1 : 0.938332140446, Q2 : 0.0358072146773, Q3 : -0.138447359204, Q4 : 0.314774543047}
2019-04-14 05:21:58.01: SIM {TimeUS : 58434950, Roll : -0.97, Pitch : -16.41, Yaw : 36.98, Alt : 49.2799987793, Lat : 49.2836387, Lng : -123.1149487, Q1 : 0.938996255398, Q2 : 0.0373153947294, Q3 : -0.138009250164, Q4 : 0.312805205584}
2019-04-14 05:21:58.11: SIM {TimeUS : 58534910, Roll : -0.67, Pitch : -16.43, Yaw : 36.57, Alt : 49.2799987793, Lat : 49.2836414, Lng : -123.1149457, Q1 : 0.939975440502, Q2 : 0.0393271557987, Q3 : -0.137573346496, Q4 : 0.309795320034}
2019-04-14 05:21:58.21: SIM {TimeUS : 58634870, Roll : -0.33, Pitch : -16.46, Yaw : 36.1, Alt : 49.2799987793, Lat : 49.2836443, Lng : -123.1149428, Q1 : 0.941109836102, Q2 : 0.0416160859168, Q3 : -0.137049406767, Q4 : 0.306264311075}
2019-04-14 05:21:58.31: SIM {TimeUS : 58734830, Roll : -0.01, Pitch : -16.49, Yaw : 35.61, Alt : 49.2799987793, Lat : 49.283647, Lng : -123.1149397, Q1 : 0.942249774933, Q2 : 0.0437375940382, Q3 : -0.136579155922, Q4 : 0.302652537823}
2019-04-14 05:21:58.41: SIM {TimeUS : 58834790, Roll : 0.24, Pitch : -16.53, Yaw : 35.17, Alt : 49.2799987793, Lat : 49.2836499, Lng : -123.1149367, Q1 : 0.943242967129, Q2 : 0.0454619377851, Q3 : -0.136456698179, Q4 : 0.299341768026}
2019-04-14 05:21:58.51: SIM {TimeUS : 58934750, Roll : 0.42, Pitch : -16.59, Yaw : 34.82, Alt : 49.2799987793, Lat : 49.2836529, Lng : -123.1149337, Q1 : 0.944012820721, Q2 : 0.0466660186648, Q3 : -0.136645674706, Q4 : 0.296631127596}
2019-04-14 05:21:58.61: SIM {TimeUS : 59034710, Roll : 0.51, Pitch : -16.67, Yaw : 34.58, Alt : 49.2799987793, Lat : 49.2836558, Lng : -123.1149305, Q1 : 0.944511055946, Q2 : 0.0473547466099, Q3 : -0.137141659856, Q4 : 0.29470077157}
2019-04-14 05:21:58.71: SIM {TimeUS : 59134670, Roll : 0.53, Pitch : -16.73, Yaw : 34.45, Alt : 49.2799987793, Lat : 49.2836586, Lng : -123.1149274, Q1 : 0.94476121664, Q2 : 0.0475380346179, Q3 : -0.137657240033, Q4 : 0.293627142906}
2019-04-14 05:21:58.81: SIM {TimeUS : 59235463, Roll : 0.5, Pitch : -16.78, Yaw : 34.42, Alt : 49.2799987793, Lat : 49.2836616, Lng : -123.1149242, Q1 : 0.944781124592, Q2 : 0.0473506860435, Q3 : -0.138085559011, Q4 : 0.293392151594}
2019-04-14 05:21:58.91: SIM {TimeUS : 59335423, Roll : 0.43, Pitch : -16.8, Yaw : 34.49, Alt : 49.2900009155, Lat : 49.2836646, Lng : -123.114921, Q1 : 0.944607853889, Q2 : 0.0468918904662, Q3 : -0.138444840908, Q4 : 0.29385393858}
2019-04-14 05:21:59.01: SIM {TimeUS : 59435383, Roll : 0.33, Pitch : -16.82, Yaw : 34.63, Alt : 49.2900009155, Lat : 49.2836676, Lng : -123.1149177, Q1 : 0.944282531738, Q2 : 0.0462646186352, Q3 : -0.138809248805, Q4 : 0.294825464487}
2019-04-14 05:21:59.11: SIM {TimeUS : 59535343, Roll : 0.22, Pitch : -16.84, Yaw : 34.8, Alt : 49.2900009155, Lat : 49.2836706, Lng : -123.1149145, Q1 : 0.943858444691, Q2 : 0.0456385985017, Q3 : -0.139174744487, Q4 : 0.296105921268}
2019-04-14 05:21:59.21: SIM {TimeUS : 59635303, Roll : 0.11, Pitch : -16.87, Yaw : 34.98, Alt : 49.2900009155, Lat : 49.2836736, Lng : -123.1149112, Q1 : 0.943389475346, Q2 : 0.0450369678438, Q3 : -0.139637336135, Q4 : 0.297471761703}
2019-04-14 05:21:59.31: SIM {TimeUS : 59735263, Roll : 0.0, Pitch : -16.9, Yaw : 35.15, Alt : 49.2900009155, Lat : 49.2836767, Lng : -123.1149079, Q1 : 0.94294655323, Q2 : 0.0444730296731, Q3 : -0.140105336905, Q4 : 0.298738211393}
2019-04-14 05:21:59.41: SIM {TimeUS : 59835223, Roll : -0.07, Pitch : -16.93, Yaw : 35.29, Alt : 49.2900009155, Lat : 49.2836797, Lng : -123.1149045, Q1 : 0.942575514317, Q2 : 0.0440343022346, Q3 : -0.140550449491, Q4 : 0.299763262272}
2019-04-14 05:21:59.51: SIM {TimeUS : 59935183, Roll : -0.13, Pitch : -16.98, Yaw : 35.39, Alt : 49.2900009155, Lat : 49.2836828, Lng : -123.1149012, Q1 : 0.942295074463, Q2 : 0.0437954291701, Q3 : -0.140998467803, Q4 : 0.300468683243}
2019-04-14 05:21:59.61: SIM {TimeUS : 60035143, Roll : -0.16, Pitch : -17.02, Yaw : 35.44, Alt : 49.2900009155, Lat : 49.2836859, Lng : -123.1148978, Q1 : 0.942126572132, Q2 : 0.0436988733709, Q3 : -0.141405388713, Q4 : 0.300819724798}
2019-04-14 05:21:59.71: SIM {TimeUS : 60135103, Roll : -0.18, Pitch : -17.05, Yaw : 35.44, Alt : 49.2900009155, Lat : 49.283689, Lng : -123.1148944, Q1 : 0.942081689835, Q2 : 0.0436346493661, Q3 : -0.141755253077, Q4 : 0.300804942846}
2019-04-14 05:21:59.81: SIM {TimeUS : 60235063, Roll : -0.18, Pitch : -17.08, Yaw : 35.4, Alt : 49.2900009155, Lat : 49.2836923, Lng : -123.114891, Q1 : 0.942149877548, Q2 : 0.0436136797071, Q3 : -0.14199206233, Q4 : 0.300482541323}
2019-04-14 05:21:59.91: SIM {TimeUS : 60335023, Roll : -0.18, Pitch : -17.11, Yaw : 35.33, Alt : 49.2900009155, Lat : 49.2836954, Lng : -123.1148876, Q1 : 0.942288696766, Q2 : 0.0436772108078, Q3 : -0.142237722874, Q4 : 0.299921303988}
2019-04-14 05:22:00.01: SIM {TimeUS : 60434983, Roll : -0.13, Pitch : -17.15, Yaw : 35.24, Alt : 49.2999992371, Lat : 49.2836986, Lng : -123.1148842, Q1 : 0.942453980446, Q2 : 0.0440504141152, Q3 : -0.142481148243, Q4 : 0.299230992794}
2019-04-14 05:22:00.11: SIM {TimeUS : 60534943, Roll : -0.06, Pitch : -17.19, Yaw : 35.15, Alt : 49.2999992371, Lat : 49.2837017, Lng : -123.1148807, Q1 : 0.942629754543, Q2 : 0.0446409545839, Q3 : -0.142695069313, Q4 : 0.298486918211}
2019-04-14 05:22:00.21: SIM {TimeUS : 60634903, Roll : 0.02, Pitch : -17.23, Yaw : 35.05, Alt : 49.2999992371, Lat : 49.283705, Lng : -123.1148773, Q1 : 0.94280320406, Q2 : 0.0453189574182, Q3 : -0.142852649093, Q4 : 0.297760605812}
2019-04-14 05:22:00.31: SIM {TimeUS : 60734863, Roll : 0.1, Pitch : -17.27, Yaw : 34.96, Alt : 49.2999992371, Lat : 49.2837082, Lng : -123.1148738, Q1 : 0.942956626415, Q2 : 0.0459674708545, Q3 : -0.142962053418, Q4 : 0.297122359276}
2019-04-14 05:22:00.41: SIM {TimeUS : 60834823, Roll : 0.16, Pitch : -17.3, Yaw : 34.89, Alt : 49.2999992371, Lat : 49.2837113, Lng : -123.1148703, Q1 : 0.943084359169, Q2 : 0.0464341379702, Q3 : -0.143075034022, Q4 : 0.296589493752}
2019-04-14 05:22:00.51: SIM {TimeUS : 60934783, Roll : 0.18, Pitch : -17.31, Yaw : 34.83, Alt : 49.2999992371, Lat : 49.2837147, Lng : -123.1148668, Q1 : 0.943194508553, Q2 : 0.0465925261378, Q3 : -0.143146932125, Q4 : 0.296179324389}
2019-04-14 05:22:00.61: SIM {TimeUS : 61034743, Roll : 0.17, Pitch : -17.32, Yaw : 34.8, Alt : 49.2999992371, Lat : 49.2837179, Lng : -123.1148633, Q1 : 0.943273544312, Q2 : 0.0465039759874, Q3 : -0.143222138286, Q4 : 0.295905083418}
2019-04-14 05:22:00.71: SIM {TimeUS : 61134703, Roll : 0.17, Pitch : -17.31, Yaw : 34.79, Alt : 49.2999992371, Lat : 49.2837211, Lng : -123.1148598, Q1 : 0.943322062492, Q2 : 0.0464134439826, Q3 : -0.143195435405, Q4 : 0.295777648687}
2019-04-14 05:22:00.81: SIM {TimeUS : 61234663, Roll : 0.16, Pitch : -17.31, Yaw : 34.78, Alt : 49.3100013733, Lat : 49.2837245, Lng : -123.1148562, Q1 : 0.943326592445, Q2 : 0.0463417470455, Q3 : -0.14324106276, Q4 : 0.295752316713}
2019-04-14 05:22:00.91: SIM {TimeUS : 61335456, Roll : 0.16, Pitch : -17.34, Yaw : 34.79, Alt : 49.3100013733, Lat : 49.2837278, Lng : -123.1148526, Q1 : 0.943271934986, Q2 : 0.0464269444346, Q3 : -0.143466696143, Q4 : 0.295803785324}
2019-04-14 05:22:01.01: SIM {TimeUS : 61435416, Roll : 0.16, Pitch : -17.39, Yaw : 34.81, Alt : 49.3100013733, Lat : 49.2837311, Lng : -123.1148491, Q1 : 0.94317227602, Q2 : 0.0466081351042, Q3 : -0.143873006105, Q4 : 0.2958958745}
2019-04-14 05:22:01.11: SIM {TimeUS : 61535376, Roll : 0.15, Pitch : -17.43, Yaw : 34.82, Alt : 49.3100013733, Lat : 49.2837344, Lng : -123.1148455, Q1 : 0.943090438843, Q2 : 0.0466589927673, Q3 : -0.144185036421, Q4 : 0.295996665955}
2019-04-14 05:22:01.21: SIM {TimeUS : 61635336, Roll : 0.14, Pitch : -17.44, Yaw : 34.84, Alt : 49.3100013733, Lat : 49.2837376, Lng : -123.1148418, Q1 : 0.943036198616, Q2 : 0.0466367006302, Q3 : -0.144330188632, Q4 : 0.29610222578}
2019-04-14 05:22:01.31: SIM {TimeUS : 61735296, Roll : 0.12, Pitch : -17.46, Yaw : 34.84, Alt : 49.3100013733, Lat : 49.283741, Lng : -123.1148383, Q1 : 0.942999660969, Q2 : 0.0465287603438, Q3 : -0.144511640072, Q4 : 0.296147078276}
2019-04-14 05:22:01.41: SIM {TimeUS : 61835256, Roll : 0.09, Pitch : -17.49, Yaw : 34.85, Alt : 49.3100013733, Lat : 49.2837442, Lng : -123.1148347, Q1 : 0.942964553833, Q2 : 0.0463582314551, Q3 : -0.144842103124, Q4 : 0.296124190092}
2019-04-14 05:22:01.51: SIM {TimeUS : 61935216, Roll : 0.09, Pitch : -17.52, Yaw : 34.85, Alt : 49.3100013733, Lat : 49.2837477, Lng : -123.1148311, Q1 : 0.942940056324, Q2 : 0.0463634170592, Q3 : -0.145085737109, Q4 : 0.296082109213}
2019-04-14 05:22:01.61: SIM {TimeUS : 62035176, Roll : 0.08, Pitch : -17.54, Yaw : 34.84, Alt : 49.3100013733, Lat : 49.2837509, Lng : -123.1148275, Q1 : 0.94293987751, Q2 : 0.0463626310229, Q3 : -0.145288109779, Q4 : 0.295983612537}
2019-04-14 05:22:01.71: SIM {TimeUS : 62135136, Roll : 0.08, Pitch : -17.55, Yaw : 34.82, Alt : 49.3100013733, Lat : 49.2837544, Lng : -123.1148238, Q1 : 0.942961275578, Q2 : 0.0463956072927, Q3 : -0.145419627428, Q4 : 0.29584556818}
2019-04-14 05:22:01.81: SIM {TimeUS : 62235096, Roll : 0.09, Pitch : -17.57, Yaw : 34.8, Alt : 49.3100013733, Lat : 49.2837576, Lng : -123.1148202, Q1 : 0.942996621132, Q2 : 0.0464611016214, Q3 : -0.14554092288, Q4 : 0.295662850142}
2019-04-14 05:22:01.91: SIM {TimeUS : 62335056, Roll : 0.1, Pitch : -17.58, Yaw : 34.77, Alt : 49.3199996948, Lat : 49.2837611, Lng : -123.1148166, Q1 : 0.943050026894, Q2 : 0.0465721003711, Q3 : -0.145555824041, Q4 : 0.295467913151}
2019-04-14 05:22:02.01: SIM {TimeUS : 62435016, Roll : 0.13, Pitch : -17.58, Yaw : 34.75, Alt : 49.3199996948, Lat : 49.2837644, Lng : -123.1148129, Q1 : 0.943097651005, Q2 : 0.0467297248542, Q3 : -0.145576715469, Q4 : 0.295280665159}
2019-04-14 05:22:02.11: SIM {TimeUS : 62534976, Roll : 0.15, Pitch : -17.61, Yaw : 34.72, Alt : 49.3199996948, Lat : 49.2837679, Lng : -123.1148092, Q1 : 0.943125724792, Q2 : 0.0469737164676, Q3 : -0.145695865154, Q4 : 0.295093327761}
2019-04-14 05:22:02.21: SIM {TimeUS : 62634936, Roll : 0.17, Pitch : -17.65, Yaw : 34.69, Alt : 49.3199996948, Lat : 49.2837713, Lng : -123.1148056, Q1 : 0.943124294281, Q2 : 0.0471762567759, Q3 : -0.146050527692, Q4 : 0.294890165329}
2019-04-14 05:22:02.31: SIM {TimeUS : 62734896, Roll : 0.17, Pitch : -17.7, Yaw : 34.67, Alt : 49.3199996948, Lat : 49.2837746, Lng : -123.1148019, Q1 : 0.943117141724, Q2 : 0.0472730137408, Q3 : -0.146480903029, Q4 : 0.294683992863}
2019-04-14 05:22:02.41: SIM {TimeUS : 62834856, Roll : 0.16, Pitch : -17.75, Yaw : 34.65, Alt : 49.3199996948, Lat : 49.2837781, Lng : -123.1147982, Q1 : 0.943114817142, Q2 : 0.0473177991807, Q3 : -0.146868631244, Q4 : 0.294491231441}
2019-04-14 05:22:02.51: SIM {TimeUS : 62934816, Roll : 0.17, Pitch : -17.77, Yaw : 34.63, Alt : 49.3199996948, Lat : 49.2837814, Lng : -123.1147944, Q1 : 0.943125605583, Q2 : 0.0474328510463, Q3 : -0.147069573402, Q4 : 0.294337719679}
2019-04-14 05:22:02.61: SIM {TimeUS : 63034776, Roll : 0.18, Pitch : -17.78, Yaw : 34.62, Alt : 49.3199996948, Lat : 49.2837849, Lng : -123.1147908, Q1 : 0.943158626556, Q2 : 0.0475066676736, Q3 : -0.14708712697, Q4 : 0.294211447239}
2019-04-14 05:22:02.71: SIM {TimeUS : 63134736, Roll : 0.19, Pitch : -17.76, Yaw : 34.6, Alt : 49.3199996948, Lat : 49.2837884, Lng : -123.1147871, Q1 : 0.943212509155, Q2 : 0.0475428923965, Q3 : -0.146917849779, Q4 : 0.2941172719}
2019-04-14 05:22:02.81: SIM {TimeUS : 63234696, Roll : 0.18, Pitch : -17.74, Yaw : 34.59, Alt : 49.3199996948, Lat : 49.2837917, Lng : -123.1147834, Q1 : 0.943266630173, Q2 : 0.0474178604782, Q3 : -0.1467692554, Q4 : 0.29403808713}
2019-04-14 05:22:02.91: SIM {TimeUS : 63334656, Roll : 0.17, Pitch : -17.72, Yaw : 34.58, Alt : 49.3199996948, Lat : 49.2837953, Lng : -123.1147797, Q1 : 0.943313658237, Q2 : 0.0472671799362, Q3 : -0.146661743522, Q4 : 0.293965190649}
2019-04-14 05:22:03.01: SIM {TimeUS : 63435449, Roll : 0.17, Pitch : -17.71, Yaw : 34.58, Alt : 49.3199996948, Lat : 49.2837987, Lng : -123.1147759, Q1 : 0.943350493908, Q2 : 0.0472002960742, Q3 : -0.146539986134, Q4 : 0.293918550014}
2019-04-14 05:22:03.11: SIM {TimeUS : 63535409, Roll : 0.17, Pitch : -17.71, Yaw : 34.57, Alt : 49.3199996948, Lat : 49.2838021, Lng : -123.1147722, Q1 : 0.94335693121, Q2 : 0.0471714548767, Q3 : -0.146616056561, Q4 : 0.293864518404}
2019-04-14 05:22:03.21: SIM {TimeUS : 63635369, Roll : 0.17, Pitch : -17.73, Yaw : 34.57, Alt : 49.3199996948, Lat : 49.2838056, Lng : -123.1147684, Q1 : 0.943345248699, Q2 : 0.0472248531878, Q3 : -0.146781906486, Q4 : 0.293810546398}
2019-04-14 05:22:03.31: SIM {TimeUS : 63735329, Roll : 0.16, Pitch : -17.78, Yaw : 34.56, Alt : 49.3199996948, Lat : 49.2838091, Lng : -123.1147647, Q1 : 0.943307578564, Q2 : 0.04726286605, Q3 : -0.147174730897, Q4 : 0.293728917837}
2019-04-14 05:22:03.41: SIM {TimeUS : 63835289, Roll : 0.15, Pitch : -17.83, Yaw : 34.55, Alt : 49.3300018311, Lat : 49.2838126, Lng : -123.1147609, Q1 : 0.943261146545, Q2 : 0.0473478995264, Q3 : -0.14762377739, Q4 : 0.29363900423}
2019-04-14 05:22:03.51: SIM {TimeUS : 63935249, Roll : 0.16, Pitch : -17.87, Yaw : 34.54, Alt : 49.3300018311, Lat : 49.283816, Lng : -123.1147572, Q1 : 0.94323772192, Q2 : 0.0474663823843, Q3 : -0.147904917598, Q4 : 0.29355353117}
2019-04-14 05:22:03.61: SIM {TimeUS : 64035209, Roll : 0.15, Pitch : -17.9, Yaw : 34.53, Alt : 49.3300018311, Lat : 49.2838195, Lng : -123.1147534, Q1 : 0.943225622177, Q2 : 0.0475037358701, Q3 : -0.148177564144, Q4 : 0.293448925018}
2019-04-14 05:22:03.71: SIM {TimeUS : 64135169, Roll : 0.15, Pitch : -17.92, Yaw : 34.52, Alt : 49.3300018311, Lat : 49.283823, Lng : -123.1147496, Q1 : 0.943230986595, Q2 : 0.0474998019636, Q3 : -0.148366227746, Q4 : 0.293336868286}
2019-04-14 05:22:03.81: SIM {TimeUS : 64235129, Roll : 0.16, Pitch : -17.91, Yaw : 34.51, Alt : 49.3300018311, Lat : 49.2838264, Lng : -123.1147459, Q1 : 0.943266272545, Q2 : 0.0475605167449, Q3 : -0.148295089602, Q4 : 0.293249517679}
2019-04-14 05:22:03.91: SIM {TimeUS : 64335089, Roll : 0.19, Pitch : -17.92, Yaw : 34.49, Alt : 49.3300018311, Lat : 49.2838299, Lng : -123.1147421, Q1 : 0.943286657333, Q2 : 0.0477579012513, Q3 : -0.148275107145, Q4 : 0.293162077665}
2019-04-14 05:22:04.01: SIM {TimeUS : 64435049, Roll : 0.2, Pitch : -17.93, Yaw : 34.48, Alt : 49.3300018311, Lat : 49.2838335, Lng : -123.1147383, Q1 : 0.943300902843, Q2 : 0.0478628277779, Q3 : -0.148376375437, Q4 : 0.293047815561}
2019-04-14 05:22:04.11: SIM {TimeUS : 64535009, Roll : 0.21, Pitch : -17.94, Yaw : 34.46, Alt : 49.3300018311, Lat : 49.283837, Lng : -123.1147346, Q1 : 0.943325459957, Q2 : 0.047943059355, Q3 : -0.148416429758, Q4 : 0.292935431004}
2019-04-14 05:22:04.21: SIM {TimeUS : 64634969, Roll : 0.21, Pitch : -17.93, Yaw : 34.45, Alt : 49.3300018311, Lat : 49.2838404, Lng : -123.1147308, Q1 : 0.94336527586, Q2 : 0.0479837022722, Q3 : -0.148343726993, Q4 : 0.292837381363}
2019-04-14 05:22:04.31: SIM {TimeUS : 64734929, Roll : 0.22, Pitch : -17.93, Yaw : 34.44, Alt : 49.3300018311, Lat : 49.283844, Lng : -123.1147269, Q1 : 0.943399310112, Q2 : 0.0479831546545, Q3 : -0.148322731256, Q4 : 0.292738348246}
2019-04-14 05:22:04.41: SIM {TimeUS : 64834889, Roll : 0.2, Pitch : -17.95, Yaw : 34.43, Alt : 49.3300018311, Lat : 49.2838475, Lng : -123.1147232, Q1 : 0.943410515785, Q2 : 0.0478795580566, Q3 : -0.148535504937, Q4 : 0.292611449957}
2019-04-14 05:22:04.51: SIM {TimeUS : 64934849, Roll : 0.17, Pitch : -17.99, Yaw : 34.42, Alt : 49.3300018311, Lat : 49.2838511, Lng : -123.1147194, Q1 : 0.943400382996, Q2 : 0.0476987548172, Q3 : -0.148937374353, Q4 : 0.292469203472}
2019-04-14 05:22:04.61: SIM {TimeUS : 65034809, Roll : 0.15, Pitch : -17.99, Yaw : 34.41, Alt : 49.3300018311, Lat : 49.2838546, Lng : -123.1147156, Q1 : 0.943422853947, Q2 : 0.0475631393492, Q3 : -0.149020433426, Q4 : 0.292376458645}
2019-04-14 05:22:04.71: SIM {TimeUS : 65134769, Roll : 0.16, Pitch : -17.98, Yaw : 34.4, Alt : 49.3300018311, Lat : 49.2838582, Lng : -123.1147118, Q1 : 0.943452715874, Q2 : 0.0475904904306, Q3 : -0.148926019669, Q4 : 0.292323827744}
2019-04-14 05:22:04.81: SIM {TimeUS : 65234729, Roll : 0.18, Pitch : -17.98, Yaw : 34.39, Alt : 49.3300018311, Lat : 49.2838616, Lng : -123.114708, Q1 : 0.943473875523, Q2 : 0.0477064847946, Q3 : -0.148838251829, Q4 : 0.292281359434}
2019-04-14 05:22:04.91: SIM {TimeUS : 65334689, Roll : 0.19, Pitch : -17.99, Yaw : 34.38, Alt : 49.3400001526, Lat : 49.2838652, Lng : -123.1147041, Q1 : 0.943479299545, Q2 : 0.0478225909173, Q3 : -0.148880928755, Q4 : 0.292223066092}
2019-04-14 05:22:05.01: SIM {TimeUS : 65435482, Roll : 0.18, Pitch : -18.0, Yaw : 34.37, Alt : 49.3400001526, Lat : 49.2838688, Lng : -123.1147003, Q1 : 0.943481445312, Q2 : 0.0477742776275, Q3 : -0.149057120085, Q4 : 0.292134076357}
2019-04-14 05:22:05.11: SIM {TimeUS : 65535442, Roll : 0.15, Pitch : -18.03, Yaw : 34.37, Alt : 49.3400001526, Lat : 49.2838723, Lng : -123.1146965, Q1 : 0.943483829498, Q2 : 0.0476082265377, Q3 : -0.149296328425, Q4 : 0.292031437159}
2019-04-14 05:22:05.21: SIM {TimeUS : 65635402, Roll : 0.14, Pitch : -18.04, Yaw : 34.36, Alt : 49.3400001526, Lat : 49.2838759, Lng : -123.1146927, Q1 : 0.943496763706, Q2 : 0.0475076474249, Q3 : -0.149436354637, Q4 : 0.291934370995}
2019-04-14 05:22:05.31: SIM {TimeUS : 65735362, Roll : 0.14, Pitch : -18.05, Yaw : 34.35, Alt : 49.3400001526, Lat : 49.2838793, Lng : -123.1146888, Q1 : 0.943505883217, Q2 : 0.047558169812, Q3 : -0.149524405599, Q4 : 0.291851580143}
2019-04-14 05:22:05.41: SIM {TimeUS : 65835322, Roll : 0.16, Pitch : -18.06, Yaw : 34.34, Alt : 49.3400001526, Lat : 49.2838829, Lng : -123.114685, Q1 : 0.943512260914, Q2 : 0.0476716905832, Q3 : -0.149582922459, Q4 : 0.291782408953}
2019-04-14 05:22:05.51: SIM {TimeUS : 65935282, Roll : 0.19, Pitch : -18.07, Yaw : 34.33, Alt : 49.3400001526, Lat : 49.2838865, Lng : -123.1146812, Q1 : 0.943506479263, Q2 : 0.0479381904006, Q3 : -0.149635910988, Q4 : 0.291730284691}
2019-04-14 05:22:05.61: SIM {TimeUS : 66035242, Roll : 0.2, Pitch : -18.1, Yaw : 34.32, Alt : 49.3400001526, Lat : 49.2838901, Lng : -123.1146774, Q1 : 0.94349527359, Q2 : 0.0481323860586, Q3 : -0.14977657795, Q4 : 0.291662305593}
2019-04-14 05:22:05.71: SIM {TimeUS : 66135202, Roll : 0.22, Pitch : -18.12, Yaw : 34.31, Alt : 49.3400001526, Lat : 49.2838937, Lng : -123.1146735, Q1 : 0.943482041359, Q2 : 0.0483166836202, Q3 : -0.149933040142, Q4 : 0.291594326496}
2019-04-14 05:22:05.81: SIM {TimeUS : 66235162, Roll : 0.24, Pitch : -18.14, Yaw : 34.3, Alt : 49.3400001526, Lat : 49.2838972, Lng : -123.1146697, Q1 : 0.943471372128, Q2 : 0.0484981313348, Q3 : -0.150054961443, Q4 : 0.291535884142}
2019-04-14 05:22:05.91: SIM {TimeUS : 66335122, Roll : 0.26, Pitch : -18.15, Yaw : 34.29, Alt : 49.3400001526, Lat : 49.2839008, Lng : -123.1146659, Q1 : 0.943467915058, Q2 : 0.0487317964435, Q3 : -0.150059759617, Q4 : 0.291505753994}
