2019-04-14 04:57:04.70: SIM {TimeUS : 40116447, Roll : 0.0, Pitch : 0.0, Yaw : 0.0, Alt : 30.1000003815, Lat : 49.28357, Lng : -123.11502, Q1 : 1.0, Q2 : 0.0, Q3 : 0.0, Q4 : 0.0}
2019-04-14 04:57:04.81: SIM {TimeUS : 40235566, Roll : 0.0, Pitch : 0.0, Yaw : 0.0, Alt : 30.1000003815, Lat : 49.28357, Lng : -123.11502, Q1 : 1.0, Q2 : 0.0, Q3 : 0.0, Q4 : 0.0}
2019-04-14 04:57:04.91: SIM {TimeUS : 40335526, Roll : 0.0, Pitch : 0.0, Yaw : 0.0, Alt : 30.1000003815, Lat : 49.28357, Lng : -123.11502, Q1 : 1.0, Q2 : 0.0, Q3 : 0.0, Q4 : 0.0}
2019-04-14 04:57:05.01: SIM {TimeUS : 40435486, Roll : 0.0, Pitch : 0.0, Yaw : 0.0, Alt : 30.1000003815, Lat : 49.28357, Lng : -123.11502, Q1 : 1.0, Q2 : 0.0, Q3 : 0.0, Q4 : 0.0}
2019-04-14 04:57:05.11: SIM {TimeUS : 40535446, Roll : 0.0, Pitch : 0.0, Yaw : 0.0, Alt : 30.1000003815, Lat : 49.28357, Lng : -123.11502, Q1 : 1.0, Q2 : 0.0, Q3 : 0.0, Q4 : 0.0}
2019-04-14 04:57:05.21: SIM {TimeUS : 40635406, Roll : 0.0, Pitch : 0.0, Yaw : 0.0, Alt : 30.1000003815, Lat : 49.28357, Lng : -123.11502, Q1 : 1.0, Q2 : 0.0, Q3 : 0.0, Q4 : 0.0}
2019-04-14 04:57:05.31: SIM {TimeUS : 40735366, Roll : 0.0, Pitch : 0.0, Yaw : 0.0, Alt : 30.1000003815, Lat : 49.28357, Lng : -123.11502, Q1 : 1.0, Q2 : 0.0, Q3 : 0.0, Q4 : 0.0}
2019-04-14 04:57:05.41: SIM {TimeUS : 40835326, Roll : 0.0, Pitch : 0.0, Yaw : 0.0, Alt : 30.1000003815, Lat : 49.28357, Lng : -123.11502, Q1 : 1.0, Q2 : 0.0, Q3 : 0.0, Q4 : 0.0}
2019-04-14 04:57:05.51: SIM {TimeUS : 40935286, Roll : 0.0, Pitch : 0.0, Yaw : 0.0, Alt : 30.1000003815, Lat : 49.28357, Lng : -123.11502, Q1 : 1.0, Q2 : 0.0, Q3 : 0.0, Q4 : 0.0}
2019-04-14 04:57:05.61: SIM {TimeUS : 41035246, Roll : 0.0, Pitch : 0.0, Yaw : 0.0, Alt : 30.1000003815, Lat : 49.28357, Lng : -123.11502, Q1 : 1.0, Q2 : 0.0, Q3 : 0.0, Q4 : 0.0}
2019-04-14 04:57:05.71: SIM {TimeUS : 41135206, Roll : 0.0, Pitch : 0.0, Yaw : 0.0, Alt : 30.1000003815, Lat : 49.28357, Lng : -123.11502, Q1 : 1.0, Q2 : 0.0, Q3 : 0.0, Q4 : 0.0}
2019-04-14 04:57:05.81: SIM {TimeUS : 41235166, Roll : 0.0, Pitch : 0.0, Yaw : 0.0, Alt : 30.1000003815, Lat : 49.28357, Lng : -123.11502, Q1 : 1.0, Q2 : 0.0, Q3 : 0.0, Q4 : 0.0}
2019-04-14 04:57:05.91: SIM {TimeUS : 41335126, Roll : 0.0, Pitch : 0.0, Yaw : 0.0, Alt : 30.1000003815, Lat : 49.28357, Lng : -123.11502, Q1 : 1.0, Q2 : 0.0, Q3 : 0.0, Q4 : 0.0}
2019-04-14 04:57:06.01: SIM {TimeUS : 41435086, Roll : 0.0, Pitch : 0.0, Yaw : 0.0, Alt : 30.1000003815, Lat : 49.28357, Lng : -123.11502, Q1 : 1.0, Q2 : 0.0, Q3 : 0.0, Q4 : 0.0}
2019-04-14 04:57:06.11: SIM {TimeUS : 41535046, Roll : 0.0, Pitch : 0.0, Yaw : 0.0, Alt : 30.1000003815, Lat : 49.28357, Lng : -123.11502, Q1 : 1.0, Q2 : 0.0, Q3 : 0.0, Q4 : 0.0}
2019-04-14 04:57:06.21: SIM {TimeUS : 41635006, Roll : 0.0, Pitch : 0.0, Yaw : 0.0, Alt : 30.1000003815, Lat : 49.28357, Lng : -123.11502, Q1 : 1.0, Q2 : 0.0, Q3 : 0.0, Q4 : 0.0}
2019-04-14 04:57:06.31: SIM {TimeUS : 41734966, Roll : 0.0, Pitch : 0.0, Yaw : 0.0, Alt : 30.1000003815, Lat : 49.28357, Lng : -123.11502, Q1 : 1.0, Q2 : 0.0, Q3 : 0.0, Q4 : 0.0}
2019-04-14 04:57:06.41: SIM {TimeUS : 41834926, Roll : 0.0, Pitch : 0.0, Yaw : 0.0, Alt : 30.1000003815, Lat : 49.28357, Lng : -123.11502, Q1 : 1.0, Q2 : 0.0, Q3 : 0.0, Q4 : 0.0}
2019-04-14 04:57:06.51: SIM {TimeUS : 41934886, Roll : 0.0, Pitch : 0.0, Yaw : 0.0, Alt : 30.1000003815, Lat : 49.28357, Lng : -123.11502, Q1 : 1.0, Q2 : 0.0, Q3 : 0.0, Q4 : 0.0}
2019-04-14 04:57:06.61: SIM {TimeUS : 42034846, Roll : 0.0, Pitch : 0.0, Yaw : 0.0, Alt : 30.1000003815, Lat : 49.28357, Lng : -123.11502, Q1 : 1.0, Q2 : 0.0, Q3 : 0.0, Q4 : 0.0}
2019-04-14 04:57:06.71: SIM {TimeUS : 42134806, Roll : 0.0, Pitch : 0.0, Yaw : 0.0, Alt : 30.1000003815, Lat : 49.28357, Lng : -123.11502, Q1 : 1.0, Q2 : 0.0, Q3 : 0.0, Q4 : 0.0}
2019-04-14 04:57:06.82: SIM {TimeUS : 42235599, Roll : 0.0, Pitch : 0.0, Yaw : 0.0, Alt : 30.1000003815, Lat : 49.28357, Lng : -123.11502, Q1 : 1.0, Q2 : 0.0, Q3 : 0.0, Q4 : 0.0}
2019-04-14 04:57:06.91: SIM {TimeUS : 42335559, Roll : 0.0, Pitch : 0.0, Yaw : 0.0, Alt : 30.1000003815, Lat : 49.28357, Lng : -123.11502, Q1 : 1.0, Q2 : 0.0, Q3 : 0.0, Q4 : 0.0}
2019-04-14 04:57:07.01: SIM {TimeUS : 42435519, Roll : 0.0, Pitch : 0.0, Yaw : 0.0, Alt : 30.1000003815, Lat : 49.28357, Lng : -123.11502, Q1 : 1.0, Q2 : 0.0, Q3 : 0.0, Q4 : 7.85094975142e-11}
2019-04-14 04:57:07.11: SIM {TimeUS : 42535479, Roll : 0.0, Pitch : 0.0, Yaw : 360.0, Alt : 30.1000003815, Lat : 49.28357, Lng : -123.11502, Q1 : 1.0, Q2 : 0.0, Q3 : 0.0, Q4 : -3.19978958885e-08}
2019-04-14 04:57:07.21: SIM {TimeUS : 42635439, Roll : 0.0, Pitch : 0.0, Yaw : 359.99, Alt : 30.1000003815, Lat : 49.28357, Lng : -123.11502, Q1 : 1.0, Q2 : 0.0, Q3 : 0.0, Q4 : -1.85223882454e-07}
2019-04-14 04:57:07.31: SIM {TimeUS : 42735399, Roll : 0.0, Pitch : 0.0, Yaw : 359.99, Alt : 30.1000003815, Lat : 49.28357, Lng : -123.11502, Q1 : 1.0, Q2 : 0.0, Q3 : 0.0, Q4 : -3.69235664266e-07}
2019-04-14 04:57:07.41: SIM {TimeUS : 42835359, Roll : 0.0, Pitch : 0.0, Yaw : 359.99, Alt : 30.1000003815, Lat : 49.28357, Lng : -123.11502, Q1 : 1.0, Q2 : 0.0, Q3 : 0.0, Q4 : -5.44511408407e-07}
2019-04-14 04:57:07.51: SIM {TimeUS : 42935319, Roll : 0.0, Pitch : 0.0, Yaw : 359.99, Alt : 30.1000003815, Lat : 49.28357, Lng : -123.11502, Q1 : 1.0, Q2 : 0.0, Q3 : 0.0, Q4 : -7.23292146176e-07}
2019-04-14 04:57:07.61: SIM {TimeUS : 43035279, Roll : 0.0, Pitch : 0.0, Yaw : 359.99, Alt : 30.1000003815, Lat : 49.28357, Lng : -123.11502, Q1 : 1.0, Q2 : 0.0, Q3 : 0.0, Q4 : -9.36723779432e-07}
2019-04-14 04:57:07.71: SIM {TimeUS : 43135239, Roll : 0.0, Pitch : 0.0, Yaw : 359.99, Alt : 30.1000003815, Lat : 49.28357, Lng : -123.11502, Q1 : 1.0, Q2 : 0.0, Q3 : 0.0, Q4 : -1.16193723443e-06}
2019-04-14 04:57:07.81: SIM {TimeUS : 43235199, Roll : 0.0, Pitch : 0.0, Yaw : 359.99, Alt : 30.1000003815, Lat : 49.28357, Lng : -123.11502, Q1 : 1.0, Q2 : 0.0, Q3 : 0.0, Q4 : -1.40317683872e-06}
2019-04-14 04:57:07.91: SIM {TimeUS : 43335159, Roll : 0.0, Pitch : 0.0, Yaw : 359.99, Alt : 30.1200008392, Lat : 49.28357, Lng : -123.11502, Q1 : 1.0, Q2 : 0.0, Q3 : 0.0, Q4 : -1.60319848419e-06}
2019-04-14 04:57:08.01: SIM {TimeUS : 43435119, Roll : 0.0, Pitch : 0.0, Yaw : 359.99, Alt : 30.1399993896, Lat : 49.28357, Lng : -123.11502, Q1 : 1.0, Q2 : 0.0, Q3 : 0.0, Q4 : -1.83079362159e-06}
2019-04-14 04:57:08.11: SIM {TimeUS : 43535079, Roll : 0.0, Pitch : 0.0, Yaw : 359.99, Alt : 30.1800003052, Lat : 49.28357, Lng : -123.11502, Q1 : 1.0, Q2 : 0.0, Q3 : 0.0, Q4 : -2.06200797948e-06}
2019-04-14 04:57:08.21: SIM {TimeUS : 43635039, Roll : 0.0, Pitch : 0.0, Yaw : 359.99, Alt : 30.2099990845, Lat : 49.28357, Lng : -123.11502, Q1 : 1.0, Q2 : -5.65526033824e-06, Q3 : -5.64536640013e-06, Q4 : -2.27211194215e-06}
2019-04-14 04:57:08.31: SIM {TimeUS : 43734999, Roll : -0.17, Pitch : -0.17, Yaw : 359.99, Alt : 30.2700004578, Lat : 49.28357, Lng : -123.11502, Q1 : 0.999997615814, Q2 : -0.0015651966678, Q3 : -0.00151631899644, Q4 : -1.73271273525e-05}
2019-04-14 04:57:08.41: SIM {TimeUS : 43834959, Roll : -0.49, Pitch : -0.44, Yaw : 359.99, Alt : 30.3899993896, Lat : 49.28357, Lng : -123.11502, Q1 : 0.999982893467, Q2 : -0.0043617952615, Q3 : -0.00390504905954, Q4 : -6.01132960583e-05}
2019-04-14 04:57:08.51: SIM {TimeUS : 43934919, Roll : -0.76, Pitch : -0.63, Yaw : 359.98, Alt : 30.5400009155, Lat : 49.28357, Lng : -123.11502, Q1 : 0.999962687492, Q2 : -0.00664200121537, Q3 : -0.00552452076226, Q4 : -0.000127637336846}
2019-04-14 04:57:08.61: SIM {TimeUS : 44034879, Roll : -0.85, Pitch : -0.68, Yaw : 359.98, Alt : 30.7000007629, Lat : 49.28357, Lng : -123.11502, Q1 : 0.999953985214, Q2 : -0.0074897967279, Q3 : -0.0059901420027, Q4 : -0.00020909999148}
2019-04-14 04:57:08.71: SIM {TimeUS : 44134839, Roll : -0.8, Pitch : -0.63, Yaw : 359.97, Alt : 30.8500003815, Lat : 49.28357, Lng : -123.1150201, Q1 : 0.999960243702, Q2 : -0.00699102459475, Q3 : -0.00552732031792, Q4 : -0.000291059317533}
2019-04-14 04:57:08.81: SIM {TimeUS : 44234799, Roll : -0.64, Pitch : -0.5, Yaw : 359.96, Alt : 31.0100002289, Lat : 49.2835701, Lng : -123.1150201, Q1 : 0.999974608421, Q2 : -0.00559475878254, Q3 : -0.00440544169396, Q4 : -0.000369751331164}
2019-04-14 04:57:08.92: SIM {TimeUS : 44335592, Roll : -0.42, Pitch : -0.34, Yaw : 359.95, Alt : 31.1599998474, Lat : 49.2835701, Lng : -123.1150202, Q1 : 0.999988615513, Q2 : -0.00371053838171, Q3 : -0.00297571578994, Q4 : -0.000436973845353}
2019-04-14 04:57:09.01: SIM {TimeUS : 44435552, Roll : -0.19, Pitch : -0.2, Yaw : 359.94, Alt : 31.3199996948, Lat : 49.2835702, Lng : -123.1150203, Q1 : 0.999996900558, Q2 : -0.00170101306867, Q3 : -0.00174888328183, Q4 : -0.000491174054332}
2019-04-14 04:57:09.11: SIM {TimeUS : 44535512, Roll : -0.01, Pitch : -0.08, Yaw : 359.93, Alt : 31.4899997711, Lat : 49.2835702, Lng : -123.1150204, Q1 : 0.999999582767, Q2 : -0.000166974030435, Q3 : -0.000737287977245, Q4 : -0.000534185324796}
2019-04-14 04:57:09.21: SIM {TimeUS : 44635472, Roll : 0.06, Pitch : 0.0, Yaw : 359.93, Alt : 31.6700000763, Lat : 49.2835702, Lng : -123.1150205, Q1 : 0.999999701977, Q2 : 0.000555858423468, Q3 : -9.87947441899e-06, Q4 : -0.00056133751059}
2019-04-14 04:57:09.31: SIM {TimeUS : 44735432, Roll : 0.08, Pitch : 0.04, Yaw : 359.93, Alt : 31.8500003815, Lat : 49.2835703, Lng : -123.1150205, Q1 : 0.999999463558, Q2 : 0.000740971125197, Q3 : 0.000409381987993, Q4 : -0.00056833733106}
2019-04-14 04:57:09.41: SIM {TimeUS : 44835392, Roll : 0.07, Pitch : 0.07, Yaw : 359.93, Alt : 32.0299987793, Lat : 49.2835703, Lng : -123.1150206, Q1 : 0.999999403954, Q2 : 0.000678718381096, Q3 : 0.000612844247371, Q4 : -0.000570225762203}
2019-04-14 04:57:09.51: SIM {TimeUS : 44935352, Roll : 0.06, Pitch : 0.06, Yaw : 359.93, Alt : 32.2200012207, Lat : 49.2835703, Lng : -123.1150207, Q1 : 0.999999523163, Q2 : 0.000562635366805, Q3 : 0.000569992873352, Q4 : -0.000559874984901}
2019-04-14 04:57:09.61: SIM {TimeUS : 45035312, Roll : 0.06, Pitch : 0.04, Yaw : 359.93, Alt : 32.4099998474, Lat : 49.2835703, Lng : -123.1150207, Q1 : 0.999999582767, Q2 : 0.000593019882217, Q3 : 0.000429877312854, Q4 : -0.000548599753529}
2019-04-14 04:57:09.71: SIM {TimeUS : 45135272, Roll : 0.09, Pitch : 0.03, Yaw : 359.93, Alt : 32.5999984741, Lat : 49.2835703, Lng : -123.1150208, Q1 : 0.999999463558, Q2 : 0.000827169744298, Q3 : 0.000348372821463, Q4 : -0.000531701603904}
2019-04-14 04:57:09.81: SIM {TimeUS : 45235232, Roll : 0.12, Pitch : 0.05, Yaw : 359.94, Alt : 32.7999992371, Lat : 49.2835703, Lng : -123.1150208, Q1 : 0.999999165535, Q2 : 0.00106999604031, Q3 : 0.000504351628479, Q4 : -0.000510433805175}
2019-04-14 04:57:09.91: SIM {TimeUS : 45335192, Roll : 0.14, Pitch : 0.08, Yaw : 359.94, Alt : 33.0, Lat : 49.2835704, Lng : -123.1150208, Q1 : 0.999998807907, Q2 : 0.00126048817765, Q3 : 0.000732444168534, Q4 : -0.000496873399243}
2019-04-14 04:57:10.01: SIM {TimeUS : 45435152, Roll : 0.14, Pitch : 0.12, Yaw : 359.94, Alt : 33.2000007629, Lat : 49.2835704, Lng : -123.1150209, Q1 : 0.999998509884, Q2 : 0.00123466248624, Q3 : 0.0010891566053, Q4 : -0.000501199043356}
2019-04-14 04:57:10.11: SIM {TimeUS : 45535112, Roll : 0.15, Pitch : 0.16, Yaw : 359.94, Alt : 33.4000015259, Lat : 49.2835704, Lng : -123.1150209, Q1 : 0.999997973442, Q2 : 0.00131752167363, Q3 : 0.00143915845547, Q4 : -0.000514219922479}
2019-04-14 04:57:10.21: SIM {TimeUS : 45635072, Roll : 0.16, Pitch : 0.19, Yaw : 359.93, Alt : 33.6100006104, Lat : 49.2835704, Lng : -123.1150209, Q1 : 0.999997377396, Q2 : 0.00146431999747, Q3 : 0.00167146092281, Q4 : -0.000535000115633}
2019-04-14 04:57:10.31: SIM {TimeUS : 45735032, Roll : 0.17, Pitch : 0.2, Yaw : 359.93, Alt : 33.8100013733, Lat : 49.2835704, Lng : -123.1150209, Q1 : 0.999997019768, Q2 : 0.00156958028674, Q3 : 0.00177183782216, Q4 : -0.000559634820092}
2019-04-14 04:57:10.41: SIM {TimeUS : 45834992, Roll : 0.17, Pitch : 0.19, Yaw : 359.93, Alt : 34.0200004578, Lat : 49.2835706, Lng : -123.1150209, Q1 : 0.999997198582, Q2 : 0.00151183595881, Q3 : 0.00174060743302, Q4 : -0.000588316936046}
2019-04-14 04:57:10.51: SIM {TimeUS : 45934952, Roll : 0.15, Pitch : 0.16, Yaw : 359.92, Alt : 34.2299995422, Lat : 49.2835706, Lng : -123.1150209, Q1 : 0.999997854233, Q2 : 0.00137754622847, Q3 : 0.00140177668072, Q4 : -0.00062120158691}
2019-04-14 04:57:10.61: SIM {TimeUS : 46034912, Roll : 0.13, Pitch : 0.1, Yaw : 359.92, Alt : 34.4500007629, Lat : 49.2835706, Lng : -123.1150209, Q1 : 0.999998748302, Q2 : 0.00114918244071, Q3 : 0.000894694181625, Q4 : -0.000636624521576}
2019-04-14 04:57:10.71: SIM {TimeUS : 46134872, Roll : 0.09, Pitch : 0.06, Yaw : 359.92, Alt : 34.6599998474, Lat : 49.2835706, Lng : -123.1150209, Q1 : 0.999999284744, Q2 : 0.000846503302455, Q3 : 0.000534103892278, Q4 : -0.000649956404231}
2019-04-14 04:57:10.81: SIM {TimeUS : 46234832, Roll : 0.07, Pitch : 0.04, Yaw : 359.92, Alt : 34.8699989319, Lat : 49.2835706, Lng : -123.1150209, Q1 : 0.999999523163, Q2 : 0.000630583614111, Q3 : 0.000380567042157, Q4 : -0.000673456059303}
2019-04-14 04:57:10.91: SIM {TimeUS : 46334792, Roll : 0.06, Pitch : 0.04, Yaw : 359.91, Alt : 35.0900001526, Lat : 49.2835706, Lng : -123.1150209, Q1 : 0.999999523163, Q2 : 0.000564414367545, Q3 : 0.000388315820601, Q4 : -0.000703314086422}
2019-04-14 04:57:11.02: SIM {TimeUS : 46435585, Roll : 0.05, Pitch : 0.04, Yaw : 359.91, Alt : 35.3100013733, Lat : 49.2835706, Lng : -123.1150208, Q1 : 0.999999523163, Q2 : 0.000501955859363, Q3 : 0.000374527764507, Q4 : -0.000734799425118}
2019-04-14 04:57:11.11: SIM {TimeUS : 46535545, Roll : 0.04, Pitch : 0.04, Yaw : 359.91, Alt : 35.5299987793, Lat : 49.2835706, Lng : -123.1150208, Q1 : 0.999999582767, Q2 : 0.00036838001688, Q3 : 0.000385682797059, Q4 : -0.000763712858316}
2019-04-14 04:57:11.21: SIM {TimeUS : 46635505, Roll : 0.02, Pitch : 0.05, Yaw : 359.9, Alt : 35.7400016785, Lat : 49.2835706, Lng : -123.1150208, Q1 : 0.999999582767, Q2 : 0.000249690492637, Q3 : 0.000467023783131, Q4 : -0.000789175566752}
2019-04-14 04:57:11.31: SIM {TimeUS : 46735465, Roll : 0.02, Pitch : 0.07, Yaw : 359.9, Alt : 35.9599990845, Lat : 49.2835704, Lng : -123.1150208, Q1 : 0.999999463558, Q2 : 0.000177284280653, Q3 : 0.000631161732599, Q4 : -0.00081258470891}
2019-04-14 04:57:11.41: SIM {TimeUS : 46835425, Roll : 0.01, Pitch : 0.07, Yaw : 359.9, Alt : 36.1899986267, Lat : 49.2835704, Lng : -123.1150208, Q1 : 0.999999463558, Q2 : 0.000106931431219, Q3 : 0.000621849903837, Q4 : -0.000827369163744}
2019-04-14 04:57:11.51: SIM {TimeUS : 46935385, Roll : 0.0, Pitch : 0.05, Yaw : 359.9, Alt : 36.4099998474, Lat : 49.2835704, Lng : -123.1150207, Q1 : 0.999999523163, Q2 : 3.84943341487e-05, Q3 : 0.000502159935422, Q4 : -0.000843057583552}
2019-04-14 04:57:11.61: SIM {TimeUS : 47035345, Roll : -0.01, Pitch : 0.04, Yaw : 359.9, Alt : 36.6300010681, Lat : 49.2835704, Lng : -123.1150207, Q1 : 0.999999582767, Q2 : -9.35228599701e-05, Q3 : 0.000353769893991, Q4 : -0.000855391495861}
2019-04-14 04:57:11.71: SIM {TimeUS : 47135305, Roll : -0.02, Pitch : 0.02, Yaw : 359.9, Alt : 36.8499984741, Lat : 49.2835704, Lng : -123.1150207, Q1 : 0.999999582767, Q2 : -0.000222842267249, Q3 : 0.000193985732039, Q4 : -0.000866145826876}
2019-04-14 04:57:11.81: SIM {TimeUS : 47235265, Roll : -0.02, Pitch : 0.0, Yaw : 359.89, Alt : 37.0800018311, Lat : 49.2835704, Lng : -123.1150207, Q1 : 0.999999582767, Q2 : -0.000189505444723, Q3 : 2.84687339445e-05, Q4 : -0.000879211933352}
2019-04-14 04:57:11.91: SIM {TimeUS : 47335225, Roll : -0.02, Pitch : -0.02, Yaw : 359.89, Alt : 37.2999992371, Lat : 49.2835704, Lng : -123.1150207, Q1 : 0.999999582767, Q2 : -0.00023034781043, Q3 : -0.000186871635378, Q4 : -0.000894403958227}
2019-04-14 04:57:12.01: SIM {TimeUS : 47435185, Roll : -0.04, Pitch : -0.05, Yaw : 359.89, Alt : 37.5299987793, Lat : 49.2835704, Lng : -123.1150207, Q1 : 0.999999403954, Q2 : -0.000375841656933, Q3 : -0.000491907296237, Q4 : -0.000905202992726}
2019-04-14 04:57:12.11: SIM {TimeUS : 47535145, Roll : -0.06, Pitch : -0.08, Yaw : 359.89, Alt : 37.75, Lat : 49.2835704, Lng : -123.1150207, Q1 : 0.99999910593, Q2 : -0.000607996946201, Q3 : -0.000728045066353, Q4 : -0.000918462406844}
2019-04-14 04:57:12.21: SIM {TimeUS : 47635105, Roll : -0.1, Pitch : -0.09, Yaw : 359.89, Alt : 37.9799995422, Lat : 49.2835704, Lng : -123.1150207, Q1 : 0.999998867512, Q2 : -0.000879128288943, Q3 : -0.000816290499642, Q4 : -0.000937353004701}
2019-04-14 04:57:12.31: SIM {TimeUS : 47735065, Roll : -0.12, Pitch : -0.09, Yaw : 359.89, Alt : 38.2099990845, Lat : 49.2835704, Lng : -123.1150207, Q1 : 0.999998629093, Q2 : -0.00105218100362, Q3 : -0.000824639515486, Q4 : -0.000955112511292}
2019-04-14 04:57:12.41: SIM {TimeUS : 47835025, Roll : -0.12, Pitch : -0.08, Yaw : 359.88, Alt : 38.4300003052, Lat : 49.2835704, Lng : -123.1150206, Q1 : 0.999998629093, Q2 : -0.00110385345761, Q3 : -0.00076414301293, Q4 : -0.000972397334408}
2019-04-14 04:57:12.51: SIM {TimeUS : 47934985, Roll : -0.1, Pitch : -0.06, Yaw : 359.88, Alt : 38.6599998474, Lat : 49.2835704, Lng : -123.1150206, Q1 : 0.999998867512, Q2 : -0.000957900250796, Q3 : -0.000569815922063, Q4 : -0.000993851106614}
2019-04-14 04:57:12.61: SIM {TimeUS : 48034945, Roll : -0.08, Pitch : -0.06, Yaw : 359.88, Alt : 38.8899993896, Lat : 49.2835704, Lng : -123.1150206, Q1 : 0.999999046326, Q2 : -0.00071108218981, Q3 : -0.000532806792762, Q4 : -0.00101752253249}
2019-04-14 04:57:12.71: SIM {TimeUS : 48134905, Roll : -0.06, Pitch : -0.06, Yaw : 359.87, Alt : 39.1199989319, Lat : 49.2835704, Lng : -123.1150206, Q1 : 0.999999165535, Q2 : -0.00056987197604, Q3 : -0.000527308962774, Q4 : -0.00105082686059}
2019-04-14 04:57:12.81: SIM {TimeUS : 48234865, Roll : -0.05, Pitch : -0.04, Yaw : 359.87, Alt : 39.3499984741, Lat : 49.2835704, Lng : -123.1150206, Q1 : 0.99999922514, Q2 : -0.000489158148412, Q3 : -0.000353640178218, Q4 : -0.00107326183934}
2019-04-14 04:57:12.91: SIM {TimeUS : 48334825, Roll : -0.06, Pitch : 0.0, Yaw : 359.87, Alt : 39.5800018311, Lat : 49.2835704, Lng : -123.1150206, Q1 : 0.99999922514, Q2 : -0.000609923969023, Q3 : -7.70570040913e-05, Q4 : -0.00109542661812}
2019-04-14 04:57:13.01: SIM {TimeUS : 48434785, Roll : -0.07, Pitch : 0.01, Yaw : 359.87, Alt : 39.8100013733, Lat : 49.2835704, Lng : -123.1150207, Q1 : 0.999999165535, Q2 : -0.000622262072284, Q3 : 0.000161477262736, Q4 : -0.00111843831837}
2019-04-14 04:57:13.12: SIM {TimeUS : 48535578, Roll : -0.05, Pitch : 0.05, Yaw : 359.86, Alt : 40.0499992371, Lat : 49.2835704, Lng : -123.1150207, Q1 : 0.99999910593, Q2 : -0.000495974789374, Q3 : 0.000462330906885, Q4 : -0.00114757684059}
2019-04-14 04:57:13.21: SIM {TimeUS : 48635538, Roll : -0.03, Pitch : 0.05, Yaw : 359.86, Alt : 40.2799987793, Lat : 49.2835704, Lng : -123.1150207, Q1 : 0.999999165535, Q2 : -0.000296785932733, Q3 : 0.000522264570463, Q4 : -0.00116784498096}
2019-04-14 04:57:13.31: SIM {TimeUS : 48735498, Roll : 0.0, Pitch : 0.05, Yaw : 359.86, Alt : 40.5099983215, Lat : 49.2835704, Lng : -123.1150207, Q1 : 0.999999165535, Q2 : -2.09702557186e-05, Q3 : 0.000499788380694, Q4 : -0.00118094077334}
2019-04-14 04:57:13.41: SIM {TimeUS : 48835458, Roll : 0.03, Pitch : 0.06, Yaw : 359.86, Alt : 40.7400016785, Lat : 49.2835704, Lng : -123.1150207, Q1 : 0.999999046326, Q2 : 0.00032902523526, Q3 : 0.000596219906583, Q4 : -0.00119695148896}
2019-04-14 04:57:13.51: SIM {TimeUS : 48935418, Roll : 0.08, Pitch : 0.09, Yaw : 359.86, Alt : 40.9700012207, Lat : 49.2835706, Lng : -123.1150207, Q1 : 0.999998629093, Q2 : 0.000735565903597, Q3 : 0.000838040024973, Q4 : -0.00121643021703}
2019-04-14 04:57:13.61: SIM {TimeUS : 49035378, Roll : 0.1, Pitch : 0.12, Yaw : 359.85, Alt : 41.2099990845, Lat : 49.2835706, Lng : -123.1150207, Q1 : 0.999998152256, Q2 : 0.000938365235925, Q3 : 0.00110429641791, Q4 : -0.0012404457666}
2019-04-14 04:57:13.71: SIM {TimeUS : 49135338, Roll : 0.08, Pitch : 0.14, Yaw : 359.85, Alt : 41.4399986267, Lat : 49.2835706, Lng : -123.1150207, Q1 : 0.999998092651, Q2 : 0.000775876862463, Q3 : 0.00127073621843, Q4 : -0.00125596765429}
2019-04-14 04:57:13.81: SIM {TimeUS : 49235298, Roll : 0.04, Pitch : 0.15, Yaw : 359.85, Alt : 41.6699981689, Lat : 49.2835706, Lng : -123.1150207, Q1 : 0.999998211861, Q2 : 0.000352189294063, Q3 : 0.00135027954821, Q4 : -0.0012654538732}
2019-04-14 04:57:13.91: SIM {TimeUS : 49335258, Roll : 0.0, Pitch : 0.15, Yaw : 359.85, Alt : 41.9099998474, Lat : 49.2835706, Lng : -123.1150207, Q1 : 0.999998271465, Q2 : -6.08376321907e-05, Q3 : 0.00134558603168, Q4 : -0.00127764756326}
2019-04-14 04:57:14.01: SIM {TimeUS : 49435218, Roll : -0.02, Pitch : 0.12, Yaw : 359.85, Alt : 42.1399993896, Lat : 49.2835706, Lng : -123.1150207, Q1 : 0.999998569489, Q2 : -0.000212206112337, Q3 : 0.00109913037159, Q4 : -0.0012899490539}
2019-04-14 04:57:14.11: SIM {TimeUS : 49535178, Roll : -0.02, Pitch : 0.09, Yaw : 359.85, Alt : 42.3800010681, Lat : 49.2835706, Lng : -123.1150207, Q1 : 0.999998807907, Q2 : -0.000214877043618, Q3 : 0.000790085934568, Q4 : -0.00130305613857}
2019-04-14 04:57:14.21: SIM {TimeUS : 49635138, Roll : -0.01, Pitch : 0.09, Yaw : 359.84, Alt : 42.6100006104, Lat : 49.2835706, Lng : -123.1150207, Q1 : 0.999998807907, Q2 : -9.9941593362e-05, Q3 : 0.00078581739217, Q4 : -0.00132608390413}
2019-04-14 04:57:14.31: SIM {TimeUS : 49735098, Roll : 0.02, Pitch : 0.11, Yaw : 359.84, Alt : 42.8499984741, Lat : 49.2835706, Lng : -123.1150207, Q1 : 0.999998569489, Q2 : 0.000242992100539, Q3 : 0.000980958458968, Q4 : -0.00136581447441}
2019-04-14 04:57:14.41: SIM {TimeUS : 49835058, Roll : 0.08, Pitch : 0.13, Yaw : 359.83, Alt : 43.0800018311, Lat : 49.2835706, Lng : -123.1150207, Q1 : 0.999997973442, Q2 : 0.00073502631858, Q3 : 0.00121734186541, Q4 : -0.0014050132595}
2019-04-14 04:57:14.51: SIM {TimeUS : 49935018, Roll : 0.12, Pitch : 0.13, Yaw : 359.83, Alt : 43.3199996948, Lat : 49.2835706, Lng : -123.1150207, Q1 : 0.999997615814, Q2 : 0.00108414562419, Q3 : 0.00121240643784, Q4 : -0.00144760333933}
2019-04-14 04:57:14.61: SIM {TimeUS : 50034978, Roll : 0.12, Pitch : 0.12, Yaw : 359.83, Alt : 43.5499992371, Lat : 49.2835704, Lng : -123.1150207, Q1 : 0.999997735023, Q2 : 0.00107392168138, Q3 : 0.00106392416637, Q4 : -0.00148180837277}
2019-04-14 04:57:14.71: SIM {TimeUS : 50134938, Roll : 0.08, Pitch : 0.1, Yaw : 359.82, Alt : 43.7900009155, Lat : 49.2835704, Lng : -123.1150207, Q1 : 0.999998271465, Q2 : 0.000703488185536, Q3 : 0.000899403879885, Q4 : -0.00149506982416}
2019-04-14 04:57:14.81: SIM {TimeUS : 50234898, Roll : 0.02, Pitch : 0.08, Yaw : 359.82, Alt : 44.0200004578, Lat : 49.2835704, Lng : -123.1150207, Q1 : 0.999998569489, Q2 : 0.000183273456059, Q3 : 0.000774838787038, Q4 : -0.00150439795107}
2019-04-14 04:57:14.91: SIM {TimeUS : 50334858, Roll : -0.02, Pitch : 0.08, Yaw : 359.82, Alt : 44.2599983215, Lat : 49.2835704, Lng : -123.1150207, Q1 : 0.999998569489, Q2 : -0.00019518652698, Q3 : 0.000745537283365, Q4 : -0.00151909433771}
2019-04-14 04:57:15.01: SIM {TimeUS : 50434818, Roll : -0.04, Pitch : 0.07, Yaw : 359.82, Alt : 44.4900016785, Lat : 49.2835704, Lng : -123.1150207, Q1 : 0.999998509884, Q2 : -0.000367624073988, Q3 : 0.00065200770041, Q4 : -0.00153812183999}
2019-04-14 04:57:15.11: SIM {TimeUS : 50534778, Roll : -0.03, Pitch : 0.05, Yaw : 359.82, Alt : 44.7299995422, Lat : 49.2835704, Lng : -123.1150206, Q1 : 0.999998629093, Q2 : -0.000311753217829, Q3 : 0.000464935146738, Q4 : -0.00156372226775}
2019-04-14 04:57:15.21: SIM {TimeUS : 50635571, Roll : -0.03, Pitch : 0.03, Yaw : 359.81, Alt : 44.9700012207, Lat : 49.2835704, Lng : -123.1150206, Q1 : 0.999998629093, Q2 : -0.00034550728742, Q3 : 0.000291705917334, Q4 : -0.00159706256818}
2019-04-14 04:57:15.31: SIM {TimeUS : 50735531, Roll : -0.03, Pitch : 0.01, Yaw : 359.81, Alt : 45.2099990845, Lat : 49.2835704, Lng : -123.1150206, Q1 : 0.999998629093, Q2 : -0.000333959644195, Q3 : 0.000103690821561, Q4 : -0.00162967969663}
2019-04-14 04:57:15.41: SIM {TimeUS : 50835491, Roll : -0.02, Pitch : 0.0, Yaw : 359.8, Alt : 45.4399986267, Lat : 49.2835704, Lng : -123.1150206, Q1 : 0.999998569489, Q2 : -0.000219327164814, Q3 : 1.15532693599e-05, Q4 : -0.00166422524489}
2019-04-14 04:57:15.51: SIM {TimeUS : 50935451, Roll : -0.02, Pitch : 0.0, Yaw : 359.8, Alt : 45.6800003052, Lat : 49.2835703, Lng : -123.1150206, Q1 : 0.999998569489, Q2 : -0.000180944538442, Q3 : 1.69528520928e-05, Q4 : -0.00169924402144}
2019-04-14 04:57:15.61: SIM {TimeUS : 51035411, Roll : -0.02, Pitch : 0.0, Yaw : 359.8, Alt : 45.9099998474, Lat : 49.2835703, Lng : -123.1150206, Q1 : 0.999998450279, Q2 : -0.000219912530156, Q3 : -2.16925745917e-05, Q4 : -0.00173575244844}
2019-04-14 04:57:15.71: SIM {TimeUS : 51135371, Roll : -0.03, Pitch : -0.02, Yaw : 359.79, Alt : 46.1399993896, Lat : 49.2835703, Lng : -123.1150206, Q1 : 0.999998390675, Q2 : -0.000264885457, Q3 : -0.000194096646737, Q4 : -0.0017725013895}
2019-04-14 04:57:15.81: SIM {TimeUS : 51235331, Roll : -0.02, Pitch : -0.03, Yaw : 359.79, Alt : 46.3600006104, Lat : 49.2835703, Lng : -123.1150206, Q1 : 0.99999833107, Q2 : -0.000258658779785, Q3 : -0.000288710522, Q4 : -0.00180284492671}
2019-04-14 04:57:15.91: SIM {TimeUS : 51335291, Roll : -0.02, Pitch : -0.03, Yaw : 359.79, Alt : 46.5900001526, Lat : 49.2835703, Lng : -123.1150206, Q1 : 0.999998271465, Q2 : -0.000193049534573, Q3 : -0.00032209532219, Q4 : -0.00183038320392}
2019-04-14 04:57:16.01: SIM {TimeUS : 51435251, Roll : -0.02, Pitch : -0.03, Yaw : 359.78, Alt : 46.7999992371, Lat : 49.2835703, Lng : -123.1150206, Q1 : 0.999998211861, Q2 : -0.000224030809477, Q3 : -0.000295824196655, Q4 : -0.00185461551882}
2019-04-14 04:57:16.11: SIM {TimeUS : 51535211, Roll : -0.04, Pitch : -0.02, Yaw : 359.78, Alt : 47.0099983215, Lat : 49.2835703, Lng : -123.1150205, Q1 : 0.999998152256, Q2 : -0.000408371502999, Q3 : -0.000238711683778, Q4 : -0.00187554396689}
2019-04-14 04:57:16.21: SIM {TimeUS : 51635171, Roll : -0.08, Pitch : -0.02, Yaw : 359.78, Alt : 47.2200012207, Lat : 49.2835703, Lng : -123.1150205, Q1 : 0.999997973442, Q2 : -0.000714662659448, Q3 : -0.000205157557502, Q4 : -0.00189218472224}
2019-04-14 04:57:16.31: SIM {TimeUS : 51735131, Roll : -0.1, Pitch : -0.02, Yaw : 359.78, Alt : 47.4099998474, Lat : 49.2835703, Lng : -123.1150205, Q1 : 0.999997735023, Q2 : -0.000912289309781, Q3 : -0.0002014789643, Q4 : -0.00191325566266}
2019-04-14 04:57:16.41: SIM {TimeUS : 51835091, Roll : -0.11, Pitch : -0.01, Yaw : 359.77, Alt : 47.5999984741, Lat : 49.2835703, Lng : -123.1150205, Q1 : 0.999997615814, Q2 : -0.000971723115072, Q3 : -0.000138277580845, Q4 : -0.00193841475993}
2019-04-14 04:57:16.51: SIM {TimeUS : 51935051, Roll : -0.13, Pitch : -0.02, Yaw : 359.77, Alt : 47.7700004578, Lat : 49.2835703, Lng : -123.1150205, Q1 : 0.999997258186, Q2 : -0.00121789483819, Q3 : -0.00022976854234, Q4 : -0.00196824339218}
2019-04-14 04:57:16.61: SIM {TimeUS : 52035011, Roll : -0.15, Pitch : -0.04, Yaw : 359.77, Alt : 47.9399986267, Lat : 49.2835703, Lng : -123.1150205, Q1 : 0.999997019768, Q2 : -0.00134071533103, Q3 : -0.000351683062036, Q4 : -0.00200121756643}
2019-04-14 04:57:16.71: SIM {TimeUS : 52134971, Roll : -0.14, Pitch : -0.04, Yaw : 359.76, Alt : 48.0900001526, Lat : 49.2835703, Lng : -123.1150205, Q1 : 0.999996960163, Q2 : -0.00130578945391, Q3 : -0.000422972836532, Q4 : -0.00203207717277}
2019-04-14 04:57:16.81: SIM {TimeUS : 52234931, Roll : -0.13, Pitch : -0.05, Yaw : 359.76, Alt : 48.2299995422, Lat : 49.2835703, Lng : -123.1150205, Q1 : 0.999997079372, Q2 : -0.00115589983761, Q3 : -0.000468861893751, Q4 : -0.00206102803349}
2019-04-14 04:57:16.91: SIM {TimeUS : 52334891, Roll : -0.09, Pitch : -0.06, Yaw : 359.76, Alt : 48.3600006104, Lat : 49.2835703, Lng : -123.1150205, Q1 : 0.999997317791, Q2 : -0.000859882158693, Q3 : -0.000530175806489, Q4 : -0.00208972091787}
2019-04-14 04:57:17.01: SIM {TimeUS : 52434851, Roll : -0.05, Pitch : -0.06, Yaw : 359.75, Alt : 48.4799995422, Lat : 49.2835703, Lng : -123.1150206, Q1 : 0.999997496605, Q2 : -0.000502824783325, Q3 : -0.000567536102608, Q4 : -0.002116486663}
2019-04-14 04:57:17.11: SIM {TimeUS : 52534811, Roll : -0.03, Pitch : -0.06, Yaw : 359.75, Alt : 48.5800018311, Lat : 49.2835703, Lng : -123.1150206, Q1 : 0.999997496605, Q2 : -0.000293281802442, Q3 : -0.000608394213486, Q4 : -0.00214428571053}
2019-04-14 04:57:17.22: SIM {TimeUS : 52635604, Roll : -0.03, Pitch : -0.07, Yaw : 359.75, Alt : 48.6699981689, Lat : 49.2835703, Lng : -123.1150206, Q1 : 0.999997377396, Q2 : -0.00026330986293, Q3 : -0.000661831349134, Q4 : -0.00217045471072}
2019-04-14 04:57:17.31: SIM {TimeUS : 52735564, Roll : 0.0, Pitch : -0.06, Yaw : 359.74, Alt : 48.75, Lat : 49.2835703, Lng : -123.1150206, Q1 : 0.999997437, Q2 : -7.43292184779e-05, Q3 : -0.000587211223319, Q4 : -0.00219067279249}
2019-04-14 04:57:17.41: SIM {TimeUS : 52835524, Roll : 0.01, Pitch : -0.05, Yaw : 359.74, Alt : 48.8199996948, Lat : 49.2835703, Lng : -123.1150206, Q1 : 0.999997437, Q2 : 0.00015388004249, Q3 : -0.000457826943602, Q4 : -0.00221527856775}
2019-04-14 04:57:17.51: SIM {TimeUS : 52935484, Roll : 0.03, Pitch : -0.03, Yaw : 359.74, Alt : 48.8800010681, Lat : 49.2835703, Lng : -123.1150206, Q1 : 0.999997377396, Q2 : 0.000304595247144, Q3 : -0.000296213926049, Q4 : -0.0022453640122}
2019-04-14 04:57:17.61: SIM {TimeUS : 53035444, Roll : 0.04, Pitch : -0.01, Yaw : 359.73, Alt : 48.9399986267, Lat : 49.2835703, Lng : -123.1150206, Q1 : 0.999997317791, Q2 : 0.000391043809941, Q3 : -0.000152564345626, Q4 : -0.00227688485757}
2019-04-14 04:57:17.71: SIM {TimeUS : 53135404, Roll : 0.06, Pitch : -0.01, Yaw : 359.73, Alt : 48.9799995422, Lat : 49.2835703, Lng : -123.1150206, Q1 : 0.999997198582, Q2 : 0.000538103166036, Q3 : -0.000161109433975, Q4 : -0.00230780011043}
2019-04-14 04:57:17.81: SIM {TimeUS : 53235364, Roll : 0.12, Pitch : -0.12, Yaw : 359.73, Alt : 49.0200004578, Lat : 49.2835703, Lng : -123.1150206, Q1 : 0.999996006489, Q2 : 0.00113106588833, Q3 : -0.00113131979015, Q4 : -0.00233956612647}
2019-04-14 04:57:17.91: SIM {TimeUS : 53335324, Roll : 0.31, Pitch : -0.42, Yaw : 359.72, Alt : 49.0499992371, Lat : 49.2835703, Lng : -123.1150207, Q1 : 0.99998652935, Q2 : 0.00270582153462, Q3 : -0.00374554330483, Q4 : -0.0023649930954}
2019-04-14 04:57:18.01: SIM {TimeUS : 53435284, Roll : 0.65, Pitch : -0.94, Yaw : 359.72, Alt : 49.0800018311, Lat : 49.2835703, Lng : -123.1150206, Q1 : 0.999947190285, Q2 : 0.00567484926432, Q3 : -0.00823715794832, Q4 : -0.00237087905407}
2019-04-14 04:57:18.11: SIM {TimeUS : 53535244, Roll : 1.13, Pitch : -1.64, Yaw : 359.71, Alt : 49.1100006104, Lat : 49.2835704, Lng : -123.1150206, Q1 : 0.999845027924, Q2 : 0.00983982905746, Q3 : -0.0144072184339, Q4 : -0.0023635441903}
2019-04-14 04:57:18.21: SIM {TimeUS : 53635204, Roll : 1.7, Pitch : -2.46, Yaw : 359.69, Alt : 49.1300010681, Lat : 49.2835704, Lng : -123.1150206, Q1 : 0.999655902386, Q2 : 0.0148259438574, Q3 : -0.021514525637, Q4 : -0.00232833228074}
2019-04-14 04:57:18.31: SIM {TimeUS : 53735164, Roll : 2.3, Pitch : -3.26, Yaw : 359.67, Alt : 49.1500015259, Lat : 49.2835706, Lng : -123.1150205, Q1 : 0.999388039112, Q2 : 0.020055424422, Q3 : -0.0285727027804, Q4 : -0.00223354110494}
2019-04-14 04:57:18.41: SIM {TimeUS : 53835124, Roll : 2.83, Pitch : -3.96, Yaw : 359.66, Alt : 49.1599998474, Lat : 49.2835707, Lng : -123.1150204, Q1 : 0.999092698097, Q2 : 0.0246109329164, Q3 : -0.0346954092383, Q4 : -0.0020750539843}
2019-04-14 04:57:18.51: SIM {TimeUS : 53935084, Roll : 3.23, Pitch : -4.52, Yaw : 359.65, Alt : 49.1699981689, Lat : 49.2835709, Lng : -123.1150202, Q1 : 0.998819708824, Q2 : 0.0280857104808, Q3 : -0.0395846962929, Q4 : -0.00185890274588}
2019-04-14 04:57:18.61: SIM {TimeUS : 54035044, Roll : 3.5, Pitch : -4.94, Yaw : 359.66, Alt : 49.1899986267, Lat : 49.283571, Lng : -123.11502, Q1 : 0.998601078987, Q2 : 0.0304223615676, Q3 : -0.0432187020779, Q4 : -0.00160919479094}
2019-04-14 04:57:18.71: SIM {TimeUS : 54135004, Roll : 3.69, Pitch : -5.28, Yaw : 359.67, Alt : 49.2000007629, Lat : 49.2835714, Lng : -123.1150198, Q1 : 0.998417258263, Q2 : 0.0320314504206, Q3 : -0.0462080091238, Q4 : -0.00134279963095}
2019-04-14 04:57:18.81: SIM {TimeUS : 54234964, Roll : 3.85, Pitch : -5.6, Yaw : 359.68, Alt : 49.2099990845, Lat : 49.2835718, Lng : -123.1150194, Q1 : 0.998239398003, Q2 : 0.0334938690066, Q3 : -0.0489396713674, Q4 : -0.00106549402699}
2019-04-14 04:57:18.91: SIM {TimeUS : 54334924, Roll : 4.06, Pitch : -5.91, Yaw : 359.69, Alt : 49.2099990845, Lat : 49.2835721, Lng : -123.115019, Q1 : 0.998042166233, Q2 : 0.0353015996516, Q3 : -0.0516234599054, Q4 : -0.0007852918352}
2019-04-14 04:57:19.01: SIM {TimeUS : 54434884, Roll : 4.28, Pitch : -6.23, Yaw : 359.7, Alt : 49.2200012207, Lat : 49.2835727, Lng : -123.1150185, Q1 : 0.997821509838, Q2 : 0.0372285395861, Q3 : -0.0544610209763, Q4 : -0.000533524318598}
2019-04-14 04:57:19.11: SIM {TimeUS : 54534844, Roll : 4.48, Pitch : -6.52, Yaw : 359.71, Alt : 49.2299995422, Lat : 49.2835732, Lng : -123.1150179, Q1 : 0.997618794441, Q2 : 0.0388947501779, Q3 : -0.056954395026, Q4 : -0.000297156715533}
2019-04-14 04:57:19.21: SIM {TimeUS : 54634804, Roll : 4.62, Pitch : -6.73, Yaw : 359.71, Alt : 49.2299995422, Lat : 49.2835738, Lng : -123.1150173, Q1 : 0.997462809086, Q2 : 0.0401293858886, Q3 : -0.0588013976812, Q4 : -9.59344688454e-05}
2019-04-14 04:57:19.32: SIM {TimeUS : 54735597, Roll : 4.71, Pitch : -6.9, Yaw : 359.72, Alt : 49.2400016785, Lat : 49.2835745, Lng : -123.1150166, Q1 : 0.997340202332, Q2 : 0.0409387685359, Q3 : -0.0603036917746, Q4 : 4.83397670905e-05}
2019-04-14 04:57:19.41: SIM {TimeUS : 54835557, Roll : 4.79, Pitch : -7.03, Yaw : 359.72, Alt : 49.2400016785, Lat : 49.2835751, Lng : -123.1150159, Q1 : 0.997246026993, Q2 : 0.0415792241693, Q3 : -0.0614121593535, Q4 : 0.000152817126946}
2019-04-14 04:57:19.51: SIM {TimeUS : 54935517, Roll : 4.87, Pitch : -7.13, Yaw : 359.72, Alt : 49.25, Lat : 49.2835759, Lng : -123.115015, Q1 : 0.997161865234, Q2 : 0.0423118323088, Q3 : -0.0622723661363, Q4 : 0.000239729706664}
2019-04-14 04:57:19.61: SIM {TimeUS : 55035477, Roll : 4.99, Pitch : -7.22, Yaw : 359.72, Alt : 49.25, Lat : 49.2835768, Lng : -123.1150141, Q1 : 0.997068345547, Q2 : 0.043328139931, Q3 : -0.0630658194423, Q4 : 0.000358506717021}
2019-04-14 04:57:19.71: SIM {TimeUS : 55135437, Roll : 5.32, Pitch : -7.27, Yaw : 359.91, Alt : 49.25, Lat : 49.2835776, Lng : -123.1150132, Q1 : 0.996909976006, Q2 : 0.0463541261852, Q3 : -0.0633798092604, Q4 : 0.00219260319136}
2019-04-14 04:57:19.81: SIM {TimeUS : 55235397, Roll : 5.91, Pitch : -7.28, Yaw : 0.86, Alt : 49.2599983215, Lat : 49.2835786, Lng : -123.1150122, Q1 : 0.996596157551, Q2 : 0.0519740022719, Q3 : -0.0630694031715, Q4 : 0.0108189638704}
2019-04-14 04:57:19.91: SIM {TimeUS : 55335357, Roll : 6.49, Pitch : -7.46, Yaw : 3.22, Alt : 49.2599983215, Lat : 49.2835795, Lng : -123.1150111, Q1 : 0.995778858662, Q2 : 0.0583208873868, Q3 : -0.0633729249239, Q4 : 0.031734418124}
2019-04-14 04:57:20.01: SIM {TimeUS : 55435317, Roll : 6.71, Pitch : -7.97, Yaw : 7.19, Alt : 49.2599983215, Lat : 49.2835806, Lng : -123.1150099, Q1 : 0.993650555611, Q2 : 0.0626503303647, Q3 : -0.0655787065625, Q4 : 0.0665808469057}
2019-04-14 04:57:20.11: SIM {TimeUS : 55535277, Roll : 6.33, Pitch : -8.8, Yaw : 12.65, Alt : 49.2599983215, Lat : 49.2835817, Lng : -123.1150087, Q1 : 0.988992810249, Q2 : 0.0631976649165, Q3 : -0.0701097249985, Q4 : 0.113947153091}
2019-04-14 04:57:20.21: SIM {TimeUS : 55635237, Roll : 5.11, Pitch : -9.85, Yaw : 19.29, Alt : 49.2599983215, Lat : 49.2835829, Lng : -123.1150072, Q1 : 0.980586826801, Q2 : 0.0581826977432, Q3 : -0.0771879553795, Q4 : 0.170605570078}
2019-04-14 04:57:20.31: SIM {TimeUS : 55735197, Roll : 2.91, Pitch : -10.91, Yaw : 26.48, Alt : 49.2599983215, Lat : 49.283584, Lng : -123.1150058, Q1 : 0.968144476414, Q2 : 0.0463744476438, Q3 : -0.0867248252034, Q4 : 0.230270460248}
2019-04-14 04:57:20.41: SIM {TimeUS : 55835157, Roll : 0.07, Pitch : -11.7, Yaw : 33.4, Alt : 49.2700004578, Lat : 49.2835852, Lng : -123.1150042, Q1 : 0.952797949314, Q2 : 0.0299242902547, Q3 : -0.0974742695689, Q4 : 0.285970926285}
2019-04-14 04:57:20.51: SIM {TimeUS : 55935117, Roll : -2.78, Pitch : -12.13, Yaw : 39.34, Alt : 49.2700004578, Lat : 49.2835865, Lng : -123.1150026, Q1 : 0.936949431896, Q2 : 0.012827812694, Q3 : -0.107675924897, Q4 : 0.332215517759}
2019-04-14 04:57:20.61: SIM {TimeUS : 56035077, Roll : -5.05, Pitch : -12.29, Yaw : 43.75, Alt : 49.2700004578, Lat : 49.2835879, Lng : -123.115001, Q1 : 0.9235201478, Q2 : -0.000879956060089, Q3 : -0.115592628717, Q4 : 0.36571586132}
2019-04-14 04:57:20.71: SIM {TimeUS : 56135037, Roll : -6.39, Pitch : -12.34, Yaw : 46.41, Alt : 49.2700004578, Lat : 49.2835893, Lng : -123.1149993, Q1 : 0.914694011211, Q2 : -0.0086527839303, Q3 : -0.1204938218, Q4 : 0.385669857264}
2019-04-14 04:57:20.81: SIM {TimeUS : 56234997, Roll : -6.74, Pitch : -12.46, Yaw : 47.42, Alt : 49.2700004578, Lat : 49.283591, Lng : -123.1149977, Q1 : 0.911146938801, Q2 : -0.00996837485582, Q3 : -0.122720018029, Q4 : 0.393257796764}
2019-04-14 04:57:20.91: SIM {TimeUS : 56334957, Roll : -6.28, Pitch : -12.74, Yaw : 47.05, Alt : 49.2700004578, Lat : 49.2835926, Lng : -123.114996, Q1 : 0.912270307541, Q2 : -0.00573458988219, Q3 : -0.123361289501, Q4 : 0.390527874231}
2019-04-14 04:57:21.01: SIM {TimeUS : 56434917, Roll : -5.24, Pitch : -13.21, Yaw : 45.6, Alt : 49.2700004578, Lat : 49.2835944, Lng : -123.1149944, Q1 : 0.916789054871, Q2 : 0.00264987186529, Q3 : -0.123608872294, Q4 : 0.379752188921}
2019-04-14 04:57:21.11: SIM {TimeUS : 56534877, Roll : -3.83, Pitch : -13.84, Yaw : 43.41, Alt : 49.2700004578, Lat : 49.2835963, Lng : -123.1149926, Q1 : 0.923291027546, Q2 : 0.0137185156345, Q3 : -0.124194562435, Q4 : 0.363209635019}
2019-04-14 04:57:21.21: SIM {TimeUS : 56634837, Roll : -2.24, Pitch : -14.49, Yaw : 40.76, Alt : 49.2700004578, Lat : 49.2835982, Lng : -123.114991, Q1 : 0.930572450161, Q2 : 0.0257221534848, Q3 : -0.124997258186, Q4 : 0.343145698309}
2019-04-14 04:57:21.31: SIM {TimeUS : 56734797, Roll : -0.65, Pitch : -15.04, Yaw : 37.97, Alt : 49.2799987793, Lat : 49.2836001, Lng : -123.1149891, Q1 : 0.937665700912, Q2 : 0.0372298434377, Q3 : -0.125660061836, Q4 : 0.321879684925}
2019-04-14 04:57:21.42: SIM {TimeUS : 56835590, Roll : 0.78, Pitch : -15.42, Yaw : 35.33, Alt : 49.2799987793, Lat : 49.2836023, Lng : -123.1149871, Q1 : 0.943898320198, Q2 : 0.0471880696714, Q3 : -0.125841483474, Q4 : 0.301650822163}
2019-04-14 04:57:21.51: SIM {TimeUS : 56935550, Roll : 1.91, Pitch : -15.59, Yaw : 33.16, Alt : 49.2799987793, Lat : 49.2836043, Lng : -123.1149852, Q1 : 0.94878423214, Q2 : 0.0545363016427, Q3 : -0.125257402658, Q4 : 0.284859389067}
2019-04-14 04:57:21.61: SIM {TimeUS : 57035510, Roll : 2.66, Pitch : -15.6, Yaw : 31.59, Alt : 49.2799987793, Lat : 49.2836066, Lng : -123.1149831, Q1 : 0.95220041275, Q2 : 0.0591258145869, Q3 : -0.124318487942, Q4 : 0.272696584463}
2019-04-14 04:57:21.71: SIM {TimeUS : 57135470, Roll : 3.0, Pitch : -15.56, Yaw : 30.71, Alt : 49.2799987793, Lat : 49.2836087, Lng : -123.1149809, Q1 : 0.95413839817, Q2 : 0.0609390251338, Q3 : -0.123634509742, Q4 : 0.265745788813}
2019-04-14 04:57:21.81: SIM {TimeUS : 57235430, Roll : 2.95, Pitch : -15.54, Yaw : 30.49, Alt : 49.2799987793, Lat : 49.283611, Lng : -123.1149786, Q1 : 0.954698085785, Q2 : 0.0602312795818, Q3 : -0.123677402735, Q4 : 0.263870686293}
2019-04-14 04:57:21.91: SIM {TimeUS : 57335390, Roll : 2.58, Pitch : -15.57, Yaw : 30.84, Alt : 49.2799987793, Lat : 49.2836134, Lng : -123.1149761, Q1 : 0.954044640064, Q2 : 0.05758042261, Q3 : -0.124597042799, Q4 : 0.266381174326}
2019-04-14 04:57:22.01: SIM {TimeUS : 57435350, Roll : 1.97, Pitch : -15.66, Yaw : 31.62, Alt : 49.2799987793, Lat : 49.2836157, Lng : -123.1149736, Q1 : 0.952390253544, Q2 : 0.053578492254, Q3 : -0.126451030374, Q4 : 0.2721991539}
2019-04-14 04:57:22.11: SIM {TimeUS : 57535310, Roll : 1.24, Pitch : -15.8, Yaw : 32.68, Alt : 49.2799987793, Lat : 49.283618, Lng : -123.114971, Q1 : 0.95001488924, Q2 : 0.0489784888923, Q3 : -0.128893747926, Q4 : 0.280105769634}
2019-04-14 04:57:22.21: SIM {TimeUS : 57635270, Roll : 0.48, Pitch : -15.94, Yaw : 33.84, Alt : 49.2799987793, Lat : 49.2836205, Lng : -123.1149684, Q1 : 0.947258234024, Q2 : 0.0444114618003, Q3 : -0.131495207548, Q4 : 0.288857102394}
2019-04-14 04:57:22.31: SIM {TimeUS : 57735230, Roll : -0.19, Pitch : -16.07, Yaw : 34.97, Alt : 49.2799987793, Lat : 49.2836229, Lng : -123.1149656, Q1 : 0.944478332996, Q2 : 0.0403832234442, Q3 : -0.133864104748, Q4 : 0.297338843346}
2019-04-14 04:57:22.41: SIM {TimeUS : 57835190, Roll : -0.73, Pitch : -16.16, Yaw : 35.95, Alt : 49.2799987793, Lat : 49.2836254, Lng : -123.1149629, Q1 : 0.941993355751, Q2 : 0.0373409129679, Q3 : -0.13573384285, Q4 : 0.304680913687}
2019-04-14 04:57:22.51: SIM {TimeUS : 57935150, Roll : -1.09, Pitch : -16.25, Yaw : 36.68, Alt : 49.2799987793, Lat : 49.283628, Lng : -123.1149601, Q1 : 0.940035045147, Q2 : 0.0355292260647, Q3 : -0.137121841311, Q4 : 0.310273230076}
2019-04-14 04:57:22.61: SIM {TimeUS : 58035110, Roll : -1.27, Pitch : -16.31, Yaw : 37.14, Alt : 49.2799987793, Lat : 49.2836305, Lng : -123.1149573, Q1 : 0.938759088516, Q2 : 0.034802172333, Q3 : -0.13802434504, Q4 : 0.313798546791}
2019-04-14 04:57:22.71: SIM {TimeUS : 58135070, Roll : -1.3, Pitch : -16.37, Yaw : 37.32, Alt : 49.2799987793, Lat : 49.2836332, Lng : -123.1149545, Q1 : 0.938205778599, Q2 : 0.0349317677319, Q3 : -0.138517960906, Q4 : 0.315218120813}
2019-04-14 04:57:22.81: SIM {TimeUS : 58235030, Roll : -1.19, Pitch : -16.4, Yaw : 37.25, Alt : 49.2799987793, Lat : 49.2836359, Lng : -123.1149516, Q1 : 0.93833553791, Q2 : 0.0357906520367, Q3 : -0.13848516345, Q4 : 0.314749509096}
2019-04-14 04:57:22.91: SIM {TimeUS : 58334990, Roll : -0.96, Pitch : -16.42, Yaw : 36.98, Alt : 49.2799987793, Lat : 49.2836387, Lng : -123.1149487, Q1 : 0.938987195492, Q2 : 0.0374062396586, Q3 : -0.138070195913, Q4 : 0.312794566154}
2019-04-14 04:57:23.01: SIM {TimeUS : 58434950, Roll : -0.67, Pitch : -16.44, Yaw : 36.57, Alt : 49.2799987793, Lat : 49.2836414, Lng : -123.1149458, Q1 : 0.939972817898, Q2 : 0.0393215492368, Q3 : -0.137631416321, Q4 : 0.309778213501}
2019-04-14 04:57:23.11: SIM {TimeUS : 58534910, Roll : -0.35, Pitch : -16.48, Yaw : 36.1, Alt : 49.2799987793, Lat : 49.2836442, Lng : -123.1149428, Q1 : 0.941099643707, Q2 : 0.0414773747325, Q3 : -0.137250036001, Q4 : 0.306224673986}
2019-04-14 04:57:23.21: SIM {TimeUS : 58634870, Roll : -0.02, Pitch : -16.51, Yaw : 35.61, Alt : 49.2799987793, Lat : 49.283647, Lng : -123.1149397, Q1 : 0.942231357098, Q2 : 0.0436822883785, Q3 : -0.136782601476, Q4 : 0.302625954151}
2019-04-14 04:57:23.31: SIM {TimeUS : 58734830, Roll : 0.25, Pitch : -16.53, Yaw : 35.17, Alt : 49.2799987793, Lat : 49.2836499, Lng : -123.1149368, Q1 : 0.943244636059, Q2 : 0.0455216877162, Q3 : -0.136401936412, Q4 : 0.299352377653}
2019-04-14 04:57:23.41: SIM {TimeUS : 58834790, Roll : 0.44, Pitch : -16.56, Yaw : 34.82, Alt : 49.2799987793, Lat : 49.2836528, Lng : -123.1149337, Q1 : 0.944037556648, Q2 : 0.0467652268708, Q3 : -0.136343419552, Q4 : 0.296676009893}
2019-04-14 04:57:23.52: SIM {TimeUS : 58935583, Roll : 0.54, Pitch : -16.62, Yaw : 34.58, Alt : 49.2900009155, Lat : 49.2836558, Lng : -123.1149306, Q1 : 0.9445566535, Q2 : 0.047464735806, Q3 : -0.136671096087, Q4 : 0.294755727053}
2019-04-14 04:57:23.61: SIM {TimeUS : 59035543, Roll : 0.57, Pitch : -16.69, Yaw : 34.45, Alt : 49.2900009155, Lat : 49.2836586, Lng : -123.1149274, Q1 : 0.944793343544, Q2 : 0.0476992316544, Q3 : -0.137201353908, Q4 : 0.293710947037}
2019-04-14 04:57:23.71: SIM {TimeUS : 59135503, Roll : 0.53, Pitch : -16.74, Yaw : 34.43, Alt : 49.2900009155, Lat : 49.2836615, Lng : -123.1149242, Q1 : 0.944798767567, Q2 : 0.0474757105112, Q3 : -0.137746185064, Q4 : 0.293474644423}
2019-04-14 04:57:23.81: SIM {TimeUS : 59235463, Roll : 0.45, Pitch : -16.79, Yaw : 34.5, Alt : 49.2900009155, Lat : 49.2836645, Lng : -123.114921, Q1 : 0.944598436356, Q2 : 0.0470181256533, Q3 : -0.138292372227, Q4 : 0.293935954571}
2019-04-14 04:57:23.91: SIM {TimeUS : 59335423, Roll : 0.34, Pitch : -16.83, Yaw : 34.63, Alt : 49.2900009155, Lat : 49.2836676, Lng : -123.1149178, Q1 : 0.944247126579, Q2 : 0.0463763065636, Q3 : -0.138864248991, Q4 : 0.29489544034}
2019-04-14 04:57:24.01: SIM {TimeUS : 59435383, Roll : 0.21, Pitch : -16.86, Yaw : 34.8, Alt : 49.2900009155, Lat : 49.2836706, Lng : -123.1149145, Q1 : 0.943819582462, Q2 : 0.04562818259, Q3 : -0.139368876815, Q4 : 0.296140283346}
2019-04-14 04:57:24.11: SIM {TimeUS : 59535343, Roll : 0.1, Pitch : -16.88, Yaw : 34.99, Alt : 49.2900009155, Lat : 49.2836736, Lng : -123.1149112, Q1 : 0.943365693092, Q2 : 0.0449834465981, Q3 : -0.139772847295, Q4 : 0.297491580248}
2019-04-14 04:57:24.21: SIM {TimeUS : 59635303, Roll : 0.0, Pitch : -16.91, Yaw : 35.15, Alt : 49.2900009155, Lat : 49.2836767, Lng : -123.1149079, Q1 : 0.942928135395, Q2 : 0.0444783605635, Q3 : -0.140181466937, Q4 : 0.29875972867}
2019-04-14 04:57:24.31: SIM {TimeUS : 59735263, Roll : -0.06, Pitch : -16.94, Yaw : 35.29, Alt : 49.2900009155, Lat : 49.2836797, Lng : -123.1149046, Q1 : 0.94256144762, Q2 : 0.044086586684, Q3 : -0.140542775393, Q4 : 0.299803167582}
2019-04-14 04:57:24.41: SIM {TimeUS : 59835223, Roll : -0.11, Pitch : -16.97, Yaw : 35.39, Alt : 49.2900009155, Lat : 49.2836828, Lng : -123.1149012, Q1 : 0.942289829254, Q2 : 0.0438734665513, Q3 : -0.140896961093, Q4 : 0.300521373749}
2019-04-14 04:57:24.51: SIM {TimeUS : 59935183, Roll : -0.14, Pitch : -17.0, Yaw : 35.44, Alt : 49.2900009155, Lat : 49.2836858, Lng : -123.1148979, Q1 : 0.942122042179, Q2 : 0.0438306108117, Q3 : -0.141252338886, Q4 : 0.300886541605}
2019-04-14 04:57:24.61: SIM {TimeUS : 60035143, Roll : -0.15, Pitch : -17.04, Yaw : 35.44, Alt : 49.2999992371, Lat : 49.283689, Lng : -123.1148945, Q1 : 0.942067444324, Q2 : 0.0438807606697, Q3 : -0.141602814198, Q4 : 0.300885468721}
2019-04-14 04:57:24.71: SIM {TimeUS : 60135103, Roll : -0.15, Pitch : -17.08, Yaw : 35.41, Alt : 49.2999992371, Lat : 49.2836922, Lng : -123.1148911, Q1 : 0.94212782383, Q2 : 0.0438616611063, Q3 : -0.141927182674, Q4 : 0.300546258688}
2019-04-14 04:57:24.81: SIM {TimeUS : 60235063, Roll : -0.15, Pitch : -17.1, Yaw : 35.34, Alt : 49.2999992371, Lat : 49.2836954, Lng : -123.1148877, Q1 : 0.942278444767, Q2 : 0.0438582673669, Q3 : -0.142143756151, Q4 : 0.299971610308}
2019-04-14 04:57:24.91: SIM {TimeUS : 60335023, Roll : -0.13, Pitch : -17.13, Yaw : 35.25, Alt : 49.2999992371, Lat : 49.2836985, Lng : -123.1148842, Q1 : 0.942475676537, Q2 : 0.0439938381314, Q3 : -0.142304614186, Q4 : 0.299255073071}
2019-04-14 04:57:25.01: SIM {TimeUS : 60434983, Roll : -0.08, Pitch : -17.16, Yaw : 35.15, Alt : 49.2999992371, Lat : 49.2837016, Lng : -123.1148808, Q1 : 0.94267565012, Q2 : 0.0443638898432, Q3 : -0.142469733953, Q4 : 0.298490822315}
2019-04-14 04:57:25.11: SIM {TimeUS : 60534943, Roll : -0.01, Pitch : -17.2, Yaw : 35.05, Alt : 49.2999992371, Lat : 49.2837048, Lng : -123.1148773, Q1 : 0.942855894566, Q2 : 0.044903781265, Q3 : -0.142653688788, Q4 : 0.29775211215}
2019-04-14 04:57:25.21: SIM {TimeUS : 60634903, Roll : 0.06, Pitch : -17.24, Yaw : 34.96, Alt : 49.2999992371, Lat : 49.2837081, Lng : -123.1148738, Q1 : 0.943004310131, Q2 : 0.0455465316772, Q3 : -0.142837017775, Q4 : 0.297095954418}
2019-04-14 04:57:25.31: SIM {TimeUS : 60734863, Roll : 0.13, Pitch : -17.29, Yaw : 34.89, Alt : 49.2999992371, Lat : 49.2837113, Lng : -123.1148704, Q1 : 0.943110883236, Q2 : 0.0461897775531, Q3 : -0.143047988415, Q4 : 0.296556353569}
2019-04-14 04:57:25.41: SIM {TimeUS : 60834823, Roll : 0.18, Pitch : -17.32, Yaw : 34.83, Alt : 49.3100013733, Lat : 49.2837145, Lng : -123.1148669, Q1 : 0.943190157413, Q2 : 0.0466177798808, Q3 : -0.14323374629, Q4 : 0.296147316694}
2019-04-14 04:57:25.51: SIM {TimeUS : 60934783, Roll : 0.19, Pitch : -17.34, Yaw : 34.79, Alt : 49.3100013733, Lat : 49.2837178, Lng : -123.1148633, Q1 : 0.943256318569, Q2 : 0.0467050373554, Q3 : -0.143374949694, Q4 : 0.295854300261}
2019-04-14 04:57:25.62: SIM {TimeUS : 61035576, Roll : 0.17, Pitch : -17.34, Yaw : 34.78, Alt : 49.3100013733, Lat : 49.2837211, Lng : -123.1148598, Q1 : 0.94329982996, Q2 : 0.0465446561575, Q3 : -0.143475219607, Q4 : 0.295692235231}
2019-04-14 04:57:25.71: SIM {TimeUS : 61135536, Roll : 0.16, Pitch : -17.33, Yaw : 34.77, Alt : 49.3100013733, Lat : 49.2837243, Lng : -123.1148562, Q1 : 0.943334758282, Q2 : 0.0463512465358, Q3 : -0.143381431699, Q4 : 0.295656830072}
2019-04-14 04:57:25.81: SIM {TimeUS : 61235496, Roll : 0.14, Pitch : -17.32, Yaw : 34.78, Alt : 49.3100013733, Lat : 49.2837277, Lng : -123.1148527, Q1 : 0.943326771259, Q2 : 0.0462196730077, Q3 : -0.143380746245, Q4 : 0.295703083277}
2019-04-14 04:57:25.91: SIM {TimeUS : 61335456, Roll : 0.14, Pitch : -17.36, Yaw : 34.8, Alt : 49.3100013733, Lat : 49.2837309, Lng : -123.1148491, Q1 : 0.943252623081, Q2 : 0.0463062822819, Q3 : -0.143643066287, Q4 : 0.295798718929}
2019-04-14 04:57:26.01: SIM {TimeUS : 61435416, Roll : 0.15, Pitch : -17.42, Yaw : 34.81, Alt : 49.3100013733, Lat : 49.2837343, Lng : -123.1148455, Q1 : 0.943129181862, Q2 : 0.046561524272, Q3 : -0.144146576524, Q4 : 0.295907407999}
2019-04-14 04:57:26.11: SIM {TimeUS : 61535376, Roll : 0.14, Pitch : -17.47, Yaw : 34.83, Alt : 49.3100013733, Lat : 49.2837375, Lng : -123.114842, Q1 : 0.943032264709, Q2 : 0.0466631054878, Q3 : -0.14454600215, Q4 : 0.296005249023}
2019-04-14 04:57:26.21: SIM {TimeUS : 61635336, Roll : 0.13, Pitch : -17.49, Yaw : 34.84, Alt : 49.3100013733, Lat : 49.2837409, Lng : -123.1148384, Q1 : 0.942979454994, Q2 : 0.0466526448727, Q3 : -0.144733637571, Q4 : 0.296083688736}
2019-04-14 04:57:26.31: SIM {TimeUS : 61735296, Roll : 0.12, Pitch : -17.5, Yaw : 34.84, Alt : 49.3100013733, Lat : 49.2837442, Lng : -123.1148348, Q1 : 0.94295501709, Q2 : 0.046611353755, Q3 : -0.144879937172, Q4 : 0.296096324921}
2019-04-14 04:57:26.41: SIM {TimeUS : 61835256, Roll : 0.1, Pitch : -17.52, Yaw : 34.84, Alt : 49.3100013733, Lat : 49.2837476, Lng : -123.1148311, Q1 : 0.942944586277, Q2 : 0.0464949011803, Q3 : -0.145107492805, Q4 : 0.296036362648}
2019-04-14 04:57:26.51: SIM {TimeUS : 61935216, Roll : 0.1, Pitch : -17.54, Yaw : 34.83, Alt : 49.3199996948, Lat : 49.2837509, Lng : -123.1148275, Q1 : 0.942952990532, Q2 : 0.0465001612902, Q3 : -0.14521189034, Q4 : 0.295957565308}
2019-04-14 04:57:26.61: SIM {TimeUS : 62035176, Roll : 0.1, Pitch : -17.55, Yaw : 34.81, Alt : 49.3199996948, Lat : 49.2837543, Lng : -123.1148239, Q1 : 0.942978084087, Q2 : 0.0464848615229, Q3 : -0.145316675305, Q4 : 0.295828551054}
2019-04-14 04:57:26.71: SIM {TimeUS : 62135136, Roll : 0.1, Pitch : -17.56, Yaw : 34.8, Alt : 49.3199996948, Lat : 49.2837576, Lng : -123.1148202, Q1 : 0.943015396595, Q2 : 0.0464956723154, Q3 : -0.145397141576, Q4 : 0.295668423176}
2019-04-14 04:57:26.81: SIM {TimeUS : 62235096, Roll : 0.11, Pitch : -17.58, Yaw : 34.77, Alt : 49.3199996948, Lat : 49.283761, Lng : -123.1148166, Q1 : 0.943048000336, Q2 : 0.0466021150351, Q3 : -0.145562559366, Q4 : 0.295466244221}
2019-04-14 04:57:26.91: SIM {TimeUS : 62335056, Roll : 0.13, Pitch : -17.59, Yaw : 34.74, Alt : 49.3199996948, Lat : 49.2837643, Lng : -123.1148129, Q1 : 0.943093419075, Q2 : 0.0467751659453, Q3 : -0.145634800196, Q4 : 0.29525822401}
2019-04-14 04:57:27.01: SIM {TimeUS : 62435016, Roll : 0.15, Pitch : -17.61, Yaw : 34.72, Alt : 49.3199996948, Lat : 49.2837678, Lng : -123.1148093, Q1 : 0.943136036396, Q2 : 0.0469700172544, Q3 : -0.145695954561, Q4 : 0.295060902834}
2019-04-14 04:57:27.11: SIM {TimeUS : 62534976, Roll : 0.18, Pitch : -17.62, Yaw : 34.69, Alt : 49.3199996948, Lat : 49.2837711, Lng : -123.1148056, Q1 : 0.943167150021, Q2 : 0.0471779033542, Q3 : -0.145795255899, Q4 : 0.294879227877}
2019-04-14 04:57:27.21: SIM {TimeUS : 62634936, Roll : 0.18, Pitch : -17.66, Yaw : 34.67, Alt : 49.3199996948, Lat : 49.2837746, Lng : -123.1148019, Q1 : 0.943171620369, Q2 : 0.0473177321255, Q3 : -0.146106913686, Q4 : 0.294688165188}
2019-04-14 04:57:27.31: SIM {TimeUS : 62734896, Roll : 0.18, Pitch : -17.71, Yaw : 34.65, Alt : 49.3199996948, Lat : 49.283778, Lng : -123.1147983, Q1 : 0.943169772625, Q2 : 0.0473653785884, Q3 : -0.146487385035, Q4 : 0.294497460127}
2019-04-14 04:57:27.41: SIM {TimeUS : 62834856, Roll : 0.17, Pitch : -17.75, Yaw : 34.63, Alt : 49.3199996948, Lat : 49.2837813, Lng : -123.1147946, Q1 : 0.943166434765, Q2 : 0.0473759286106, Q3 : -0.146857231855, Q4 : 0.294322252274}
2019-04-14 04:57:27.51: SIM {TimeUS : 62934816, Roll : 0.18, Pitch : -17.78, Yaw : 34.61, Alt : 49.3199996948, Lat : 49.2837848, Lng : -123.1147909, Q1 : 0.943167805672, Q2 : 0.0474806502461, Q3 : -0.147081285715, Q4 : 0.294188976288}
2019-04-14 04:57:27.61: SIM {TimeUS : 63034776, Roll : 0.19, Pitch : -17.78, Yaw : 34.6, Alt : 49.3199996948, Lat : 49.2837883, Lng : -123.1147872, Q1 : 0.943189442158, Q2 : 0.0475826300681, Q3 : -0.147118195891, Q4 : 0.294084697962}
2019-04-14 04:57:27.71: SIM {TimeUS : 63135569, Roll : 0.2, Pitch : -17.76, Yaw : 34.59, Alt : 49.3199996948, Lat : 49.2837916, Lng : -123.1147834, Q1 : 0.943244755268, Q2 : 0.0476210713387, Q3 : -0.146913185716, Q4 : 0.294003665447}
2019-04-14 04:57:27.81: SIM {TimeUS : 63235529, Roll : 0.19, Pitch : -17.74, Yaw : 34.58, Alt : 49.3199996948, Lat : 49.2837952, Lng : -123.1147797, Q1 : 0.943305492401, Q2 : 0.0474695339799, Q3 : -0.146724000573, Q4 : 0.293927788734}
2019-04-14 04:57:27.91: SIM {TimeUS : 63335489, Roll : 0.18, Pitch : -17.72, Yaw : 34.57, Alt : 49.3199996948, Lat : 49.2837986, Lng : -123.114776, Q1 : 0.943354606628, Q2 : 0.047317635268, Q3 : -0.146587178111, Q4 : 0.293862879276}
2019-04-14 04:57:28.01: SIM {TimeUS : 63435449, Roll : 0.18, Pitch : -17.71, Yaw : 34.56, Alt : 49.3300018311, Lat : 49.283802, Lng : -123.1147722, Q1 : 0.943374931812, Q2 : 0.0472590066493, Q3 : -0.146593883634, Q4 : 0.293803602457}
2019-04-14 04:57:28.11: SIM {TimeUS : 63535409, Roll : 0.17, Pitch : -17.73, Yaw : 34.56, Alt : 49.3300018311, Lat : 49.2838055, Lng : -123.1147685, Q1 : 0.943369328976, Q2 : 0.0472554713488, Q3 : -0.146775022149, Q4 : 0.293731749058}
2019-04-14 04:57:28.21: SIM {TimeUS : 63635369, Roll : 0.17, Pitch : -17.76, Yaw : 34.55, Alt : 49.3300018311, Lat : 49.283809, Lng : -123.1147647, Q1 : 0.94335693121, Q2 : 0.0472896173596, Q3 : -0.146989807487, Q4 : 0.293658703566}
2019-04-14 04:57:28.31: SIM {TimeUS : 63735329, Roll : 0.16, Pitch : -17.8, Yaw : 34.54, Alt : 49.3300018311, Lat : 49.2838124, Lng : -123.114761, Q1 : 0.943332135677, Q2 : 0.0473059862852, Q3 : -0.147324547172, Q4 : 0.293567925692}
2019-04-14 04:57:28.41: SIM {TimeUS : 63835289, Roll : 0.15, Pitch : -17.84, Yaw : 34.53, Alt : 49.3300018311, Lat : 49.2838159, Lng : -123.1147572, Q1 : 0.943301081657, Q2 : 0.047349691391, Q3 : -0.14770694077, Q4 : 0.293468654156}
2019-04-14 04:57:28.51: SIM {TimeUS : 63935249, Roll : 0.16, Pitch : -17.88, Yaw : 34.52, Alt : 49.3300018311, Lat : 49.2838194, Lng : -123.1147535, Q1 : 0.943281531334, Q2 : 0.0474656820297, Q3 : -0.147988647223, Q4 : 0.293370634317}
2019-04-14 04:57:28.61: SIM {TimeUS : 64035209, Roll : 0.16, Pitch : -17.91, Yaw : 34.51, Alt : 49.3300018311, Lat : 49.2838228, Lng : -123.1147497, Q1 : 0.943268358707, Q2 : 0.0475227199495, Q3 : -0.148280888796, Q4 : 0.293256163597}
2019-04-14 04:57:28.71: SIM {TimeUS : 64135169, Roll : 0.15, Pitch : -17.93, Yaw : 34.5, Alt : 49.3300018311, Lat : 49.2838263, Lng : -123.1147459, Q1 : 0.94327378273, Q2 : 0.0475395470858, Q3 : -0.148470804095, Q4 : 0.293139904737}
2019-04-14 04:57:28.81: SIM {TimeUS : 64235129, Roll : 0.17, Pitch : -17.92, Yaw : 34.48, Alt : 49.3300018311, Lat : 49.2838299, Lng : -123.1147421, Q1 : 0.943309247494, Q2 : 0.0476447865367, Q3 : -0.148370102048, Q4 : 0.293059706688}
2019-04-14 04:57:28.91: SIM {TimeUS : 64335089, Roll : 0.2, Pitch : -17.93, Yaw : 34.47, Alt : 49.3300018311, Lat : 49.2838334, Lng : -123.1147384, Q1 : 0.943329811096, Q2 : 0.0478419139981, Q3 : -0.148344010115, Q4 : 0.292974621058}
2019-04-14 04:57:29.01: SIM {TimeUS : 64435049, Roll : 0.21, Pitch : -17.94, Yaw : 34.46, Alt : 49.3300018311, Lat : 49.2838369, Lng : -123.1147346, Q1 : 0.943344593048, Q2 : 0.0479353368282, Q3 : -0.148436620831, Q4 : 0.292864650488}
2019-04-14 04:57:29.11: SIM {TimeUS : 64535009, Roll : 0.21, Pitch : -17.95, Yaw : 34.44, Alt : 49.3300018311, Lat : 49.2838403, Lng : -123.1147308, Q1 : 0.943371534348, Q2 : 0.0479813292623, Q3 : -0.14847753942, Q4 : 0.292749851942}
2019-04-14 04:57:29.21: SIM {TimeUS : 64634969, Roll : 0.22, Pitch : -17.94, Yaw : 34.43, Alt : 49.3300018311, Lat : 49.2838439, Lng : -123.1147269, Q1 : 0.943410158157, Q2 : 0.048003770411, Q3 : -0.148433297873, Q4 : 0.292643994093}
2019-04-14 04:57:29.31: SIM {TimeUS : 64734929, Roll : 0.22, Pitch : -17.94, Yaw : 34.41, Alt : 49.3300018311, Lat : 49.2838474, Lng : -123.1147232, Q1 : 0.943445444107, Q2 : 0.0479858368635, Q3 : -0.148423656821, Q4 : 0.292538136244}
2019-04-14 04:57:29.41: SIM {TimeUS : 64834889, Roll : 0.2, Pitch : -17.96, Yaw : 34.4, Alt : 49.3400001526, Lat : 49.2838509, Lng : -123.1147194, Q1 : 0.94345831871, Q2 : 0.0478581301868, Q3 : -0.148634791374, Q4 : 0.292410165071}
2019-04-14 04:57:29.51: SIM {TimeUS : 64934849, Roll : 0.17, Pitch : -18.0, Yaw : 34.39, Alt : 49.3400001526, Lat : 49.2838544, Lng : -123.1147156, Q1 : 0.943447768688, Q2 : 0.0476992353797, Q3 : -0.14901958406, Q4 : 0.292274266481}
2019-04-14 04:57:29.61: SIM {TimeUS : 65034809, Roll : 0.15, Pitch : -18.0, Yaw : 34.38, Alt : 49.3400001526, Lat : 49.2838579, Lng : -123.1147118, Q1 : 0.943466961384, Q2 : 0.0475759059191, Q3 : -0.149117231369, Q4 : 0.292182654142}
2019-04-14 04:57:29.72: SIM {TimeUS : 65135602, Roll : 0.17, Pitch : -17.99, Yaw : 34.38, Alt : 49.3400001526, Lat : 49.2838615, Lng : -123.114708, Q1 : 0.94349783659, Q2 : 0.0476398728788, Q3 : -0.148977845907, Q4 : 0.292143464088}
2019-04-14 04:57:29.81: SIM {TimeUS : 65235562, Roll : 0.19, Pitch : -17.98, Yaw : 34.37, Alt : 49.3400001526, Lat : 49.2838651, Lng : -123.1147042, Q1 : 0.943524956703, Q2 : 0.0477630905807, Q3 : -0.148823738098, Q4 : 0.292114496231}
2019-04-14 04:57:29.91: SIM {TimeUS : 65335522, Roll : 0.19, Pitch : -17.98, Yaw : 34.36, Alt : 49.3400001526, Lat : 49.2838686, Lng : -123.1147004, Q1 : 0.943538963795, Q2 : 0.0478158742189, Q3 : -0.148826524615, Q4 : 0.292059093714}
2019-04-14 04:57:30.01: SIM {TimeUS : 65435482, Roll : 0.18, Pitch : -18.0, Yaw : 34.35, Alt : 49.3400001526, Lat : 49.2838722, Lng : -123.1146965, Q1 : 0.943544924259, Q2 : 0.0477213971317, Q3 : -0.149001225829, Q4 : 0.291966348886}
2019-04-14 04:57:30.11: SIM {TimeUS : 65535442, Roll : 0.15, Pitch : -18.02, Yaw : 34.35, Alt : 49.3400001526, Lat : 49.2838756, Lng : -123.1146927, Q1 : 0.943547725677, Q2 : 0.0475238114595, Q3 : -0.149275451899, Q4 : 0.291849315166}
2019-04-14 04:57:30.21: SIM {TimeUS : 65635402, Roll : 0.14, Pitch : -18.05, Yaw : 34.34, Alt : 49.3400001526, Lat : 49.2838792, Lng : -123.1146889, Q1 : 0.943541944027, Q2 : 0.0474841557443, Q3 : -0.149536639452, Q4 : 0.291740715504}
2019-04-14 04:57:30.31: SIM {TimeUS : 65735362, Roll : 0.15, Pitch : -18.08, Yaw : 34.32, Alt : 49.3400001526, Lat : 49.2838828, Lng : -123.1146851, Q1 : 0.943529844284, Q2 : 0.047623347491, Q3 : -0.14974616468, Q4 : 0.291649669409}
2019-04-14 04:57:30.41: SIM {TimeUS : 65835322, Roll : 0.16, Pitch : -18.1, Yaw : 34.31, Alt : 49.3400001526, Lat : 49.2838864, Lng : -123.1146812, Q1 : 0.943522155285, Q2 : 0.047775965184, Q3 : -0.149908602238, Q4 : 0.291566133499}
2019-04-14 04:57:30.51: SIM {TimeUS : 65935282, Roll : 0.18, Pitch : -18.11, Yaw : 34.3, Alt : 49.3400001526, Lat : 49.28389, Lng : -123.1146774, Q1 : 0.943529903889, Q2 : 0.0479695014656, Q3 : -0.149926111102, Q4 : 0.291500300169}
2019-04-14 04:57:30.61: SIM {TimeUS : 66035242, Roll : 0.2, Pitch : -18.12, Yaw : 34.29, Alt : 49.3400001526, Lat : 49.2838935, Lng : -123.1146736, Q1 : 0.943536996841, Q2 : 0.0480900146067, Q3 : -0.149983882904, Q4 : 0.291427791119}
