2019-04-14 04:20:06.40: SIM {TimeUS : 40616247, Roll : 0.0, Pitch : 0.0, Yaw : 0.0, Alt : 30.1000003815, Lat : 49.28357, Lng : -123.11502, Q1 : 1.0, Q2 : 0.0, Q3 : 0.0, Q4 : 0.0}
2019-04-14 04:20:06.51: SIM {TimeUS : 40735366, Roll : 0.0, Pitch : 0.0, Yaw : 0.0, Alt : 30.1000003815, Lat : 49.28357, Lng : -123.11502, Q1 : 1.0, Q2 : 0.0, Q3 : 0.0, Q4 : 0.0}
2019-04-14 04:20:06.61: SIM {TimeUS : 40835326, Roll : 0.0, Pitch : 0.0, Yaw : 0.0, Alt : 30.1000003815, Lat : 49.28357, Lng : -123.11502, Q1 : 1.0, Q2 : 0.0, Q3 : 0.0, Q4 : 0.0}
2019-04-14 04:20:06.71: SIM {TimeUS : 40935286, Roll : 0.0, Pitch : 0.0, Yaw : 0.0, Alt : 30.1000003815, Lat : 49.28357, Lng : -123.11502, Q1 : 1.0, Q2 : 0.0, Q3 : 0.0, Q4 : 0.0}
2019-04-14 04:20:06.81: SIM {TimeUS : 41035246, Roll : 0.0, Pitch : 0.0, Yaw : 0.0, Alt : 30.1000003815, Lat : 49.28357, Lng : -123.11502, Q1 : 1.0, Q2 : 0.0, Q3 : 0.0, Q4 : 0.0}
2019-04-14 04:20:06.91: SIM {TimeUS : 41135206, Roll : 0.0, Pitch : 0.0, Yaw : 0.0, Alt : 30.1000003815, Lat : 49.28357, Lng : -123.11502, Q1 : 1.0, Q2 : 0.0, Q3 : 0.0, Q4 : 0.0}
2019-04-14 04:20:07.01: SIM {TimeUS : 41235166, Roll : 0.0, Pitch : 0.0, Yaw : 0.0, Alt : 30.1000003815, Lat : 49.28357, Lng : -123.11502, Q1 : 1.0, Q2 : 0.0, Q3 : 0.0, Q4 : 0.0}
2019-04-14 04:20:07.11: SIM {TimeUS : 41335126, Roll : 0.0, Pitch : 0.0, Yaw : 0.0, Alt : 30.1000003815, Lat : 49.28357, Lng : -123.11502, Q1 : 1.0, Q2 : 0.0, Q3 : 0.0, Q4 : 0.0}
2019-04-14 04:20:07.21: SIM {TimeUS : 41435086, Roll : 0.0, Pitch : 0.0, Yaw : 0.0, Alt : 30.1000003815, Lat : 49.28357, Lng : -123.11502, Q1 : 1.0, Q2 : 0.0, Q3 : 0.0, Q4 : 0.0}
2019-04-14 04:20:07.31: SIM {TimeUS : 41535046, Roll : 0.0, Pitch : 0.0, Yaw : 0.0, Alt : 30.1000003815, Lat : 49.28357, Lng : -123.11502, Q1 : 1.0, Q2 : 0.0, Q3 : 0.0, Q4 : 0.0}
2019-04-14 04:20:07.41: SIM {TimeUS : 41635006, Roll : 0.0, Pitch : 0.0, Yaw : 0.0, Alt : 30.1000003815, Lat : 49.28357, Lng : -123.11502, Q1 : 1.0, Q2 : 0.0, Q3 : 0.0, Q4 : 0.0}
2019-04-14 04:20:07.51: SIM {TimeUS : 41734966, Roll : 0.0, Pitch : 0.0, Yaw : 0.0, Alt : 30.1000003815, Lat : 49.28357, Lng : -123.11502, Q1 : 1.0, Q2 : 0.0, Q3 : 0.0, Q4 : 0.0}
2019-04-14 04:20:07.61: SIM {TimeUS : 41834926, Roll : 0.0, Pitch : 0.0, Yaw : 0.0, Alt : 30.1000003815, Lat : 49.28357, Lng : -123.11502, Q1 : 1.0, Q2 : 0.0, Q3 : 0.0, Q4 : 0.0}
2019-04-14 04:20:07.71: SIM {TimeUS : 41934886, Roll : 0.0, Pitch : 0.0, Yaw : 0.0, Alt : 30.1000003815, Lat : 49.28357, Lng : -123.11502, Q1 : 1.0, Q2 : 0.0, Q3 : 0.0, Q4 : 0.0}
2019-04-14 04:20:07.81: SIM {TimeUS : 42034846, Roll : 0.0, Pitch : 0.0, Yaw : 0.0, Alt : 30.1000003815, Lat : 49.28357, Lng : -123.11502, Q1 : 1.0, Q2 : 0.0, Q3 : 0.0, Q4 : 0.0}
2019-04-14 04:20:07.91: SIM {TimeUS : 42134806, Roll : 0.0, Pitch : 0.0, Yaw : 0.0, Alt : 30.1000003815, Lat : 49.28357, Lng : -123.11502, Q1 : 1.0, Q2 : 0.0, Q3 : 0.0, Q4 : 0.0}
2019-04-14 04:20:08.01: SIM {TimeUS : 42234766, Roll : 0.0, Pitch : 0.0, Yaw : 0.0, Alt : 30.1000003815, Lat : 49.28357, Lng : -123.11502, Q1 : 1.0, Q2 : 0.0, Q3 : 0.0, Q4 : 0.0}
2019-04-14 04:20:08.11: SIM {TimeUS : 42334726, Roll : 0.0, Pitch : 0.0, Yaw : 0.0, Alt : 30.1000003815, Lat : 49.28357, Lng : -123.11502, Q1 : 1.0, Q2 : 0.0, Q3 : 0.0, Q4 : 0.0}
2019-04-14 04:20:08.21: SIM {TimeUS : 42434686, Roll : 0.0, Pitch : 0.0, Yaw : 0.0, Alt : 30.1000003815, Lat : 49.28357, Lng : -123.11502, Q1 : 1.0, Q2 : 0.0, Q3 : 0.0, Q4 : 0.0}
2019-04-14 04:20:08.31: SIM {TimeUS : 42534646, Roll : 0.0, Pitch : 0.0, Yaw : 0.0, Alt : 30.1000003815, Lat : 49.28357, Lng : -123.11502, Q1 : 1.0, Q2 : 0.0, Q3 : 0.0, Q4 : 0.0}
2019-04-14 04:20:08.41: SIM {TimeUS : 42634606, Roll : 0.0, Pitch : 0.0, Yaw : 0.0, Alt : 30.1000003815, Lat : 49.28357, Lng : -123.11502, Q1 : 1.0, Q2 : 0.0, Q3 : 0.0, Q4 : 0.0}
2019-04-14 04:20:08.51: SIM {TimeUS : 42735399, Roll : 0.0, Pitch : 0.0, Yaw : 0.0, Alt : 30.1000003815, Lat : 49.28357, Lng : -123.11502, Q1 : 1.0, Q2 : 0.0, Q3 : 0.0, Q4 : 0.0}
2019-04-14 04:20:08.61: SIM {TimeUS : 42835359, Roll : 0.0, Pitch : 0.0, Yaw : 0.0, Alt : 30.1000003815, Lat : 49.28357, Lng : -123.11502, Q1 : 1.0, Q2 : 0.0, Q3 : 0.0, Q4 : 0.0}
2019-04-14 04:20:08.71: SIM {TimeUS : 42935319, Roll : 0.0, Pitch : 0.0, Yaw : 360.0, Alt : 30.1000003815, Lat : 49.28357, Lng : -123.11502, Q1 : 1.0, Q2 : 0.0, Q3 : 0.0, Q4 : -7.5309836492e-12}
2019-04-14 04:20:08.81: SIM {TimeUS : 43035279, Roll : 0.0, Pitch : 0.0, Yaw : 360.0, Alt : 30.1000003815, Lat : 49.28357, Lng : -123.11502, Q1 : 1.0, Q2 : 0.0, Q3 : 0.0, Q4 : -2.42403680462e-10}
2019-04-14 04:20:08.91: SIM {TimeUS : 43135239, Roll : 0.0, Pitch : 0.0, Yaw : 359.99, Alt : 30.1000003815, Lat : 49.28357, Lng : -123.11502, Q1 : 1.0, Q2 : 0.0, Q3 : 0.0, Q4 : -1.85881646075e-07}
2019-04-14 04:20:09.01: SIM {TimeUS : 43235199, Roll : 0.0, Pitch : 0.0, Yaw : 359.99, Alt : 30.1000003815, Lat : 49.28357, Lng : -123.11502, Q1 : 1.0, Q2 : 0.0, Q3 : 0.0, Q4 : -3.38824833079e-07}
2019-04-14 04:20:09.11: SIM {TimeUS : 43335159, Roll : 0.0, Pitch : 0.0, Yaw : 359.99, Alt : 30.1000003815, Lat : 49.28357, Lng : -123.11502, Q1 : 1.0, Q2 : 0.0, Q3 : 0.0, Q4 : -5.23542610154e-07}
2019-04-14 04:20:09.21: SIM {TimeUS : 43435119, Roll : 0.0, Pitch : 0.0, Yaw : 359.99, Alt : 30.1000003815, Lat : 49.28357, Lng : -123.11502, Q1 : 1.0, Q2 : 0.0, Q3 : 0.0, Q4 : -7.21410174265e-07}
2019-04-14 04:20:09.31: SIM {TimeUS : 43535079, Roll : 0.0, Pitch : 0.0, Yaw : 359.99, Alt : 30.1000003815, Lat : 49.28357, Lng : -123.11502, Q1 : 1.0, Q2 : 0.0, Q3 : 0.0, Q4 : -9.50863693561e-07}
2019-04-14 04:20:09.41: SIM {TimeUS : 43635039, Roll : 0.0, Pitch : 0.0, Yaw : 359.99, Alt : 30.1000003815, Lat : 49.28357, Lng : -123.11502, Q1 : 1.0, Q2 : 0.0, Q3 : 0.0, Q4 : -1.16108401471e-06}
2019-04-14 04:20:09.51: SIM {TimeUS : 43734999, Roll : 0.0, Pitch : 0.0, Yaw : 359.99, Alt : 30.1000003815, Lat : 49.28357, Lng : -123.11502, Q1 : 1.0, Q2 : 0.0, Q3 : 0.0, Q4 : -1.38135385441e-06}
2019-04-14 04:20:09.61: SIM {TimeUS : 43834959, Roll : 0.0, Pitch : 0.0, Yaw : 359.99, Alt : 30.1100006104, Lat : 49.28357, Lng : -123.11502, Q1 : 1.0, Q2 : 0.0, Q3 : 0.0, Q4 : -1.62195817666e-06}
2019-04-14 04:20:09.71: SIM {TimeUS : 43934919, Roll : 0.0, Pitch : 0.0, Yaw : 359.99, Alt : 30.1399993896, Lat : 49.28357, Lng : -123.11502, Q1 : 1.0, Q2 : 0.0, Q3 : 0.0, Q4 : -1.83791212294e-06}
2019-04-14 04:20:09.81: SIM {TimeUS : 44034879, Roll : 0.0, Pitch : 0.0, Yaw : 359.99, Alt : 30.1700000763, Lat : 49.28357, Lng : -123.11502, Q1 : 1.0, Q2 : 0.0, Q3 : 0.0, Q4 : -2.11102019421e-06}
2019-04-14 04:20:09.91: SIM {TimeUS : 44134839, Roll : 0.0, Pitch : 0.0, Yaw : 359.99, Alt : 30.2000007629, Lat : 49.28357, Lng : -123.11502, Q1 : 1.0, Q2 : 0.0, Q3 : 0.0, Q4 : -2.22800781557e-06}
2019-04-14 04:20:10.01: SIM {TimeUS : 44234799, Roll : -0.1, Pitch : -0.08, Yaw : 359.99, Alt : 30.25, Lat : 49.28357, Lng : -123.11502, Q1 : 0.999999344349, Q2 : -0.000879095576238, Q3 : -0.000753451196942, Q4 : -1.05979670479e-05}
2019-04-14 04:20:10.11: SIM {TimeUS : 44334759, Roll : -0.4, Pitch : -0.34, Yaw : 359.99, Alt : 30.3400001526, Lat : 49.28357, Lng : -123.11502, Q1 : 0.999989390373, Q2 : -0.00349836680107, Q3 : -0.00299769057892, Q4 : -4.11516048189e-05}
2019-04-14 04:20:10.21: SIM {TimeUS : 44434719, Roll : -0.67, Pitch : -0.61, Yaw : 359.99, Alt : 30.4899997711, Lat : 49.28357, Lng : -123.11502, Q1 : 0.999968290329, Q2 : -0.0059104077518, Q3 : -0.00533549347892, Q4 : -9.85835067695e-05}
2019-04-14 04:20:10.31: SIM {TimeUS : 44534679, Roll : -0.81, Pitch : -0.75, Yaw : 359.98, Alt : 30.6499996185, Lat : 49.28357, Lng : -123.11502, Q1 : 0.999952435493, Q2 : -0.00715106027201, Q3 : -0.00662711495534, Q4 : -0.000181432711543}
2019-04-14 04:20:10.41: SIM {TimeUS : 44634639, Roll : -0.81, Pitch : -0.75, Yaw : 359.97, Alt : 30.7999992371, Lat : 49.28357, Lng : -123.11502, Q1 : 0.999952614307, Q2 : -0.00715684797615, Q3 : -0.00659796269611, Q4 : -0.000268052855972}
2019-04-14 04:20:10.51: SIM {TimeUS : 44734599, Roll : -0.69, Pitch : -0.63, Yaw : 359.96, Alt : 30.9599990845, Lat : 49.28357, Lng : -123.1150201, Q1 : 0.999966204166, Q2 : -0.00605985848233, Q3 : -0.00554902059957, Q4 : -0.000347322493326}
2019-04-14 04:20:10.61: SIM {TimeUS : 44835392, Roll : -0.48, Pitch : -0.44, Yaw : 359.95, Alt : 31.1100006104, Lat : 49.2835701, Lng : -123.1150202, Q1 : 0.999983310699, Q2 : -0.0042369524017, Q3 : -0.00390701368451, Q4 : -0.000416046852479}
2019-04-14 04:20:10.71: SIM {TimeUS : 44935352, Roll : -0.25, Pitch : -0.24, Yaw : 359.94, Alt : 31.2700004578, Lat : 49.2835701, Lng : -123.1150203, Q1 : 0.999995052814, Q2 : -0.00224788859487, Q3 : -0.00215878896415, Q4 : -0.000471243518405}
2019-04-14 04:20:10.81: SIM {TimeUS : 45035312, Roll : -0.06, Pitch : -0.08, Yaw : 359.94, Alt : 31.4400005341, Lat : 49.2835702, Lng : -123.1150203, Q1 : 0.999999403954, Q2 : -0.000560746761039, Q3 : -0.000757202040404, Q4 : -0.000509397010319}
2019-04-14 04:20:10.91: SIM {TimeUS : 45135272, Roll : 0.06, Pitch : 0.01, Yaw : 359.93, Alt : 31.6100006104, Lat : 49.2835702, Lng : -123.1150204, Q1 : 0.999999701977, Q2 : 0.000532906036824, Q3 : 0.000108863634523, Q4 : -0.000533783866558}
2019-04-14 04:20:11.01: SIM {TimeUS : 45235232, Roll : 0.11, Pitch : 0.06, Yaw : 359.93, Alt : 31.7900009155, Lat : 49.2835703, Lng : -123.1150205, Q1 : 0.99999922514, Q2 : 0.000978983589448, Q3 : 0.000551508390345, Q4 : -0.00055125443032}
2019-04-14 04:20:11.11: SIM {TimeUS : 45335192, Roll : 0.1, Pitch : 0.08, Yaw : 359.93, Alt : 31.9799995422, Lat : 49.2835703, Lng : -123.1150205, Q1 : 0.999999165535, Q2 : 0.000879735278431, Q3 : 0.000777253822889, Q4 : -0.000559691281524}
2019-04-14 04:20:11.21: SIM {TimeUS : 45435152, Roll : 0.06, Pitch : 0.1, Yaw : 359.93, Alt : 32.1599998474, Lat : 49.2835703, Lng : -123.1150206, Q1 : 0.99999922514, Q2 : 0.000595587771386, Q3 : 0.000941909151152, Q4 : -0.000549468270037}
2019-04-14 04:20:11.31: SIM {TimeUS : 45535112, Roll : 0.05, Pitch : 0.12, Yaw : 359.94, Alt : 32.3499984741, Lat : 49.2835703, Lng : -123.1150207, Q1 : 0.99999910593, Q2 : 0.000492649618536, Q3 : 0.00112102506682, Q4 : -0.000519672525115}
2019-04-14 04:20:11.41: SIM {TimeUS : 45635072, Roll : 0.06, Pitch : 0.13, Yaw : 359.94, Alt : 32.5499992371, Lat : 49.2835703, Lng : -123.1150207, Q1 : 0.999999046326, Q2 : 0.000569206196815, Q3 : 0.00117333373055, Q4 : -0.000489472411573}
2019-04-14 04:20:11.51: SIM {TimeUS : 45735032, Roll : 0.07, Pitch : 0.14, Yaw : 359.94, Alt : 32.7400016785, Lat : 49.2835703, Lng : -123.1150207, Q1 : 0.999998927116, Q2 : 0.000651784066577, Q3 : 0.00123797392007, Q4 : -0.000461349292891}
2019-04-14 04:20:11.61: SIM {TimeUS : 45834992, Roll : 0.09, Pitch : 0.16, Yaw : 359.94, Alt : 32.9399986267, Lat : 49.2835704, Lng : -123.1150208, Q1 : 0.999998509884, Q2 : 0.000813615566585, Q3 : 0.00145818537567, Q4 : -0.000442461430794}
2019-04-14 04:20:11.71: SIM {TimeUS : 45934952, Roll : 0.12, Pitch : 0.16, Yaw : 359.95, Alt : 33.1399993896, Lat : 49.2835704, Lng : -123.1150208, Q1 : 0.999998271465, Q2 : 0.00105630140752, Q3 : 0.00144740182441, Q4 : -0.000428872328484}
2019-04-14 04:20:11.81: SIM {TimeUS : 46034912, Roll : 0.15, Pitch : 0.14, Yaw : 359.95, Alt : 33.3400001526, Lat : 49.2835704, Lng : -123.1150208, Q1 : 0.999998271465, Q2 : 0.0013378621079, Q3 : 0.00123849569354, Q4 : -0.000415059592342}
2019-04-14 04:20:11.91: SIM {TimeUS : 46134872, Roll : 0.17, Pitch : 0.12, Yaw : 359.95, Alt : 33.5499992371, Lat : 49.2835704, Lng : -123.1150208, Q1 : 0.999998152256, Q2 : 0.00152429169975, Q3 : 0.00112134427764, Q4 : -0.000406633305829}
2019-04-14 04:20:12.01: SIM {TimeUS : 46234832, Roll : 0.18, Pitch : 0.13, Yaw : 359.95, Alt : 33.7599983215, Lat : 49.2835704, Lng : -123.1150208, Q1 : 0.999997973442, Q2 : 0.00159620738123, Q3 : 0.00114526390098, Q4 : -0.000418690178776}
2019-04-14 04:20:12.11: SIM {TimeUS : 46334792, Roll : 0.19, Pitch : 0.14, Yaw : 359.94, Alt : 33.9700012207, Lat : 49.2835704, Lng : -123.1150208, Q1 : 0.999997735023, Q2 : 0.00165959773585, Q3 : 0.00123937451281, Q4 : -0.000444951088866}
2019-04-14 04:20:12.21: SIM {TimeUS : 46434752, Roll : 0.18, Pitch : 0.12, Yaw : 359.94, Alt : 34.1800003052, Lat : 49.2835704, Lng : -123.1150208, Q1 : 0.999998033047, Q2 : 0.00157904659864, Q3 : 0.00111822632607, Q4 : -0.000471472274512}
2019-04-14 04:20:12.31: SIM {TimeUS : 46534712, Roll : 0.15, Pitch : 0.11, Yaw : 359.94, Alt : 34.3899993896, Lat : 49.2835704, Lng : -123.1150208, Q1 : 0.999998509884, Q2 : 0.00135583907831, Q3 : 0.000966879248153, Q4 : -0.000496027409099}
2019-04-14 04:20:12.41: SIM {TimeUS : 46634672, Roll : 0.12, Pitch : 0.09, Yaw : 359.93, Alt : 34.5999984741, Lat : 49.2835704, Lng : -123.1150208, Q1 : 0.999998927116, Q2 : 0.00106456922367, Q3 : 0.000833549478557, Q4 : -0.000525509414729}
2019-04-14 04:20:12.51: SIM {TimeUS : 46734632, Roll : 0.08, Pitch : 0.08, Yaw : 359.93, Alt : 34.8199996948, Lat : 49.2835704, Lng : -123.1150208, Q1 : 0.999999284744, Q2 : 0.000769291364122, Q3 : 0.000750218052417, Q4 : -0.000556296727154}
2019-04-14 04:20:12.61: SIM {TimeUS : 46834592, Roll : 0.06, Pitch : 0.05, Yaw : 359.93, Alt : 35.0299987793, Lat : 49.2835704, Lng : -123.1150208, Q1 : 0.999999523163, Q2 : 0.000604980974458, Q3 : 0.000450289808214, Q4 : -0.00059265474556}
2019-04-14 04:20:12.71: SIM {TimeUS : 46935385, Roll : 0.05, Pitch : 0.01, Yaw : 359.92, Alt : 35.25, Lat : 49.2835704, Lng : -123.1150208, Q1 : 0.999999642372, Q2 : 0.000513997394592, Q3 : 0.00017145392485, Q4 : -0.000629322603345}
2019-04-14 04:20:12.81: SIM {TimeUS : 47035345, Roll : 0.03, Pitch : 0.0, Yaw : 359.92, Alt : 35.4700012207, Lat : 49.2835704, Lng : -123.1150208, Q1 : 0.999999701977, Q2 : 0.000335505959811, Q3 : 3.19843275065e-05, Q4 : -0.000664451916236}
2019-04-14 04:20:12.91: SIM {TimeUS : 47135305, Roll : 0.02, Pitch : 0.0, Yaw : 359.92, Alt : 35.6899986267, Lat : 49.2835704, Lng : -123.1150208, Q1 : 0.999999761581, Q2 : 0.000225908253924, Q3 : 1.94987314899e-05, Q4 : -0.000696150120348}
2019-04-14 04:20:13.01: SIM {TimeUS : 47235265, Roll : 0.02, Pitch : 0.0, Yaw : 359.91, Alt : 35.9099998474, Lat : 49.2835704, Lng : -123.1150207, Q1 : 0.999999701977, Q2 : 0.000201447168365, Q3 : 4.82401810586e-05, Q4 : -0.000728051294573}
2019-04-14 04:20:13.11: SIM {TimeUS : 47335225, Roll : 0.0, Pitch : -0.01, Yaw : 359.91, Alt : 36.1300010681, Lat : 49.2835704, Lng : -123.1150207, Q1 : 0.999999701977, Q2 : 4.96723441756e-06, Q3 : -0.000119132026157, Q4 : -0.000756062450819}
2019-04-14 04:20:13.21: SIM {TimeUS : 47435185, Roll : -0.03, Pitch : -0.04, Yaw : 359.91, Alt : 36.3499984741, Lat : 49.2835704, Lng : -123.1150207, Q1 : 0.999999582767, Q2 : -0.000298024911899, Q3 : -0.000418745330535, Q4 : -0.000778894405812}
2019-04-14 04:20:13.31: SIM {TimeUS : 47535145, Roll : -0.06, Pitch : -0.06, Yaw : 359.9, Alt : 36.5699996948, Lat : 49.2835704, Lng : -123.1150207, Q1 : 0.999999344349, Q2 : -0.000605328998063, Q3 : -0.000601316802204, Q4 : -0.000795515428763}
2019-04-14 04:20:13.41: SIM {TimeUS : 47635105, Roll : -0.1, Pitch : -0.08, Yaw : 359.9, Alt : 36.7900009155, Lat : 49.2835704, Lng : -123.1150207, Q1 : 0.999998986721, Q2 : -0.000874095538165, Q3 : -0.000728778948542, Q4 : -0.000811071251519}
2019-04-14 04:20:13.51: SIM {TimeUS : 47735065, Roll : -0.1, Pitch : -0.08, Yaw : 359.9, Alt : 37.0200004578, Lat : 49.2835704, Lng : -123.1150207, Q1 : 0.999998986721, Q2 : -0.000905995257199, Q3 : -0.000719295465387, Q4 : -0.000824355811346}
2019-04-14 04:20:13.61: SIM {TimeUS : 47835025, Roll : -0.09, Pitch : -0.07, Yaw : 359.9, Alt : 37.2400016785, Lat : 49.2835704, Lng : -123.1150207, Q1 : 0.99999910593, Q2 : -0.000824943475891, Q3 : -0.000641081947833, Q4 : -0.00083706015721}
2019-04-14 04:20:13.71: SIM {TimeUS : 47934985, Roll : -0.07, Pitch : -0.05, Yaw : 359.9, Alt : 37.4700012207, Lat : 49.2835704, Lng : -123.1150206, Q1 : 0.999999284744, Q2 : -0.000697044248227, Q3 : -0.000458095368231, Q4 : -0.000852132798173}
2019-04-14 04:20:13.81: SIM {TimeUS : 48034945, Roll : -0.06, Pitch : -0.03, Yaw : 359.9, Alt : 37.6899986267, Lat : 49.2835704, Lng : -123.1150206, Q1 : 0.999999403954, Q2 : -0.000557186780497, Q3 : -0.000323344458593, Q4 : -0.000863049237523}
2019-04-14 04:20:13.91: SIM {TimeUS : 48134905, Roll : -0.07, Pitch : -0.03, Yaw : 359.9, Alt : 37.9199981689, Lat : 49.2835704, Lng : -123.1150206, Q1 : 0.999999344349, Q2 : -0.000618131365627, Q3 : -0.00033696758328, Q4 : -0.000872746459208}
2019-04-14 04:20:14.01: SIM {TimeUS : 48234865, Roll : -0.08, Pitch : -0.02, Yaw : 359.89, Alt : 38.1500015259, Lat : 49.2835704, Lng : -123.1150206, Q1 : 0.999999284744, Q2 : -0.000732722284738, Q3 : -0.000237075437326, Q4 : -0.000884469423909}
2019-04-14 04:20:14.11: SIM {TimeUS : 48334825, Roll : -0.1, Pitch : -0.01, Yaw : 359.89, Alt : 38.3699989319, Lat : 49.2835704, Lng : -123.1150206, Q1 : 0.999999165535, Q2 : -0.000907504640054, Q3 : -8.78899154486e-05, Q4 : -0.000902797968592}
2019-04-14 04:20:14.21: SIM {TimeUS : 48434785, Roll : -0.1, Pitch : 0.0, Yaw : 359.89, Alt : 38.5999984741, Lat : 49.2835704, Lng : -123.1150206, Q1 : 0.999999165535, Q2 : -0.000900604296476, Q3 : 4.54443288618e-05, Q4 : -0.000915800745133}
2019-04-14 04:20:14.31: SIM {TimeUS : 48534745, Roll : -0.08, Pitch : 0.03, Yaw : 359.89, Alt : 38.8300018311, Lat : 49.2835704, Lng : -123.1150206, Q1 : 0.99999922514, Q2 : -0.000717500864994, Q3 : 0.000282772467472, Q4 : -0.000933262810577}
2019-04-14 04:20:14.41: SIM {TimeUS : 48634705, Roll : -0.05, Pitch : 0.02, Yaw : 359.89, Alt : 39.0600013733, Lat : 49.2835704, Lng : -123.1150206, Q1 : 0.999999403954, Q2 : -0.000480795337353, Q3 : 0.0002566423791, Q4 : -0.00095222494565}
2019-04-14 04:20:14.51: SIM {TimeUS : 48734665, Roll : -0.02, Pitch : 0.02, Yaw : 359.88, Alt : 39.2900009155, Lat : 49.2835706, Lng : -123.1150207, Q1 : 0.999999523163, Q2 : -0.000215780048165, Q3 : 0.000192254316062, Q4 : -0.000971532426775}
2019-04-14 04:20:14.61: SIM {TimeUS : 48834625, Roll : 0.01, Pitch : 0.03, Yaw : 359.88, Alt : 39.5200004578, Lat : 49.2835706, Lng : -123.1150207, Q1 : 0.999999463558, Q2 : 0.00011302936764, Q3 : 0.000329256348778, Q4 : -0.000988769694231}
2019-04-14 04:20:14.71: SIM {TimeUS : 48934585, Roll : 0.05, Pitch : 0.06, Yaw : 359.88, Alt : 39.75, Lat : 49.2835706, Lng : -123.1150207, Q1 : 0.99999922514, Q2 : 0.000452178297564, Q3 : 0.000587054877542, Q4 : -0.00101110676769}
2019-04-14 04:20:14.81: SIM {TimeUS : 49035378, Roll : 0.08, Pitch : 0.09, Yaw : 359.88, Alt : 39.9799995422, Lat : 49.2835706, Lng : -123.1150207, Q1 : 0.999998867512, Q2 : 0.000718535098713, Q3 : 0.000824004993774, Q4 : -0.00103759020567}
2019-04-14 04:20:14.91: SIM {TimeUS : 49135338, Roll : 0.07, Pitch : 0.11, Yaw : 359.87, Alt : 40.2099990845, Lat : 49.2835706, Lng : -123.1150207, Q1 : 0.999998688698, Q2 : 0.000643109087832, Q3 : 0.00102198170498, Q4 : -0.00106904574204}
2019-04-14 04:20:15.01: SIM {TimeUS : 49235298, Roll : 0.02, Pitch : 0.13, Yaw : 359.87, Alt : 40.4399986267, Lat : 49.2835706, Lng : -123.1150207, Q1 : 0.999998629093, Q2 : 0.000207091681659, Q3 : 0.00119323364925, Q4 : -0.00111629103776}
2019-04-14 04:20:15.11: SIM {TimeUS : 49335258, Roll : -0.02, Pitch : 0.14, Yaw : 359.86, Alt : 40.6800003052, Lat : 49.2835706, Lng : -123.1150207, Q1 : 0.999998509884, Q2 : -0.000176173518412, Q3 : 0.00127985188738, Q4 : -0.00115997134708}
2019-04-14 04:20:15.21: SIM {TimeUS : 49435218, Roll : -0.03, Pitch : 0.13, Yaw : 359.86, Alt : 40.9099998474, Lat : 49.2835706, Lng : -123.1150207, Q1 : 0.999998509884, Q2 : -0.000343113497365, Q3 : 0.0011960871052, Q4 : -0.00119538966101}
2019-04-14 04:20:15.31: SIM {TimeUS : 49535178, Roll : -0.04, Pitch : 0.13, Yaw : 359.85, Alt : 41.1399993896, Lat : 49.2835706, Lng : -123.1150207, Q1 : 0.999998509884, Q2 : -0.00037183353561, Q3 : 0.00113814126235, Q4 : -0.00122745637782}
2019-04-14 04:20:15.41: SIM {TimeUS : 49635138, Roll : -0.02, Pitch : 0.14, Yaw : 359.85, Alt : 41.3699989319, Lat : 49.2835706, Lng : -123.1150207, Q1 : 0.999998390675, Q2 : -0.000256537343375, Q3 : 0.0012314816704, Q4 : -0.00126348563936}
2019-04-14 04:20:15.51: SIM {TimeUS : 49735098, Roll : 0.01, Pitch : 0.15, Yaw : 359.85, Alt : 41.6100006104, Lat : 49.2835706, Lng : -123.1150207, Q1 : 0.999998211861, Q2 : 9.38171651796e-05, Q3 : 0.00138718297239, Q4 : -0.00130478502251}
2019-04-14 04:20:15.61: SIM {TimeUS : 49835058, Roll : 0.06, Pitch : 0.16, Yaw : 359.84, Alt : 41.8400001526, Lat : 49.2835706, Lng : -123.1150207, Q1 : 0.999997913837, Q2 : 0.000538505846635, Q3 : 0.00144580902997, Q4 : -0.00134738138877}
2019-04-14 04:20:15.71: SIM {TimeUS : 49935018, Roll : 0.09, Pitch : 0.12, Yaw : 359.84, Alt : 42.0800018311, Lat : 49.2835706, Lng : -123.1150207, Q1 : 0.999998033047, Q2 : 0.00085171480896, Q3 : 0.00112904049456, Q4 : -0.00138036161661}
2019-04-14 04:20:15.81: SIM {TimeUS : 50034978, Roll : 0.1, Pitch : 0.07, Yaw : 359.83, Alt : 42.3100013733, Lat : 49.2835706, Lng : -123.1150207, Q1 : 0.999998390675, Q2 : 0.000887404370587, Q3 : 0.000682386627886, Q4 : -0.00140476576053}
2019-04-14 04:20:15.91: SIM {TimeUS : 50134938, Roll : 0.06, Pitch : 0.04, Yaw : 359.83, Alt : 42.5400009155, Lat : 49.2835706, Lng : -123.1150207, Q1 : 0.999998748302, Q2 : 0.000591639138293, Q3 : 0.00036603488843, Q4 : -0.00141923327465}
2019-04-14 04:20:16.01: SIM {TimeUS : 50234898, Roll : 0.01, Pitch : 0.03, Yaw : 359.83, Alt : 42.7799987793, Lat : 49.2835706, Lng : -123.1150207, Q1 : 0.999998927116, Q2 : 0.000125079241116, Q3 : 0.000301943247905, Q4 : -0.00142604915891}
2019-04-14 04:20:16.11: SIM {TimeUS : 50334858, Roll : -0.02, Pitch : 0.06, Yaw : 359.83, Alt : 43.0099983215, Lat : 49.2835704, Lng : -123.1150207, Q1 : 0.999998807907, Q2 : -0.000221266367589, Q3 : 0.000546419003513, Q4 : -0.00142069056164}
2019-04-14 04:20:16.21: SIM {TimeUS : 50434818, Roll : -0.04, Pitch : 0.08, Yaw : 359.83, Alt : 43.25, Lat : 49.2835704, Lng : -123.1150207, Q1 : 0.999998688698, Q2 : -0.000393957947381, Q3 : 0.000741839350667, Q4 : -0.00141637399793}
2019-04-14 04:20:16.31: SIM {TimeUS : 50534778, Roll : -0.04, Pitch : 0.08, Yaw : 359.83, Alt : 43.4799995422, Lat : 49.2835704, Lng : -123.1150207, Q1 : 0.999998688698, Q2 : -0.000411786866607, Q3 : 0.000718281546142, Q4 : -0.00141618342604}
2019-04-14 04:20:16.41: SIM {TimeUS : 50634738, Roll : -0.05, Pitch : 0.06, Yaw : 359.83, Alt : 43.7200012207, Lat : 49.2835704, Lng : -123.1150207, Q1 : 0.999998688698, Q2 : -0.000474492408102, Q3 : 0.000610668153968, Q4 : -0.00142140535172}
2019-04-14 04:20:16.51: SIM {TimeUS : 50734698, Roll : -0.05, Pitch : 0.05, Yaw : 359.83, Alt : 43.9500007629, Lat : 49.2835704, Lng : -123.1150207, Q1 : 0.999998748302, Q2 : -0.000450877443654, Q3 : 0.00046657238272, Q4 : -0.00143042695709}
2019-04-14 04:20:16.61: SIM {TimeUS : 50834658, Roll : -0.03, Pitch : 0.04, Yaw : 359.83, Alt : 44.1899986267, Lat : 49.2835704, Lng : -123.1150206, Q1 : 0.999998867512, Q2 : -0.000285312737105, Q3 : 0.000361685233656, Q4 : -0.00144204031676}
2019-04-14 04:20:16.71: SIM {TimeUS : 50934618, Roll : -0.01, Pitch : 0.03, Yaw : 359.83, Alt : 44.4199981689, Lat : 49.2835704, Lng : -123.1150206, Q1 : 0.999998867512, Q2 : -0.000139315336128, Q3 : 0.000302960310364, Q4 : -0.0014528153697}
2019-04-14 04:20:16.81: SIM {TimeUS : 51034578, Roll : -0.01, Pitch : 0.01, Yaw : 359.83, Alt : 44.6599998474, Lat : 49.2835704, Lng : -123.1150206, Q1 : 0.999998927116, Q2 : -0.000153688175487, Q3 : 9.99159674393e-05, Q4 : -0.00146736949682}
2019-04-14 04:20:16.91: SIM {TimeUS : 51135371, Roll : -0.02, Pitch : -0.02, Yaw : 359.82, Alt : 44.9000015259, Lat : 49.2835704, Lng : -123.1150206, Q1 : 0.999998867512, Q2 : -0.000220761707169, Q3 : -0.000206274606171, Q4 : -0.00149236083962}
2019-04-14 04:20:17.01: SIM {TimeUS : 51235331, Roll : -0.02, Pitch : -0.04, Yaw : 359.82, Alt : 45.1399993896, Lat : 49.2835704, Lng : -123.1150206, Q1 : 0.999998748302, Q2 : -0.000215630832827, Q3 : -0.000380116776796, Q4 : -0.00152054952923}
2019-04-14 04:20:17.11: SIM {TimeUS : 51335291, Roll : -0.01, Pitch : -0.05, Yaw : 359.82, Alt : 45.3699989319, Lat : 49.2835703, Lng : -123.1150206, Q1 : 0.999998688698, Q2 : -0.00012481455633, Q3 : -0.000436341942986, Q4 : -0.00155724456999}
2019-04-14 04:20:17.21: SIM {TimeUS : 51435251, Roll : -0.01, Pitch : -0.04, Yaw : 359.81, Alt : 45.6100006104, Lat : 49.2835703, Lng : -123.1150206, Q1 : 0.999998629093, Q2 : -0.000159432398505, Q3 : -0.000423447578214, Q4 : -0.00159557408188}
2019-04-14 04:20:17.31: SIM {TimeUS : 51535211, Roll : -0.04, Pitch : -0.03, Yaw : 359.81, Alt : 45.8400001526, Lat : 49.2835703, Lng : -123.1150206, Q1 : 0.999998509884, Q2 : -0.00041774372221, Q3 : -0.00032074644696, Q4 : -0.00164069386665}
2019-04-14 04:20:17.41: SIM {TimeUS : 51635171, Roll : -0.08, Pitch : -0.02, Yaw : 359.8, Alt : 46.0699996948, Lat : 49.2835703, Lng : -123.1150206, Q1 : 0.999998271465, Q2 : -0.000778362562414, Q3 : -0.000236451654928, Q4 : -0.00168825790752}
2019-04-14 04:20:17.51: SIM {TimeUS : 51735131, Roll : -0.11, Pitch : -0.02, Yaw : 359.8, Alt : 46.2999992371, Lat : 49.2835703, Lng : -123.1150206, Q1 : 0.999997913837, Q2 : -0.00104181130882, Q3 : -0.000194809093955, Q4 : -0.0017314554425}
2019-04-14 04:20:17.61: SIM {TimeUS : 51835091, Roll : -0.12, Pitch : -0.01, Yaw : 359.79, Alt : 46.5200004578, Lat : 49.2835703, Lng : -123.1150206, Q1 : 0.999997854233, Q2 : -0.00110111152753, Q3 : -0.000106991064968, Q4 : -0.0017683923943}
2019-04-14 04:20:17.71: SIM {TimeUS : 51935051, Roll : -0.11, Pitch : 0.0, Yaw : 359.79, Alt : 46.7400016785, Lat : 49.2835703, Lng : -123.1150206, Q1 : 0.999997913837, Q2 : -0.000995569396764, Q3 : 7.21675096429e-05, Q4 : -0.0017976325471}
2019-04-14 04:20:17.81: SIM {TimeUS : 52035011, Roll : -0.09, Pitch : 0.01, Yaw : 359.79, Alt : 46.9500007629, Lat : 49.2835703, Lng : -123.1150206, Q1 : 0.999998033047, Q2 : -0.000787400233094, Q3 : 0.000160776777193, Q4 : -0.00182357861195}
2019-04-14 04:20:17.91: SIM {TimeUS : 52134971, Roll : -0.06, Pitch : 0.01, Yaw : 359.78, Alt : 47.1599998474, Lat : 49.2835703, Lng : -123.1150206, Q1 : 0.999998092651, Q2 : -0.00058579799952, Q3 : 0.00010729659698, Q4 : -0.00184727937449}
2019-04-14 04:20:18.01: SIM {TimeUS : 52234931, Roll : -0.05, Pitch : 0.0, Yaw : 359.78, Alt : 47.3600006104, Lat : 49.2835703, Lng : -123.1150206, Q1 : 0.999998152256, Q2 : -0.000473481428344, Q3 : -5.50070981262e-05, Q4 : -0.0018693942111}
2019-04-14 04:20:18.11: SIM {TimeUS : 52334891, Roll : -0.03, Pitch : -0.03, Yaw : 359.78, Alt : 47.5400009155, Lat : 49.2835703, Lng : -123.1150206, Q1 : 0.999998092651, Q2 : -0.000338366255164, Q3 : -0.000300496409182, Q4 : -0.00188968831208}
2019-04-14 04:20:18.21: SIM {TimeUS : 52434851, Roll : -0.02, Pitch : -0.07, Yaw : 359.78, Alt : 47.7200012207, Lat : 49.2835703, Lng : -123.1150206, Q1 : 0.999997973442, Q2 : -0.000243207585299, Q3 : -0.00063170917565, Q4 : -0.00190610310528}
2019-04-14 04:20:18.31: SIM {TimeUS : 52534811, Roll : -0.03, Pitch : -0.11, Yaw : 359.77, Alt : 47.8899993896, Lat : 49.2835703, Lng : -123.1150206, Q1 : 0.999997615814, Q2 : -0.00027599078021, Q3 : -0.000997869297862, Q4 : -0.00192391115706}
2019-04-14 04:20:18.41: SIM {TimeUS : 52634771, Roll : -0.03, Pitch : -0.14, Yaw : 359.77, Alt : 48.0499992371, Lat : 49.2835703, Lng : -123.1150206, Q1 : 0.999997258186, Q2 : -0.000346716027707, Q3 : -0.00126818241552, Q4 : -0.00194277451374}
2019-04-14 04:20:18.51: SIM {TimeUS : 52734731, Roll : -0.01, Pitch : -0.14, Yaw : 359.77, Alt : 48.1899986267, Lat : 49.2835703, Lng : -123.1150207, Q1 : 0.999997317791, Q2 : -0.000108576830826, Q3 : -0.00123028689995, Q4 : -0.00195929897018}
2019-04-14 04:20:18.61: SIM {TimeUS : 52834691, Roll : 0.02, Pitch : -0.11, Yaw : 359.77, Alt : 48.3199996948, Lat : 49.2835703, Lng : -123.1150207, Q1 : 0.999997496605, Q2 : 0.000247308315011, Q3 : -0.00102756067645, Q4 : -0.00197467417456}
2019-04-14 04:20:18.71: SIM {TimeUS : 52934651, Roll : 0.06, Pitch : -0.08, Yaw : 359.77, Alt : 48.4399986267, Lat : 49.2835703, Lng : -123.1150207, Q1 : 0.999997615814, Q2 : 0.00055394123774, Q3 : -0.000738866219763, Q4 : -0.00199234206229}
2019-04-14 04:20:18.81: SIM {TimeUS : 53034611, Roll : 0.07, Pitch : -0.05, Yaw : 359.76, Alt : 48.5499992371, Lat : 49.2835703, Lng : -123.1150207, Q1 : 0.999997675419, Q2 : 0.000655509880744, Q3 : -0.000445816433057, Q4 : -0.00201505376026}
2019-04-14 04:20:18.91: SIM {TimeUS : 53135404, Roll : 0.07, Pitch : -0.03, Yaw : 359.76, Alt : 48.6500015259, Lat : 49.2835703, Lng : -123.1150207, Q1 : 0.999997675419, Q2 : 0.000693728332408, Q3 : -0.000285166112008, Q4 : -0.00204703444615}
2019-04-14 04:20:19.01: SIM {TimeUS : 53235364, Roll : 0.07, Pitch : -0.03, Yaw : 359.76, Alt : 48.7299995422, Lat : 49.2835703, Lng : -123.1150207, Q1 : 0.99999755621, Q2 : 0.000622602528892, Q3 : -0.000318213860737, Q4 : -0.00208715070039}
2019-04-14 04:20:19.11: SIM {TimeUS : 53335324, Roll : 0.04, Pitch : -0.04, Yaw : 359.75, Alt : 48.8100013733, Lat : 49.2835704, Lng : -123.1150207, Q1 : 0.999997615814, Q2 : 0.000394913135096, Q3 : -0.000356934935553, Q4 : -0.00212634401396}
2019-04-14 04:20:19.21: SIM {TimeUS : 53435284, Roll : 0.02, Pitch : -0.03, Yaw : 359.75, Alt : 48.8699989319, Lat : 49.2835704, Lng : -123.1150207, Q1 : 0.999997615814, Q2 : 0.000259297143202, Q3 : -0.000301672553178, Q4 : -0.00215833773836}
2019-04-14 04:20:19.31: SIM {TimeUS : 53535244, Roll : 0.01, Pitch : -0.02, Yaw : 359.74, Alt : 48.9199981689, Lat : 49.2835704, Lng : -123.1150207, Q1 : 0.99999755621, Q2 : 0.000134023823193, Q3 : -0.000223811279284, Q4 : -0.00218740501441}
2019-04-14 04:20:19.41: SIM {TimeUS : 53635204, Roll : 0.01, Pitch : -0.02, Yaw : 359.74, Alt : 48.9700012207, Lat : 49.2835704, Lng : -123.1150207, Q1 : 0.99999755621, Q2 : 0.000137607406941, Q3 : -0.000178234899067, Q4 : -0.0022125414107}
2019-04-14 04:20:19.51: SIM {TimeUS : 53735164, Roll : 0.1, Pitch : -0.09, Yaw : 359.74, Alt : 49.0099983215, Lat : 49.2835704, Lng : -123.1150207, Q1 : 0.999996781349, Q2 : 0.000879611761775, Q3 : -0.000811892270576, Q4 : -0.00223728478886}
2019-04-14 04:20:19.61: SIM {TimeUS : 53835124, Roll : 0.32, Pitch : -0.36, Yaw : 359.73, Alt : 49.0499992371, Lat : 49.2835704, Lng : -123.1150207, Q1 : 0.999988436699, Q2 : 0.00284214876592, Q3 : -0.00315839587711, Q4 : -0.00226236181334}
2019-04-14 04:20:19.71: SIM {TimeUS : 53935084, Roll : 0.7, Pitch : -0.88, Yaw : 359.73, Alt : 49.0699996948, Lat : 49.2835704, Lng : -123.1150207, Q1 : 0.99994879961, Q2 : 0.00611146632582, Q3 : -0.00773570267484, Q4 : -0.00228050933219}
2019-04-14 04:20:19.81: SIM {TimeUS : 54035044, Roll : 1.18, Pitch : -1.61, Yaw : 359.72, Alt : 49.0999984741, Lat : 49.2835704, Lng : -123.1150207, Q1 : 0.999844670296, Q2 : 0.0103318979964, Q3 : -0.014094918035, Q4 : -0.00227741873823}
2019-04-14 04:20:19.91: SIM {TimeUS : 54135004, Roll : 1.73, Pitch : -2.48, Yaw : 359.7, Alt : 49.1199989319, Lat : 49.2835706, Lng : -123.1150206, Q1 : 0.999647915363, Q2 : 0.015122063458, Q3 : -0.0216864608228, Q4 : -0.00224018096924}
2019-04-14 04:20:20.01: SIM {TimeUS : 54234964, Roll : 2.3, Pitch : -3.35, Yaw : 359.68, Alt : 49.1399993896, Lat : 49.2835707, Lng : -123.1150206, Q1 : 0.99936825037, Q2 : 0.0200036484748, Q3 : -0.0292990673333, Q4 : -0.0021447034087}
2019-04-14 04:20:20.11: SIM {TimeUS : 54334924, Roll : 2.79, Pitch : -4.07, Yaw : 359.67, Alt : 49.1599998474, Lat : 49.2835708, Lng : -123.1150204, Q1 : 0.999069571495, Q2 : 0.0242402721196, Q3 : -0.0356163829565, Q4 : -0.00198387680575}
2019-04-14 04:20:20.21: SIM {TimeUS : 54434884, Roll : 3.16, Pitch : -4.62, Yaw : 359.67, Alt : 49.1699981689, Lat : 49.2835709, Lng : -123.1150203, Q1 : 0.998804807663, Q2 : 0.0274698399007, Q3 : -0.0403895676136, Q4 : -0.00175432465039}
2019-04-14 04:20:20.31: SIM {TimeUS : 54534844, Roll : 3.44, Pitch : -5.01, Yaw : 359.67, Alt : 49.1800003052, Lat : 49.2835712, Lng : -123.11502, Q1 : 0.998591482639, Q2 : 0.0298658832908, Q3 : -0.043828189373, Q4 : -0.00148221058771}
2019-04-14 04:20:20.41: SIM {TimeUS : 54634804, Roll : 3.64, Pitch : -5.31, Yaw : 359.69, Alt : 49.1899986267, Lat : 49.2835715, Lng : -123.1150198, Q1 : 0.998421013355, Q2 : 0.0316153094172, Q3 : -0.0464167147875, Q4 : -0.00120472838171}
2019-04-14 04:20:20.51: SIM {TimeUS : 54734764, Roll : 3.82, Pitch : -5.6, Yaw : 359.7, Alt : 49.2000007629, Lat : 49.2835718, Lng : -123.1150194, Q1 : 0.998249351978, Q2 : 0.0331811420619, Q3 : -0.0489522740245, Q4 : -0.000938277808018}
2019-04-14 04:20:20.61: SIM {TimeUS : 54834724, Roll : 4.02, Pitch : -5.91, Yaw : 359.71, Alt : 49.2099990845, Lat : 49.2835722, Lng : -123.115019, Q1 : 0.99805366993, Q2 : 0.0349232368171, Q3 : -0.0516605377197, Q4 : -0.000682148791384}
2019-04-14 04:20:20.71: SIM {TimeUS : 54934684, Roll : 4.26, Pitch : -6.24, Yaw : 359.71, Alt : 49.2200012207, Lat : 49.2835727, Lng : -123.1150185, Q1 : 0.997826993465, Q2 : 0.0369905605912, Q3 : -0.0545237995684, Q4 : -0.000424758996814}
2019-04-14 04:20:20.81: SIM {TimeUS : 55034644, Roll : 4.46, Pitch : -6.52, Yaw : 359.72, Alt : 49.2299995422, Lat : 49.2835733, Lng : -123.1150179, Q1 : 0.997624456882, Q2 : 0.0387769378722, Q3 : -0.0569365732372, Q4 : -0.0001853654976}
2019-04-14 04:20:20.91: SIM {TimeUS : 55134604, Roll : 4.61, Pitch : -6.73, Yaw : 359.73, Alt : 49.2299995422, Lat : 49.2835739, Lng : -123.1150173, Q1 : 0.997466862202, Q2 : 0.0400800853968, Q3 : -0.0587664619088, Q4 : 2.62724552158e-05}
2019-04-14 04:20:21.01: SIM {TimeUS : 55235397, Roll : 4.71, Pitch : -6.88, Yaw : 359.73, Alt : 49.2400016785, Lat : 49.2835745, Lng : -123.1150166, Q1 : 0.997352957726, Q2 : 0.0409106053412, Q3 : -0.0601110942662, Q4 : 0.000195765314857}
2019-04-14 04:20:21.11: SIM {TimeUS : 55335357, Roll : 4.78, Pitch : -6.98, Yaw : 359.74, Alt : 49.2400016785, Lat : 49.2835752, Lng : -123.1150158, Q1 : 0.997275531292, Q2 : 0.0414914526045, Q3 : -0.0609907619655, Q4 : 0.000329477101332}
2019-04-14 04:20:21.21: SIM {TimeUS : 55435317, Roll : 4.83, Pitch : -7.06, Yaw : 359.74, Alt : 49.25, Lat : 49.2835761, Lng : -123.115015, Q1 : 0.997213304043, Q2 : 0.0419466905296, Q3 : -0.0616929009557, Q4 : 0.000404638936743}
2019-04-14 04:20:21.31: SIM {TimeUS : 55535277, Roll : 4.92, Pitch : -7.17, Yaw : 359.74, Alt : 49.25, Lat : 49.2835769, Lng : -123.1150141, Q1 : 0.997119784355, Q2 : 0.0427587628365, Q3 : -0.0626390948892, Q4 : 0.000476353859995}
2019-04-14 04:20:21.41: SIM {TimeUS : 55635237, Roll : 5.26, Pitch : -7.24, Yaw : 359.91, Alt : 49.25, Lat : 49.2835777, Lng : -123.1150132, Q1 : 0.996950984001, Q2 : 0.0458128377795, Q3 : -0.0631284043193, Q4 : 0.00219343649223}
2019-04-14 04:20:21.51: SIM {TimeUS : 55735197, Roll : 5.9, Pitch : -7.26, Yaw : 0.84, Alt : 49.2599983215, Lat : 49.2835787, Lng : -123.1150122, Q1 : 0.99661552906, Q2 : 0.051849257201, Q3 : -0.062905818224, Q4 : 0.0105830831453}
2019-04-14 04:20:21.61: SIM {TimeUS : 55835157, Roll : 6.53, Pitch : -7.44, Yaw : 3.16, Alt : 49.2599983215, Lat : 49.2835797, Lng : -123.1150111, Q1 : 0.995788455009, Q2 : 0.0586090944707, Q3 : -0.0632369220257, Q4 : 0.031167389825}
2019-04-14 04:20:21.71: SIM {TimeUS : 55935117, Roll : 6.78, Pitch : -7.94, Yaw : 7.09, Alt : 49.2599983215, Lat : 49.2835807, Lng : -123.1150099, Q1 : 0.993686974049, Q2 : 0.0632054284215, Q3 : -0.0653950572014, Q4 : 0.065686956048}
2019-04-14 04:20:21.81: SIM {TimeUS : 56035077, Roll : 6.43, Pitch : -8.76, Yaw : 12.51, Alt : 49.2599983215, Lat : 49.2835818, Lng : -123.1150087, Q1 : 0.989102721214, Q2 : 0.0639190599322, Q3 : -0.0697827860713, Q4 : 0.112785197794}
2019-04-14 04:20:21.91: SIM {TimeUS : 56135037, Roll : 5.22, Pitch : -9.82, Yaw : 19.13, Alt : 49.2599983215, Lat : 49.283583, Lng : -123.1150072, Q1 : 0.980795741081, Q2 : 0.0589865669608, Q3 : -0.0768480300903, Q4 : 0.169276818633}
2019-04-14 04:20:22.01: SIM {TimeUS : 56234997, Roll : 3.01, Pitch : -10.9, Yaw : 26.31, Alt : 49.2700004578, Lat : 49.2835841, Lng : -123.1150058, Q1 : 0.968430757523, Q2 : 0.0471335574985, Q3 : -0.0865708887577, Q4 : 0.228966802359}
2019-04-14 04:20:22.11: SIM {TimeUS : 56334957, Roll : 0.14, Pitch : -11.74, Yaw : 33.26, Alt : 49.2700004578, Lat : 49.2835853, Lng : -123.1150042, Q1 : 0.953089416027, Q2 : 0.0304866246879, Q3 : -0.0977142900229, Q4 : 0.284856200218}
2019-04-14 04:20:22.21: SIM {TimeUS : 56434917, Roll : -2.75, Pitch : -12.22, Yaw : 39.24, Alt : 49.2700004578, Lat : 49.2835866, Lng : -123.1150026, Q1 : 0.937154710293, Q2 : 0.0132006406784, Q3 : -0.10830860585, Q4 : 0.331415295601}
2019-04-14 04:20:22.31: SIM {TimeUS : 56534877, Roll : -5.06, Pitch : -12.41, Yaw : 43.71, Alt : 49.2700004578, Lat : 49.2835879, Lng : -123.115001, Q1 : 0.923558175564, Q2 : -0.000534992199391, Q3 : -0.116588450968, Q4 : 0.365304082632}
2019-04-14 04:20:22.41: SIM {TimeUS : 56634837, Roll : -6.41, Pitch : -12.47, Yaw : 46.42, Alt : 49.2700004578, Lat : 49.2835895, Lng : -123.1149993, Q1 : 0.914563775063, Q2 : -0.00838501565158, Q3 : -0.121605619788, Q4 : 0.385635763407}
2019-04-14 04:20:22.51: SIM {TimeUS : 56734797, Roll : -6.77, Pitch : -12.57, Yaw : 47.48, Alt : 49.2700004578, Lat : 49.283591, Lng : -123.1149977, Q1 : 0.910892724991, Q2 : -0.00976758357137, Q3 : -0.123687081039, Q4 : 0.393548756838}
2019-04-14 04:20:22.61: SIM {TimeUS : 56834757, Roll : -6.3, Pitch : -12.82, Yaw : 47.13, Alt : 49.2700004578, Lat : 49.2835927, Lng : -123.114996, Q1 : 0.911935448647, Q2 : -0.00552489841357, Q3 : -0.124074742198, Q4 : 0.391086608171}
2019-04-14 04:20:22.71: SIM {TimeUS : 56934717, Roll : -5.26, Pitch : -13.26, Yaw : 45.71, Alt : 49.2700004578, Lat : 49.2835945, Lng : -123.1149944, Q1 : 0.916421771049, Q2 : 0.00275248265825, Q3 : -0.124002180994, Q4 : 0.380508959293}
2019-04-14 04:20:22.81: SIM {TimeUS : 57034677, Roll : -3.86, Pitch : -13.83, Yaw : 43.52, Alt : 49.2700004578, Lat : 49.2835964, Lng : -123.1149926, Q1 : 0.922945201397, Q2 : 0.0135659575462, Q3 : -0.124191179872, Q4 : 0.364094346762}
2019-04-14 04:20:22.91: SIM {TimeUS : 57134637, Roll : -2.29, Pitch : -14.44, Yaw : 40.88, Alt : 49.2700004578, Lat : 49.2835983, Lng : -123.1149909, Q1 : 0.930279254913, Q2 : 0.0252846125513, Q3 : -0.124696329236, Q4 : 0.344081401825}
2019-04-14 04:20:23.01: SIM {TimeUS : 57234597, Roll : -0.73, Pitch : -14.96, Yaw : 38.09, Alt : 49.2799987793, Lat : 49.2836002, Lng : -123.1149891, Q1 : 0.937452614307, Q2 : 0.0364506617188, Q3 : -0.125165566802, Q4 : 0.322780847549}
2019-04-14 04:20:23.11: SIM {TimeUS : 57335390, Roll : 0.67, Pitch : -15.32, Yaw : 35.44, Alt : 49.2799987793, Lat : 49.2836024, Lng : -123.1149871, Q1 : 0.943778991699, Q2 : 0.0461474172771, Q3 : -0.125230297446, Q4 : 0.302438408136}
2019-04-14 04:20:23.21: SIM {TimeUS : 57435350, Roll : 1.78, Pitch : -15.51, Yaw : 33.24, Alt : 49.2799987793, Lat : 49.2836044, Lng : -123.1149851, Q1 : 0.948713362217, Q2 : 0.0534422770143, Q3 : -0.124923452735, Q4 : 0.285448759794}
2019-04-14 04:20:23.31: SIM {TimeUS : 57535310, Roll : 2.54, Pitch : -15.58, Yaw : 31.65, Alt : 49.2799987793, Lat : 49.2836067, Lng : -123.114983, Q1 : 0.952150523663, Q2 : 0.0581342279911, Q3 : -0.124407730997, Q4 : 0.273043066263}
2019-04-14 04:20:23.41: SIM {TimeUS : 57635270, Roll : 2.9, Pitch : -15.58, Yaw : 30.74, Alt : 49.2799987793, Lat : 49.2836089, Lng : -123.1149808, Q1 : 0.954115509987, Q2 : 0.0601236782968, Q3 : -0.124021872878, Q4 : 0.265833258629}
2019-04-14 04:20:23.51: SIM {TimeUS : 57735230, Roll : 2.88, Pitch : -15.57, Yaw : 30.48, Alt : 49.2799987793, Lat : 49.2836111, Lng : -123.1149785, Q1 : 0.954716026783, Q2 : 0.0596657060087, Q3 : -0.124133713543, Q4 : 0.263719797134}
2019-04-14 04:20:23.61: SIM {TimeUS : 57835190, Roll : 2.55, Pitch : -15.6, Yaw : 30.81, Alt : 49.2799987793, Lat : 49.2836135, Lng : -123.114976, Q1 : 0.954095959663, Q2 : 0.0573914945126, Q3 : -0.125013872981, Q4 : 0.266042679548}
2019-04-14 04:20:23.71: SIM {TimeUS : 57935150, Roll : 2.01, Pitch : -15.71, Yaw : 31.56, Alt : 49.2799987793, Lat : 49.2836158, Lng : -123.1149735, Q1 : 0.952456712723, Q2 : 0.0539093725383, Q3 : -0.12679387629, Q4 : 0.271741181612}
2019-04-14 04:20:23.81: SIM {TimeUS : 58035110, Roll : 1.32, Pitch : -15.86, Yaw : 32.6, Alt : 49.2799987793, Lat : 49.2836182, Lng : -123.1149709, Q1 : 0.950092315674, Q2 : 0.0497464127839, Q3 : -0.129198789597, Q4 : 0.279566794634}
2019-04-14 04:20:23.91: SIM {TimeUS : 58135070, Roll : 0.59, Pitch : -16.02, Yaw : 33.76, Alt : 49.2799987793, Lat : 49.2836206, Lng : -123.1149683, Q1 : 0.947337388992, Q2 : 0.0453750602901, Q3 : -0.131904259324, Q4 : 0.288260668516}
2019-04-14 04:20:24.01: SIM {TimeUS : 58235030, Roll : -0.09, Pitch : -16.14, Yaw : 34.89, Alt : 49.2799987793, Lat : 49.2836231, Lng : -123.1149656, Q1 : 0.944572925568, Q2 : 0.0413169935346, Q3 : -0.134255126119, Q4 : 0.296732932329}
2019-04-14 04:20:24.11: SIM {TimeUS : 58334990, Roll : -0.64, Pitch : -16.22, Yaw : 35.87, Alt : 49.2799987793, Lat : 49.2836256, Lng : -123.1149628, Q1 : 0.942111372948, Q2 : 0.038117416203, Q3 : -0.135958507657, Q4 : 0.304119199514}
2019-04-14 04:20:24.21: SIM {TimeUS : 58434950, Roll : -1.05, Pitch : -16.26, Yaw : 36.62, Alt : 49.2799987793, Lat : 49.283628, Lng : -123.11496, Q1 : 0.940191745758, Q2 : 0.0357684120536, Q3 : -0.137134760618, Q4 : 0.309764683247}
2019-04-14 04:20:24.31: SIM {TimeUS : 58534910, Roll : -1.26, Pitch : -16.28, Yaw : 37.09, Alt : 49.2799987793, Lat : 49.2836306, Lng : -123.1149572, Q1 : 0.93893134594, Q2 : 0.03467027843, Q3 : -0.137786269188, Q4 : 0.313402116299}
2019-04-14 04:20:24.41: SIM {TimeUS : 58634870, Roll : -1.27, Pitch : -16.29, Yaw : 37.29, Alt : 49.2799987793, Lat : 49.2836334, Lng : -123.1149543, Q1 : 0.938382327557, Q2 : 0.0348876528442, Q3 : -0.137825936079, Q4 : 0.315000832081}
2019-04-14 04:20:24.51: SIM {TimeUS : 58734830, Roll : -1.14, Pitch : -16.3, Yaw : 37.24, Alt : 49.2799987793, Lat : 49.283636, Lng : -123.1149515, Q1 : 0.938479423523, Q2 : 0.0359395295382, Q3 : -0.137548819184, Q4 : 0.314714103937}
2019-04-14 04:20:24.61: SIM {TimeUS : 58834790, Roll : -0.91, Pitch : -16.34, Yaw : 36.98, Alt : 49.2799987793, Lat : 49.2836388, Lng : -123.1149486, Q1 : 0.939065754414, Q2 : 0.0375623553991, Q3 : -0.137330666184, Q4 : 0.312865525484}
2019-04-14 04:20:24.71: SIM {TimeUS : 58934750, Roll : -0.64, Pitch : -16.4, Yaw : 36.58, Alt : 49.2799987793, Lat : 49.2836415, Lng : -123.1149457, Q1 : 0.939978539944, Q2 : 0.0394688844681, Q3 : -0.137246415019, Q4 : 0.309912800789}
2019-04-14 04:20:24.81: SIM {TimeUS : 59034710, Roll : -0.36, Pitch : -16.49, Yaw : 36.11, Alt : 49.2799987793, Lat : 49.2836444, Lng : -123.1149427, Q1 : 0.941040098667, Q2 : 0.0414666719735, Q3 : -0.137344285846, Q4 : 0.306366920471}
2019-04-14 04:20:24.91: SIM {TimeUS : 59134670, Roll : -0.09, Pitch : -16.56, Yaw : 35.63, Alt : 49.2799987793, Lat : 49.2836472, Lng : -123.1149397, Q1 : 0.942131221294, Q2 : 0.0432911999524, Q3 : -0.137393206358, Q4 : 0.302717357874}
2019-04-14 04:20:25.01: SIM {TimeUS : 59234630, Roll : 0.14, Pitch : -16.62, Yaw : 35.2, Alt : 49.2799987793, Lat : 49.28365, Lng : -123.1149367, Q1 : 0.943118095398, Q2 : 0.0449061244726, Q3 : -0.137405887246, Q4 : 0.299384951591}
2019-04-14 04:20:25.11: SIM {TimeUS : 59334590, Roll : 0.34, Pitch : -16.66, Yaw : 34.84, Alt : 49.2900009155, Lat : 49.283653, Lng : -123.1149336, Q1 : 0.943907558918, Q2 : 0.0462279245257, Q3 : -0.137419462204, Q4 : 0.296677201986}
2019-04-14 04:20:25.21: SIM {TimeUS : 59435383, Roll : 0.47, Pitch : -16.7, Yaw : 34.59, Alt : 49.2900009155, Lat : 49.2836559, Lng : -123.1149304, Q1 : 0.944462001324, Q2 : 0.0470883212984, Q3 : -0.137460678816, Q4 : 0.294752210379}
2019-04-14 04:20:25.31: SIM {TimeUS : 59535343, Roll : 0.53, Pitch : -16.72, Yaw : 34.45, Alt : 49.2900009155, Lat : 49.2836589, Lng : -123.1149273, Q1 : 0.944762647152, Q2 : 0.0474785976112, Q3 : -0.137534424663, Q4 : 0.293689727783}
2019-04-14 04:20:25.41: SIM {TimeUS : 59635303, Roll : 0.53, Pitch : -16.74, Yaw : 34.42, Alt : 49.2900009155, Lat : 49.2836618, Lng : -123.1149241, Q1 : 0.944816946983, Q2 : 0.0475219711661, Q3 : -0.137715309858, Q4 : 0.293423086405}
2019-04-14 04:20:25.51: SIM {TimeUS : 59735263, Roll : 0.49, Pitch : -16.76, Yaw : 34.48, Alt : 49.2900009155, Lat : 49.2836647, Lng : -123.1149209, Q1 : 0.944659113884, Q2 : 0.0472708791494, Q3 : -0.137980565429, Q4 : 0.293846875429}
2019-04-14 04:20:25.61: SIM {TimeUS : 59835223, Roll : 0.4, Pitch : -16.79, Yaw : 34.61, Alt : 49.2900009155, Lat : 49.2836677, Lng : -123.1149177, Q1 : 0.944330871105, Q2 : 0.0467947460711, Q3 : -0.138422265649, Q4 : 0.294768929482}
2019-04-14 04:20:25.71: SIM {TimeUS : 59935183, Roll : 0.28, Pitch : -16.84, Yaw : 34.77, Alt : 49.2900009155, Lat : 49.2836707, Lng : -123.1149144, Q1 : 0.943901062012, Q2 : 0.046117130667, Q3 : -0.139010742307, Q4 : 0.295973032713}
2019-04-14 04:20:25.81: SIM {TimeUS : 60035143, Roll : 0.15, Pitch : -16.89, Yaw : 34.95, Alt : 49.2900009155, Lat : 49.2836737, Lng : -123.1149111, Q1 : 0.943429112434, Q2 : 0.0453492999077, Q3 : -0.13970682025, Q4 : 0.297265738249}
2019-04-14 04:20:25.91: SIM {TimeUS : 60135103, Roll : 0.0, Pitch : -16.93, Yaw : 35.12, Alt : 49.2900009155, Lat : 49.2836768, Lng : -123.1149078, Q1 : 0.942997336388, Q2 : 0.0444902852178, Q3 : -0.140324175358, Q4 : 0.298472493887}
2019-04-14 04:20:26.01: SIM {TimeUS : 60235063, Roll : -0.12, Pitch : -16.95, Yaw : 35.26, Alt : 49.2900009155, Lat : 49.2836798, Lng : -123.1149045, Q1 : 0.942648172379, Q2 : 0.0436435267329, Q3 : -0.140819817781, Q4 : 0.299465209246}
2019-04-14 04:20:26.11: SIM {TimeUS : 60335023, Roll : -0.22, Pitch : -16.98, Yaw : 35.36, Alt : 49.2900009155, Lat : 49.2836829, Lng : -123.1149011, Q1 : 0.942388594151, Q2 : 0.0430029369891, Q3 : -0.141280740499, Q4 : 0.300157159567}
2019-04-14 04:20:26.21: SIM {TimeUS : 60434983, Roll : -0.26, Pitch : -17.02, Yaw : 35.42, Alt : 49.2999992371, Lat : 49.2836861, Lng : -123.1148977, Q1 : 0.942215323448, Q2 : 0.0428681373596, Q3 : -0.141675889492, Q4 : 0.300533801317}
2019-04-14 04:20:26.31: SIM {TimeUS : 60534943, Roll : -0.25, Pitch : -17.06, Yaw : 35.42, Alt : 49.2999992371, Lat : 49.2836893, Lng : -123.1148944, Q1 : 0.942144095898, Q2 : 0.0430714599788, Q3 : -0.141994282603, Q4 : 0.300577819347}
2019-04-14 04:20:26.41: SIM {TimeUS : 60634903, Roll : -0.19, Pitch : -17.1, Yaw : 35.39, Alt : 49.2999992371, Lat : 49.2836924, Lng : -123.114891, Q1 : 0.942160367966, Q2 : 0.0436128377914, Q3 : -0.14221060276, Q4 : 0.300346404314}
2019-04-14 04:20:26.51: SIM {TimeUS : 60734863, Roll : -0.1, Pitch : -17.14, Yaw : 35.32, Alt : 49.2999992371, Lat : 49.2836955, Lng : -123.1148876, Q1 : 0.942252516747, Q2 : 0.0443945787847, Q3 : -0.142307266593, Q4 : 0.299896597862}
2019-04-14 04:20:26.61: SIM {TimeUS : 60834823, Roll : -0.01, Pitch : -17.18, Yaw : 35.23, Alt : 49.2999992371, Lat : 49.2836986, Lng : -123.1148841, Q1 : 0.942406475544, Q2 : 0.0450736582279, Q3 : -0.142401978374, Q4 : 0.299265891314}
2019-04-14 04:20:26.71: SIM {TimeUS : 60934783, Roll : 0.04, Pitch : -17.19, Yaw : 35.14, Alt : 49.2999992371, Lat : 49.2837018, Lng : -123.1148807, Q1 : 0.942615807056, Q2 : 0.0454697944224, Q3 : -0.14239923656, Q4 : 0.298547297716}
2019-04-14 04:20:26.81: SIM {TimeUS : 61034743, Roll : 0.08, Pitch : -17.2, Yaw : 35.04, Alt : 49.2999992371, Lat : 49.2837051, Lng : -123.1148772, Q1 : 0.942836225033, Q2 : 0.0456900559366, Q3 : -0.14238794148, Q4 : 0.297821998596}
2019-04-14 04:20:26.91: SIM {TimeUS : 61134703, Roll : 0.12, Pitch : -17.2, Yaw : 34.96, Alt : 49.2999992371, Lat : 49.2837083, Lng : -123.1148737, Q1 : 0.943034470081, Q2 : 0.0459378026426, Q3 : -0.142354041338, Q4 : 0.297171711922}
2019-04-14 04:20:27.01: SIM {TimeUS : 61234663, Roll : 0.15, Pitch : -17.22, Yaw : 34.89, Alt : 49.2999992371, Lat : 49.2837115, Lng : -123.1148703, Q1 : 0.94317483902, Q2 : 0.0461916327477, Q3 : -0.142457097769, Q4 : 0.296636998653}
2019-04-14 04:20:27.11: SIM {TimeUS : 61334623, Roll : 0.19, Pitch : -17.26, Yaw : 34.84, Alt : 49.3100013733, Lat : 49.2837148, Lng : -123.1148668, Q1 : 0.943235993385, Q2 : 0.0465446822345, Q3 : -0.142741277814, Q4 : 0.296250641346}
2019-04-14 04:20:27.21: SIM {TimeUS : 61434583, Roll : 0.22, Pitch : -17.33, Yaw : 34.81, Alt : 49.3100013733, Lat : 49.283718, Lng : -123.1148631, Q1 : 0.943226754665, Q2 : 0.0469321161509, Q3 : -0.143185734749, Q4 : 0.296004295349}
2019-04-14 04:20:27.31: SIM {TimeUS : 61535376, Roll : 0.23, Pitch : -17.36, Yaw : 34.79, Alt : 49.3100013733, Lat : 49.2837214, Lng : -123.1148597, Q1 : 0.943216145039, Q2 : 0.0470450334251, Q3 : -0.143457487226, Q4 : 0.295888572931}
2019-04-14 04:20:27.41: SIM {TimeUS : 61635336, Roll : 0.22, Pitch : -17.36, Yaw : 34.8, Alt : 49.3100013733, Lat : 49.2837246, Lng : -123.1148561, Q1 : 0.943219184875, Q2 : 0.0469661839306, Q3 : -0.143452078104, Q4 : 0.295894175768}
2019-04-14 04:20:27.51: SIM {TimeUS : 61735296, Roll : 0.2, Pitch : -17.35, Yaw : 34.81, Alt : 49.3100013733, Lat : 49.2837278, Lng : -123.1148526, Q1 : 0.943203687668, Q2 : 0.0467965379357, Q3 : -0.143485963345, Q4 : 0.295953720808}
2019-04-14 04:20:27.61: SIM {TimeUS : 61835256, Roll : 0.15, Pitch : -17.37, Yaw : 34.82, Alt : 49.3100013733, Lat : 49.2837312, Lng : -123.114849, Q1 : 0.943156599998, Q2 : 0.0465263165534, Q3 : -0.143744438887, Q4 : 0.296021133661}
2019-04-14 04:20:27.71: SIM {TimeUS : 61935216, Roll : 0.12, Pitch : -17.4, Yaw : 34.84, Alt : 49.3100013733, Lat : 49.2837344, Lng : -123.1148454, Q1 : 0.943094313145, Q2 : 0.0463174916804, Q3 : -0.144033193588, Q4 : 0.296112060547}
2019-04-14 04:20:27.81: SIM {TimeUS : 62035176, Roll : 0.09, Pitch : -17.44, Yaw : 34.85, Alt : 49.3100013733, Lat : 49.2837378, Lng : -123.1148418, Q1 : 0.943027198315, Q2 : 0.0461525432765, Q3 : -0.144417256117, Q4 : 0.296164244413}
2019-04-14 04:20:27.91: SIM {TimeUS : 62135136, Roll : 0.07, Pitch : -17.46, Yaw : 34.86, Alt : 49.3100013733, Lat : 49.2837411, Lng : -123.1148382, Q1 : 0.942985236645, Q2 : 0.0460867136717, Q3 : -0.144688859582, Q4 : 0.296175569296}
2019-04-14 04:20:28.01: SIM {TimeUS : 62235096, Roll : 0.08, Pitch : -17.49, Yaw : 34.86, Alt : 49.3100013733, Lat : 49.2837445, Lng : -123.1148346, Q1 : 0.942951619625, Q2 : 0.0462177284062, Q3 : -0.144876986742, Q4 : 0.296170324087}
2019-04-14 04:20:28.11: SIM {TimeUS : 62335056, Roll : 0.1, Pitch : -17.5, Yaw : 34.85, Alt : 49.3100013733, Lat : 49.2837478, Lng : -123.114831, Q1 : 0.942947924137, Q2 : 0.0464097447693, Q3 : -0.144903898239, Q4 : 0.296138852835}
2019-04-14 04:20:28.21: SIM {TimeUS : 62435016, Roll : 0.12, Pitch : -17.51, Yaw : 34.84, Alt : 49.3100013733, Lat : 49.283751, Lng : -123.1148274, Q1 : 0.942956924438, Q2 : 0.0466211289167, Q3 : -0.144952371716, Q4 : 0.296053230762}
2019-04-14 04:20:28.31: SIM {TimeUS : 62534976, Roll : 0.14, Pitch : -17.53, Yaw : 34.82, Alt : 49.3199996948, Lat : 49.2837545, Lng : -123.1148238, Q1 : 0.942970275879, Q2 : 0.0468506701291, Q3 : -0.145090088248, Q4 : 0.295907080173}
2019-04-14 04:20:28.41: SIM {TimeUS : 62634936, Roll : 0.16, Pitch : -17.57, Yaw : 34.79, Alt : 49.3199996948, Lat : 49.2837579, Lng : -123.1148201, Q1 : 0.942983448505, Q2 : 0.0470090024173, Q3 : -0.145402893424, Q4 : 0.295686393976}
2019-04-14 04:20:28.51: SIM {TimeUS : 62734896, Roll : 0.14, Pitch : -17.62, Yaw : 34.76, Alt : 49.3199996948, Lat : 49.2837612, Lng : -123.1148165, Q1 : 0.943004965782, Q2 : 0.0469844937325, Q3 : -0.145810216665, Q4 : 0.295420914888}
2019-04-14 04:20:28.61: SIM {TimeUS : 62834856, Roll : 0.13, Pitch : -17.66, Yaw : 34.73, Alt : 49.3199996948, Lat : 49.2837646, Lng : -123.1148128, Q1 : 0.943029999733, Q2 : 0.0469699203968, Q3 : -0.146199256182, Q4 : 0.295150905848}
2019-04-14 04:20:28.71: SIM {TimeUS : 62934816, Roll : 0.15, Pitch : -17.68, Yaw : 34.7, Alt : 49.3199996948, Lat : 49.2837679, Lng : -123.1148092, Q1 : 0.943068921566, Q2 : 0.0471184998751, Q3 : -0.146359354258, Q4 : 0.294923454523}
2019-04-14 04:20:28.81: SIM {TimeUS : 63034776, Roll : 0.17, Pitch : -17.69, Yaw : 34.68, Alt : 49.3199996948, Lat : 49.2837714, Lng : -123.1148055, Q1 : 0.943127095699, Q2 : 0.0472395271063, Q3 : -0.146337285638, Q4 : 0.294728934765}
2019-04-14 04:20:28.91: SIM {TimeUS : 63134736, Roll : 0.18, Pitch : -17.66, Yaw : 34.65, Alt : 49.3199996948, Lat : 49.2837747, Lng : -123.1148018, Q1 : 0.943207204342, Q2 : 0.047287594527, Q3 : -0.146134033799, Q4 : 0.294565558434}
2019-04-14 04:20:29.01: SIM {TimeUS : 63234696, Roll : 0.18, Pitch : -17.65, Yaw : 34.63, Alt : 49.3199996948, Lat : 49.2837782, Lng : -123.114798, Q1 : 0.943280696869, Q2 : 0.0471865832806, Q3 : -0.14602060616, Q4 : 0.294402748346}
2019-04-14 04:20:29.11: SIM {TimeUS : 63334656, Roll : 0.18, Pitch : -17.64, Yaw : 34.62, Alt : 49.3199996948, Lat : 49.2837816, Lng : -123.1147944, Q1 : 0.943331837654, Q2 : 0.0471320524812, Q3 : -0.14598543942, Q4 : 0.294265091419}
2019-04-14 04:20:29.21: SIM {TimeUS : 63434616, Roll : 0.18, Pitch : -17.64, Yaw : 34.6, Alt : 49.3199996948, Lat : 49.283785, Lng : -123.1147907, Q1 : 0.943373322487, Q2 : 0.0470958426595, Q3 : -0.145938485861, Q4 : 0.294160962105}
2019-04-14 04:20:29.31: SIM {TimeUS : 63534576, Roll : 0.17, Pitch : -17.65, Yaw : 34.59, Alt : 49.3199996948, Lat : 49.2837885, Lng : -123.114787, Q1 : 0.943375766277, Q2 : 0.0470988415182, Q3 : -0.146100968122, Q4 : 0.294072180986}
2019-04-14 04:20:29.41: SIM {TimeUS : 63635369, Roll : 0.17, Pitch : -17.69, Yaw : 34.59, Alt : 49.3199996948, Lat : 49.283792, Lng : -123.1147832, Q1 : 0.943350315094, Q2 : 0.0471395514905, Q3 : -0.146408587694, Q4 : 0.293994247913}
2019-04-14 04:20:29.51: SIM {TimeUS : 63735329, Roll : 0.15, Pitch : -17.74, Yaw : 34.58, Alt : 49.3199996948, Lat : 49.2837953, Lng : -123.1147795, Q1 : 0.943304538727, Q2 : 0.0471245348454, Q3 : -0.146857827902, Q4 : 0.293919503689}
2019-04-14 04:20:29.61: SIM {TimeUS : 63835289, Roll : 0.14, Pitch : -17.79, Yaw : 34.58, Alt : 49.3199996948, Lat : 49.2837988, Lng : -123.1147758, Q1 : 0.943246662617, Q2 : 0.0472067035735, Q3 : -0.147328197956, Q4 : 0.293856590986}
2019-04-14 04:20:29.71: SIM {TimeUS : 63935249, Roll : 0.15, Pitch : -17.83, Yaw : 34.57, Alt : 49.3300018311, Lat : 49.2838023, Lng : -123.1147719, Q1 : 0.943213164806, Q2 : 0.0473291650414, Q3 : -0.147597163916, Q4 : 0.293809443712}
2019-04-14 04:20:29.81: SIM {TimeUS : 64035209, Roll : 0.15, Pitch : -17.86, Yaw : 34.57, Alt : 49.3300018311, Lat : 49.2838057, Lng : -123.1147683, Q1 : 0.943184196949, Q2 : 0.0474036075175, Q3 : -0.14788338542, Q4 : 0.29374653101}
2019-04-14 04:20:29.91: SIM {TimeUS : 64135169, Roll : 0.14, Pitch : -17.88, Yaw : 34.56, Alt : 49.3300018311, Lat : 49.2838092, Lng : -123.1147646, Q1 : 0.94318318367, Q2 : 0.0474043674767, Q3 : -0.148029819131, Q4 : 0.293675899506}
2019-04-14 04:20:30.01: SIM {TimeUS : 64235129, Roll : 0.16, Pitch : -17.87, Yaw : 34.55, Alt : 49.3300018311, Lat : 49.2838127, Lng : -123.1147608, Q1 : 0.943215548992, Q2 : 0.047471255064, Q3 : -0.147901698947, Q4 : 0.293625712395}
2019-04-14 04:20:30.11: SIM {TimeUS : 64335089, Roll : 0.18, Pitch : -17.87, Yaw : 34.54, Alt : 49.3300018311, Lat : 49.2838161, Lng : -123.1147571, Q1 : 0.943230688572, Q2 : 0.0476416498423, Q3 : -0.147869437933, Q4 : 0.293565690517}
2019-04-14 04:20:30.21: SIM {TimeUS : 64435049, Roll : 0.19, Pitch : -17.88, Yaw : 34.53, Alt : 49.3300018311, Lat : 49.2838196, Lng : -123.1147533, Q1 : 0.943236589432, Q2 : 0.0477367118001, Q3 : -0.147979795933, Q4 : 0.293475627899}
2019-04-14 04:20:30.31: SIM {TimeUS : 64535009, Roll : 0.19, Pitch : -17.9, Yaw : 34.52, Alt : 49.3300018311, Lat : 49.2838231, Lng : -123.1147494, Q1 : 0.943253517151, Q2 : 0.0477497465909, Q3 : -0.148074001074, Q4 : 0.293371617794}
2019-04-14 04:20:30.41: SIM {TimeUS : 64634969, Roll : 0.19, Pitch : -17.89, Yaw : 34.5, Alt : 49.3300018311, Lat : 49.2838266, Lng : -123.1147458, Q1 : 0.943289518356, Q2 : 0.0477740950882, Q3 : -0.148062571883, Q4 : 0.293257653713}
2019-04-14 04:20:30.51: SIM {TimeUS : 64734929, Roll : 0.19, Pitch : -17.9, Yaw : 34.49, Alt : 49.3300018311, Lat : 49.28383, Lng : -123.114742, Q1 : 0.943326175213, Q2 : 0.0477598123252, Q3 : -0.148094385862, Q4 : 0.293125867844}
2019-04-14 04:20:30.61: SIM {TimeUS : 64834889, Roll : 0.18, Pitch : -17.92, Yaw : 34.47, Alt : 49.3300018311, Lat : 49.2838336, Lng : -123.1147382, Q1 : 0.943347394466, Q2 : 0.047667466104, Q3 : -0.148302182555, Q4 : 0.292967677116}
2019-04-14 04:20:30.71: SIM {TimeUS : 64934849, Roll : 0.15, Pitch : -17.95, Yaw : 34.46, Alt : 49.3300018311, Lat : 49.2838371, Lng : -123.1147344, Q1 : 0.94335514307, Q2 : 0.0475185438991, Q3 : -0.148654639721, Q4 : 0.292788118124}
2019-04-14 04:20:30.81: SIM {TimeUS : 65034809, Roll : 0.14, Pitch : -17.95, Yaw : 34.44, Alt : 49.3300018311, Lat : 49.2838406, Lng : -123.1147306, Q1 : 0.943397283554, Q2 : 0.0474254637957, Q3 : -0.148696824908, Q4 : 0.292645990849}
2019-04-14 04:20:30.91: SIM {TimeUS : 65134769, Roll : 0.15, Pitch : -17.93, Yaw : 34.42, Alt : 49.3300018311, Lat : 49.2838442, Lng : -123.1147268, Q1 : 0.943457126617, Q2 : 0.0474287085235, Q3 : -0.148532658815, Q4 : 0.292536020279}
2019-04-14 04:20:31.01: SIM {TimeUS : 65234729, Roll : 0.17, Pitch : -17.92, Yaw : 34.41, Alt : 49.3300018311, Lat : 49.2838476, Lng : -123.114723, Q1 : 0.943508923054, Q2 : 0.0475351624191, Q3 : -0.148352712393, Q4 : 0.292442888021}
2019-04-14 04:20:31.11: SIM {TimeUS : 65334689, Roll : 0.18, Pitch : -17.93, Yaw : 34.39, Alt : 49.3300018311, Lat : 49.2838512, Lng : -123.1147192, Q1 : 0.943529248238, Q2 : 0.0476486310363, Q3 : -0.148406237364, Q4 : 0.29233160615}
2019-04-14 04:20:31.21: SIM {TimeUS : 65434649, Roll : 0.18, Pitch : -17.96, Yaw : 34.38, Alt : 49.3400001526, Lat : 49.2838547, Lng : -123.1147154, Q1 : 0.943526029587, Q2 : 0.0476528741419, Q3 : -0.148677676916, Q4 : 0.292203396559}
2019-04-14 04:20:31.31: SIM {TimeUS : 65534609, Roll : 0.16, Pitch : -17.99, Yaw : 34.37, Alt : 49.3400001526, Lat : 49.2838583, Lng : -123.1147116, Q1 : 0.943525671959, Q2 : 0.0475381314754, Q3 : -0.148993253708, Q4 : 0.292062520981}
2019-04-14 04:20:31.41: SIM {TimeUS : 65635402, Roll : 0.14, Pitch : -18.02, Yaw : 34.36, Alt : 49.3400001526, Lat : 49.2838617, Lng : -123.1147078, Q1 : 0.943521201611, Q2 : 0.0474857389927, Q3 : -0.149280801415, Q4 : 0.291938632727}
2019-04-14 04:20:31.51: SIM {TimeUS : 65735362, Roll : 0.14, Pitch : -18.04, Yaw : 34.35, Alt : 49.3400001526, Lat : 49.2838653, Lng : -123.114704, Q1 : 0.943520128727, Q2 : 0.0475332252681, Q3 : -0.149470537901, Q4 : 0.291837275028}
2019-04-14 04:20:31.61: SIM {TimeUS : 65835322, Roll : 0.15, Pitch : -18.05, Yaw : 34.34, Alt : 49.3400001526, Lat : 49.2838688, Lng : -123.1147002, Q1 : 0.943527638912, Q2 : 0.0476089417934, Q3 : -0.149553358555, Q4 : 0.29175812006}
2019-04-14 04:20:31.71: SIM {TimeUS : 65935282, Roll : 0.17, Pitch : -18.06, Yaw : 34.33, Alt : 49.3400001526, Lat : 49.2838725, Lng : -123.1146964, Q1 : 0.943535447121, Q2 : 0.047786436975, Q3 : -0.149521231651, Q4 : 0.291720330715}
2019-04-14 04:20:31.81: SIM {TimeUS : 66035242, Roll : 0.19, Pitch : -18.07, Yaw : 34.32, Alt : 49.3400001526, Lat : 49.283876, Lng : -123.1146925, Q1 : 0.943529605865, Q2 : 0.0479299649596, Q3 : -0.149577155709, Q4 : 0.291687011719}
2019-04-14 04:20:31.91: SIM {TimeUS : 66135202, Roll : 0.2, Pitch : -18.08, Yaw : 34.32, Alt : 49.3400001526, Lat : 49.2838796, Lng : -123.1146886, Q1 : 0.943519413471, Q2 : 0.0480749122798, Q3 : -0.149656414986, Q4 : 0.291655540466}
2019-04-14 04:20:32.01: SIM {TimeUS : 66235162, Roll : 0.22, Pitch : -18.09, Yaw : 34.31, Alt : 49.3400001526, Lat : 49.2838831, Lng : -123.1146849, Q1 : 0.943508684635, Q2 : 0.0482418686152, Q3 : -0.149722337723, Q4 : 0.291628777981}
2019-04-14 04:20:32.11: SIM {TimeUS : 66335122, Roll : 0.25, Pitch : -18.1, Yaw : 34.31, Alt : 49.3400001526, Lat : 49.2838866, Lng : -123.1146811, Q1 : 0.943495750427, Q2 : 0.0484935157001, Q3 : -0.149735167623, Q4 : 0.291622102261}
2019-04-14 04:20:32.21: SIM {TimeUS : 66435082, Roll : 0.28, Pitch : -18.12, Yaw : 34.3, Alt : 49.3400001526, Lat : 49.2838901, Lng : -123.1146773, Q1 : 0.943474531174, Q2 : 0.0487894564867, Q3 : -0.149763673544, Q4 : 0.291626960039}
2019-04-14 04:20:32.31: SIM {TimeUS : 66535042, Roll : 0.28, Pitch : -18.11, Yaw : 34.3, Alt : 49.3400001526, Lat : 49.2838938, Lng : -123.1146734, Q1 : 0.943486392498, Q2 : 0.0487638898194, Q3 : -0.149741247296, Q4 : 0.291604429483}
