2019-04-14 04:59:31.70: SIM {TimeUS : 39915694, Roll : 0.0, Pitch : 0.0, Yaw : 0.0, Alt : 30.1000003815, Lat : 49.28357, Lng : -123.11502, Q1 : 1.0, Q2 : 0.0, Q3 : 0.0, Q4 : 0.0}
2019-04-14 04:59:31.81: SIM {TimeUS : 40034813, Roll : 0.0, Pitch : 0.0, Yaw : 0.0, Alt : 30.1000003815, Lat : 49.28357, Lng : -123.11502, Q1 : 1.0, Q2 : 0.0, Q3 : 0.0, Q4 : 0.0}
2019-04-14 04:59:31.91: SIM {TimeUS : 40134773, Roll : 0.0, Pitch : 0.0, Yaw : 0.0, Alt : 30.1000003815, Lat : 49.28357, Lng : -123.11502, Q1 : 1.0, Q2 : 0.0, Q3 : 0.0, Q4 : 0.0}
2019-04-14 04:59:32.01: SIM {TimeUS : 40234733, Roll : 0.0, Pitch : 0.0, Yaw : 0.0, Alt : 30.1000003815, Lat : 49.28357, Lng : -123.11502, Q1 : 1.0, Q2 : 0.0, Q3 : 0.0, Q4 : 0.0}
2019-04-14 04:59:32.11: SIM {TimeUS : 40334693, Roll : 0.0, Pitch : 0.0, Yaw : 0.0, Alt : 30.1000003815, Lat : 49.28357, Lng : -123.11502, Q1 : 1.0, Q2 : 0.0, Q3 : 0.0, Q4 : 0.0}
2019-04-14 04:59:32.21: SIM {TimeUS : 40434653, Roll : 0.0, Pitch : 0.0, Yaw : 0.0, Alt : 30.1000003815, Lat : 49.28357, Lng : -123.11502, Q1 : 1.0, Q2 : 0.0, Q3 : 0.0, Q4 : 0.0}
2019-04-14 04:59:32.31: SIM {TimeUS : 40534613, Roll : 0.0, Pitch : 0.0, Yaw : 0.0, Alt : 30.1000003815, Lat : 49.28357, Lng : -123.11502, Q1 : 1.0, Q2 : 0.0, Q3 : 0.0, Q4 : 0.0}
2019-04-14 04:59:32.41: SIM {TimeUS : 40634573, Roll : 0.0, Pitch : 0.0, Yaw : 0.0, Alt : 30.1000003815, Lat : 49.28357, Lng : -123.11502, Q1 : 1.0, Q2 : 0.0, Q3 : 0.0, Q4 : 0.0}
2019-04-14 04:59:32.51: SIM {TimeUS : 40734533, Roll : 0.0, Pitch : 0.0, Yaw : 0.0, Alt : 30.1000003815, Lat : 49.28357, Lng : -123.11502, Q1 : 1.0, Q2 : 0.0, Q3 : 0.0, Q4 : 0.0}
2019-04-14 04:59:32.61: SIM {TimeUS : 40834493, Roll : 0.0, Pitch : 0.0, Yaw : 0.0, Alt : 30.1000003815, Lat : 49.28357, Lng : -123.11502, Q1 : 1.0, Q2 : 0.0, Q3 : 0.0, Q4 : 0.0}
2019-04-14 04:59:32.71: SIM {TimeUS : 40934453, Roll : 0.0, Pitch : 0.0, Yaw : 0.0, Alt : 30.1000003815, Lat : 49.28357, Lng : -123.11502, Q1 : 1.0, Q2 : 0.0, Q3 : 0.0, Q4 : 0.0}
2019-04-14 04:59:32.81: SIM {TimeUS : 41034413, Roll : 0.0, Pitch : 0.0, Yaw : 0.0, Alt : 30.1000003815, Lat : 49.28357, Lng : -123.11502, Q1 : 1.0, Q2 : 0.0, Q3 : 0.0, Q4 : 0.0}
2019-04-14 04:59:32.91: SIM {TimeUS : 41134373, Roll : 0.0, Pitch : 0.0, Yaw : 0.0, Alt : 30.1000003815, Lat : 49.28357, Lng : -123.11502, Q1 : 1.0, Q2 : 0.0, Q3 : 0.0, Q4 : 0.0}
2019-04-14 04:59:33.01: SIM {TimeUS : 41234333, Roll : 0.0, Pitch : 0.0, Yaw : 0.0, Alt : 30.1000003815, Lat : 49.28357, Lng : -123.11502, Q1 : 1.0, Q2 : 0.0, Q3 : 0.0, Q4 : 0.0}
2019-04-14 04:59:33.11: SIM {TimeUS : 41334293, Roll : 0.0, Pitch : 0.0, Yaw : 0.0, Alt : 30.1000003815, Lat : 49.28357, Lng : -123.11502, Q1 : 1.0, Q2 : 0.0, Q3 : 0.0, Q4 : 0.0}
2019-04-14 04:59:33.21: SIM {TimeUS : 41434253, Roll : 0.0, Pitch : 0.0, Yaw : 0.0, Alt : 30.1000003815, Lat : 49.28357, Lng : -123.11502, Q1 : 1.0, Q2 : 0.0, Q3 : 0.0, Q4 : 0.0}
2019-04-14 04:59:33.31: SIM {TimeUS : 41534213, Roll : 0.0, Pitch : 0.0, Yaw : 0.0, Alt : 30.1000003815, Lat : 49.28357, Lng : -123.11502, Q1 : 1.0, Q2 : 0.0, Q3 : 0.0, Q4 : 0.0}
2019-04-14 04:59:33.41: SIM {TimeUS : 41634173, Roll : 0.0, Pitch : 0.0, Yaw : 0.0, Alt : 30.1000003815, Lat : 49.28357, Lng : -123.11502, Q1 : 1.0, Q2 : 0.0, Q3 : 0.0, Q4 : 0.0}
2019-04-14 04:59:33.51: SIM {TimeUS : 41734133, Roll : 0.0, Pitch : 0.0, Yaw : 0.0, Alt : 30.1000003815, Lat : 49.28357, Lng : -123.11502, Q1 : 1.0, Q2 : 0.0, Q3 : 0.0, Q4 : 0.0}
2019-04-14 04:59:33.61: SIM {TimeUS : 41834093, Roll : 0.0, Pitch : 0.0, Yaw : 0.0, Alt : 30.1000003815, Lat : 49.28357, Lng : -123.11502, Q1 : 1.0, Q2 : 0.0, Q3 : 0.0, Q4 : 0.0}
2019-04-14 04:59:33.71: SIM {TimeUS : 41934053, Roll : 0.0, Pitch : 0.0, Yaw : 0.0, Alt : 30.1000003815, Lat : 49.28357, Lng : -123.11502, Q1 : 1.0, Q2 : 0.0, Q3 : 0.0, Q4 : 0.0}
2019-04-14 04:59:33.82: SIM {TimeUS : 42034846, Roll : 0.0, Pitch : 0.0, Yaw : 0.0, Alt : 30.1000003815, Lat : 49.28357, Lng : -123.11502, Q1 : 1.0, Q2 : 0.0, Q3 : 0.0, Q4 : 0.0}
2019-04-14 04:59:33.91: SIM {TimeUS : 42134806, Roll : 0.0, Pitch : 0.0, Yaw : 0.0, Alt : 30.1000003815, Lat : 49.28357, Lng : -123.11502, Q1 : 1.0, Q2 : 0.0, Q3 : 0.0, Q4 : 0.0}
2019-04-14 04:59:34.01: SIM {TimeUS : 42234766, Roll : 0.0, Pitch : 0.0, Yaw : 0.0, Alt : 30.1000003815, Lat : 49.28357, Lng : -123.11502, Q1 : 1.0, Q2 : 0.0, Q3 : 0.0, Q4 : 2.50972402582e-11}
2019-04-14 04:59:34.11: SIM {TimeUS : 42334726, Roll : 0.0, Pitch : 0.0, Yaw : 360.0, Alt : 30.1000003815, Lat : 49.28357, Lng : -123.11502, Q1 : 1.0, Q2 : 0.0, Q3 : 0.0, Q4 : -2.4248850039e-08}
2019-04-14 04:59:34.21: SIM {TimeUS : 42434686, Roll : 0.0, Pitch : 0.0, Yaw : 359.99, Alt : 30.1000003815, Lat : 49.28357, Lng : -123.11502, Q1 : 1.0, Q2 : 0.0, Q3 : 0.0, Q4 : -2.24946290928e-07}
2019-04-14 04:59:34.31: SIM {TimeUS : 42534646, Roll : 0.0, Pitch : 0.0, Yaw : 359.99, Alt : 30.1000003815, Lat : 49.28357, Lng : -123.11502, Q1 : 1.0, Q2 : 0.0, Q3 : 0.0, Q4 : -4.33072557371e-07}
2019-04-14 04:59:34.41: SIM {TimeUS : 42634606, Roll : 0.0, Pitch : 0.0, Yaw : 359.99, Alt : 30.1000003815, Lat : 49.28357, Lng : -123.11502, Q1 : 1.0, Q2 : 0.0, Q3 : 0.0, Q4 : -6.26563064543e-07}
2019-04-14 04:59:34.51: SIM {TimeUS : 42734566, Roll : 0.0, Pitch : 0.0, Yaw : 359.99, Alt : 30.1000003815, Lat : 49.28357, Lng : -123.11502, Q1 : 1.0, Q2 : 0.0, Q3 : 0.0, Q4 : -8.26377004159e-07}
2019-04-14 04:59:34.61: SIM {TimeUS : 42834526, Roll : 0.0, Pitch : 0.0, Yaw : 359.99, Alt : 30.1000003815, Lat : 49.28357, Lng : -123.11502, Q1 : 1.0, Q2 : 0.0, Q3 : 0.0, Q4 : -1.02474291452e-06}
2019-04-14 04:59:34.71: SIM {TimeUS : 42934486, Roll : 0.0, Pitch : 0.0, Yaw : 359.99, Alt : 30.1000003815, Lat : 49.28357, Lng : -123.11502, Q1 : 1.0, Q2 : 0.0, Q3 : 0.0, Q4 : -1.24459177187e-06}
2019-04-14 04:59:34.81: SIM {TimeUS : 43034446, Roll : 0.0, Pitch : 0.0, Yaw : 359.99, Alt : 30.1000003815, Lat : 49.28357, Lng : -123.11502, Q1 : 1.0, Q2 : 0.0, Q3 : 0.0, Q4 : -1.45909496041e-06}
2019-04-14 04:59:34.91: SIM {TimeUS : 43134406, Roll : 0.0, Pitch : 0.0, Yaw : 359.99, Alt : 30.1200008392, Lat : 49.28357, Lng : -123.11502, Q1 : 1.0, Q2 : 0.0, Q3 : 0.0, Q4 : -1.71579097241e-06}
2019-04-14 04:59:35.01: SIM {TimeUS : 43234366, Roll : 0.0, Pitch : 0.0, Yaw : 359.99, Alt : 30.1399993896, Lat : 49.28357, Lng : -123.11502, Q1 : 1.0, Q2 : 0.0, Q3 : 0.0, Q4 : -1.91641333913e-06}
2019-04-14 04:59:35.11: SIM {TimeUS : 43334326, Roll : 0.0, Pitch : 0.0, Yaw : 359.99, Alt : 30.1800003052, Lat : 49.28357, Lng : -123.11502, Q1 : 1.0, Q2 : 0.0, Q3 : 0.0, Q4 : -2.19818525693e-06}
2019-04-14 04:59:35.21: SIM {TimeUS : 43434286, Roll : 0.0, Pitch : 0.0, Yaw : 359.99, Alt : 30.2099990845, Lat : 49.28357, Lng : -123.11502, Q1 : 1.0, Q2 : -7.53603580961e-06, Q3 : -6.59044553686e-06, Q4 : -2.45959154199e-06}
2019-04-14 04:59:35.31: SIM {TimeUS : 43534246, Roll : -0.16, Pitch : -0.15, Yaw : 359.99, Alt : 30.2700004578, Lat : 49.28357, Lng : -123.11502, Q1 : 0.999997973442, Q2 : -0.00148071127478, Q3 : -0.00134852353949, Q4 : -1.90190039575e-05}
2019-04-14 04:59:35.41: SIM {TimeUS : 43634206, Roll : -0.45, Pitch : -0.44, Yaw : 359.99, Alt : 30.3899993896, Lat : 49.28357, Lng : -123.11502, Q1 : 0.999984502792, Q2 : -0.00396450795233, Q3 : -0.0039061291609, Q4 : -6.44387837383e-05}
2019-04-14 04:59:35.51: SIM {TimeUS : 43734166, Roll : -0.69, Pitch : -0.72, Yaw : 359.98, Alt : 30.5400009155, Lat : 49.28357, Lng : -123.11502, Q1 : 0.999961853027, Q2 : -0.00603724597022, Q3 : -0.0063127358444, Q4 : -0.000137578943395}
2019-04-14 04:59:35.61: SIM {TimeUS : 43834126, Roll : -0.79, Pitch : -0.84, Yaw : 359.98, Alt : 30.7000007629, Lat : 49.28357, Lng : -123.11502, Q1 : 0.999948680401, Q2 : -0.00696425884962, Q3 : -0.00735674845055, Q4 : -0.000223983777687}
2019-04-14 04:59:35.71: SIM {TimeUS : 43934086, Roll : -0.75, Pitch : -0.76, Yaw : 359.96, Alt : 30.8500003815, Lat : 49.28357, Lng : -123.1150201, Q1 : 0.999955713749, Q2 : -0.00661720568314, Q3 : -0.00668131513521, Q4 : -0.000313193566399}
2019-04-14 04:59:35.81: SIM {TimeUS : 44034046, Roll : -0.6, Pitch : -0.55, Yaw : 359.95, Alt : 31.0100002289, Lat : 49.2835701, Lng : -123.1150201, Q1 : 0.999973893166, Q2 : -0.00531134661287, Q3 : -0.00488229468465, Q4 : -0.000399128010031}
2019-04-14 04:59:35.92: SIM {TimeUS : 44134839, Roll : -0.4, Pitch : -0.31, Yaw : 359.94, Alt : 31.1599998474, Lat : 49.2835701, Lng : -123.1150202, Q1 : 0.99998986721, Q2 : -0.00352767249569, Q3 : -0.00276237586513, Q4 : -0.000472589716082}
2019-04-14 04:59:36.01: SIM {TimeUS : 44234799, Roll : -0.21, Pitch : -0.11, Yaw : 359.94, Alt : 31.3199996948, Lat : 49.2835702, Lng : -123.1150203, Q1 : 0.99999755621, Q2 : -0.0018997346051, Q3 : -0.00101746886503, Q4 : -0.000523306545801}
2019-04-14 04:59:36.11: SIM {TimeUS : 44334759, Roll : -0.07, Pitch : 0.01, Yaw : 359.93, Alt : 31.4899997711, Lat : 49.2835702, Lng : -123.1150204, Q1 : 0.999999642372, Q2 : -0.000657270138618, Q3 : 9.52990594669e-05, Q4 : -0.000559882784728}
2019-04-14 04:59:36.21: SIM {TimeUS : 44434719, Roll : 0.02, Pitch : 0.04, Yaw : 359.93, Alt : 31.6700000763, Lat : 49.2835702, Lng : -123.1150205, Q1 : 0.999999761581, Q2 : 0.000209218880627, Q3 : 0.000413045490859, Q4 : -0.000582998385653}
2019-04-14 04:59:36.31: SIM {TimeUS : 44534679, Roll : 0.07, Pitch : 0.03, Yaw : 359.93, Alt : 31.8400001526, Lat : 49.2835703, Lng : -123.1150205, Q1 : 0.999999582767, Q2 : 0.000624014413916, Q3 : 0.000315900193527, Q4 : -0.000596325146034}
2019-04-14 04:59:36.41: SIM {TimeUS : 44634639, Roll : 0.07, Pitch : 0.01, Yaw : 359.93, Alt : 32.0299987793, Lat : 49.2835703, Lng : -123.1150206, Q1 : 0.999999642372, Q2 : 0.000633350224234, Q3 : 0.000108303400339, Q4 : -0.000593749340624}
2019-04-14 04:59:36.51: SIM {TimeUS : 44734599, Roll : 0.06, Pitch : 0.0, Yaw : 359.93, Alt : 32.2099990845, Lat : 49.2835703, Lng : -123.1150207, Q1 : 0.999999701977, Q2 : 0.000534142774995, Q3 : -1.31977976707e-05, Q4 : -0.000577404978685}
2019-04-14 04:59:36.61: SIM {TimeUS : 44834559, Roll : 0.05, Pitch : 0.0, Yaw : 359.93, Alt : 32.4099998474, Lat : 49.2835703, Lng : -123.1150207, Q1 : 0.999999701977, Q2 : 0.000470931263408, Q3 : -2.53961916314e-05, Q4 : -0.0005514920922}
2019-04-14 04:59:36.71: SIM {TimeUS : 44934519, Roll : 0.06, Pitch : 0.01, Yaw : 359.93, Alt : 32.5999984741, Lat : 49.2835703, Lng : -123.1150208, Q1 : 0.999999701977, Q2 : 0.000551891222131, Q3 : 0.000114361355372, Q4 : -0.00052830047207}
2019-04-14 04:59:36.81: SIM {TimeUS : 45034479, Roll : 0.09, Pitch : 0.03, Yaw : 359.94, Alt : 32.7999992371, Lat : 49.2835703, Lng : -123.1150208, Q1 : 0.999999463558, Q2 : 0.000840230670292, Q3 : 0.000335489021381, Q4 : -0.000505919626448}
2019-04-14 04:59:36.91: SIM {TimeUS : 45134439, Roll : 0.14, Pitch : 0.06, Yaw : 359.94, Alt : 32.9900016785, Lat : 49.2835704, Lng : -123.1150208, Q1 : 0.999998867512, Q2 : 0.00126293557696, Q3 : 0.000608502188697, Q4 : -0.000499422603752}
2019-04-14 04:59:37.01: SIM {TimeUS : 45234399, Roll : 0.17, Pitch : 0.1, Yaw : 359.94, Alt : 33.2000007629, Lat : 49.2835704, Lng : -123.1150209, Q1 : 0.999998211861, Q2 : 0.00156596978195, Q3 : 0.000934889016207, Q4 : -0.000502278562635}
2019-04-14 04:59:37.11: SIM {TimeUS : 45334359, Roll : 0.18, Pitch : 0.13, Yaw : 359.94, Alt : 33.4000015259, Lat : 49.2835704, Lng : -123.1150209, Q1 : 0.999997854233, Q2 : 0.0016075426247, Q3 : 0.00121810473502, Q4 : -0.000503266346641}
2019-04-14 04:59:37.21: SIM {TimeUS : 45434319, Roll : 0.17, Pitch : 0.16, Yaw : 359.94, Alt : 33.6100006104, Lat : 49.2835704, Lng : -123.1150209, Q1 : 0.999997794628, Q2 : 0.00148589618038, Q3 : 0.00139964243863, Q4 : -0.000506567419507}
2019-04-14 04:59:37.31: SIM {TimeUS : 45534279, Roll : 0.15, Pitch : 0.17, Yaw : 359.94, Alt : 33.8100013733, Lat : 49.2835704, Lng : -123.1150209, Q1 : 0.999997735023, Q2 : 0.00137546670157, Q3 : 0.00154400151223, Q4 : -0.000516589381732}
2019-04-14 04:59:37.41: SIM {TimeUS : 45634239, Roll : 0.15, Pitch : 0.17, Yaw : 359.93, Alt : 34.0200004578, Lat : 49.2835706, Lng : -123.1150209, Q1 : 0.999997735023, Q2 : 0.00137559405994, Q3 : 0.00152145815082, Q4 : -0.000529739656486}
2019-04-14 04:59:37.51: SIM {TimeUS : 45734199, Roll : 0.15, Pitch : 0.16, Yaw : 359.93, Alt : 34.2299995422, Lat : 49.2835706, Lng : -123.1150209, Q1 : 0.999997854233, Q2 : 0.00135803373996, Q3 : 0.0014352487633, Q4 : -0.000548034673557}
2019-04-14 04:59:37.61: SIM {TimeUS : 45834159, Roll : 0.13, Pitch : 0.15, Yaw : 359.93, Alt : 34.4399986267, Lat : 49.2835706, Lng : -123.1150209, Q1 : 0.999998211861, Q2 : 0.00118780974299, Q3 : 0.0013455748558, Q4 : -0.000567771436181}
2019-04-14 04:59:37.71: SIM {TimeUS : 45934119, Roll : 0.11, Pitch : 0.11, Yaw : 359.93, Alt : 34.6599998474, Lat : 49.2835706, Lng : -123.1150209, Q1 : 0.999998807907, Q2 : 0.000996415386908, Q3 : 0.00101827003527, Q4 : -0.000576792284846}
2019-04-14 04:59:37.81: SIM {TimeUS : 46034079, Roll : 0.09, Pitch : 0.06, Yaw : 359.93, Alt : 34.8699989319, Lat : 49.2835706, Lng : -123.1150209, Q1 : 0.999999344349, Q2 : 0.000811233709101, Q3 : 0.000569066847675, Q4 : -0.000577034661546}
2019-04-14 04:59:37.91: SIM {TimeUS : 46134039, Roll : 0.06, Pitch : 0.03, Yaw : 359.93, Alt : 35.0900001526, Lat : 49.2835706, Lng : -123.1150209, Q1 : 0.999999582767, Q2 : 0.00059701903956, Q3 : 0.000288393523078, Q4 : -0.000600272906013}
2019-04-14 04:59:38.02: SIM {TimeUS : 46234832, Roll : 0.05, Pitch : 0.02, Yaw : 359.92, Alt : 35.3100013733, Lat : 49.2835706, Lng : -123.1150208, Q1 : 0.999999642372, Q2 : 0.000474832952023, Q3 : 0.000198269524844, Q4 : -0.000648577755783}
2019-04-14 04:59:38.11: SIM {TimeUS : 46334792, Roll : 0.05, Pitch : 0.02, Yaw : 359.91, Alt : 35.5200004578, Lat : 49.2835706, Lng : -123.1150208, Q1 : 0.999999582767, Q2 : 0.000486851669848, Q3 : 0.000242816298851, Q4 : -0.000711712578777}
2019-04-14 04:59:38.21: SIM {TimeUS : 46434752, Roll : 0.05, Pitch : 0.02, Yaw : 359.91, Alt : 35.7400016785, Lat : 49.2835706, Lng : -123.1150208, Q1 : 0.999999582767, Q2 : 0.000437401758973, Q3 : 0.000251734629273, Q4 : -0.000772277940996}
2019-04-14 04:59:38.31: SIM {TimeUS : 46534712, Roll : 0.02, Pitch : 0.02, Yaw : 359.9, Alt : 35.9599990845, Lat : 49.2835706, Lng : -123.1150208, Q1 : 0.999999642372, Q2 : 0.000184976684977, Q3 : 0.00022132624872, Q4 : -0.000818810483906}
2019-04-14 04:59:38.41: SIM {TimeUS : 46634672, Roll : 0.0, Pitch : 0.02, Yaw : 359.9, Alt : 36.1800003052, Lat : 49.2835706, Lng : -123.1150208, Q1 : 0.999999642372, Q2 : -5.67177630728e-05, Q3 : 0.000203516305191, Q4 : -0.000853645091411}
2019-04-14 04:59:38.51: SIM {TimeUS : 46734632, Roll : -0.01, Pitch : 0.04, Yaw : 359.89, Alt : 36.4000015259, Lat : 49.2835706, Lng : -123.1150208, Q1 : 0.999999523163, Q2 : -0.000170092913322, Q3 : 0.000386003521271, Q4 : -0.000882755673956}
2019-04-14 04:59:38.61: SIM {TimeUS : 46834592, Roll : -0.02, Pitch : 0.04, Yaw : 359.89, Alt : 36.6300010681, Lat : 49.2835706, Lng : -123.1150207, Q1 : 0.999999463558, Q2 : -0.000241279791226, Q3 : 0.000417824310716, Q4 : -0.000915912445635}
2019-04-14 04:59:38.71: SIM {TimeUS : 46934552, Roll : -0.02, Pitch : 0.04, Yaw : 359.89, Alt : 36.8499984741, Lat : 49.2835706, Lng : -123.1150207, Q1 : 0.999999463558, Q2 : -0.000231593498029, Q3 : 0.000351691385731, Q4 : -0.000948902859818}
2019-04-14 04:59:38.81: SIM {TimeUS : 47034512, Roll : -0.02, Pitch : 0.03, Yaw : 359.88, Alt : 37.0699996948, Lat : 49.2835706, Lng : -123.1150207, Q1 : 0.999999463558, Q2 : -0.00022446596995, Q3 : 0.000280434411252, Q4 : -0.000976477225777}
2019-04-14 04:59:38.91: SIM {TimeUS : 47134472, Roll : -0.02, Pitch : 0.02, Yaw : 359.88, Alt : 37.2999992371, Lat : 49.2835706, Lng : -123.1150207, Q1 : 0.999999463558, Q2 : -0.000192979539861, Q3 : 0.000214182568016, Q4 : -0.000991997425444}
2019-04-14 04:59:39.01: SIM {TimeUS : 47234432, Roll : 0.0, Pitch : 0.01, Yaw : 359.88, Alt : 37.5200004578, Lat : 49.2835704, Lng : -123.1150207, Q1 : 0.999999523163, Q2 : -7.51280749682e-05, Q3 : 0.000169016304426, Q4 : -0.00099433970172}
2019-04-14 04:59:39.11: SIM {TimeUS : 47334392, Roll : -0.01, Pitch : 0.0, Yaw : 359.88, Alt : 37.75, Lat : 49.2835704, Lng : -123.1150207, Q1 : 0.999999523163, Q2 : -0.000146527701872, Q3 : 1.73782082129e-05, Q4 : -0.000984433223493}
2019-04-14 04:59:39.21: SIM {TimeUS : 47434352, Roll : -0.04, Pitch : -0.02, Yaw : 359.88, Alt : 37.9799995422, Lat : 49.2835704, Lng : -123.1150207, Q1 : 0.999999463558, Q2 : -0.000371258094674, Q3 : -0.000226043659495, Q4 : -0.000969847955275}
2019-04-14 04:59:39.31: SIM {TimeUS : 47534312, Roll : -0.07, Pitch : -0.04, Yaw : 359.89, Alt : 38.2000007629, Lat : 49.2835704, Lng : -123.1150207, Q1 : 0.999999284744, Q2 : -0.000630073831417, Q3 : -0.000401049794164, Q4 : -0.000956589356065}
2019-04-14 04:59:39.41: SIM {TimeUS : 47634272, Roll : -0.09, Pitch : -0.04, Yaw : 359.89, Alt : 38.4300003052, Lat : 49.2835704, Lng : -123.1150207, Q1 : 0.99999910593, Q2 : -0.000860133266542, Q3 : -0.000399460026529, Q4 : -0.000953976006713}
2019-04-14 04:59:39.51: SIM {TimeUS : 47734232, Roll : -0.11, Pitch : -0.04, Yaw : 359.89, Alt : 38.6599998474, Lat : 49.2835704, Lng : -123.1150206, Q1 : 0.999998986721, Q2 : -0.000984650221653, Q3 : -0.000354456191417, Q4 : -0.000958699441981}
2019-04-14 04:59:39.61: SIM {TimeUS : 47834192, Roll : -0.11, Pitch : -0.03, Yaw : 359.88, Alt : 38.8899993896, Lat : 49.2835704, Lng : -123.1150206, Q1 : 0.999998986721, Q2 : -0.000981630408205, Q3 : -0.000337502977345, Q4 : -0.000969075539615}
2019-04-14 04:59:39.71: SIM {TimeUS : 47934152, Roll : -0.09, Pitch : -0.02, Yaw : 359.88, Alt : 39.1199989319, Lat : 49.2835704, Lng : -123.1150206, Q1 : 0.99999910593, Q2 : -0.000852453580592, Q3 : -0.000260269938735, Q4 : -0.000986500759609}
2019-04-14 04:59:39.81: SIM {TimeUS : 48034112, Roll : -0.07, Pitch : -0.03, Yaw : 359.88, Alt : 39.3499984741, Lat : 49.2835704, Lng : -123.1150206, Q1 : 0.99999922514, Q2 : -0.000631611503195, Q3 : -0.000346952030668, Q4 : -0.00101039500441}
2019-04-14 04:59:39.91: SIM {TimeUS : 48134072, Roll : -0.05, Pitch : -0.05, Yaw : 359.88, Alt : 39.5800018311, Lat : 49.2835704, Lng : -123.1150206, Q1 : 0.99999922514, Q2 : -0.00049993704306, Q3 : -0.00046408502385, Q4 : -0.00104578328319}
2019-04-14 04:59:40.01: SIM {TimeUS : 48234032, Roll : -0.04, Pitch : -0.04, Yaw : 359.87, Alt : 39.8100013733, Lat : 49.2835704, Lng : -123.1150206, Q1 : 0.99999922514, Q2 : -0.000434575136751, Q3 : -0.000416906783357, Q4 : -0.00107540294994}
2019-04-14 04:59:40.12: SIM {TimeUS : 48334825, Roll : -0.06, Pitch : -0.02, Yaw : 359.87, Alt : 40.0400009155, Lat : 49.2835704, Lng : -123.1150206, Q1 : 0.99999922514, Q2 : -0.000545300601516, Q3 : -0.000176632733201, Q4 : -0.00110601575579}
2019-04-14 04:59:40.21: SIM {TimeUS : 48434785, Roll : -0.06, Pitch : 0.01, Yaw : 359.86, Alt : 40.2700004578, Lat : 49.2835704, Lng : -123.1150206, Q1 : 0.99999922514, Q2 : -0.000549465825316, Q3 : 0.000103259248135, Q4 : -0.00114006025251}
2019-04-14 04:59:40.31: SIM {TimeUS : 48534745, Roll : -0.04, Pitch : 0.05, Yaw : 359.86, Alt : 40.5099983215, Lat : 49.2835704, Lng : -123.1150206, Q1 : 0.99999910593, Q2 : -0.000426101934863, Q3 : 0.00044854026055, Q4 : -0.00118238374125}
2019-04-14 04:59:40.41: SIM {TimeUS : 48634705, Roll : -0.03, Pitch : 0.06, Yaw : 359.86, Alt : 40.7400016785, Lat : 49.2835704, Lng : -123.1150207, Q1 : 0.999999046326, Q2 : -0.000268233969109, Q3 : 0.000601906271186, Q4 : -0.00121842091903}
2019-04-14 04:59:40.51: SIM {TimeUS : 48734665, Roll : 0.0, Pitch : 0.07, Yaw : 359.85, Alt : 40.9700012207, Lat : 49.2835704, Lng : -123.1150207, Q1 : 0.999999046326, Q2 : 4.51778078059e-06, Q3 : 0.000616739038378, Q4 : -0.00125253503211}
2019-04-14 04:59:40.61: SIM {TimeUS : 48834625, Roll : 0.03, Pitch : 0.08, Yaw : 359.85, Alt : 41.2000007629, Lat : 49.2835704, Lng : -123.1150207, Q1 : 0.999998867512, Q2 : 0.000336730765412, Q3 : 0.000714448397048, Q4 : -0.00128384225536}
2019-04-14 04:59:40.71: SIM {TimeUS : 48934585, Roll : 0.08, Pitch : 0.1, Yaw : 359.84, Alt : 41.4399986267, Lat : 49.2835704, Lng : -123.1150207, Q1 : 0.999998450279, Q2 : 0.000746169651393, Q3 : 0.000921324361116, Q4 : -0.0013128623832}
2019-04-14 04:59:40.81: SIM {TimeUS : 49034545, Roll : 0.11, Pitch : 0.12, Yaw : 359.84, Alt : 41.6699981689, Lat : 49.2835704, Lng : -123.1150207, Q1 : 0.999998033047, Q2 : 0.000967953528743, Q3 : 0.00111085281242, Q4 : -0.00134127039928}
2019-04-14 04:59:40.91: SIM {TimeUS : 49134505, Roll : 0.09, Pitch : 0.14, Yaw : 359.84, Alt : 41.9099998474, Lat : 49.2835706, Lng : -123.1150207, Q1 : 0.999997973442, Q2 : 0.000837853935082, Q3 : 0.00122724857647, Q4 : -0.00135593803134}
2019-04-14 04:59:41.01: SIM {TimeUS : 49234465, Roll : 0.05, Pitch : 0.14, Yaw : 359.84, Alt : 42.1399993896, Lat : 49.2835706, Lng : -123.1150207, Q1 : 0.999998152256, Q2 : 0.00044807663653, Q3 : 0.00129767425824, Q4 : -0.00136486394331}
2019-04-14 04:59:41.11: SIM {TimeUS : 49334425, Roll : 0.0, Pitch : 0.14, Yaw : 359.84, Alt : 42.3699989319, Lat : 49.2835706, Lng : -123.1150207, Q1 : 0.999998211861, Q2 : 4.98037625221e-05, Q3 : 0.00130731589161, Q4 : -0.00137779500801}
2019-04-14 04:59:41.21: SIM {TimeUS : 49434385, Roll : -0.01, Pitch : 0.11, Yaw : 359.84, Alt : 42.6100006104, Lat : 49.2835706, Lng : -123.1150207, Q1 : 0.999998509884, Q2 : -0.000124188853079, Q3 : 0.00103859498631, Q4 : -0.00139034248423}
2019-04-14 04:59:41.31: SIM {TimeUS : 49534345, Roll : -0.01, Pitch : 0.07, Yaw : 359.83, Alt : 42.8400001526, Lat : 49.2835704, Lng : -123.1150207, Q1 : 0.999998807907, Q2 : -0.000121479359223, Q3 : 0.000621343264356, Q4 : -0.0014053870691}
2019-04-14 04:59:41.41: SIM {TimeUS : 49634305, Roll : 0.0, Pitch : 0.06, Yaw : 359.83, Alt : 43.0800018311, Lat : 49.2835704, Lng : -123.1150207, Q1 : 0.999998867512, Q2 : -3.34616997861e-05, Q3 : 0.000545301067177, Q4 : -0.00142532493919}
2019-04-14 04:59:41.51: SIM {TimeUS : 49734265, Roll : 0.02, Pitch : 0.08, Yaw : 359.83, Alt : 43.3100013733, Lat : 49.2835704, Lng : -123.1150207, Q1 : 0.999998629093, Q2 : 0.000240363951889, Q3 : 0.0007407789235, Q4 : -0.00145347742364}
2019-04-14 04:59:41.61: SIM {TimeUS : 49834225, Roll : 0.08, Pitch : 0.11, Yaw : 359.83, Alt : 43.5499992371, Lat : 49.2835704, Lng : -123.1150207, Q1 : 0.999998152256, Q2 : 0.000705119688064, Q3 : 0.000995949376374, Q4 : -0.00147897063289}
2019-04-14 04:59:41.71: SIM {TimeUS : 49934185, Roll : 0.12, Pitch : 0.11, Yaw : 359.82, Alt : 43.7799987793, Lat : 49.2835704, Lng : -123.1150207, Q1 : 0.999997794628, Q2 : 0.00105189753231, Q3 : 0.00104006100446, Q4 : -0.0015113906702}
2019-04-14 04:59:41.81: SIM {TimeUS : 50034145, Roll : 0.12, Pitch : 0.1, Yaw : 359.82, Alt : 44.0200004578, Lat : 49.2835704, Lng : -123.1150207, Q1 : 0.999997794628, Q2 : 0.00105831003748, Q3 : 0.000945558655076, Q4 : -0.001541691483}
2019-04-14 04:59:41.91: SIM {TimeUS : 50134105, Roll : 0.07, Pitch : 0.08, Yaw : 359.82, Alt : 44.2599983215, Lat : 49.2835704, Lng : -123.1150207, Q1 : 0.999998211861, Q2 : 0.000696741626598, Q3 : 0.000776106491685, Q4 : -0.00155875261407}
2019-04-14 04:59:42.01: SIM {TimeUS : 50234065, Roll : 0.01, Pitch : 0.06, Yaw : 359.81, Alt : 44.4900016785, Lat : 49.2835704, Lng : -123.1150207, Q1 : 0.999998569489, Q2 : 0.000163307355251, Q3 : 0.000580757448915, Q4 : -0.00157231767662}
2019-04-14 04:59:42.11: SIM {TimeUS : 50334025, Roll : -0.02, Pitch : 0.05, Yaw : 359.81, Alt : 44.7299995422, Lat : 49.2835704, Lng : -123.1150206, Q1 : 0.999998629093, Q2 : -0.000198268127861, Q3 : 0.000473878200864, Q4 : -0.00158735166769}
2019-04-14 04:59:42.21: SIM {TimeUS : 50434818, Roll : -0.04, Pitch : 0.04, Yaw : 359.81, Alt : 44.9700012207, Lat : 49.2835704, Lng : -123.1150206, Q1 : 0.999998569489, Q2 : -0.000387950363802, Q3 : 0.000354396441253, Q4 : -0.00160641537514}
2019-04-14 04:59:42.31: SIM {TimeUS : 50534778, Roll : -0.03, Pitch : 0.01, Yaw : 359.81, Alt : 45.2000007629, Lat : 49.2835704, Lng : -123.1150206, Q1 : 0.999998569489, Q2 : -0.000346041546436, Q3 : 0.000163068209076, Q4 : -0.00164267979562}
2019-04-14 04:59:42.41: SIM {TimeUS : 50634738, Roll : -0.04, Pitch : 0.0, Yaw : 359.8, Alt : 45.4399986267, Lat : 49.2835704, Lng : -123.1150206, Q1 : 0.999998509884, Q2 : -0.000384141108952, Q3 : 1.85565731954e-05, Q4 : -0.00168481690343}
2019-04-14 04:59:42.51: SIM {TimeUS : 50734698, Roll : -0.03, Pitch : 0.0, Yaw : 359.8, Alt : 45.6699981689, Lat : 49.2835704, Lng : -123.1150206, Q1 : 0.999998450279, Q2 : -0.000308284652419, Q3 : -5.00527930853e-05, Q4 : -0.00172625773121}
2019-04-14 04:59:42.61: SIM {TimeUS : 50834658, Roll : -0.01, Pitch : 0.0, Yaw : 359.79, Alt : 45.9099998474, Lat : 49.2835703, Lng : -123.1150206, Q1 : 0.999998450279, Q2 : -0.000139390773256, Q3 : -2.76831342489e-05, Q4 : -0.00176740810275}
2019-04-14 04:59:42.71: SIM {TimeUS : 50934618, Roll : -0.01, Pitch : 0.0, Yaw : 359.79, Alt : 46.1399993896, Lat : 49.2835703, Lng : -123.1150206, Q1 : 0.999998390675, Q2 : -0.000109771979623, Q3 : 6.8370201916e-05, Q4 : -0.00179927051067}
2019-04-14 04:59:42.81: SIM {TimeUS : 51034578, Roll : -0.01, Pitch : 0.0, Yaw : 359.79, Alt : 46.3600006104, Lat : 49.2835703, Lng : -123.1150205, Q1 : 0.99999833107, Q2 : -0.000156908849021, Q3 : 4.92177678098e-05, Q4 : -0.00182284344919}
2019-04-14 04:59:42.91: SIM {TimeUS : 51134538, Roll : -0.02, Pitch : -0.01, Yaw : 359.78, Alt : 46.5800018311, Lat : 49.2835703, Lng : -123.1150205, Q1 : 0.999998271465, Q2 : -0.000225628755288, Q3 : -9.44819694269e-05, Q4 : -0.00184180308133}
2019-04-14 04:59:43.01: SIM {TimeUS : 51234498, Roll : -0.02, Pitch : -0.02, Yaw : 359.78, Alt : 46.7999992371, Lat : 49.2835703, Lng : -123.1150205, Q1 : 0.999998271465, Q2 : -0.000222463131649, Q3 : -0.000179025446414, Q4 : -0.00186092057265}
2019-04-14 04:59:43.11: SIM {TimeUS : 51334458, Roll : -0.02, Pitch : -0.02, Yaw : 359.78, Alt : 47.0099983215, Lat : 49.2835703, Lng : -123.1150205, Q1 : 0.999998211861, Q2 : -0.000176445639227, Q3 : -0.00022664401331, Q4 : -0.00187974481378}
2019-04-14 04:59:43.21: SIM {TimeUS : 51434418, Roll : -0.02, Pitch : -0.02, Yaw : 359.78, Alt : 47.2099990845, Lat : 49.2835703, Lng : -123.1150205, Q1 : 0.999998152256, Q2 : -0.000255195656791, Q3 : -0.000207373668673, Q4 : -0.00189892330673}
2019-04-14 04:59:43.31: SIM {TimeUS : 51534378, Roll : -0.05, Pitch : -0.01, Yaw : 359.77, Alt : 47.4099998474, Lat : 49.2835703, Lng : -123.1150205, Q1 : 0.999998033047, Q2 : -0.000479941954836, Q3 : -0.000140611824463, Q4 : -0.00192185060587}
2019-04-14 04:59:43.41: SIM {TimeUS : 51634338, Roll : -0.09, Pitch : -0.01, Yaw : 359.77, Alt : 47.5900001526, Lat : 49.2835703, Lng : -123.1150205, Q1 : 0.999997735023, Q2 : -0.000821445253678, Q3 : -0.000122028497572, Q4 : -0.00194953544997}
2019-04-14 04:59:43.51: SIM {TimeUS : 51734298, Roll : -0.14, Pitch : -0.03, Yaw : 359.77, Alt : 47.7700004578, Lat : 49.2835703, Lng : -123.1150205, Q1 : 0.999997198582, Q2 : -0.0012569532264, Q3 : -0.000291941221803, Q4 : -0.00198403489776}
2019-04-14 04:59:43.61: SIM {TimeUS : 51834258, Roll : -0.17, Pitch : -0.04, Yaw : 359.76, Alt : 47.9300003052, Lat : 49.2835703, Lng : -123.1150205, Q1 : 0.999996781349, Q2 : -0.00151286879554, Q3 : -0.000373376737116, Q4 : -0.00201904890127}
2019-04-14 04:59:43.71: SIM {TimeUS : 51934218, Roll : -0.17, Pitch : -0.03, Yaw : 359.76, Alt : 48.0900001526, Lat : 49.2835703, Lng : -123.1150205, Q1 : 0.99999666214, Q2 : -0.0015533050755, Q3 : -0.000291922042379, Q4 : -0.00205120560713}
2019-04-14 04:59:43.81: SIM {TimeUS : 52034178, Roll : -0.15, Pitch : -0.02, Yaw : 359.76, Alt : 48.2299995422, Lat : 49.2835703, Lng : -123.1150205, Q1 : 0.999996840954, Q2 : -0.00138723989949, Q3 : -0.000186398829101, Q4 : -0.00208351900801}
2019-04-14 04:59:43.91: SIM {TimeUS : 52134138, Roll : -0.12, Pitch : -0.01, Yaw : 359.75, Alt : 48.3600006104, Lat : 49.2835703, Lng : -123.1150205, Q1 : 0.999997138977, Q2 : -0.00112779694609, Q3 : -0.000132389817736, Q4 : -0.00211366522126}
2019-04-14 04:59:44.01: SIM {TimeUS : 52234098, Roll : -0.1, Pitch : -0.01, Yaw : 359.75, Alt : 48.4700012207, Lat : 49.2835703, Lng : -123.1150205, Q1 : 0.999997258186, Q2 : -0.000905289431103, Q3 : -0.000143051947816, Q4 : -0.00214391550981}
2019-04-14 04:59:44.11: SIM {TimeUS : 52334058, Roll : -0.07, Pitch : -0.02, Yaw : 359.75, Alt : 48.5800018311, Lat : 49.2835703, Lng : -123.1150205, Q1 : 0.999997377396, Q2 : -0.000663870421704, Q3 : -0.000249906734098, Q4 : -0.00217652390711}
2019-04-14 04:59:44.22: SIM {TimeUS : 52434851, Roll : -0.04, Pitch : -0.04, Yaw : 359.74, Alt : 48.6699981689, Lat : 49.2835703, Lng : -123.1150205, Q1 : 0.999997437, Q2 : -0.00037332487409, Q3 : -0.000358995224815, Q4 : -0.0022051455453}
2019-04-14 04:59:44.31: SIM {TimeUS : 52534811, Roll : -0.02, Pitch : -0.05, Yaw : 359.74, Alt : 48.75, Lat : 49.2835703, Lng : -123.1150205, Q1 : 0.999997377396, Q2 : -0.000201833783649, Q3 : -0.000472090701805, Q4 : -0.00222682650201}
2019-04-14 04:59:44.41: SIM {TimeUS : 52634771, Roll : -0.02, Pitch : -0.07, Yaw : 359.74, Alt : 48.8199996948, Lat : 49.2835703, Lng : -123.1150205, Q1 : 0.999997258186, Q2 : -0.000240760637098, Q3 : -0.000616373086814, Q4 : -0.00224164733663}
2019-04-14 04:59:44.51: SIM {TimeUS : 52734731, Roll : 0.0, Pitch : -0.07, Yaw : 359.74, Alt : 48.8800010681, Lat : 49.2835703, Lng : -123.1150206, Q1 : 0.999997258186, Q2 : -7.26482903701e-05, Q3 : -0.000638752360828, Q4 : -0.00225765700452}
2019-04-14 04:59:44.61: SIM {TimeUS : 52834691, Roll : 0.02, Pitch : -0.06, Yaw : 359.73, Alt : 48.9300003052, Lat : 49.2835703, Lng : -123.1150206, Q1 : 0.999997258186, Q2 : 0.00017509656027, Q3 : -0.000560797052458, Q4 : -0.00227248319425}
2019-04-14 04:59:44.71: SIM {TimeUS : 52934651, Roll : 0.05, Pitch : -0.05, Yaw : 359.73, Alt : 48.9799995422, Lat : 49.2835703, Lng : -123.1150206, Q1 : 0.999997198582, Q2 : 0.000439250783529, Q3 : -0.000469126593089, Q4 : -0.00228680949658}
2019-04-14 04:59:44.81: SIM {TimeUS : 53034611, Roll : 0.1, Pitch : -0.1, Yaw : 359.73, Alt : 49.0200004578, Lat : 49.2835703, Lng : -123.1150206, Q1 : 0.999996542931, Q2 : 0.000902494706679, Q3 : -0.000898019585293, Q4 : -0.00230051227845}
2019-04-14 04:59:44.91: SIM {TimeUS : 53134571, Roll : 0.27, Pitch : -0.33, Yaw : 359.73, Alt : 49.0499992371, Lat : 49.2835703, Lng : -123.1150206, Q1 : 0.999990224838, Q2 : 0.00239909836091, Q3 : -0.00291515886784, Q4 : -0.00231483136304}
2019-04-14 04:59:45.01: SIM {TimeUS : 53234531, Roll : 0.59, Pitch : -0.81, Yaw : 359.72, Alt : 49.0800018311, Lat : 49.2835703, Lng : -123.1150206, Q1 : 0.999958753586, Q2 : 0.00513987103477, Q3 : -0.007114386186, Q4 : -0.0023354482837}
2019-04-14 04:59:45.11: SIM {TimeUS : 53334491, Roll : 1.03, Pitch : -1.49, Yaw : 359.71, Alt : 49.0999984741, Lat : 49.2835704, Lng : -123.1150206, Q1 : 0.999871253967, Q2 : 0.00903162639588, Q3 : -0.0130542153493, Q4 : -0.00235133711249}
2019-04-14 04:59:45.21: SIM {TimeUS : 53434451, Roll : 1.59, Pitch : -2.3, Yaw : 359.69, Alt : 49.1300010681, Lat : 49.2835704, Lng : -123.1150206, Q1 : 0.999697983265, Q2 : 0.0138814412057, Q3 : -0.0201445575804, Q4 : -0.00234242831357}
2019-04-14 04:59:45.31: SIM {TimeUS : 53534411, Roll : 2.18, Pitch : -3.14, Yaw : 359.67, Alt : 49.1399993896, Lat : 49.2835706, Lng : -123.1150205, Q1 : 0.999438583851, Q2 : 0.0189791806042, Q3 : -0.0275153052062, Q4 : -0.00228227814659}
2019-04-14 04:59:45.41: SIM {TimeUS : 53634371, Roll : 2.7, Pitch : -3.88, Yaw : 359.66, Alt : 49.1599998474, Lat : 49.2835707, Lng : -123.1150204, Q1 : 0.99914675951, Q2 : 0.0234569180757, Q3 : -0.0339243486524, Q4 : -0.00214439351112}
2019-04-14 04:59:45.51: SIM {TimeUS : 53734331, Roll : 3.11, Pitch : -4.43, Yaw : 359.65, Alt : 49.1699981689, Lat : 49.2835709, Lng : -123.1150202, Q1 : 0.998879551888, Q2 : 0.0270711258054, Q3 : -0.0387685522437, Q4 : -0.00193597900216}
2019-04-14 04:59:45.61: SIM {TimeUS : 53834291, Roll : 3.43, Pitch : -4.84, Yaw : 359.66, Alt : 49.1800003052, Lat : 49.283571, Lng : -123.11502, Q1 : 0.998658776283, Q2 : 0.0297791752964, Q3 : -0.0423201732337, Q4 : -0.00167894910555}
2019-04-14 04:59:45.71: SIM {TimeUS : 53934251, Roll : 3.66, Pitch : -5.17, Yaw : 359.67, Alt : 49.2000007629, Lat : 49.2835714, Lng : -123.1150198, Q1 : 0.998469114304, Q2 : 0.0318306870759, Q3 : -0.0452138632536, Q4 : -0.00140447693411}
2019-04-14 04:59:45.81: SIM {TimeUS : 54034211, Roll : 3.85, Pitch : -5.47, Yaw : 359.68, Alt : 49.2000007629, Lat : 49.2835716, Lng : -123.1150195, Q1 : 0.998294532299, Q2 : 0.0334494374692, Q3 : -0.0478319451213, Q4 : -0.00113355880603}
2019-04-14 04:59:45.91: SIM {TimeUS : 54134171, Roll : 4.03, Pitch : -5.8, Yaw : 359.69, Alt : 49.2099990845, Lat : 49.2835721, Lng : -123.115019, Q1 : 0.99809885025, Q2 : 0.035042013973, Q3 : -0.0506951138377, Q4 : -0.000887718982995}
2019-04-14 04:59:46.01: SIM {TimeUS : 54234131, Roll : 4.24, Pitch : -6.14, Yaw : 359.69, Alt : 49.2200012207, Lat : 49.2835726, Lng : -123.1150186, Q1 : 0.99788069725, Q2 : 0.0368230044842, Q3 : -0.0536454878747, Q4 : -0.000637662713416}
2019-04-14 04:59:46.11: SIM {TimeUS : 54334091, Roll : 4.43, Pitch : -6.43, Yaw : 359.7, Alt : 49.2299995422, Lat : 49.2835731, Lng : -123.115018, Q1 : 0.997674405575, Q2 : 0.0385291315615, Q3 : -0.0562246330082, Q4 : -0.000373396760551}
2019-04-14 04:59:46.21: SIM {TimeUS : 54434051, Roll : 4.59, Pitch : -6.68, Yaw : 359.71, Alt : 49.2299995422, Lat : 49.2835737, Lng : -123.1150174, Q1 : 0.997501730919, Q2 : 0.0398547425866, Q3 : -0.0583266355097, Q4 : -0.000130588348839}
2019-04-14 04:59:46.32: SIM {TimeUS : 54534844, Roll : 4.7, Pitch : -6.85, Yaw : 359.72, Alt : 49.2400016785, Lat : 49.2835743, Lng : -123.1150167, Q1 : 0.997373461723, Q2 : 0.0408527255058, Q3 : -0.0598100014031, Q4 : 7.20562820788e-05}
2019-04-14 04:59:46.41: SIM {TimeUS : 54634804, Roll : 4.78, Pitch : -6.96, Yaw : 359.73, Alt : 49.2400016785, Lat : 49.283575, Lng : -123.115016, Q1 : 0.997284948826, Q2 : 0.0415253378451, Q3 : -0.0608139783144, Q4 : 0.000212589977309}
2019-04-14 04:59:46.51: SIM {TimeUS : 54734764, Roll : 4.85, Pitch : -7.07, Yaw : 359.73, Alt : 49.25, Lat : 49.2835758, Lng : -123.1150151, Q1 : 0.99720287323, Q2 : 0.0421152934432, Q3 : -0.0617467202246, Q4 : 0.000284288282273}
2019-04-14 04:59:46.61: SIM {TimeUS : 54834724, Roll : 4.94, Pitch : -7.2, Yaw : 359.72, Alt : 49.25, Lat : 49.2835765, Lng : -123.1150143, Q1 : 0.997097373009, Q2 : 0.0429260842502, Q3 : -0.0628819614649, Q4 : 0.000320955005009}
2019-04-14 04:59:46.71: SIM {TimeUS : 54934684, Roll : 5.24, Pitch : -7.29, Yaw : 359.82, Alt : 49.25, Lat : 49.2835775, Lng : -123.1150134, Q1 : 0.996933877468, Q2 : 0.0455558225513, Q3 : -0.0636044889688, Q4 : 0.00140732398722}
2019-04-14 04:59:46.81: SIM {TimeUS : 55034644, Roll : 5.8, Pitch : -7.29, Yaw : 0.54, Alt : 49.2599983215, Lat : 49.2835783, Lng : -123.1150124, Q1 : 0.996666073799, Q2 : 0.0508465692401, Q3 : -0.0633090138435, Q4 : 0.00796161871403}
2019-04-14 04:59:46.91: SIM {TimeUS : 55134604, Roll : 6.42, Pitch : -7.41, Yaw : 2.55, Alt : 49.2599983215, Lat : 49.2835794, Lng : -123.1150113, Q1 : 0.996011912823, Q2 : 0.0573729649186, Q3 : -0.0632647871971, Q4 : 0.0258108507842}
2019-04-14 04:59:47.01: SIM {TimeUS : 55234564, Roll : 6.73, Pitch : -7.84, Yaw : 6.16, Alt : 49.2599983215, Lat : 49.2835804, Lng : -123.1150102, Q1 : 0.994277238846, Q2 : 0.0622154511511, Q3 : -0.0650394558907, Q4 : 0.0575493723154}
2019-04-14 04:59:47.11: SIM {TimeUS : 55334524, Roll : 6.5, Pitch : -8.61, Yaw : 11.3, Alt : 49.2599983215, Lat : 49.2835814, Lng : -123.1150089, Q1 : 0.990312695503, Q2 : 0.0636501535773, Q3 : -0.0690732374787, Q4 : 0.10226611048}
2019-04-14 04:59:47.21: SIM {TimeUS : 55434484, Roll : 5.48, Pitch : -9.62, Yaw : 17.71, Alt : 49.2599983215, Lat : 49.2835825, Lng : -123.1150076, Q1 : 0.982843995094, Q2 : 0.0600044988096, Q3 : -0.075473241508, Q4 : 0.157228946686}
2019-04-14 04:59:47.31: SIM {TimeUS : 55534444, Roll : 3.45, Pitch : -10.69, Yaw : 24.84, Alt : 49.2599983215, Lat : 49.2835837, Lng : -123.115006, Q1 : 0.971295654774, Q2 : 0.0493862256408, Q3 : -0.0844912827015, Q4 : 0.216810792685}
2019-04-14 04:59:47.41: SIM {TimeUS : 55634404, Roll : 0.69, Pitch : -11.54, Yaw : 31.89, Alt : 49.2700004578, Lat : 49.2835849, Lng : -123.1150045, Q1 : 0.95645570755, Q2 : 0.0334802083671, Q3 : -0.0950759500265, Q4 : 0.273919969797}
2019-04-14 04:59:47.51: SIM {TimeUS : 55734364, Roll : -2.2, Pitch : -12.06, Yaw : 38.1, Alt : 49.2700004578, Lat : 49.2835861, Lng : -123.1150029, Q1 : 0.940466880798, Q2 : 0.0162508934736, Q3 : -0.105566233397, Q4 : 0.322666585445}
2019-04-14 04:59:47.61: SIM {TimeUS : 55834324, Roll : -4.62, Pitch : -12.27, Yaw : 42.89, Alt : 49.2700004578, Lat : 49.2835876, Lng : -123.1150013, Q1 : 0.926247358322, Q2 : 0.00169656134676, Q3 : -0.114133171737, Q4 : 0.359216690063}
2019-04-14 04:59:47.71: SIM {TimeUS : 55934284, Roll : -6.18, Pitch : -12.33, Yaw : 45.95, Alt : 49.2700004578, Lat : 49.283589, Lng : -123.1149997, Q1 : 0.91626727581, Q2 : -0.00746344216168, Q3 : -0.119731269777, Q4 : 0.382182002068}
2019-04-14 04:59:47.81: SIM {TimeUS : 56034244, Roll : -6.75, Pitch : -12.41, Yaw : 47.31, Alt : 49.2700004578, Lat : 49.2835905, Lng : -123.114998, Q1 : 0.911571085453, Q2 : -0.0103520974517, Q3 : -0.122337721288, Q4 : 0.392383158207}
2019-04-14 04:59:47.91: SIM {TimeUS : 56134204, Roll : -6.46, Pitch : -12.63, Yaw : 47.22, Alt : 49.2700004578, Lat : 49.2835922, Lng : -123.1149964, Q1 : 0.911760687828, Q2 : -0.00733061926439, Q3 : -0.123057879508, Q4 : 0.391785055399}
2019-04-14 04:59:48.01: SIM {TimeUS : 56234164, Roll : -5.51, Pitch : -13.06, Yaw : 45.99, Alt : 49.2700004578, Lat : 49.283594, Lng : -123.1149947, Q1 : 0.915635883808, Q2 : 0.000413726578699, Q3 : -0.123247236013, Q4 : 0.382649838924}
2019-04-14 04:59:48.11: SIM {TimeUS : 56334124, Roll : -4.16, Pitch : -13.67, Yaw : 43.94, Alt : 49.2700004578, Lat : 49.2835958, Lng : -123.114993, Q1 : 0.921792149544, Q2 : 0.0110509814695, Q3 : -0.12381657958, Q4 : 0.367214679718}
2019-04-14 04:59:48.21: SIM {TimeUS : 56434084, Roll : -2.61, Pitch : -14.33, Yaw : 41.37, Alt : 49.2700004578, Lat : 49.2835977, Lng : -123.1149913, Q1 : 0.92898452282, Q2 : 0.0228497348726, Q3 : -0.124708227813, Q4 : 0.347726345062}
2019-04-14 04:59:48.31: SIM {TimeUS : 56534044, Roll : -1.03, Pitch : -14.92, Yaw : 38.58, Alt : 49.2799987793, Lat : 49.2835998, Lng : -123.1149895, Q1 : 0.93618452549, Q2 : 0.0345047302544, Q3 : -0.125537738204, Q4 : 0.326509207487}
2019-04-14 04:59:48.42: SIM {TimeUS : 56634837, Roll : 0.45, Pitch : -15.34, Yaw : 35.88, Alt : 49.2799987793, Lat : 49.2836018, Lng : -123.1149876, Q1 : 0.942671000957, Q2 : 0.0449094511569, Q3 : -0.125830575824, Q4 : 0.305812388659}
2019-04-14 04:59:48.51: SIM {TimeUS : 56734797, Roll : 1.68, Pitch : -15.57, Yaw : 33.58, Alt : 49.2799987793, Lat : 49.2836038, Lng : -123.1149856, Q1 : 0.947841882706, Q2 : 0.0530592761934, Q3 : -0.125495702028, Q4 : 0.288151562214}
2019-04-14 04:59:48.61: SIM {TimeUS : 56834757, Roll : 2.54, Pitch : -15.65, Yaw : 31.87, Alt : 49.2799987793, Lat : 49.2836061, Lng : -123.1149835, Q1 : 0.951540768147, Q2 : 0.0585492998362, Q3 : -0.124840840697, Q4 : 0.274876207113}
2019-04-14 04:59:48.71: SIM {TimeUS : 56934717, Roll : 2.99, Pitch : -15.63, Yaw : 30.83, Alt : 49.2799987793, Lat : 49.2836083, Lng : -123.1149813, Q1 : 0.953782856464, Q2 : 0.0610892213881, Q3 : -0.124156497419, Q4 : 0.26674246788}
2019-04-14 04:59:48.81: SIM {TimeUS : 57034677, Roll : 3.04, Pitch : -15.59, Yaw : 30.47, Alt : 49.2799987793, Lat : 49.2836104, Lng : -123.114979, Q1 : 0.954642355442, Q2 : 0.0610082000494, Q3 : -0.123945444822, Q4 : 0.26376798749}
2019-04-14 04:59:48.91: SIM {TimeUS : 57134637, Roll : 2.74, Pitch : -15.59, Yaw : 30.7, Alt : 49.2799987793, Lat : 49.2836128, Lng : -123.1149766, Q1 : 0.954260528088, Q2 : 0.058772046119, Q3 : -0.124546676874, Q4 : 0.265369087458}
2019-04-14 04:59:49.01: SIM {TimeUS : 57234597, Roll : 2.17, Pitch : -15.65, Yaw : 31.4, Alt : 49.2799987793, Lat : 49.2836152, Lng : -123.1149741, Q1 : 0.95284229517, Q2 : 0.0549647808075, Q3 : -0.12599170208, Q4 : 0.270548522472}
2019-04-14 04:59:49.11: SIM {TimeUS : 57334557, Roll : 1.45, Pitch : -15.75, Yaw : 32.41, Alt : 49.2799987793, Lat : 49.2836175, Lng : -123.1149716, Q1 : 0.950639247894, Q2 : 0.0503616705537, Q3 : -0.128088384867, Q4 : 0.278104364872}
2019-04-14 04:59:49.21: SIM {TimeUS : 57434517, Roll : 0.68, Pitch : -15.89, Yaw : 33.56, Alt : 49.2799987793, Lat : 49.2836199, Lng : -123.1149689, Q1 : 0.947953104973, Q2 : 0.0456298738718, Q3 : -0.130648598075, Q4 : 0.286764323711}
2019-04-14 04:59:49.31: SIM {TimeUS : 57534477, Roll : -0.02, Pitch : -16.03, Yaw : 34.71, Alt : 49.2799987793, Lat : 49.2836224, Lng : -123.1149662, Q1 : 0.945140898228, Q2 : 0.0413695573807, Q3 : -0.133189752698, Q4 : 0.295394301414}
2019-04-14 04:59:49.41: SIM {TimeUS : 57634437, Roll : -0.63, Pitch : -16.15, Yaw : 35.73, Alt : 49.2799987793, Lat : 49.2836249, Lng : -123.1149634, Q1 : 0.94254809618, Q2 : 0.0379212349653, Q3 : -0.135373905301, Q4 : 0.303049445152}
2019-04-14 04:59:49.51: SIM {TimeUS : 57734397, Roll : -1.06, Pitch : -16.22, Yaw : 36.53, Alt : 49.2799987793, Lat : 49.2836274, Lng : -123.1149607, Q1 : 0.94046407938, Q2 : 0.0355172678828, Q3 : -0.136897921562, Q4 : 0.309070914984}
2019-04-14 04:59:49.61: SIM {TimeUS : 57834357, Roll : -1.29, Pitch : -16.26, Yaw : 37.06, Alt : 49.2799987793, Lat : 49.2836299, Lng : -123.1149579, Q1 : 0.939057290554, Q2 : 0.0343423187733, Q3 : -0.137708559632, Q4 : 0.31309491396}
2019-04-14 04:59:49.71: SIM {TimeUS : 57934317, Roll : -1.33, Pitch : -16.31, Yaw : 37.3, Alt : 49.2799987793, Lat : 49.2836326, Lng : -123.114955, Q1 : 0.938351690769, Q2 : 0.0344123132527, Q3 : -0.138118058443, Q4 : 0.315016388893}
2019-04-14 04:59:49.81: SIM {TimeUS : 58034277, Roll : -1.23, Pitch : -16.36, Yaw : 37.29, Alt : 49.2799987793, Lat : 49.2836353, Lng : -123.1149522, Q1 : 0.938300788403, Q2 : 0.0354318134487, Q3 : -0.138254627585, Q4 : 0.31499505043}
2019-04-14 04:59:49.91: SIM {TimeUS : 58134237, Roll : -1.02, Pitch : -16.43, Yaw : 37.06, Alt : 49.2900009155, Lat : 49.2836379, Lng : -123.1149493, Q1 : 0.938783288002, Q2 : 0.0370267443359, Q3 : -0.138341709971, Q4 : 0.313331335783}
2019-04-14 04:59:50.01: SIM {TimeUS : 58234197, Roll : -0.75, Pitch : -16.49, Yaw : 36.67, Alt : 49.2900009155, Lat : 49.2836408, Lng : -123.1149464, Q1 : 0.939670979977, Q2 : 0.0389594212174, Q3 : -0.138182073832, Q4 : 0.310493737459}
2019-04-14 04:59:50.11: SIM {TimeUS : 58334157, Roll : -0.42, Pitch : -16.51, Yaw : 36.2, Alt : 49.2900009155, Lat : 49.2836436, Lng : -123.1149434, Q1 : 0.94078963995, Q2 : 0.0411181934178, Q3 : -0.137703254819, Q4 : 0.30702111125}
2019-04-14 04:59:50.21: SIM {TimeUS : 58434117, Roll : -0.12, Pitch : -16.53, Yaw : 35.71, Alt : 49.2900009155, Lat : 49.2836463, Lng : -123.1149404, Q1 : 0.941960930824, Q2 : 0.043093200773, Q3 : -0.137227639556, Q4 : 0.303349941969}
2019-04-14 04:59:50.31: SIM {TimeUS : 58534077, Roll : 0.15, Pitch : -16.56, Yaw : 35.26, Alt : 49.2900009155, Lat : 49.2836493, Lng : -123.1149374, Q1 : 0.943025290966, Q2 : 0.0448848158121, Q3 : -0.136867359281, Q4 : 0.299926757812}
2019-04-14 04:59:50.41: SIM {TimeUS : 58634037, Roll : 0.39, Pitch : -16.57, Yaw : 34.88, Alt : 49.2900009155, Lat : 49.2836522, Lng : -123.1149342, Q1 : 0.943895041943, Q2 : 0.0464352332056, Q3 : -0.136528730392, Q4 : 0.297095686197}
2019-04-14 04:59:50.52: SIM {TimeUS : 58734830, Roll : 0.54, Pitch : -16.59, Yaw : 34.61, Alt : 49.2900009155, Lat : 49.2836551, Lng : -123.1149312, Q1 : 0.94452214241, Q2 : 0.0474288314581, Q3 : -0.136385858059, Q4 : 0.295004010201}
2019-04-14 04:59:50.61: SIM {TimeUS : 58834790, Roll : 0.6, Pitch : -16.63, Yaw : 34.45, Alt : 49.2900009155, Lat : 49.2836579, Lng : -123.1149281, Q1 : 0.944857597351, Q2 : 0.0478104688227, Q3 : -0.136614531279, Q4 : 0.293759703636}
2019-04-14 04:59:50.71: SIM {TimeUS : 58934750, Roll : 0.58, Pitch : -16.69, Yaw : 34.4, Alt : 49.2900009155, Lat : 49.2836609, Lng : -123.1149249, Q1 : 0.944906890392, Q2 : 0.0477393083274, Q3 : -0.13717995584, Q4 : 0.29334884882}
2019-04-14 04:59:50.81: SIM {TimeUS : 59034710, Roll : 0.5, Pitch : -16.76, Yaw : 34.45, Alt : 49.2900009155, Lat : 49.2836639, Lng : -123.1149217, Q1 : 0.944723248482, Q2 : 0.0473279543221, Q3 : -0.137947261333, Q4 : 0.293647140265}
2019-04-14 04:59:50.91: SIM {TimeUS : 59134670, Roll : 0.38, Pitch : -16.82, Yaw : 34.58, Alt : 49.2900009155, Lat : 49.2836669, Lng : -123.1149184, Q1 : 0.944385588169, Q2 : 0.0466492883861, Q3 : -0.138695657253, Q4 : 0.294488132}
2019-04-14 04:59:51.01: SIM {TimeUS : 59234630, Roll : 0.24, Pitch : -16.86, Yaw : 34.74, Alt : 49.2900009155, Lat : 49.2836699, Lng : -123.1149152, Q1 : 0.943960666656, Q2 : 0.0458027347922, Q3 : -0.139334514737, Q4 : 0.295679241419}
2019-04-14 04:59:51.11: SIM {TimeUS : 59334590, Roll : 0.1, Pitch : -16.9, Yaw : 34.93, Alt : 49.2900009155, Lat : 49.2836729, Lng : -123.1149119, Q1 : 0.943491518497, Q2 : 0.0450047254562, Q3 : -0.139936044812, Q4 : 0.297012150288}
2019-04-14 04:59:51.21: SIM {TimeUS : 59434550, Roll : -0.01, Pitch : -16.93, Yaw : 35.1, Alt : 49.2900009155, Lat : 49.283676, Lng : -123.1149086, Q1 : 0.94304049015, Q2 : 0.0443149879575, Q3 : -0.140446200967, Q4 : 0.298304706812}
2019-04-14 04:59:51.31: SIM {TimeUS : 59534510, Roll : -0.09, Pitch : -16.95, Yaw : 35.25, Alt : 49.2900009155, Lat : 49.2836791, Lng : -123.1149053, Q1 : 0.942661821842, Q2 : 0.0438922941685, Q3 : -0.14076153934, Q4 : 0.299413412809}
2019-04-14 04:59:51.41: SIM {TimeUS : 59634470, Roll : -0.14, Pitch : -16.98, Yaw : 35.36, Alt : 49.2900009155, Lat : 49.2836821, Lng : -123.1149019, Q1 : 0.942376792431, Q2 : 0.0436654314399, Q3 : -0.141066715121, Q4 : 0.300199061632}
2019-04-14 04:59:51.51: SIM {TimeUS : 59734430, Roll : -0.16, Pitch : -17.01, Yaw : 35.41, Alt : 49.2900009155, Lat : 49.2836852, Lng : -123.1148986, Q1 : 0.942204594612, Q2 : 0.0436114184558, Q3 : -0.141334086657, Q4 : 0.300621271133}
2019-04-14 04:59:51.61: SIM {TimeUS : 59834390, Roll : -0.16, Pitch : -17.03, Yaw : 35.42, Alt : 49.2999992371, Lat : 49.2836883, Lng : -123.1148952, Q1 : 0.942144036293, Q2 : 0.0437126159668, Q3 : -0.141552001238, Q4 : 0.300693899393}
2019-04-14 04:59:51.71: SIM {TimeUS : 59934350, Roll : -0.13, Pitch : -17.07, Yaw : 35.39, Alt : 49.2999992371, Lat : 49.2836914, Lng : -123.1148918, Q1 : 0.94217467308, Q2 : 0.0439693704247, Q3 : -0.141757413745, Q4 : 0.300463616848}
2019-04-14 04:59:51.81: SIM {TimeUS : 60034310, Roll : -0.09, Pitch : -17.1, Yaw : 35.33, Alt : 49.2999992371, Lat : 49.2836947, Lng : -123.1148884, Q1 : 0.942281663418, Q2 : 0.0443158373237, Q3 : -0.14197614789, Q4 : 0.299973726273}
2019-04-14 04:59:51.91: SIM {TimeUS : 60134270, Roll : -0.06, Pitch : -17.14, Yaw : 35.24, Alt : 49.2999992371, Lat : 49.2836978, Lng : -123.114885, Q1 : 0.942449986935, Q2 : 0.0445778593421, Q3 : -0.142218738794, Q4 : 0.299290269613}
2019-04-14 04:59:52.01: SIM {TimeUS : 60234230, Roll : -0.03, Pitch : -17.15, Yaw : 35.14, Alt : 49.2999992371, Lat : 49.283701, Lng : -123.1148815, Q1 : 0.942668437958, Q2 : 0.0447635166347, Q3 : -0.142312526703, Q4 : 0.298529058695}
2019-04-14 04:59:52.11: SIM {TimeUS : 60334190, Roll : 0.0, Pitch : -17.17, Yaw : 35.05, Alt : 49.2999992371, Lat : 49.2837041, Lng : -123.114878, Q1 : 0.942887127399, Q2 : 0.0449086390436, Q3 : -0.142413839698, Q4 : 0.297767400742}
2019-04-14 04:59:52.21: SIM {TimeUS : 60434150, Roll : 0.02, Pitch : -17.2, Yaw : 34.96, Alt : 49.2999992371, Lat : 49.2837074, Lng : -123.1148746, Q1 : 0.943064689636, Q2 : 0.0451800376177, Q3 : -0.142588466406, Q4 : 0.297079622746}
2019-04-14 04:59:52.31: SIM {TimeUS : 60534110, Roll : 0.07, Pitch : -17.24, Yaw : 34.89, Alt : 49.2999992371, Lat : 49.2837106, Lng : -123.114871, Q1 : 0.943188846111, Q2 : 0.0455801896751, Q3 : -0.142784833908, Q4 : 0.296529561281}
2019-04-14 04:59:52.41: SIM {TimeUS : 60634070, Roll : 0.13, Pitch : -17.28, Yaw : 34.83, Alt : 49.2999992371, Lat : 49.2837138, Lng : -123.1148676, Q1 : 0.943256735802, Q2 : 0.0460796058178, Q3 : -0.143006682396, Q4 : 0.296129077673}
2019-04-14 04:59:52.51: SIM {TimeUS : 60734030, Roll : 0.18, Pitch : -17.33, Yaw : 34.8, Alt : 49.3100013733, Lat : 49.283717, Lng : -123.1148641, Q1 : 0.943270087242, Q2 : 0.0465966276824, Q3 : -0.143286421895, Q4 : 0.295870453119}
2019-04-14 04:59:52.62: SIM {TimeUS : 60834823, Roll : 0.21, Pitch : -17.36, Yaw : 34.78, Alt : 49.3100013733, Lat : 49.2837204, Lng : -123.1148605, Q1 : 0.943262338638, Q2 : 0.0468642152846, Q3 : -0.143555775285, Q4 : 0.295722365379}
2019-04-14 04:59:52.71: SIM {TimeUS : 60934783, Roll : 0.19, Pitch : -17.37, Yaw : 34.77, Alt : 49.3100013733, Lat : 49.2837236, Lng : -123.114857, Q1 : 0.943267822266, Q2 : 0.0467879138887, Q3 : -0.143665313721, Q4 : 0.295663684607}
2019-04-14 04:59:52.81: SIM {TimeUS : 61034743, Roll : 0.15, Pitch : -17.37, Yaw : 34.78, Alt : 49.3100013733, Lat : 49.283727, Lng : -123.1148534, Q1 : 0.943268597126, Q2 : 0.0464507341385, Q3 : -0.143774747849, Q4 : 0.295661211014}
2019-04-14 04:59:52.91: SIM {TimeUS : 61134703, Roll : 0.11, Pitch : -17.38, Yaw : 34.79, Alt : 49.3100013733, Lat : 49.2837302, Lng : -123.1148499, Q1 : 0.94324606657, Q2 : 0.0461453907192, Q3 : -0.143895283341, Q4 : 0.295722186565}
2019-04-14 04:59:53.01: SIM {TimeUS : 61234663, Roll : 0.09, Pitch : -17.39, Yaw : 34.81, Alt : 49.3100013733, Lat : 49.2837334, Lng : -123.1148463, Q1 : 0.943193674088, Q2 : 0.0459906123579, Q3 : -0.144091457129, Q4 : 0.29581797123}
2019-04-14 04:59:53.11: SIM {TimeUS : 61334623, Roll : 0.09, Pitch : -17.43, Yaw : 34.82, Alt : 49.3100013733, Lat : 49.2837369, Lng : -123.1148427, Q1 : 0.943109691143, Q2 : 0.046162750572, Q3 : -0.144332617521, Q4 : 0.295941233635}
2019-04-14 04:59:53.21: SIM {TimeUS : 61434583, Roll : 0.11, Pitch : -17.48, Yaw : 34.83, Alt : 49.3100013733, Lat : 49.2837401, Lng : -123.1148391, Q1 : 0.943012535572, Q2 : 0.0464721098542, Q3 : -0.144693642855, Q4 : 0.296026110649}
2019-04-14 04:59:53.31: SIM {TimeUS : 61534543, Roll : 0.12, Pitch : -17.51, Yaw : 34.83, Alt : 49.3100013733, Lat : 49.2837435, Lng : -123.1148355, Q1 : 0.942966461182, Q2 : 0.0466038770974, Q3 : -0.144938141108, Q4 : 0.29603266716}
2019-04-14 04:59:53.41: SIM {TimeUS : 61634503, Roll : 0.12, Pitch : -17.51, Yaw : 34.83, Alt : 49.3100013733, Lat : 49.2837467, Lng : -123.1148319, Q1 : 0.942982554436, Q2 : 0.0466057732701, Q3 : -0.144917979836, Q4 : 0.295990854502}
2019-04-14 04:59:53.51: SIM {TimeUS : 61734463, Roll : 0.12, Pitch : -17.51, Yaw : 34.82, Alt : 49.3199996948, Lat : 49.2837502, Lng : -123.1148283, Q1 : 0.943011105061, Q2 : 0.0465804710984, Q3 : -0.144975095987, Q4 : 0.295875966549}
2019-04-14 04:59:53.61: SIM {TimeUS : 61834423, Roll : 0.11, Pitch : -17.54, Yaw : 34.8, Alt : 49.3199996948, Lat : 49.2837534, Lng : -123.1148246, Q1 : 0.94302457571, Q2 : 0.0465583913028, Q3 : -0.145264029503, Q4 : 0.295694738626}
2019-04-14 04:59:53.71: SIM {TimeUS : 61934383, Roll : 0.11, Pitch : -17.57, Yaw : 34.78, Alt : 49.3199996948, Lat : 49.2837569, Lng : -123.114821, Q1 : 0.943039417267, Q2 : 0.0466040410101, Q3 : -0.145512714982, Q4 : 0.295517861843}
2019-04-14 04:59:53.81: SIM {TimeUS : 62034343, Roll : 0.11, Pitch : -17.6, Yaw : 34.75, Alt : 49.3199996948, Lat : 49.2837603, Lng : -123.1148174, Q1 : 0.943060994148, Q2 : 0.0466585680842, Q3 : -0.145730018616, Q4 : 0.295333236456}
2019-04-14 04:59:53.91: SIM {TimeUS : 62134303, Roll : 0.12, Pitch : -17.61, Yaw : 34.73, Alt : 49.3199996948, Lat : 49.2837636, Lng : -123.1148137, Q1 : 0.943098068237, Q2 : 0.0467443317175, Q3 : -0.14581745863, Q4 : 0.29515811801}
2019-04-14 04:59:54.01: SIM {TimeUS : 62234263, Roll : 0.14, Pitch : -17.62, Yaw : 34.71, Alt : 49.3199996948, Lat : 49.2837671, Lng : -123.11481, Q1 : 0.943134725094, Q2 : 0.046921223402, Q3 : -0.145879998803, Q4 : 0.294981986284}
2019-04-14 04:59:54.11: SIM {TimeUS : 62334223, Roll : 0.16, Pitch : -17.63, Yaw : 34.68, Alt : 49.3199996948, Lat : 49.2837703, Lng : -123.1148064, Q1 : 0.943185269833, Q2 : 0.0470727570355, Q3 : -0.145844206214, Q4 : 0.294813752174}
2019-04-14 04:59:54.21: SIM {TimeUS : 62434183, Roll : 0.19, Pitch : -17.63, Yaw : 34.66, Alt : 49.3199996948, Lat : 49.2837738, Lng : -123.1148027, Q1 : 0.943231344223, Q2 : 0.0472413115203, Q3 : -0.145815595984, Q4 : 0.294653475285}
2019-04-14 04:59:54.31: SIM {TimeUS : 62534143, Roll : 0.21, Pitch : -17.65, Yaw : 34.64, Alt : 49.3199996948, Lat : 49.2837772, Lng : -123.114799, Q1 : 0.943252325058, Q2 : 0.0474209189415, Q3 : -0.145928278565, Q4 : 0.294501632452}
2019-04-14 04:59:54.41: SIM {TimeUS : 62634103, Roll : 0.2, Pitch : -17.68, Yaw : 34.62, Alt : 49.3199996948, Lat : 49.2837807, Lng : -123.1147953, Q1 : 0.943246901035, Q2 : 0.0474888049066, Q3 : -0.146250769496, Q4 : 0.294348210096}
2019-04-14 04:59:54.51: SIM {TimeUS : 62734063, Roll : 0.18, Pitch : -17.73, Yaw : 34.61, Alt : 49.3199996948, Lat : 49.2837841, Lng : -123.1147916, Q1 : 0.943234860897, Q2 : 0.0473963394761, Q3 : -0.146673470736, Q4 : 0.294191390276}
2019-04-14 04:59:54.61: SIM {TimeUS : 62834023, Roll : 0.16, Pitch : -17.77, Yaw : 34.6, Alt : 49.3199996948, Lat : 49.2837874, Lng : -123.1147879, Q1 : 0.943215310574, Q2 : 0.0473062060773, Q3 : -0.147103473544, Q4 : 0.294053763151}
2019-04-14 04:59:54.71: SIM {TimeUS : 62934816, Roll : 0.16, Pitch : -17.8, Yaw : 34.59, Alt : 49.3199996948, Lat : 49.283791, Lng : -123.1147842, Q1 : 0.94319665432, Q2 : 0.047390114516, Q3 : -0.147363334894, Q4 : 0.293969869614}
2019-04-14 04:59:54.81: SIM {TimeUS : 63034776, Roll : 0.18, Pitch : -17.81, Yaw : 34.58, Alt : 49.3199996948, Lat : 49.2837944, Lng : -123.1147805, Q1 : 0.943204820156, Q2 : 0.0475140810013, Q3 : -0.147387474775, Q4 : 0.293911576271}
2019-04-14 04:59:54.91: SIM {TimeUS : 63134736, Roll : 0.19, Pitch : -17.79, Yaw : 34.57, Alt : 49.3300018311, Lat : 49.2837978, Lng : -123.1147768, Q1 : 0.943253159523, Q2 : 0.0475709177554, Q3 : -0.147151052952, Q4 : 0.29386562109}
2019-04-14 04:59:55.01: SIM {TimeUS : 63234696, Roll : 0.19, Pitch : -17.77, Yaw : 34.57, Alt : 49.3300018311, Lat : 49.2838013, Lng : -123.114773, Q1 : 0.94329982996, Q2 : 0.0474817827344, Q3 : -0.146996811032, Q4 : 0.293807506561}
2019-04-14 04:59:55.11: SIM {TimeUS : 63334656, Roll : 0.18, Pitch : -17.76, Yaw : 34.56, Alt : 49.3300018311, Lat : 49.2838048, Lng : -123.1147693, Q1 : 0.943335056305, Q2 : 0.0473755672574, Q3 : -0.146935105324, Q4 : 0.293742418289}
2019-04-14 04:59:55.21: SIM {TimeUS : 63434616, Roll : 0.18, Pitch : -17.75, Yaw : 34.55, Alt : 49.3300018311, Lat : 49.2838081, Lng : -123.1147655, Q1 : 0.943363010883, Q2 : 0.0473289564252, Q3 : -0.14690181613, Q4 : 0.293676823378}
2019-04-14 04:59:55.31: SIM {TimeUS : 63534576, Roll : 0.17, Pitch : -17.77, Yaw : 34.54, Alt : 49.3300018311, Lat : 49.2838117, Lng : -123.1147618, Q1 : 0.943367898464, Q2 : 0.047325566411, Q3 : -0.147037774324, Q4 : 0.293593615294}
2019-04-14 04:59:55.41: SIM {TimeUS : 63634536, Roll : 0.17, Pitch : -17.79, Yaw : 34.53, Alt : 49.3300018311, Lat : 49.2838152, Lng : -123.114758, Q1 : 0.943363130093, Q2 : 0.0473875589669, Q3 : -0.147218033671, Q4 : 0.293508797884}
2019-04-14 04:59:55.51: SIM {TimeUS : 63734496, Roll : 0.17, Pitch : -17.83, Yaw : 34.52, Alt : 49.3300018311, Lat : 49.2838187, Lng : -123.1147543, Q1 : 0.943343758583, Q2 : 0.0474217645824, Q3 : -0.147543489933, Q4 : 0.293401867151}
2019-04-14 04:59:55.61: SIM {TimeUS : 63834456, Roll : 0.17, Pitch : -17.87, Yaw : 34.51, Alt : 49.3300018311, Lat : 49.2838221, Lng : -123.1147505, Q1 : 0.943313121796, Q2 : 0.0474969930947, Q3 : -0.147942259908, Q4 : 0.293287485838}
2019-04-14 04:59:55.71: SIM {TimeUS : 63934416, Roll : 0.17, Pitch : -17.91, Yaw : 34.5, Alt : 49.3300018311, Lat : 49.2838256, Lng : -123.1147467, Q1 : 0.943292379379, Q2 : 0.0476070344448, Q3 : -0.148246854544, Q4 : 0.293182432652}
2019-04-14 04:59:55.81: SIM {TimeUS : 64034376, Roll : 0.16, Pitch : -17.94, Yaw : 34.49, Alt : 49.3300018311, Lat : 49.2838291, Lng : -123.114743, Q1 : 0.943285763264, Q2 : 0.0476154051721, Q3 : -0.148531109095, Q4 : 0.29305845499}
2019-04-14 04:59:55.91: SIM {TimeUS : 64134336, Roll : 0.15, Pitch : -17.96, Yaw : 34.47, Alt : 49.3300018311, Lat : 49.2838325, Lng : -123.1147392, Q1 : 0.943296670914, Q2 : 0.0475790165365, Q3 : -0.148712411523, Q4 : 0.29293730855}
2019-04-14 04:59:56.01: SIM {TimeUS : 64234296, Roll : 0.17, Pitch : -17.95, Yaw : 34.46, Alt : 49.3300018311, Lat : 49.283836, Lng : -123.1147354, Q1 : 0.943335413933, Q2 : 0.0476718433201, Q3 : -0.148600742221, Q4 : 0.292854130268}
2019-04-14 04:59:56.11: SIM {TimeUS : 64334256, Roll : 0.2, Pitch : -17.95, Yaw : 34.45, Alt : 49.3300018311, Lat : 49.2838396, Lng : -123.1147316, Q1 : 0.943353712559, Q2 : 0.047878921032, Q3 : -0.148563563824, Q4 : 0.292780339718}
2019-04-14 04:59:56.21: SIM {TimeUS : 64434216, Roll : 0.21, Pitch : -17.97, Yaw : 34.43, Alt : 49.3300018311, Lat : 49.2838432, Lng : -123.1147278, Q1 : 0.943362116814, Q2 : 0.0480010993779, Q3 : -0.148659318686, Q4 : 0.292684644461}
2019-04-14 04:59:56.31: SIM {TimeUS : 64534176, Roll : 0.22, Pitch : -17.98, Yaw : 34.42, Alt : 49.3300018311, Lat : 49.2838467, Lng : -123.114724, Q1 : 0.943377614021, Q2 : 0.0480824522674, Q3 : -0.148719191551, Q4 : 0.29259082675}
2019-04-14 04:59:56.41: SIM {TimeUS : 64634136, Roll : 0.22, Pitch : -17.97, Yaw : 34.41, Alt : 49.3400001526, Lat : 49.2838501, Lng : -123.1147202, Q1 : 0.943410754204, Q2 : 0.048104967922, Q3 : -0.148662745953, Q4 : 0.29250895977}
2019-04-14 04:59:56.51: SIM {TimeUS : 64734096, Roll : 0.22, Pitch : -17.97, Yaw : 34.4, Alt : 49.3400001526, Lat : 49.2838536, Lng : -123.1147164, Q1 : 0.943446695805, Q2 : 0.0480578243732, Q3 : -0.148616299033, Q4 : 0.292424350977}
2019-04-14 04:59:56.61: SIM {TimeUS : 64834056, Roll : 0.2, Pitch : -17.98, Yaw : 34.39, Alt : 49.3400001526, Lat : 49.2838572, Lng : -123.1147126, Q1 : 0.943461298943, Q2 : 0.0479069985449, Q3 : -0.148793652654, Q4 : 0.29231184721}
2019-04-14 04:59:56.72: SIM {TimeUS : 64934849, Roll : 0.17, Pitch : -18.01, Yaw : 34.38, Alt : 49.3400001526, Lat : 49.2838608, Lng : -123.1147088, Q1 : 0.94345664978, Q2 : 0.0477342382073, Q3 : -0.149126812816, Q4 : 0.292185157537}
2019-04-14 04:59:56.81: SIM {TimeUS : 65034809, Roll : 0.16, Pitch : -18.01, Yaw : 34.37, Alt : 49.3400001526, Lat : 49.2838643, Lng : -123.114705, Q1 : 0.943478643894, Q2 : 0.0476295612752, Q3 : -0.149192482233, Q4 : 0.292097687721}
2019-04-14 04:59:56.91: SIM {TimeUS : 65134769, Roll : 0.17, Pitch : -18.0, Yaw : 34.37, Alt : 49.3400001526, Lat : 49.2838679, Lng : -123.1147012, Q1 : 0.94351285696, Q2 : 0.0476562976837, Q3 : -0.149067521095, Q4 : 0.292046636343}
2019-04-14 04:59:57.01: SIM {TimeUS : 65234729, Roll : 0.18, Pitch : -17.99, Yaw : 34.36, Alt : 49.3400001526, Lat : 49.2838713, Lng : -123.1146973, Q1 : 0.943539500237, Q2 : 0.0477638468146, Q3 : -0.148948967457, Q4 : 0.292003601789}
2019-04-14 04:59:57.11: SIM {TimeUS : 65334689, Roll : 0.19, Pitch : -18.0, Yaw : 34.35, Alt : 49.3400001526, Lat : 49.2838749, Lng : -123.1146935, Q1 : 0.943547308445, Q2 : 0.0478399768472, Q3 : -0.149022147059, Q4 : 0.291928470135}
2019-04-14 04:59:57.21: SIM {TimeUS : 65434649, Roll : 0.18, Pitch : -18.02, Yaw : 34.34, Alt : 49.3400001526, Lat : 49.2838785, Lng : -123.1146897, Q1 : 0.943550467491, Q2 : 0.0477733835578, Q3 : -0.149224638939, Q4 : 0.29182562232}
2019-04-14 04:59:57.31: SIM {TimeUS : 65534609, Roll : 0.16, Pitch : -18.05, Yaw : 34.33, Alt : 49.3400001526, Lat : 49.2838821, Lng : -123.1146859, Q1 : 0.943550765514, Q2 : 0.0476273745298, Q3 : -0.149488940835, Q4 : 0.291713327169}
2019-04-14 04:59:57.41: SIM {TimeUS : 65634569, Roll : 0.15, Pitch : -18.07, Yaw : 34.32, Alt : 49.3400001526, Lat : 49.2838856, Lng : -123.1146819, Q1 : 0.94355225563, Q2 : 0.0475888624787, Q3 : -0.149682104588, Q4 : 0.291615694761}
2019-04-14 04:59:57.51: SIM {TimeUS : 65734529, Roll : 0.15, Pitch : -18.09, Yaw : 34.31, Alt : 49.3400001526, Lat : 49.2838892, Lng : -123.1146782, Q1 : 0.943549692631, Q2 : 0.0476775206625, Q3 : -0.14983586967, Q4 : 0.291530579329}
2019-04-14 04:59:57.61: SIM {TimeUS : 65834489, Roll : 0.16, Pitch : -18.11, Yaw : 34.3, Alt : 49.3400001526, Lat : 49.2838927, Lng : -123.1146744, Q1 : 0.943545877934, Q2 : 0.0478125102818, Q3 : -0.149959698319, Q4 : 0.291457027197}
