2019-04-14 04:54:37.40: SIM {TimeUS : 40816167, Roll : 0.0, Pitch : 0.0, Yaw : 0.0, Alt : 30.1000003815, Lat : 49.28357, Lng : -123.11502, Q1 : 1.0, Q2 : 0.0, Q3 : 0.0, Q4 : 0.0}
2019-04-14 04:54:37.51: SIM {TimeUS : 40935286, Roll : 0.0, Pitch : 0.0, Yaw : 0.0, Alt : 30.1000003815, Lat : 49.28357, Lng : -123.11502, Q1 : 1.0, Q2 : 0.0, Q3 : 0.0, Q4 : 0.0}
2019-04-14 04:54:37.61: SIM {TimeUS : 41035246, Roll : 0.0, Pitch : 0.0, Yaw : 0.0, Alt : 30.1000003815, Lat : 49.28357, Lng : -123.11502, Q1 : 1.0, Q2 : 0.0, Q3 : 0.0, Q4 : 0.0}
2019-04-14 04:54:37.71: SIM {TimeUS : 41135206, Roll : 0.0, Pitch : 0.0, Yaw : 0.0, Alt : 30.1000003815, Lat : 49.28357, Lng : -123.11502, Q1 : 1.0, Q2 : 0.0, Q3 : 0.0, Q4 : 0.0}
2019-04-14 04:54:37.81: SIM {TimeUS : 41235166, Roll : 0.0, Pitch : 0.0, Yaw : 0.0, Alt : 30.1000003815, Lat : 49.28357, Lng : -123.11502, Q1 : 1.0, Q2 : 0.0, Q3 : 0.0, Q4 : 0.0}
2019-04-14 04:54:37.91: SIM {TimeUS : 41335126, Roll : 0.0, Pitch : 0.0, Yaw : 0.0, Alt : 30.1000003815, Lat : 49.28357, Lng : -123.11502, Q1 : 1.0, Q2 : 0.0, Q3 : 0.0, Q4 : 0.0}
2019-04-14 04:54:38.01: SIM {TimeUS : 41435086, Roll : 0.0, Pitch : 0.0, Yaw : 0.0, Alt : 30.1000003815, Lat : 49.28357, Lng : -123.11502, Q1 : 1.0, Q2 : 0.0, Q3 : 0.0, Q4 : 0.0}
2019-04-14 04:54:38.11: SIM {TimeUS : 41535046, Roll : 0.0, Pitch : 0.0, Yaw : 0.0, Alt : 30.1000003815, Lat : 49.28357, Lng : -123.11502, Q1 : 1.0, Q2 : 0.0, Q3 : 0.0, Q4 : 0.0}
2019-04-14 04:54:38.21: SIM {TimeUS : 41635006, Roll : 0.0, Pitch : 0.0, Yaw : 0.0, Alt : 30.1000003815, Lat : 49.28357, Lng : -123.11502, Q1 : 1.0, Q2 : 0.0, Q3 : 0.0, Q4 : 0.0}
2019-04-14 04:54:38.31: SIM {TimeUS : 41734966, Roll : 0.0, Pitch : 0.0, Yaw : 0.0, Alt : 30.1000003815, Lat : 49.28357, Lng : -123.11502, Q1 : 1.0, Q2 : 0.0, Q3 : 0.0, Q4 : 0.0}
2019-04-14 04:54:38.41: SIM {TimeUS : 41834926, Roll : 0.0, Pitch : 0.0, Yaw : 0.0, Alt : 30.1000003815, Lat : 49.28357, Lng : -123.11502, Q1 : 1.0, Q2 : 0.0, Q3 : 0.0, Q4 : 0.0}
2019-04-14 04:54:38.51: SIM {TimeUS : 41934886, Roll : 0.0, Pitch : 0.0, Yaw : 0.0, Alt : 30.1000003815, Lat : 49.28357, Lng : -123.11502, Q1 : 1.0, Q2 : 0.0, Q3 : 0.0, Q4 : 0.0}
2019-04-14 04:54:38.61: SIM {TimeUS : 42034846, Roll : 0.0, Pitch : 0.0, Yaw : 0.0, Alt : 30.1000003815, Lat : 49.28357, Lng : -123.11502, Q1 : 1.0, Q2 : 0.0, Q3 : 0.0, Q4 : 0.0}
2019-04-14 04:54:38.71: SIM {TimeUS : 42134806, Roll : 0.0, Pitch : 0.0, Yaw : 0.0, Alt : 30.1000003815, Lat : 49.28357, Lng : -123.11502, Q1 : 1.0, Q2 : 0.0, Q3 : 0.0, Q4 : 0.0}
2019-04-14 04:54:38.81: SIM {TimeUS : 42234766, Roll : 0.0, Pitch : 0.0, Yaw : 0.0, Alt : 30.1000003815, Lat : 49.28357, Lng : -123.11502, Q1 : 1.0, Q2 : 0.0, Q3 : 0.0, Q4 : 0.0}
2019-04-14 04:54:38.91: SIM {TimeUS : 42334726, Roll : 0.0, Pitch : 0.0, Yaw : 0.0, Alt : 30.1000003815, Lat : 49.28357, Lng : -123.11502, Q1 : 1.0, Q2 : 0.0, Q3 : 0.0, Q4 : 0.0}
2019-04-14 04:54:39.01: SIM {TimeUS : 42434686, Roll : 0.0, Pitch : 0.0, Yaw : 0.0, Alt : 30.1000003815, Lat : 49.28357, Lng : -123.11502, Q1 : 1.0, Q2 : 0.0, Q3 : 0.0, Q4 : 0.0}
2019-04-14 04:54:39.11: SIM {TimeUS : 42534646, Roll : 0.0, Pitch : 0.0, Yaw : 0.0, Alt : 30.1000003815, Lat : 49.28357, Lng : -123.11502, Q1 : 1.0, Q2 : 0.0, Q3 : 0.0, Q4 : 0.0}
2019-04-14 04:54:39.21: SIM {TimeUS : 42634606, Roll : 0.0, Pitch : 0.0, Yaw : 0.0, Alt : 30.1000003815, Lat : 49.28357, Lng : -123.11502, Q1 : 1.0, Q2 : 0.0, Q3 : 0.0, Q4 : 0.0}
2019-04-14 04:54:39.31: SIM {TimeUS : 42734566, Roll : 0.0, Pitch : 0.0, Yaw : 0.0, Alt : 30.1000003815, Lat : 49.28357, Lng : -123.11502, Q1 : 1.0, Q2 : 0.0, Q3 : 0.0, Q4 : 0.0}
2019-04-14 04:54:39.41: SIM {TimeUS : 42834526, Roll : 0.0, Pitch : 0.0, Yaw : 0.0, Alt : 30.1000003815, Lat : 49.28357, Lng : -123.11502, Q1 : 1.0, Q2 : 0.0, Q3 : 0.0, Q4 : 0.0}
2019-04-14 04:54:39.51: SIM {TimeUS : 42935319, Roll : 0.0, Pitch : 0.0, Yaw : 0.0, Alt : 30.1000003815, Lat : 49.28357, Lng : -123.11502, Q1 : 1.0, Q2 : 0.0, Q3 : 0.0, Q4 : 0.0}
2019-04-14 04:54:39.61: SIM {TimeUS : 43035279, Roll : 0.0, Pitch : 0.0, Yaw : 0.0, Alt : 30.1000003815, Lat : 49.28357, Lng : -123.11502, Q1 : 1.0, Q2 : 0.0, Q3 : 0.0, Q4 : 0.0}
2019-04-14 04:54:39.71: SIM {TimeUS : 43135239, Roll : 0.0, Pitch : 0.0, Yaw : 360.0, Alt : 30.1000003815, Lat : 49.28357, Lng : -123.11502, Q1 : 1.0, Q2 : 0.0, Q3 : 0.0, Q4 : -1.30378364355e-11}
2019-04-14 04:54:39.81: SIM {TimeUS : 43235199, Roll : 0.0, Pitch : 0.0, Yaw : 360.0, Alt : 30.1000003815, Lat : 49.28357, Lng : -123.11502, Q1 : 1.0, Q2 : 0.0, Q3 : 0.0, Q4 : -1.61347042393e-08}
2019-04-14 04:54:39.91: SIM {TimeUS : 43335159, Roll : 0.0, Pitch : 0.0, Yaw : 359.99, Alt : 30.1000003815, Lat : 49.28357, Lng : -123.11502, Q1 : 1.0, Q2 : 0.0, Q3 : 0.0, Q4 : -2.17456857854e-07}
2019-04-14 04:54:40.01: SIM {TimeUS : 43435119, Roll : 0.0, Pitch : 0.0, Yaw : 359.99, Alt : 30.1000003815, Lat : 49.28357, Lng : -123.11502, Q1 : 1.0, Q2 : 0.0, Q3 : 0.0, Q4 : -4.08245227845e-07}
2019-04-14 04:54:40.11: SIM {TimeUS : 43535079, Roll : 0.0, Pitch : 0.0, Yaw : 359.99, Alt : 30.1000003815, Lat : 49.28357, Lng : -123.11502, Q1 : 1.0, Q2 : 0.0, Q3 : 0.0, Q4 : -6.20802381945e-07}
2019-04-14 04:54:40.21: SIM {TimeUS : 43635039, Roll : 0.0, Pitch : 0.0, Yaw : 359.99, Alt : 30.1000003815, Lat : 49.28357, Lng : -123.11502, Q1 : 1.0, Q2 : 0.0, Q3 : 0.0, Q4 : -8.22876188522e-07}
2019-04-14 04:54:40.31: SIM {TimeUS : 43734999, Roll : 0.0, Pitch : 0.0, Yaw : 359.99, Alt : 30.1000003815, Lat : 49.28357, Lng : -123.11502, Q1 : 1.0, Q2 : 0.0, Q3 : 0.0, Q4 : -9.95500158751e-07}
2019-04-14 04:54:40.41: SIM {TimeUS : 43834959, Roll : 0.0, Pitch : 0.0, Yaw : 359.99, Alt : 30.1000003815, Lat : 49.28357, Lng : -123.11502, Q1 : 1.0, Q2 : 0.0, Q3 : 0.0, Q4 : -1.17972990665e-06}
2019-04-14 04:54:40.51: SIM {TimeUS : 43934919, Roll : 0.0, Pitch : 0.0, Yaw : 359.99, Alt : 30.1000003815, Lat : 49.28357, Lng : -123.11502, Q1 : 1.0, Q2 : 0.0, Q3 : 0.0, Q4 : -1.3805429262e-06}
2019-04-14 04:54:40.61: SIM {TimeUS : 44034879, Roll : 0.0, Pitch : 0.0, Yaw : 359.99, Alt : 30.1200008392, Lat : 49.28357, Lng : -123.11502, Q1 : 1.0, Q2 : 0.0, Q3 : 0.0, Q4 : -1.55610359798e-06}
2019-04-14 04:54:40.71: SIM {TimeUS : 44134839, Roll : 0.0, Pitch : 0.0, Yaw : 359.99, Alt : 30.1499996185, Lat : 49.28357, Lng : -123.11502, Q1 : 1.0, Q2 : 0.0, Q3 : 0.0, Q4 : -1.81880204764e-06}
2019-04-14 04:54:40.81: SIM {TimeUS : 44234799, Roll : 0.0, Pitch : 0.0, Yaw : 359.99, Alt : 30.1800003052, Lat : 49.28357, Lng : -123.11502, Q1 : 1.0, Q2 : 0.0, Q3 : 0.0, Q4 : -2.06184176932e-06}
2019-04-14 04:54:40.91: SIM {TimeUS : 44334759, Roll : 0.0, Pitch : 0.0, Yaw : 359.99, Alt : 30.2099990845, Lat : 49.28357, Lng : -123.11502, Q1 : 1.0, Q2 : -7.32536864234e-06, Q3 : -7.5440798355e-06, Q4 : -2.18642730943e-06}
2019-04-14 04:54:41.01: SIM {TimeUS : 44434719, Roll : -0.16, Pitch : -0.16, Yaw : 359.99, Alt : 30.2700004578, Lat : 49.28357, Lng : -123.11502, Q1 : 0.999998033047, Q2 : -0.00141816399992, Q3 : -0.00140721607022, Q4 : -1.70366056409e-05}
2019-04-14 04:54:41.11: SIM {TimeUS : 44534679, Roll : -0.47, Pitch : -0.41, Yaw : 359.99, Alt : 30.3899993896, Lat : 49.28357, Lng : -123.11502, Q1 : 0.99998497963, Q2 : -0.00414405949414, Q3 : -0.00358851370402, Q4 : -6.15807148279e-05}
2019-04-14 04:54:41.21: SIM {TimeUS : 44634639, Roll : -0.76, Pitch : -0.6, Yaw : 359.98, Alt : 30.5400009155, Lat : 49.28357, Lng : -123.11502, Q1 : 0.999963998795, Q2 : -0.00665355753154, Q3 : -0.00526213133708, Q4 : -0.000126299506519}
2019-04-14 04:54:41.31: SIM {TimeUS : 44734599, Roll : -0.88, Pitch : -0.68, Yaw : 359.98, Alt : 30.7000007629, Lat : 49.28357, Lng : -123.11502, Q1 : 0.999951839447, Q2 : -0.00776489730924, Q3 : -0.00599567685276, Q4 : -0.000203363757464}
2019-04-14 04:54:41.41: SIM {TimeUS : 44834559, Roll : -0.83, Pitch : -0.65, Yaw : 359.97, Alt : 30.8500003815, Lat : 49.28357, Lng : -123.11502, Q1 : 0.999957203865, Q2 : -0.00726203294471, Q3 : -0.00572445150465, Q4 : -0.000286050431896}
2019-04-14 04:54:41.51: SIM {TimeUS : 44934519, Roll : -0.64, Pitch : -0.53, Yaw : 359.96, Alt : 31.0100002289, Lat : 49.28357, Lng : -123.1150201, Q1 : 0.999973356724, Q2 : -0.0056023048237, Q3 : -0.00466762250289, Q4 : -0.00036048021866}
2019-04-14 04:54:41.61: SIM {TimeUS : 45035312, Roll : -0.38, Pitch : -0.36, Yaw : 359.95, Alt : 31.1599998474, Lat : 49.2835701, Lng : -123.1150202, Q1 : 0.999989151955, Q2 : -0.00337982247584, Q3 : -0.00318261329085, Q4 : -0.00042024202412}
2019-04-14 04:54:41.71: SIM {TimeUS : 45135272, Roll : -0.14, Pitch : -0.19, Yaw : 359.94, Alt : 31.3299999237, Lat : 49.2835701, Lng : -123.1150203, Q1 : 0.999997675419, Q2 : -0.00129770499188, Q3 : -0.00167582964059, Q4 : -0.000465475808596}
2019-04-14 04:54:41.81: SIM {TimeUS : 45235232, Roll : 0.01, Pitch : -0.04, Yaw : 359.94, Alt : 31.5, Lat : 49.2835702, Lng : -123.1150203, Q1 : 0.999999761581, Q2 : 0.000127206731122, Q3 : -0.000381978199584, Q4 : -0.000497546046972}
2019-04-14 04:54:41.91: SIM {TimeUS : 45335192, Roll : 0.08, Pitch : 0.06, Yaw : 359.94, Alt : 31.6700000763, Lat : 49.2835702, Lng : -123.1150204, Q1 : 0.999999463558, Q2 : 0.000750593375415, Q3 : 0.000524264352862, Q4 : -0.0005176893319}
2019-04-14 04:54:42.01: SIM {TimeUS : 45435152, Roll : 0.07, Pitch : 0.11, Yaw : 359.93, Alt : 31.8500003815, Lat : 49.2835703, Lng : -123.1150205, Q1 : 0.99999910593, Q2 : 0.0006699685473, Q3 : 0.000998934963718, Q4 : -0.000525761279278}
2019-04-14 04:54:42.11: SIM {TimeUS : 45535112, Roll : 0.05, Pitch : 0.13, Yaw : 359.93, Alt : 32.0400009155, Lat : 49.2835703, Lng : -123.1150205, Q1 : 0.999998986721, Q2 : 0.000475239154184, Q3 : 0.00121361983474, Q4 : -0.000536414969247}
2019-04-14 04:54:42.21: SIM {TimeUS : 45635072, Roll : 0.04, Pitch : 0.14, Yaw : 359.93, Alt : 32.2200012207, Lat : 49.2835703, Lng : -123.1150206, Q1 : 0.999998986721, Q2 : 0.0003793532087, Q3 : 0.00125425925944, Q4 : -0.000538559688721}
2019-04-14 04:54:42.31: SIM {TimeUS : 45735032, Roll : 0.03, Pitch : 0.14, Yaw : 359.93, Alt : 32.4199981689, Lat : 49.2835703, Lng : -123.1150206, Q1 : 0.999998986721, Q2 : 0.00033989030635, Q3 : 0.00127321935724, Q4 : -0.000536279694643}
2019-04-14 04:54:42.41: SIM {TimeUS : 45834992, Roll : 0.05, Pitch : 0.16, Yaw : 359.94, Alt : 32.6100006104, Lat : 49.2835703, Lng : -123.1150207, Q1 : 0.999998748302, Q2 : 0.000483533745864, Q3 : 0.0014021913521, Q4 : -0.000521404086612}
2019-04-14 04:54:42.51: SIM {TimeUS : 45934952, Roll : 0.08, Pitch : 0.14, Yaw : 359.94, Alt : 32.8100013733, Lat : 49.2835703, Lng : -123.1150207, Q1 : 0.999998748302, Q2 : 0.00075923698023, Q3 : 0.00130118918605, Q4 : -0.000504316936713}
2019-04-14 04:54:42.61: SIM {TimeUS : 46034912, Roll : 0.12, Pitch : 0.12, Yaw : 359.94, Alt : 33.0099983215, Lat : 49.2835704, Lng : -123.1150207, Q1 : 0.999998748302, Q2 : 0.00108168879524, Q3 : 0.00105502293445, Q4 : -0.000487060373416}
2019-04-14 04:54:42.71: SIM {TimeUS : 46134872, Roll : 0.15, Pitch : 0.1, Yaw : 359.94, Alt : 33.2099990845, Lat : 49.2835704, Lng : -123.1150208, Q1 : 0.999998509884, Q2 : 0.0013765366748, Q3 : 0.000906358996872, Q4 : -0.000472724728752}
2019-04-14 04:54:42.81: SIM {TimeUS : 46234832, Roll : 0.18, Pitch : 0.1, Yaw : 359.94, Alt : 33.4099998474, Lat : 49.2835704, Lng : -123.1150208, Q1 : 0.999998271465, Q2 : 0.00157311290968, Q3 : 0.000896878365893, Q4 : -0.000456433888758}
2019-04-14 04:54:42.91: SIM {TimeUS : 46334792, Roll : 0.19, Pitch : 0.11, Yaw : 359.95, Alt : 33.6199989319, Lat : 49.2835704, Lng : -123.1150208, Q1 : 0.999997973442, Q2 : 0.00169236736838, Q3 : 0.00103347469121, Q4 : -0.000437073176727}
2019-04-14 04:54:43.01: SIM {TimeUS : 46434752, Roll : 0.18, Pitch : 0.12, Yaw : 359.95, Alt : 33.8300018311, Lat : 49.2835704, Lng : -123.1150208, Q1 : 0.999997973442, Q2 : 0.0016318942653, Q3 : 0.00109447108116, Q4 : -0.000425377977081}
2019-04-14 04:54:43.11: SIM {TimeUS : 46534712, Roll : 0.16, Pitch : 0.12, Yaw : 359.95, Alt : 34.0400009155, Lat : 49.2835704, Lng : -123.1150208, Q1 : 0.999998271465, Q2 : 0.00142554275226, Q3 : 0.00110635953024, Q4 : -0.000414594338508}
2019-04-14 04:54:43.21: SIM {TimeUS : 46634672, Roll : 0.13, Pitch : 0.12, Yaw : 359.95, Alt : 34.25, Lat : 49.2835704, Lng : -123.1150208, Q1 : 0.999998569489, Q2 : 0.00115734443534, Q3 : 0.00113005121239, Q4 : -0.000412500812672}
2019-04-14 04:54:43.31: SIM {TimeUS : 46734632, Roll : 0.1, Pitch : 0.12, Yaw : 359.95, Alt : 34.4599990845, Lat : 49.2835704, Lng : -123.1150208, Q1 : 0.999998927116, Q2 : 0.000910724105779, Q3 : 0.00110051175579, Q4 : -0.00041611524648}
2019-04-14 04:54:43.41: SIM {TimeUS : 46834592, Roll : 0.09, Pitch : 0.08, Yaw : 359.94, Alt : 34.6699981689, Lat : 49.2835704, Lng : -123.1150208, Q1 : 0.999999284744, Q2 : 0.000799596717115, Q3 : 0.000771989638451, Q4 : -0.000441013864474}
2019-04-14 04:54:43.51: SIM {TimeUS : 46934552, Roll : 0.08, Pitch : 0.05, Yaw : 359.94, Alt : 34.8899993896, Lat : 49.2835704, Lng : -123.1150208, Q1 : 0.999999523163, Q2 : 0.000752446008846, Q3 : 0.00044759051525, Q4 : -0.000485760363517}
2019-04-14 04:54:43.61: SIM {TimeUS : 47034512, Roll : 0.06, Pitch : 0.02, Yaw : 359.93, Alt : 35.0999984741, Lat : 49.2835704, Lng : -123.1150208, Q1 : 0.999999642372, Q2 : 0.000605899840593, Q3 : 0.000235105850152, Q4 : -0.000532762496732}
2019-04-14 04:54:43.71: SIM {TimeUS : 47135305, Roll : 0.05, Pitch : 0.02, Yaw : 359.93, Alt : 35.3199996948, Lat : 49.2835704, Lng : -123.1150207, Q1 : 0.999999701977, Q2 : 0.000485888449475, Q3 : 0.000175968321855, Q4 : -0.000577304745093}
2019-04-14 04:54:43.81: SIM {TimeUS : 47235265, Roll : 0.05, Pitch : 0.01, Yaw : 359.92, Alt : 35.5400009155, Lat : 49.2835704, Lng : -123.1150207, Q1 : 0.999999701977, Q2 : 0.000447238475317, Q3 : 0.000164086159202, Q4 : -0.000616478617303}
2019-04-14 04:54:43.91: SIM {TimeUS : 47335225, Roll : 0.02, Pitch : 0.0, Yaw : 359.92, Alt : 35.7599983215, Lat : 49.2835704, Lng : -123.1150207, Q1 : 0.999999761581, Q2 : 0.00024913623929, Q3 : -1.4972722056e-05, Q4 : -0.000656179676298}
2019-04-14 04:54:44.01: SIM {TimeUS : 47435185, Roll : 0.0, Pitch : -0.03, Yaw : 359.92, Alt : 35.9799995422, Lat : 49.2835704, Lng : -123.1150207, Q1 : 0.999999701977, Q2 : -5.49714422959e-05, Q3 : -0.000305413530441, Q4 : -0.000692384899594}
2019-04-14 04:54:44.11: SIM {TimeUS : 47535145, Roll : -0.04, Pitch : -0.05, Yaw : 359.91, Alt : 36.2000007629, Lat : 49.2835704, Lng : -123.1150207, Q1 : 0.999999523163, Q2 : -0.000383018283173, Q3 : -0.000515223713592, Q4 : -0.000728245533537}
2019-04-14 04:54:44.21: SIM {TimeUS : 47635105, Roll : -0.07, Pitch : -0.07, Yaw : 359.91, Alt : 36.4199981689, Lat : 49.2835704, Lng : -123.1150207, Q1 : 0.999999284744, Q2 : -0.000660251243971, Q3 : -0.00062854657881, Q4 : -0.000760629714932}
2019-04-14 04:54:44.31: SIM {TimeUS : 47735065, Roll : -0.08, Pitch : -0.07, Yaw : 359.91, Alt : 36.6399993896, Lat : 49.2835704, Lng : -123.1150206, Q1 : 0.99999922514, Q2 : -0.000701930432115, Q3 : -0.000617557321675, Q4 : -0.000784593285061}
2019-04-14 04:54:44.41: SIM {TimeUS : 47835025, Roll : -0.08, Pitch : -0.06, Yaw : 359.9, Alt : 36.8699989319, Lat : 49.2835704, Lng : -123.1150206, Q1 : 0.999999284744, Q2 : -0.000698796880897, Q3 : -0.000586623151321, Q4 : -0.000805229006801}
2019-04-14 04:54:44.51: SIM {TimeUS : 47934985, Roll : -0.07, Pitch : -0.05, Yaw : 359.9, Alt : 37.0900001526, Lat : 49.2835704, Lng : -123.1150206, Q1 : 0.999999344349, Q2 : -0.000647710228804, Q3 : -0.000461999617983, Q4 : -0.000820631510578}
2019-04-14 04:54:44.61: SIM {TimeUS : 48034945, Roll : -0.06, Pitch : -0.04, Yaw : 359.9, Alt : 37.3199996948, Lat : 49.2835704, Lng : -123.1150206, Q1 : 0.999999403954, Q2 : -0.000566108035855, Q3 : -0.000391007604776, Q4 : -0.000827210547868}
2019-04-14 04:54:44.71: SIM {TimeUS : 48134905, Roll : -0.07, Pitch : -0.04, Yaw : 359.9, Alt : 37.5400009155, Lat : 49.2835704, Lng : -123.1150206, Q1 : 0.999999344349, Q2 : -0.000629302870948, Q3 : -0.000405904458603, Q4 : -0.000835632730741}
2019-04-14 04:54:44.81: SIM {TimeUS : 48234865, Roll : -0.08, Pitch : -0.03, Yaw : 359.9, Alt : 37.7700004578, Lat : 49.2835704, Lng : -123.1150206, Q1 : 0.999999344349, Q2 : -0.000715599162504, Q3 : -0.000281626184005, Q4 : -0.000844714115374}
2019-04-14 04:54:44.91: SIM {TimeUS : 48334825, Roll : -0.1, Pitch : -0.01, Yaw : 359.9, Alt : 37.9900016785, Lat : 49.2835704, Lng : -123.1150206, Q1 : 0.99999922514, Q2 : -0.000908667570911, Q3 : -0.00011038017692, Q4 : -0.0008525524172}
2019-04-14 04:54:45.01: SIM {TimeUS : 48434785, Roll : -0.1, Pitch : 0.0, Yaw : 359.9, Alt : 38.2200012207, Lat : 49.2835704, Lng : -123.1150206, Q1 : 0.99999922514, Q2 : -0.000910120666958, Q3 : 2.18119039346e-05, Q4 : -0.000854594807606}
2019-04-14 04:54:45.11: SIM {TimeUS : 48534745, Roll : -0.08, Pitch : 0.03, Yaw : 359.9, Alt : 38.4500007629, Lat : 49.2835704, Lng : -123.1150206, Q1 : 0.999999344349, Q2 : -0.000700060627423, Q3 : 0.000292205048027, Q4 : -0.000857101287693}
2019-04-14 04:54:45.21: SIM {TimeUS : 48634705, Roll : -0.05, Pitch : 0.03, Yaw : 359.9, Alt : 38.6800003052, Lat : 49.2835704, Lng : -123.1150206, Q1 : 0.999999463558, Q2 : -0.00045937957475, Q3 : 0.000276131293504, Q4 : -0.000868577393703}
2019-04-14 04:54:45.31: SIM {TimeUS : 48734665, Roll : -0.01, Pitch : 0.02, Yaw : 359.89, Alt : 38.9099998474, Lat : 49.2835704, Lng : -123.1150206, Q1 : 0.999999582767, Q2 : -0.000172018815647, Q3 : 0.000181484996574, Q4 : -0.000881317420863}
2019-04-14 04:54:45.41: SIM {TimeUS : 48834625, Roll : 0.01, Pitch : 0.03, Yaw : 359.89, Alt : 39.1399993896, Lat : 49.2835704, Lng : -123.1150206, Q1 : 0.999999582767, Q2 : 0.000147023878526, Q3 : 0.000290917552775, Q4 : -0.000895129633136}
2019-04-14 04:54:45.51: SIM {TimeUS : 48934585, Roll : 0.05, Pitch : 0.05, Yaw : 359.89, Alt : 39.3600006104, Lat : 49.2835704, Lng : -123.1150206, Q1 : 0.999999344349, Q2 : 0.000446007412393, Q3 : 0.000519906287082, Q4 : -0.000917751982342}
2019-04-14 04:54:45.61: SIM {TimeUS : 49034545, Roll : 0.07, Pitch : 0.08, Yaw : 359.89, Alt : 39.5999984741, Lat : 49.2835704, Lng : -123.1150206, Q1 : 0.999999046326, Q2 : 0.00065192457987, Q3 : 0.000741247320548, Q4 : -0.000947917578742}
2019-04-14 04:54:45.71: SIM {TimeUS : 49134505, Roll : 0.06, Pitch : 0.1, Yaw : 359.88, Alt : 39.8300018311, Lat : 49.2835706, Lng : -123.1150206, Q1 : 0.999998927116, Q2 : 0.00056399294408, Q3 : 0.000949493376538, Q4 : -0.000975346774794}
2019-04-14 04:54:45.81: SIM {TimeUS : 49235298, Roll : 0.01, Pitch : 0.12, Yaw : 359.88, Alt : 40.0600013733, Lat : 49.2835706, Lng : -123.1150206, Q1 : 0.999998867512, Q2 : 0.000150304607814, Q3 : 0.00112806435209, Q4 : -0.00101947691292}
2019-04-14 04:54:45.91: SIM {TimeUS : 49335258, Roll : -0.01, Pitch : 0.11, Yaw : 359.87, Alt : 40.2900009155, Lat : 49.2835706, Lng : -123.1150206, Q1 : 0.999998867512, Q2 : -0.000164482495165, Q3 : 0.0010391115211, Q4 : -0.00105632632039}
2019-04-14 04:54:46.01: SIM {TimeUS : 49435218, Roll : -0.04, Pitch : 0.08, Yaw : 359.87, Alt : 40.5200004578, Lat : 49.2835706, Lng : -123.1150206, Q1 : 0.999999046326, Q2 : -0.000377530959668, Q3 : 0.00076906074537, Q4 : -0.00109408330172}
2019-04-14 04:54:46.11: SIM {TimeUS : 49535178, Roll : -0.05, Pitch : 0.06, Yaw : 359.87, Alt : 40.75, Lat : 49.2835706, Lng : -123.1150206, Q1 : 0.99999910593, Q2 : -0.000458516296931, Q3 : 0.000595914723817, Q4 : -0.00113021687139}
2019-04-14 04:54:46.21: SIM {TimeUS : 49635138, Roll : -0.03, Pitch : 0.08, Yaw : 359.86, Alt : 40.9900016785, Lat : 49.2835706, Lng : -123.1150206, Q1 : 0.999999046326, Q2 : -0.000344673724612, Q3 : 0.000703284400515, Q4 : -0.00116900773719}
2019-04-14 04:54:46.31: SIM {TimeUS : 49735098, Roll : 0.0, Pitch : 0.11, Yaw : 359.86, Alt : 41.2200012207, Lat : 49.2835706, Lng : -123.1150206, Q1 : 0.999998807907, Q2 : 4.15464382968e-05, Q3 : 0.000989322783425, Q4 : -0.0011993177468}
2019-04-14 04:54:46.41: SIM {TimeUS : 49835058, Roll : 0.05, Pitch : 0.13, Yaw : 359.85, Alt : 41.4500007629, Lat : 49.2835706, Lng : -123.1150207, Q1 : 0.999998390675, Q2 : 0.000488650868647, Q3 : 0.00119732064195, Q4 : -0.00122890598141}
2019-04-14 04:54:46.51: SIM {TimeUS : 49935018, Roll : 0.08, Pitch : 0.11, Yaw : 359.85, Alt : 41.6899986267, Lat : 49.2835706, Lng : -123.1150207, Q1 : 0.999998450279, Q2 : 0.000762867974117, Q3 : 0.00100548600312, Q4 : -0.00125624856446}
2019-04-14 04:54:46.61: SIM {TimeUS : 50034978, Roll : 0.08, Pitch : 0.07, Yaw : 359.85, Alt : 41.9199981689, Lat : 49.2835706, Lng : -123.1150207, Q1 : 0.999998688698, Q2 : 0.000757202506065, Q3 : 0.000634888070635, Q4 : -0.00128258438781}
2019-04-14 04:54:46.71: SIM {TimeUS : 50134938, Roll : 0.05, Pitch : 0.04, Yaw : 359.85, Alt : 42.1500015259, Lat : 49.2835706, Lng : -123.1150207, Q1 : 0.999998986721, Q2 : 0.000442771910457, Q3 : 0.000351755850716, Q4 : -0.00130178441759}
2019-04-14 04:54:46.81: SIM {TimeUS : 50234898, Roll : 0.0, Pitch : 0.03, Yaw : 359.84, Alt : 42.3899993896, Lat : 49.2835706, Lng : -123.1150207, Q1 : 0.99999910593, Q2 : -2.03622148547e-05, Q3 : 0.000298175640637, Q4 : -0.00131581304595}
2019-04-14 04:54:46.91: SIM {TimeUS : 50334858, Roll : -0.03, Pitch : 0.06, Yaw : 359.84, Alt : 42.6199989319, Lat : 49.2835706, Lng : -123.1150207, Q1 : 0.999998927116, Q2 : -0.000312482181471, Q3 : 0.000541956687812, Q4 : -0.00132259284146}
2019-04-14 04:54:47.01: SIM {TimeUS : 50434818, Roll : -0.04, Pitch : 0.08, Yaw : 359.84, Alt : 42.8600006104, Lat : 49.2835704, Lng : -123.1150206, Q1 : 0.999998807907, Q2 : -0.000424462166848, Q3 : 0.000716020178515, Q4 : -0.00132659100927}
2019-04-14 04:54:47.11: SIM {TimeUS : 50534778, Roll : -0.04, Pitch : 0.07, Yaw : 359.84, Alt : 43.0900001526, Lat : 49.2835704, Lng : -123.1150206, Q1 : 0.999998807907, Q2 : -0.000382160244044, Q3 : 0.000694766407833, Q4 : -0.0013334385585}
2019-04-14 04:54:47.21: SIM {TimeUS : 50634738, Roll : -0.04, Pitch : 0.06, Yaw : 359.84, Alt : 43.3300018311, Lat : 49.2835704, Lng : -123.1150206, Q1 : 0.999998867512, Q2 : -0.000394235714339, Q3 : 0.000575474870857, Q4 : -0.00134340988006}
2019-04-14 04:54:47.31: SIM {TimeUS : 50734698, Roll : -0.03, Pitch : 0.04, Yaw : 359.84, Alt : 43.5600013733, Lat : 49.2835704, Lng : -123.1150206, Q1 : 0.999998927116, Q2 : -0.000323131971527, Q3 : 0.000426242535468, Q4 : -0.00135820789728}
2019-04-14 04:54:47.41: SIM {TimeUS : 50834658, Roll : -0.01, Pitch : 0.04, Yaw : 359.84, Alt : 43.7999992371, Lat : 49.2835704, Lng : -123.1150206, Q1 : 0.999998986721, Q2 : -0.000165865654708, Q3 : 0.000360667501809, Q4 : -0.00138121750206}
2019-04-14 04:54:47.51: SIM {TimeUS : 50934618, Roll : 0.0, Pitch : 0.04, Yaw : 359.83, Alt : 44.0299987793, Lat : 49.2835704, Lng : -123.1150206, Q1 : 0.999998927116, Q2 : -6.3009931182e-05, Q3 : 0.00037477578735, Q4 : -0.00140567321796}
2019-04-14 04:54:47.61: SIM {TimeUS : 51034578, Roll : -0.01, Pitch : 0.02, Yaw : 359.83, Alt : 44.2700004578, Lat : 49.2835704, Lng : -123.1150206, Q1 : 0.999998927116, Q2 : -9.85936931102e-05, Q3 : 0.000208501049201, Q4 : -0.00143095536623}
2019-04-14 04:54:47.71: SIM {TimeUS : 51134538, Roll : -0.02, Pitch : 0.0, Yaw : 359.83, Alt : 44.5, Lat : 49.2835704, Lng : -123.1150206, Q1 : 0.999998927116, Q2 : -0.000181327530299, Q3 : -8.68713177624e-05, Q4 : -0.00146199588198}
2019-04-14 04:54:47.81: SIM {TimeUS : 51234498, Roll : -0.02, Pitch : -0.02, Yaw : 359.82, Alt : 44.7400016785, Lat : 49.2835704, Lng : -123.1150206, Q1 : 0.999998807907, Q2 : -0.0002348167327, Q3 : -0.000243746937485, Q4 : -0.00149415701162}
2019-04-14 04:54:47.91: SIM {TimeUS : 51335291, Roll : -0.02, Pitch : -0.04, Yaw : 359.82, Alt : 44.9799995422, Lat : 49.2835704, Lng : -123.1150206, Q1 : 0.999998748302, Q2 : -0.000229100871366, Q3 : -0.000361190468539, Q4 : -0.00152736203745}
2019-04-14 04:54:48.01: SIM {TimeUS : 51435251, Roll : -0.02, Pitch : -0.04, Yaw : 359.82, Alt : 45.2099990845, Lat : 49.2835704, Lng : -123.1150206, Q1 : 0.999998688698, Q2 : -0.000259292311966, Q3 : -0.000394318572944, Q4 : -0.00155960139818}
2019-04-14 04:54:48.11: SIM {TimeUS : 51535211, Roll : -0.04, Pitch : -0.03, Yaw : 359.81, Alt : 45.4500007629, Lat : 49.2835704, Lng : -123.1150206, Q1 : 0.999998569489, Q2 : -0.00042154971743, Q3 : -0.000333428091835, Q4 : -0.00159543810878}
2019-04-14 04:54:48.21: SIM {TimeUS : 51635171, Roll : -0.07, Pitch : -0.03, Yaw : 359.81, Alt : 45.6800003052, Lat : 49.2835704, Lng : -123.1150206, Q1 : 0.999998390675, Q2 : -0.000698579882737, Q3 : -0.000276630860753, Q4 : -0.00163250428159}
2019-04-14 04:54:48.31: SIM {TimeUS : 51735131, Roll : -0.1, Pitch : -0.02, Yaw : 359.8, Alt : 45.9199981689, Lat : 49.2835703, Lng : -123.1150206, Q1 : 0.999998152256, Q2 : -0.000907297420781, Q3 : -0.000212857921724, Q4 : -0.00166739686392}
2019-04-14 04:54:48.41: SIM {TimeUS : 51835091, Roll : -0.1, Pitch : 0.0, Yaw : 359.8, Alt : 46.1500015259, Lat : 49.2835703, Lng : -123.1150206, Q1 : 0.999998092651, Q2 : -0.000957679527346, Q3 : -6.78531068843e-05, Q4 : -0.00169675960205}
2019-04-14 04:54:48.51: SIM {TimeUS : 51935051, Roll : -0.09, Pitch : 0.01, Yaw : 359.8, Alt : 46.3699989319, Lat : 49.2835704, Lng : -123.1150206, Q1 : 0.999998152256, Q2 : -0.000844128197059, Q3 : 0.000166170546436, Q4 : -0.00171904673334}
2019-04-14 04:54:48.61: SIM {TimeUS : 52035011, Roll : -0.07, Pitch : 0.03, Yaw : 359.8, Alt : 46.5900001526, Lat : 49.2835704, Lng : -123.1150206, Q1 : 0.999998211861, Q2 : -0.000617720652372, Q3 : 0.000312046700856, Q4 : -0.00174024619628}
2019-04-14 04:54:48.71: SIM {TimeUS : 52134971, Roll : -0.04, Pitch : 0.03, Yaw : 359.79, Alt : 46.8100013733, Lat : 49.2835704, Lng : -123.1150206, Q1 : 0.99999833107, Q2 : -0.000421290285885, Q3 : 0.00029620694113, Q4 : -0.0017607845366}
2019-04-14 04:54:48.81: SIM {TimeUS : 52234931, Roll : -0.03, Pitch : 0.01, Yaw : 359.79, Alt : 47.0200004578, Lat : 49.2835704, Lng : -123.1150206, Q1 : 0.99999833107, Q2 : -0.000324447726598, Q3 : 0.000144564241054, Q4 : -0.0017792340368}
2019-04-14 04:54:48.91: SIM {TimeUS : 52334891, Roll : -0.01, Pitch : -0.01, Yaw : 359.79, Alt : 47.2200012207, Lat : 49.2835703, Lng : -123.1150206, Q1 : 0.99999833107, Q2 : -0.000166873403941, Q3 : -0.000138706498547, Q4 : -0.00180003140122}
2019-04-14 04:54:49.01: SIM {TimeUS : 52434851, Roll : 0.0, Pitch : -0.05, Yaw : 359.79, Alt : 47.4199981689, Lat : 49.2835703, Lng : -123.1150206, Q1 : 0.999998271465, Q2 : 4.20721189585e-05, Q3 : -0.000440091855126, Q4 : -0.00182025891263}
2019-04-14 04:54:49.11: SIM {TimeUS : 52534811, Roll : 0.01, Pitch : -0.07, Yaw : 359.78, Alt : 47.5999984741, Lat : 49.2835703, Lng : -123.1150206, Q1 : 0.999998092651, Q2 : 0.000133926107083, Q3 : -0.000663211452775, Q4 : -0.00184485060163}
2019-04-14 04:54:49.21: SIM {TimeUS : 52634771, Roll : 0.02, Pitch : -0.11, Yaw : 359.78, Alt : 47.7799987793, Lat : 49.2835703, Lng : -123.1150206, Q1 : 0.999997735023, Q2 : 0.000201700138859, Q3 : -0.000977190095, Q4 : -0.0018713765312}
2019-04-14 04:54:49.31: SIM {TimeUS : 52734731, Roll : 0.04, Pitch : -0.12, Yaw : 359.78, Alt : 47.9399986267, Lat : 49.2835703, Lng : -123.1150206, Q1 : 0.999997496605, Q2 : 0.000424970785389, Q3 : -0.00110536511056, Q4 : -0.00189697463065}
2019-04-14 04:54:49.41: SIM {TimeUS : 52834691, Roll : 0.07, Pitch : -0.11, Yaw : 359.77, Alt : 48.0999984741, Lat : 49.2835703, Lng : -123.1150206, Q1 : 0.999997437, Q2 : 0.000651777372696, Q3 : -0.00102438020986, Q4 : -0.00192004651763}
2019-04-14 04:54:49.51: SIM {TimeUS : 52934651, Roll : 0.09, Pitch : -0.09, Yaw : 359.77, Alt : 48.2400016785, Lat : 49.2835704, Lng : -123.1150206, Q1 : 0.999997437, Q2 : 0.000792652950622, Q3 : -0.00083671376342, Q4 : -0.00193994457368}
2019-04-14 04:54:49.61: SIM {TimeUS : 53034611, Roll : 0.08, Pitch : -0.06, Yaw : 359.77, Alt : 48.3600006104, Lat : 49.2835704, Lng : -123.1150206, Q1 : 0.999997615814, Q2 : 0.000763004587498, Q3 : -0.000601205218118, Q4 : -0.0019617904909}
2019-04-14 04:54:49.71: SIM {TimeUS : 53134571, Roll : 0.07, Pitch : -0.04, Yaw : 359.77, Alt : 48.4799995422, Lat : 49.2835704, Lng : -123.1150206, Q1 : 0.999997735023, Q2 : 0.000694043177646, Q3 : -0.000427052989835, Q4 : -0.00198552524671}
2019-04-14 04:54:49.81: SIM {TimeUS : 53234531, Roll : 0.06, Pitch : -0.05, Yaw : 359.76, Alt : 48.5900001526, Lat : 49.2835704, Lng : -123.1150206, Q1 : 0.999997735023, Q2 : 0.000574808218516, Q3 : -0.00044731789967, Q4 : -0.00201121624559}
2019-04-14 04:54:49.91: SIM {TimeUS : 53335324, Roll : 0.04, Pitch : -0.05, Yaw : 359.76, Alt : 48.6800003052, Lat : 49.2835704, Lng : -123.1150206, Q1 : 0.999997735023, Q2 : 0.000353741779691, Q3 : -0.000462241529021, Q4 : -0.00204325839877}
2019-04-14 04:54:50.01: SIM {TimeUS : 53435284, Roll : 0.01, Pitch : -0.04, Yaw : 359.76, Alt : 48.7599983215, Lat : 49.2835704, Lng : -123.1150206, Q1 : 0.999997735023, Q2 : 0.000163989403518, Q3 : -0.0003830473579, Q4 : -0.00207574106753}
2019-04-14 04:54:50.11: SIM {TimeUS : 53535244, Roll : 0.0, Pitch : -0.02, Yaw : 359.75, Alt : 48.8300018311, Lat : 49.2835704, Lng : -123.1150206, Q1 : 0.999997735023, Q2 : 1.00193392427e-05, Q3 : -0.000231852376601, Q4 : -0.00210763211362}
2019-04-14 04:54:50.21: SIM {TimeUS : 53635204, Roll : 0.0, Pitch : 0.0, Yaw : 359.75, Alt : 48.8899993896, Lat : 49.2835704, Lng : -123.1150206, Q1 : 0.999997735023, Q2 : -6.3823776145e-05, Q3 : 8.10293499853e-07, Q4 : -0.00213564955629}
2019-04-14 04:54:50.31: SIM {TimeUS : 53735164, Roll : 0.0, Pitch : 0.03, Yaw : 359.75, Alt : 48.9399986267, Lat : 49.2835704, Lng : -123.1150206, Q1 : 0.999997615814, Q2 : 5.62812529097e-05, Q3 : 0.000303908745991, Q4 : -0.00216243835166}
2019-04-14 04:54:50.41: SIM {TimeUS : 53835124, Roll : 0.03, Pitch : 0.05, Yaw : 359.74, Alt : 48.9799995422, Lat : 49.2835704, Lng : -123.1150206, Q1 : 0.999997437, Q2 : 0.000290543830488, Q3 : 0.000456186186057, Q4 : -0.00218627857976}
2019-04-14 04:54:50.51: SIM {TimeUS : 53935084, Roll : 0.09, Pitch : -0.01, Yaw : 359.74, Alt : 49.0200004578, Lat : 49.2835704, Lng : -123.1150206, Q1 : 0.999997198582, Q2 : 0.000794245861471, Q3 : -0.000156608177349, Q4 : -0.00221156817861}
2019-04-14 04:54:50.61: SIM {TimeUS : 54035044, Roll : 0.23, Pitch : -0.26, Yaw : 359.74, Alt : 49.0499992371, Lat : 49.2835704, Lng : -123.1150206, Q1 : 0.999992728233, Q2 : 0.00207736878656, Q3 : -0.00228237709962, Q4 : -0.00223597558215}
2019-04-14 04:54:50.71: SIM {TimeUS : 54135004, Roll : 0.52, Pitch : -0.74, Yaw : 359.73, Alt : 49.0800018311, Lat : 49.2835704, Lng : -123.1150206, Q1 : 0.999966144562, Q2 : 0.00454394426197, Q3 : -0.00647943047807, Q4 : -0.00225160783157}
2019-04-14 04:54:50.81: SIM {TimeUS : 54234964, Roll : 0.96, Pitch : -1.43, Yaw : 359.72, Alt : 49.1100006104, Lat : 49.2835704, Lng : -123.1150206, Q1 : 0.999884366989, Q2 : 0.0083486540243, Q3 : -0.0125098684803, Q4 : -0.00225282250904}
2019-04-14 04:54:50.91: SIM {TimeUS : 54334924, Roll : 1.5, Pitch : -2.24, Yaw : 359.71, Alt : 49.1300010681, Lat : 49.2835706, Lng : -123.1150205, Q1 : 0.999718546867, Q2 : 0.0131247676909, Q3 : -0.0196371544152, Q4 : -0.00222684885375}
2019-04-14 04:54:51.01: SIM {TimeUS : 54434884, Roll : 2.1, Pitch : -3.1, Yaw : 359.69, Alt : 49.1399993896, Lat : 49.2835707, Lng : -123.1150205, Q1 : 0.999461591244, Q2 : 0.0182790458202, Q3 : -0.0271634813398, Q4 : -0.0021506480407}
2019-04-14 04:54:51.11: SIM {TimeUS : 54534844, Roll : 2.63, Pitch : -3.87, Yaw : 359.67, Alt : 49.1599998474, Lat : 49.2835708, Lng : -123.1150204, Q1 : 0.999162912369, Q2 : 0.0229026991874, Q3 : -0.0338362045586, Q4 : -0.00201552244835}
2019-04-14 04:54:51.21: SIM {TimeUS : 54634804, Roll : 3.04, Pitch : -4.46, Yaw : 359.67, Alt : 49.1699981689, Lat : 49.2835709, Lng : -123.1150202, Q1 : 0.998888194561, Q2 : 0.026426166296, Q3 : -0.0389970876276, Q4 : -0.00181878928561}
2019-04-14 04:54:51.31: SIM {TimeUS : 54734764, Roll : 3.32, Pitch : -4.9, Yaw : 359.67, Alt : 49.1899986267, Lat : 49.283571, Lng : -123.11502, Q1 : 0.998663008213, Q2 : 0.0288798902184, Q3 : -0.0428444184363, Q4 : -0.00158490845934}
2019-04-14 04:54:51.41: SIM {TimeUS : 54834724, Roll : 3.54, Pitch : -5.24, Yaw : 359.68, Alt : 49.2000007629, Lat : 49.2835714, Lng : -123.1150198, Q1 : 0.998471796513, Q2 : 0.0308155473322, Q3 : -0.0458552613854, Q4 : -0.00133117474616}
2019-04-14 04:54:51.51: SIM {TimeUS : 54934684, Roll : 3.76, Pitch : -5.54, Yaw : 359.69, Alt : 49.2099990845, Lat : 49.2835716, Lng : -123.1150194, Q1 : 0.998293161392, Q2 : 0.0326425433159, Q3 : -0.0484163947403, Q4 : -0.00106605887413}
2019-04-14 04:54:51.61: SIM {TimeUS : 55034644, Roll : 3.96, Pitch : -5.82, Yaw : 359.7, Alt : 49.2099990845, Lat : 49.2835721, Lng : -123.115019, Q1 : 0.99811154604, Q2 : 0.0344549641013, Q3 : -0.0508483722806, Q4 : -0.000806497526355}
2019-04-14 04:54:51.71: SIM {TimeUS : 55134604, Roll : 4.18, Pitch : -6.12, Yaw : 359.7, Alt : 49.2200012207, Lat : 49.2835726, Lng : -123.1150185, Q1 : 0.997905254364, Q2 : 0.0363402403891, Q3 : -0.0535177998245, Q4 : -0.000573996803723}
2019-04-14 04:54:51.81: SIM {TimeUS : 55234564, Roll : 4.37, Pitch : -6.42, Yaw : 359.71, Alt : 49.2299995422, Lat : 49.2835731, Lng : -123.115018, Q1 : 0.997702598572, Q2 : 0.038005977869, Q3 : -0.0560797713697, Q4 : -0.000366407504771}
2019-04-14 04:54:51.91: SIM {TimeUS : 55334524, Roll : 4.53, Pitch : -6.65, Yaw : 359.71, Alt : 49.2299995422, Lat : 49.2835737, Lng : -123.1150174, Q1 : 0.997537434101, Q2 : 0.0393482260406, Q3 : -0.0580583252013, Q4 : -0.000174141445314}
2019-04-14 04:54:52.01: SIM {TimeUS : 55435317, Roll : 4.64, Pitch : -6.8, Yaw : 359.72, Alt : 49.2400016785, Lat : 49.2835744, Lng : -123.1150167, Q1 : 0.997421205044, Q2 : 0.0403023287654, Q3 : -0.0593858249485, Q4 : -3.24319603351e-06}
2019-04-14 04:54:52.11: SIM {TimeUS : 55535277, Roll : 4.71, Pitch : -6.92, Yaw : 359.72, Alt : 49.2400016785, Lat : 49.2835751, Lng : -123.115016, Q1 : 0.997333168983, Q2 : 0.0409516766667, Q3 : -0.0604110695422, Q4 : 0.00012551927648}
2019-04-14 04:54:52.21: SIM {TimeUS : 55635237, Roll : 4.79, Pitch : -7.01, Yaw : 359.73, Alt : 49.25, Lat : 49.2835758, Lng : -123.1150151, Q1 : 0.997254252434, Q2 : 0.0416026338935, Q3 : -0.0612632520497, Q4 : 0.000228941993555}
2019-04-14 04:54:52.31: SIM {TimeUS : 55735197, Roll : 4.91, Pitch : -7.13, Yaw : 359.73, Alt : 49.25, Lat : 49.2835767, Lng : -123.1150143, Q1 : 0.997147917747, Q2 : 0.0426262430847, Q3 : -0.0622814632952, Q4 : 0.000322101084748}
2019-04-14 04:54:52.41: SIM {TimeUS : 55835157, Roll : 5.18, Pitch : -7.23, Yaw : 359.79, Alt : 49.2599983215, Lat : 49.2835775, Lng : -123.1150134, Q1 : 0.996990740299, Q2 : 0.0450467318296, Q3 : -0.0630798339844, Q4 : 0.00110339210369}
2019-04-14 04:54:52.51: SIM {TimeUS : 55935117, Roll : 5.71, Pitch : -7.25, Yaw : 0.38, Alt : 49.2599983215, Lat : 49.2835785, Lng : -123.1150124, Q1 : 0.99673885107, Q2 : 0.0499593950808, Q3 : -0.0630380287766, Q4 : 0.00648209825158}
2019-04-14 04:54:52.61: SIM {TimeUS : 56035077, Roll : 6.34, Pitch : -7.34, Yaw : 2.16, Alt : 49.2599983215, Lat : 49.2835794, Lng : -123.1150113, Q1 : 0.996170759201, Q2 : 0.0564556755126, Q3 : -0.0628910213709, Q4 : 0.022387644276}
2019-04-14 04:54:52.71: SIM {TimeUS : 56135037, Roll : 6.73, Pitch : -7.74, Yaw : 5.53, Alt : 49.2599983215, Lat : 49.2835805, Lng : -123.1150102, Q1 : 0.994641721249, Q2 : 0.0617910213768, Q3 : -0.0644748881459, Q4 : 0.05208427459}
2019-04-14 04:54:52.81: SIM {TimeUS : 56234997, Roll : 6.6, Pitch : -8.49, Yaw : 10.46, Alt : 49.2599983215, Lat : 49.2835814, Lng : -123.115009, Q1 : 0.991058766842, Q2 : 0.0639418065548, Q3 : -0.0684239640832, Q4 : 0.0950375646353}
2019-04-14 04:54:52.91: SIM {TimeUS : 56334957, Roll : 5.72, Pitch : -9.52, Yaw : 16.71, Alt : 49.2700004578, Lat : 49.2835825, Lng : -123.1150076, Q1 : 0.984133481979, Q2 : 0.0612588226795, Q3 : -0.0747796371579, Q4 : 0.148784205317}
2019-04-14 04:54:53.01: SIM {TimeUS : 56434917, Roll : 3.83, Pitch : -10.61, Yaw : 23.79, Alt : 49.2700004578, Lat : 49.2835837, Lng : -123.1150062, Q1 : 0.973136246204, Q2 : 0.0516931861639, Q3 : -0.0836309269071, Q4 : 0.208181634545}
2019-04-14 04:54:53.11: SIM {TimeUS : 56534877, Roll : 1.14, Pitch : -11.54, Yaw : 30.9, Alt : 49.2700004578, Lat : 49.2835849, Lng : -123.1150046, Q1 : 0.958633720875, Q2 : 0.0364245437086, Q3 : -0.0942991748452, Q4 : 0.266087204218}
2019-04-14 04:54:53.21: SIM {TimeUS : 56634837, Roll : -1.78, Pitch : -12.12, Yaw : 37.29, Alt : 49.2700004578, Lat : 49.2835861, Lng : -123.115003, Q1 : 0.942612111568, Q2 : 0.0191103704274, Q3 : -0.105031900108, Q4 : 0.316362917423}
2019-04-14 04:54:53.31: SIM {TimeUS : 56734797, Roll : -4.31, Pitch : -12.38, Yaw : 42.32, Alt : 49.2700004578, Lat : 49.2835876, Lng : -123.1150014, Q1 : 0.927935779095, Q2 : 0.00400667823851, Q3 : -0.114028975368, Q4 : 0.354847311974}
2019-04-14 04:54:53.41: SIM {TimeUS : 56834757, Roll : -6.0, Pitch : -12.46, Yaw : 45.64, Alt : 49.2700004578, Lat : 49.283589, Lng : -123.1149998, Q1 : 0.917223095894, Q2 : -0.00595098733902, Q3 : -0.120112746954, Q4 : 0.379788517952}
2019-04-14 04:54:53.51: SIM {TimeUS : 56934717, Roll : -6.71, Pitch : -12.51, Yaw : 47.24, Alt : 49.2700004578, Lat : 49.2835905, Lng : -123.1149981, Q1 : 0.911753058434, Q2 : -0.00976111460477, Q3 : -0.123045213521, Q4 : 0.391753733158}
2019-04-14 04:54:53.61: SIM {TimeUS : 57034677, Roll : -6.53, Pitch : -12.67, Yaw : 47.34, Alt : 49.2700004578, Lat : 49.2835922, Lng : -123.1149965, Q1 : 0.911310732365, Q2 : -0.00765217235312, Q3 : -0.123698569834, Q4 : 0.392623066902}
2019-04-14 04:54:53.71: SIM {TimeUS : 57134637, Roll : -5.67, Pitch : -13.02, Yaw : 46.25, Alt : 49.2700004578, Lat : 49.283594, Lng : -123.1149948, Q1 : 0.914767026901, Q2 : -0.000734850997105, Q3 : -0.123524412513, Q4 : 0.384632945061}
2019-04-14 04:54:53.81: SIM {TimeUS : 57234597, Roll : -4.38, Pitch : -13.56, Yaw : 44.31, Alt : 49.2700004578, Lat : 49.2835958, Lng : -123.1149931, Q1 : 0.920715808868, Q2 : 0.00932584982365, Q3 : -0.123587563634, Q4 : 0.370029211044}
2019-04-14 04:54:53.91: SIM {TimeUS : 57334557, Roll : -2.86, Pitch : -14.17, Yaw : 41.8, Alt : 49.2700004578, Lat : 49.2835976, Lng : -123.1149914, Q1 : 0.927860915661, Q2 : 0.0208788067102, Q3 : -0.124099209905, Q4 : 0.351052105427}
2019-04-14 04:54:54.01: SIM {TimeUS : 57434517, Roll : -1.29, Pitch : -14.76, Yaw : 39.03, Alt : 49.2799987793, Lat : 49.2835996, Lng : -123.1149896, Q1 : 0.935137748718, Q2 : 0.0323876477778, Q3 : -0.124875165522, Q4 : 0.32996147871}
2019-04-14 04:54:54.11: SIM {TimeUS : 57535310, Roll : 0.18, Pitch : -15.22, Yaw : 36.3, Alt : 49.2799987793, Lat : 49.2836018, Lng : -123.1149877, Q1 : 0.941790640354, Q2 : 0.0427735745907, Q3 : -0.125373601913, Q4 : 0.309002071619}
2019-04-14 04:54:54.21: SIM {TimeUS : 57635270, Roll : 1.4, Pitch : -15.48, Yaw : 33.93, Alt : 49.2799987793, Lat : 49.2836038, Lng : -123.1149857, Q1 : 0.947189152241, Q2 : 0.0509621463716, Q3 : -0.125291243196, Q4 : 0.290753543377}
2019-04-14 04:54:54.31: SIM {TimeUS : 57735230, Roll : 2.3, Pitch : -15.58, Yaw : 32.12, Alt : 49.2799987793, Lat : 49.283606, Lng : -123.1149835, Q1 : 0.951143741608, Q2 : 0.0566286370158, Q3 : -0.124719522893, Q4 : 0.276701718569}
2019-04-14 04:54:54.41: SIM {TimeUS : 57835190, Roll : 2.82, Pitch : -15.57, Yaw : 30.97, Alt : 49.2799987793, Lat : 49.2836081, Lng : -123.1149814, Q1 : 0.953603208065, Q2 : 0.0597239919007, Q3 : -0.124056525528, Q4 : 0.267738491297}
2019-04-14 04:54:54.51: SIM {TimeUS : 57935150, Roll : 2.95, Pitch : -15.57, Yaw : 30.5, Alt : 49.2799987793, Lat : 49.2836104, Lng : -123.1149791, Q1 : 0.954630374908, Q2 : 0.0603164881468, Q3 : -0.123955778778, Q4 : 0.263965427876}
2019-04-14 04:54:54.61: SIM {TimeUS : 58035110, Roll : 2.75, Pitch : -15.61, Yaw : 30.64, Alt : 49.2799987793, Lat : 49.2836128, Lng : -123.1149767, Q1 : 0.954372525215, Q2 : 0.058839853853, Q3 : -0.124693758786, Q4 : 0.264881879091}
2019-04-14 04:54:54.71: SIM {TimeUS : 58135070, Roll : 2.26, Pitch : -15.71, Yaw : 31.27, Alt : 49.2799987793, Lat : 49.2836151, Lng : -123.1149743, Q1 : 0.953045487404, Q2 : 0.0556625835598, Q3 : -0.126333430409, Q4 : 0.269529044628}
2019-04-14 04:54:54.81: SIM {TimeUS : 58235030, Roll : 1.59, Pitch : -15.82, Yaw : 32.23, Alt : 49.2799987793, Lat : 49.2836174, Lng : -123.1149717, Q1 : 0.950932145119, Q2 : 0.0514234863222, Q3 : -0.128440260887, Q4 : 0.27674305439}
2019-04-14 04:54:54.91: SIM {TimeUS : 58334990, Roll : 0.86, Pitch : -15.94, Yaw : 33.36, Alt : 49.2799987793, Lat : 49.2836199, Lng : -123.1149691, Q1 : 0.948328197002, Q2 : 0.0469578839839, Q3 : -0.130675658584, Q4 : 0.285293728113}
2019-04-14 04:54:55.01: SIM {TimeUS : 58434950, Roll : 0.14, Pitch : -16.04, Yaw : 34.52, Alt : 49.2799987793, Lat : 49.2836223, Lng : -123.1149664, Q1 : 0.945569515228, Q2 : 0.0426259152591, Q3 : -0.132885083556, Q4 : 0.29397764802}
2019-04-14 04:54:55.11: SIM {TimeUS : 58534910, Roll : -0.45, Pitch : -16.13, Yaw : 35.56, Alt : 49.2799987793, Lat : 49.2836248, Lng : -123.1149636, Q1 : 0.942962169647, Q2 : 0.0391041189432, Q3 : -0.134837687016, Q4 : 0.301847696304}
2019-04-14 04:54:55.21: SIM {TimeUS : 58634870, Roll : -0.88, Pitch : -16.19, Yaw : 36.4, Alt : 49.2799987793, Lat : 49.2836273, Lng : -123.1149609, Q1 : 0.940805435181, Q2 : 0.0367149487138, Q3 : -0.136170804501, Q4 : 0.308212071657}
2019-04-14 04:54:55.31: SIM {TimeUS : 58734830, Roll : -1.14, Pitch : -16.22, Yaw : 36.98, Alt : 49.2799987793, Lat : 49.2836299, Lng : -123.1149581, Q1 : 0.939288854599, Q2 : 0.0353680886328, Q3 : -0.136955946684, Q4 : 0.312615811825}
2019-04-14 04:54:55.41: SIM {TimeUS : 58834790, Roll : -1.25, Pitch : -16.26, Yaw : 37.27, Alt : 49.2799987793, Lat : 49.2836326, Lng : -123.1149552, Q1 : 0.938470602036, Q2 : 0.0349429175258, Q3 : -0.137478381395, Q4 : 0.314883500338}
2019-04-14 04:54:55.51: SIM {TimeUS : 58934750, Roll : -1.21, Pitch : -16.31, Yaw : 37.3, Alt : 49.2799987793, Lat : 49.2836353, Lng : -123.1149524, Q1 : 0.938319563866, Q2 : 0.035405639559, Q3 : -0.137792304158, Q4 : 0.315144598484}
2019-04-14 04:54:55.61: SIM {TimeUS : 59034710, Roll : -1.05, Pitch : -16.38, Yaw : 37.11, Alt : 49.2799987793, Lat : 49.2836379, Lng : -123.1149495, Q1 : 0.938716292381, Q2 : 0.0366817191243, Q3 : -0.137987747788, Q4 : 0.313728570938}
2019-04-14 04:54:55.71: SIM {TimeUS : 59134670, Roll : -0.81, Pitch : -16.44, Yaw : 36.75, Alt : 49.2799987793, Lat : 49.2836407, Lng : -123.1149464, Q1 : 0.939534962177, Q2 : 0.0384098626673, Q3 : -0.137963682413, Q4 : 0.311070382595}
2019-04-14 04:54:55.81: SIM {TimeUS : 59234630, Roll : -0.52, Pitch : -16.5, Yaw : 36.3, Alt : 49.2799987793, Lat : 49.2836434, Lng : -123.1149436, Q1 : 0.940589785576, Q2 : 0.0404353551567, Q3 : -0.137818232179, Q4 : 0.307671844959}
2019-04-14 04:54:55.91: SIM {TimeUS : 59334590, Roll : -0.21, Pitch : -16.55, Yaw : 35.81, Alt : 49.2900009155, Lat : 49.2836463, Lng : -123.1149406, Q1 : 0.941718041897, Q2 : 0.0425331033766, Q3 : -0.137566879392, Q4 : 0.304028630257}
2019-04-14 04:54:56.01: SIM {TimeUS : 59434550, Roll : 0.07, Pitch : -16.59, Yaw : 35.35, Alt : 49.2900009155, Lat : 49.2836492, Lng : -123.1149376, Q1 : 0.942780554295, Q2 : 0.0444634370506, Q3 : -0.137276574969, Q4 : 0.300571024418}
2019-04-14 04:54:56.11: SIM {TimeUS : 59534510, Roll : 0.32, Pitch : -16.62, Yaw : 34.96, Alt : 49.2900009155, Lat : 49.2836521, Lng : -123.1149345, Q1 : 0.943670749664, Q2 : 0.0460703000426, Q3 : -0.137022256851, Q4 : 0.297637373209}
2019-04-14 04:54:56.21: SIM {TimeUS : 59635303, Roll : 0.49, Pitch : -16.65, Yaw : 34.67, Alt : 49.2900009155, Lat : 49.2836549, Lng : -123.1149314, Q1 : 0.944315969944, Q2 : 0.0472590625286, Q3 : -0.136944189668, Q4 : 0.295432239771}
2019-04-14 04:54:56.31: SIM {TimeUS : 59735263, Roll : 0.58, Pitch : -16.67, Yaw : 34.49, Alt : 49.2900009155, Lat : 49.2836578, Lng : -123.1149283, Q1 : 0.944701910019, Q2 : 0.0478514283895, Q3 : -0.136999204755, Q4 : 0.294074386358}
2019-04-14 04:54:56.41: SIM {TimeUS : 59835223, Roll : 0.59, Pitch : -16.7, Yaw : 34.42, Alt : 49.2900009155, Lat : 49.2836609, Lng : -123.1149251, Q1 : 0.944838762283, Q2 : 0.0478897951543, Q3 : -0.13722448051, Q4 : 0.293522953987}
2019-04-14 04:54:56.51: SIM {TimeUS : 59935183, Roll : 0.52, Pitch : -16.74, Yaw : 34.45, Alt : 49.2900009155, Lat : 49.2836638, Lng : -123.1149219, Q1 : 0.944738268852, Q2 : 0.0474605225027, Q3 : -0.137733638287, Q4 : 0.29367774725}
2019-04-14 04:54:56.61: SIM {TimeUS : 60035143, Roll : 0.41, Pitch : -16.79, Yaw : 34.56, Alt : 49.2900009155, Lat : 49.2836668, Lng : -123.1149187, Q1 : 0.944450736046, Q2 : 0.0467815883458, Q3 : -0.138397723436, Q4 : 0.294398456812}
2019-04-14 04:54:56.71: SIM {TimeUS : 60135103, Roll : 0.26, Pitch : -16.84, Yaw : 34.72, Alt : 49.2900009155, Lat : 49.2836698, Lng : -123.1149154, Q1 : 0.944050312042, Q2 : 0.0458901338279, Q3 : -0.139080882072, Q4 : 0.295498907566}
2019-04-14 04:54:56.81: SIM {TimeUS : 60235063, Roll : 0.1, Pitch : -16.87, Yaw : 34.9, Alt : 49.2900009155, Lat : 49.2836728, Lng : -123.1149121, Q1 : 0.943611860275, Q2 : 0.0448754578829, Q3 : -0.139671310782, Q4 : 0.296773910522}
2019-04-14 04:54:56.91: SIM {TimeUS : 60335023, Roll : -0.03, Pitch : -16.9, Yaw : 35.07, Alt : 49.2900009155, Lat : 49.2836759, Lng : -123.1149088, Q1 : 0.943165719509, Q2 : 0.043986197561, Q3 : -0.140274479985, Q4 : 0.298038095236}
2019-04-14 04:54:57.01: SIM {TimeUS : 60434983, Roll : -0.13, Pitch : -16.95, Yaw : 35.23, Alt : 49.2900009155, Lat : 49.2836789, Lng : -123.1149055, Q1 : 0.942748188972, Q2 : 0.0434724837542, Q3 : -0.140864923596, Q4 : 0.299153923988}
2019-04-14 04:54:57.11: SIM {TimeUS : 60534943, Roll : -0.19, Pitch : -17.0, Yaw : 35.34, Alt : 49.2999992371, Lat : 49.283682, Lng : -123.1149022, Q1 : 0.942413806915, Q2 : 0.0432710908353, Q3 : -0.141349777579, Q4 : 0.300006896257}
2019-04-14 04:54:57.21: SIM {TimeUS : 60634903, Roll : -0.2, Pitch : -17.05, Yaw : 35.41, Alt : 49.2999992371, Lat : 49.2836851, Lng : -123.1148988, Q1 : 0.942180097103, Q2 : 0.043376725167, Q3 : -0.14176993072, Q4 : 0.300527065992}
2019-04-14 04:54:57.31: SIM {TimeUS : 60734863, Roll : -0.17, Pitch : -17.09, Yaw : 35.43, Alt : 49.2999992371, Lat : 49.2836882, Lng : -123.1148954, Q1 : 0.942060887814, Q2 : 0.0437584705651, Q3 : -0.142077878118, Q4 : 0.300699859858}
2019-04-14 04:54:57.41: SIM {TimeUS : 60834823, Roll : -0.14, Pitch : -17.12, Yaw : 35.4, Alt : 49.2999992371, Lat : 49.2836913, Lng : -123.114892, Q1 : 0.942078173161, Q2 : 0.0440938286483, Q3 : -0.142228573561, Q4 : 0.300525397062}
2019-04-14 04:54:57.51: SIM {TimeUS : 60934783, Roll : -0.11, Pitch : -17.13, Yaw : 35.34, Alt : 49.2999992371, Lat : 49.2836944, Lng : -123.1148886, Q1 : 0.94221919775, Q2 : 0.0442868061364, Q3 : -0.142213746905, Q4 : 0.300061583519}
2019-04-14 04:54:57.61: SIM {TimeUS : 61034743, Roll : -0.07, Pitch : -17.13, Yaw : 35.26, Alt : 49.2999992371, Lat : 49.2836977, Lng : -123.1148852, Q1 : 0.942419409752, Q2 : 0.0444792509079, Q3 : -0.142218500376, Q4 : 0.299401372671}
2019-04-14 04:54:57.71: SIM {TimeUS : 61134703, Roll : -0.02, Pitch : -17.14, Yaw : 35.16, Alt : 49.2999992371, Lat : 49.2837009, Lng : -123.1148818, Q1 : 0.942638754845, Q2 : 0.0448472462595, Q3 : -0.142188698053, Q4 : 0.298669159412}
2019-04-14 04:54:57.81: SIM {TimeUS : 61234663, Roll : 0.04, Pitch : -17.16, Yaw : 35.06, Alt : 49.2999992371, Lat : 49.283704, Lng : -123.1148783, Q1 : 0.942843317986, Q2 : 0.0453107170761, Q3 : -0.142224505544, Q4 : 0.297935694456}
2019-04-14 04:54:57.91: SIM {TimeUS : 61334623, Roll : 0.11, Pitch : -17.2, Yaw : 34.97, Alt : 49.2999992371, Lat : 49.2837072, Lng : -123.1148748, Q1 : 0.943003058434, Q2 : 0.0459008142352, Q3 : -0.142361044884, Q4 : 0.297273755074}
2019-04-14 04:54:58.01: SIM {TimeUS : 61434583, Roll : 0.17, Pitch : -17.26, Yaw : 34.9, Alt : 49.2999992371, Lat : 49.2837105, Lng : -123.1148714, Q1 : 0.943093836308, Q2 : 0.0464809797704, Q3 : -0.142722040415, Q4 : 0.296722084284}
2019-04-14 04:54:58.11: SIM {TimeUS : 61534543, Roll : 0.21, Pitch : -17.3, Yaw : 34.84, Alt : 49.3100013733, Lat : 49.2837137, Lng : -123.1148679, Q1 : 0.943173527718, Q2 : 0.0468191988766, Q3 : -0.142959535122, Q4 : 0.296300977468}
2019-04-14 04:54:58.21: SIM {TimeUS : 61634503, Roll : 0.23, Pitch : -17.3, Yaw : 34.81, Alt : 49.3100013733, Lat : 49.2837169, Lng : -123.1148643, Q1 : 0.943259656429, Q2 : 0.0469032227993, Q3 : -0.142937004566, Q4 : 0.296024173498}
2019-04-14 04:54:58.31: SIM {TimeUS : 61735296, Roll : 0.23, Pitch : -17.3, Yaw : 34.79, Alt : 49.3100013733, Lat : 49.2837203, Lng : -123.1148608, Q1 : 0.943294227123, Q2 : 0.0469056405127, Q3 : -0.14300057292, Q4 : 0.29588291049}
2019-04-14 04:54:58.41: SIM {TimeUS : 61835256, Roll : 0.2, Pitch : -17.33, Yaw : 34.79, Alt : 49.3100013733, Lat : 49.2837235, Lng : -123.1148573, Q1 : 0.943282067776, Q2 : 0.0467199273407, Q3 : -0.143248334527, Q4 : 0.295831263065}
2019-04-14 04:54:58.51: SIM {TimeUS : 61935216, Roll : 0.17, Pitch : -17.35, Yaw : 34.8, Alt : 49.3100013733, Lat : 49.2837267, Lng : -123.1148537, Q1 : 0.943242073059, Q2 : 0.0465374216437, Q3 : -0.143514811993, Q4 : 0.295858383179}
2019-04-14 04:54:58.61: SIM {TimeUS : 62035176, Roll : 0.14, Pitch : -17.38, Yaw : 34.81, Alt : 49.3100013733, Lat : 49.2837301, Lng : -123.1148502, Q1 : 0.943171203136, Q2 : 0.0464117154479, Q3 : -0.14383302629, Q4 : 0.295949429274}
2019-04-14 04:54:58.71: SIM {TimeUS : 62135136, Roll : 0.12, Pitch : -17.41, Yaw : 34.83, Alt : 49.3100013733, Lat : 49.2837333, Lng : -123.1148466, Q1 : 0.943093597889, Q2 : 0.0463543981314, Q3 : -0.144094184041, Q4 : 0.296078830957}
2019-04-14 04:54:58.81: SIM {TimeUS : 62235096, Roll : 0.11, Pitch : -17.43, Yaw : 34.85, Alt : 49.3100013733, Lat : 49.2837367, Lng : -123.114843, Q1 : 0.943017244339, Q2 : 0.0463589094579, Q3 : -0.144319400191, Q4 : 0.296211540699}
2019-04-14 04:54:58.91: SIM {TimeUS : 62335056, Roll : 0.1, Pitch : -17.45, Yaw : 34.87, Alt : 49.3100013733, Lat : 49.2837399, Lng : -123.1148394, Q1 : 0.942957103252, Q2 : 0.0463696978986, Q3 : -0.144502282143, Q4 : 0.296312093735}
2019-04-14 04:54:59.01: SIM {TimeUS : 62435016, Roll : 0.11, Pitch : -17.47, Yaw : 34.87, Alt : 49.3100013733, Lat : 49.2837434, Lng : -123.1148358, Q1 : 0.942915201187, Q2 : 0.0464646443725, Q3 : -0.1446582973, Q4 : 0.296354413033}
2019-04-14 04:54:59.11: SIM {TimeUS : 62534976, Roll : 0.12, Pitch : -17.5, Yaw : 34.87, Alt : 49.3100013733, Lat : 49.2837466, Lng : -123.1148322, Q1 : 0.942882478237, Q2 : 0.0466113053262, Q3 : -0.144880875945, Q4 : 0.296326696873}
2019-04-14 04:54:59.21: SIM {TimeUS : 62634936, Roll : 0.11, Pitch : -17.54, Yaw : 34.86, Alt : 49.3100013733, Lat : 49.28375, Lng : -123.1148286, Q1 : 0.942863821983, Q2 : 0.0466651953757, Q3 : -0.145233869553, Q4 : 0.296204864979}
2019-04-14 04:54:59.31: SIM {TimeUS : 62734896, Roll : 0.09, Pitch : -17.58, Yaw : 34.84, Alt : 49.3199996948, Lat : 49.2837533, Lng : -123.1148248, Q1 : 0.942868351936, Q2 : 0.0465800501406, Q3 : -0.145627424121, Q4 : 0.296010434628}
2019-04-14 04:54:59.41: SIM {TimeUS : 62834856, Roll : 0.09, Pitch : -17.62, Yaw : 34.81, Alt : 49.3199996948, Lat : 49.2837567, Lng : -123.1148213, Q1 : 0.942883431911, Q2 : 0.046619489789, Q3 : -0.1459608078, Q4 : 0.295791953802}
2019-04-14 04:54:59.51: SIM {TimeUS : 62934816, Roll : 0.12, Pitch : -17.65, Yaw : 34.79, Alt : 49.3199996948, Lat : 49.28376, Lng : -123.1148177, Q1 : 0.942910671234, Q2 : 0.0468992106616, Q3 : -0.146102577448, Q4 : 0.295590937138}
2019-04-14 04:54:59.61: SIM {TimeUS : 63034776, Roll : 0.16, Pitch : -17.65, Yaw : 34.76, Alt : 49.3199996948, Lat : 49.2837635, Lng : -123.114814, Q1 : 0.942966282368, Q2 : 0.0471895560622, Q3 : -0.146020635962, Q4 : 0.295407742262}
2019-04-14 04:54:59.71: SIM {TimeUS : 63134736, Roll : 0.19, Pitch : -17.63, Yaw : 34.73, Alt : 49.3199996948, Lat : 49.2837668, Lng : -123.1148102, Q1 : 0.943044304848, Q2 : 0.0474020019174, Q3 : -0.145782768726, Q4 : 0.295242130756}
2019-04-14 04:54:59.81: SIM {TimeUS : 63234696, Roll : 0.2, Pitch : -17.61, Yaw : 34.71, Alt : 49.3199996948, Lat : 49.2837703, Lng : -123.1148067, Q1 : 0.943124830723, Q2 : 0.0473510436714, Q3 : -0.145651653409, Q4 : 0.295057713985}
2019-04-14 04:54:59.91: SIM {TimeUS : 63334656, Roll : 0.19, Pitch : -17.6, Yaw : 34.69, Alt : 49.3199996948, Lat : 49.2837737, Lng : -123.114803, Q1 : 0.943201601505, Q2 : 0.0472293794155, Q3 : -0.145563498139, Q4 : 0.294875144958}
2019-04-14 04:55:00.01: SIM {TimeUS : 63434616, Roll : 0.18, Pitch : -17.59, Yaw : 34.67, Alt : 49.3199996948, Lat : 49.283777, Lng : -123.1147993, Q1 : 0.943274319172, Q2 : 0.0471069514751, Q3 : -0.145485490561, Q4 : 0.294700711966}
2019-04-14 04:55:00.11: SIM {TimeUS : 63534576, Roll : 0.17, Pitch : -17.6, Yaw : 34.65, Alt : 49.3199996948, Lat : 49.2837805, Lng : -123.1147956, Q1 : 0.943309307098, Q2 : 0.0469822920859, Q3 : -0.145671412349, Q4 : 0.29451662302}
2019-04-14 04:55:00.21: SIM {TimeUS : 63634536, Roll : 0.15, Pitch : -17.64, Yaw : 34.63, Alt : 49.3199996948, Lat : 49.2837838, Lng : -123.1147919, Q1 : 0.943301916122, Q2 : 0.0469796620309, Q3 : -0.146041199565, Q4 : 0.294357508421}
2019-04-14 04:55:00.31: SIM {TimeUS : 63734496, Roll : 0.14, Pitch : -17.7, Yaw : 34.62, Alt : 49.3199996948, Lat : 49.2837873, Lng : -123.1147882, Q1 : 0.943273186684, Q2 : 0.0469672940671, Q3 : -0.146524980664, Q4 : 0.29421120882}
2019-04-14 04:55:00.41: SIM {TimeUS : 63835289, Roll : 0.14, Pitch : -17.76, Yaw : 34.61, Alt : 49.3199996948, Lat : 49.2837908, Lng : -123.1147844, Q1 : 0.943222105503, Q2 : 0.0470858961344, Q3 : -0.147053554654, Q4 : 0.294092237949}
2019-04-14 04:55:00.51: SIM {TimeUS : 63935249, Roll : 0.14, Pitch : -17.79, Yaw : 34.6, Alt : 49.3199996948, Lat : 49.2837942, Lng : -123.1147807, Q1 : 0.943206369877, Q2 : 0.047199446708, Q3 : -0.147285401821, Q4 : 0.294008404016}
2019-04-14 04:55:00.61: SIM {TimeUS : 64035209, Roll : 0.14, Pitch : -17.81, Yaw : 34.59, Alt : 49.3300018311, Lat : 49.2837977, Lng : -123.1147769, Q1 : 0.943201422691, Q2 : 0.0472654104233, Q3 : -0.147455468774, Q4 : 0.293928563595}
2019-04-14 04:55:00.71: SIM {TimeUS : 64135169, Roll : 0.14, Pitch : -17.82, Yaw : 34.58, Alt : 49.3300018311, Lat : 49.2838012, Lng : -123.1147731, Q1 : 0.943214714527, Q2 : 0.0472544394433, Q3 : -0.147551730275, Q4 : 0.293839246035}
2019-04-14 04:55:00.81: SIM {TimeUS : 64235129, Roll : 0.15, Pitch : -17.81, Yaw : 34.57, Alt : 49.3300018311, Lat : 49.2838045, Lng : -123.1147695, Q1 : 0.943255901337, Q2 : 0.0472769699991, Q3 : -0.147423744202, Q4 : 0.293767720461}
2019-04-14 04:55:00.91: SIM {TimeUS : 64335089, Roll : 0.17, Pitch : -17.81, Yaw : 34.56, Alt : 49.3300018311, Lat : 49.283808, Lng : -123.1147657, Q1 : 0.94327288866, Q2 : 0.0474215522408, Q3 : -0.147407010198, Q4 : 0.29369816184}
2019-04-14 04:55:01.01: SIM {TimeUS : 64435049, Roll : 0.18, Pitch : -17.83, Yaw : 34.54, Alt : 49.3300018311, Lat : 49.2838116, Lng : -123.114762, Q1 : 0.94327378273, Q2 : 0.0475493259728, Q3 : -0.147548243403, Q4 : 0.293603718281}
2019-04-14 04:55:01.11: SIM {TimeUS : 64535009, Roll : 0.19, Pitch : -17.85, Yaw : 34.53, Alt : 49.3300018311, Lat : 49.283815, Lng : -123.1147582, Q1 : 0.943277835846, Q2 : 0.0476494170725, Q3 : -0.147693112493, Q4 : 0.293501734734}
2019-04-14 04:55:01.21: SIM {TimeUS : 64634969, Roll : 0.2, Pitch : -17.85, Yaw : 34.52, Alt : 49.3300018311, Lat : 49.2838184, Lng : -123.1147545, Q1 : 0.943303346634, Q2 : 0.0477500706911, Q3 : -0.147692456841, Q4 : 0.293403625488}
2019-04-14 04:55:01.31: SIM {TimeUS : 64734929, Roll : 0.2, Pitch : -17.86, Yaw : 34.5, Alt : 49.3300018311, Lat : 49.283822, Lng : -123.1147506, Q1 : 0.943328022957, Q2 : 0.0477426946163, Q3 : -0.147774472833, Q4 : 0.293284118176}
2019-04-14 04:55:01.41: SIM {TimeUS : 64834889, Roll : 0.18, Pitch : -17.88, Yaw : 34.49, Alt : 49.3300018311, Lat : 49.2838255, Lng : -123.1147469, Q1 : 0.943343341351, Q2 : 0.0476144514978, Q3 : -0.148022010922, Q4 : 0.293130874634}
2019-04-14 04:55:01.51: SIM {TimeUS : 64934849, Roll : 0.15, Pitch : -17.93, Yaw : 34.47, Alt : 49.3300018311, Lat : 49.283829, Lng : -123.1147432, Q1 : 0.943340420723, Q2 : 0.0474471636117, Q3 : -0.148447960615, Q4 : 0.292952090502}
2019-04-14 04:55:01.61: SIM {TimeUS : 65034809, Roll : 0.13, Pitch : -17.94, Yaw : 34.46, Alt : 49.3300018311, Lat : 49.2838324, Lng : -123.1147394, Q1 : 0.943366527557, Q2 : 0.047343570739, Q3 : -0.148603484035, Q4 : 0.292805790901}
2019-04-14 04:55:01.71: SIM {TimeUS : 65134769, Roll : 0.14, Pitch : -17.93, Yaw : 34.45, Alt : 49.3300018311, Lat : 49.283836, Lng : -123.1147356, Q1 : 0.943411707878, Q2 : 0.0473480224609, Q3 : -0.148522675037, Q4 : 0.292700469494}
2019-04-14 04:55:01.81: SIM {TimeUS : 65234729, Roll : 0.16, Pitch : -17.92, Yaw : 34.43, Alt : 49.3300018311, Lat : 49.2838395, Lng : -123.1147318, Q1 : 0.943452477455, Q2 : 0.0474857464433, Q3 : -0.14838424325, Q4 : 0.292616844177}
2019-04-14 04:55:01.91: SIM {TimeUS : 65334689, Roll : 0.18, Pitch : -17.92, Yaw : 34.42, Alt : 49.3300018311, Lat : 49.283843, Lng : -123.114728, Q1 : 0.943478405476, Q2 : 0.0475941859186, Q3 : -0.148379981518, Q4 : 0.29251781106}
2019-04-14 04:55:02.01: SIM {TimeUS : 65434649, Roll : 0.17, Pitch : -17.94, Yaw : 34.4, Alt : 49.3300018311, Lat : 49.2838464, Lng : -123.1147242, Q1 : 0.943492412567, Q2 : 0.0475612916052, Q3 : -0.148545220494, Q4 : 0.292394071817}
2019-04-14 04:55:02.11: SIM {TimeUS : 65534609, Roll : 0.15, Pitch : -17.96, Yaw : 34.39, Alt : 49.3400001526, Lat : 49.28385, Lng : -123.1147204, Q1 : 0.943504333496, Q2 : 0.0474213510752, Q3 : -0.14878089726, Q4 : 0.29225859046}
2019-04-14 04:55:02.21: SIM {TimeUS : 65634569, Roll : 0.14, Pitch : -17.98, Yaw : 34.38, Alt : 49.3400001526, Lat : 49.2838536, Lng : -123.1147166, Q1 : 0.94351118803, Q2 : 0.047366194427, Q3 : -0.148983761668, Q4 : 0.292141914368}
2019-04-14 04:55:02.31: SIM {TimeUS : 65734529, Roll : 0.15, Pitch : -18.0, Yaw : 34.37, Alt : 49.3400001526, Lat : 49.2838571, Lng : -123.1147128, Q1 : 0.943510651588, Q2 : 0.0474807322025, Q3 : -0.149126797915, Q4 : 0.292052209377}
2019-04-14 04:55:02.41: SIM {TimeUS : 65835322, Roll : 0.16, Pitch : -18.02, Yaw : 34.36, Alt : 49.3400001526, Lat : 49.2838607, Lng : -123.114709, Q1 : 0.943508684635, Q2 : 0.0476249195635, Q3 : -0.149246379733, Q4 : 0.291973859072}
2019-04-14 04:55:02.51: SIM {TimeUS : 65935282, Roll : 0.18, Pitch : -18.03, Yaw : 34.35, Alt : 49.3400001526, Lat : 49.2838641, Lng : -123.1147052, Q1 : 0.943504869938, Q2 : 0.0478206910193, Q3 : -0.149282664061, Q4 : 0.291935652494}
2019-04-14 04:55:02.61: SIM {TimeUS : 66035242, Roll : 0.19, Pitch : -18.05, Yaw : 34.35, Alt : 49.3400001526, Lat : 49.2838676, Lng : -123.1147014, Q1 : 0.943495631218, Q2 : 0.0478942096233, Q3 : -0.149409890175, Q4 : 0.291888415813}
2019-04-14 04:55:02.71: SIM {TimeUS : 66135202, Roll : 0.19, Pitch : -18.07, Yaw : 34.34, Alt : 49.3400001526, Lat : 49.2838713, Lng : -123.1146976, Q1 : 0.943482220173, Q2 : 0.0479593575001, Q3 : -0.149569928646, Q4 : 0.29183909297}
2019-04-14 04:55:02.81: SIM {TimeUS : 66235162, Roll : 0.2, Pitch : -18.08, Yaw : 34.33, Alt : 49.3400001526, Lat : 49.2838748, Lng : -123.1146938, Q1 : 0.943473100662, Q2 : 0.0480520017445, Q3 : -0.149677917361, Q4 : 0.291797965765}
2019-04-14 04:55:02.91: SIM {TimeUS : 66335122, Roll : 0.22, Pitch : -18.09, Yaw : 34.33, Alt : 49.3400001526, Lat : 49.2838784, Lng : -123.1146898, Q1 : 0.943464100361, Q2 : 0.0482583865523, Q3 : -0.14969393611, Q4 : 0.291784763336}
2019-04-14 04:55:03.01: SIM {TimeUS : 66435082, Roll : 0.26, Pitch : -18.1, Yaw : 34.33, Alt : 49.3400001526, Lat : 49.2838819, Lng : -123.1146861, Q1 : 0.943449735641, Q2 : 0.0485930815339, Q3 : -0.149645715952, Q4 : 0.291800349951}
2019-04-14 04:55:03.11: SIM {TimeUS : 66535042, Roll : 0.26, Pitch : -18.09, Yaw : 34.32, Alt : 49.3400001526, Lat : 49.2838854, Lng : -123.1146823, Q1 : 0.943462729454, Q2 : 0.0486345104873, Q3 : -0.149585932493, Q4 : 0.291782170534}
2019-04-14 04:55:03.21: SIM {TimeUS : 66635002, Roll : 0.24, Pitch : -18.1, Yaw : 34.32, Alt : 49.3400001526, Lat : 49.283889, Lng : -123.1146785, Q1 : 0.943474531174, Q2 : 0.0484635084867, Q3 : -0.149717330933, Q4 : 0.291705131531}
2019-04-14 04:55:03.31: SIM {TimeUS : 66734962, Roll : 0.21, Pitch : -18.13, Yaw : 34.31, Alt : 49.3499984741, Lat : 49.2838925, Lng : -123.1146746, Q1 : 0.9434684515, Q2 : 0.0482911095023, Q3 : -0.149998962879, Q4 : 0.29160875082}
