2019-04-14 04:05:17.60: SIM {TimeUS : 40816167, Roll : 0.0, Pitch : 0.0, Yaw : 0.0, Alt : 30.1000003815, Lat : 49.28357, Lng : -123.11502, Q1 : 1.0, Q2 : 0.0, Q3 : 0.0, Q4 : 0.0}
2019-04-14 04:05:17.71: SIM {TimeUS : 40935286, Roll : 0.0, Pitch : 0.0, Yaw : 0.0, Alt : 30.1000003815, Lat : 49.28357, Lng : -123.11502, Q1 : 1.0, Q2 : 0.0, Q3 : 0.0, Q4 : 0.0}
2019-04-14 04:05:17.81: SIM {TimeUS : 41035246, Roll : 0.0, Pitch : 0.0, Yaw : 0.0, Alt : 30.1000003815, Lat : 49.28357, Lng : -123.11502, Q1 : 1.0, Q2 : 0.0, Q3 : 0.0, Q4 : 0.0}
2019-04-14 04:05:17.91: SIM {TimeUS : 41135206, Roll : 0.0, Pitch : 0.0, Yaw : 0.0, Alt : 30.1000003815, Lat : 49.28357, Lng : -123.11502, Q1 : 1.0, Q2 : 0.0, Q3 : 0.0, Q4 : 0.0}
2019-04-14 04:05:18.01: SIM {TimeUS : 41235166, Roll : 0.0, Pitch : 0.0, Yaw : 0.0, Alt : 30.1000003815, Lat : 49.28357, Lng : -123.11502, Q1 : 1.0, Q2 : 0.0, Q3 : 0.0, Q4 : 0.0}
2019-04-14 04:05:18.11: SIM {TimeUS : 41335126, Roll : 0.0, Pitch : 0.0, Yaw : 0.0, Alt : 30.1000003815, Lat : 49.28357, Lng : -123.11502, Q1 : 1.0, Q2 : 0.0, Q3 : 0.0, Q4 : 0.0}
2019-04-14 04:05:18.21: SIM {TimeUS : 41435086, Roll : 0.0, Pitch : 0.0, Yaw : 0.0, Alt : 30.1000003815, Lat : 49.28357, Lng : -123.11502, Q1 : 1.0, Q2 : 0.0, Q3 : 0.0, Q4 : 0.0}
2019-04-14 04:05:18.31: SIM {TimeUS : 41535046, Roll : 0.0, Pitch : 0.0, Yaw : 0.0, Alt : 30.1000003815, Lat : 49.28357, Lng : -123.11502, Q1 : 1.0, Q2 : 0.0, Q3 : 0.0, Q4 : 0.0}
2019-04-14 04:05:18.41: SIM {TimeUS : 41635006, Roll : 0.0, Pitch : 0.0, Yaw : 0.0, Alt : 30.1000003815, Lat : 49.28357, Lng : -123.11502, Q1 : 1.0, Q2 : 0.0, Q3 : 0.0, Q4 : 0.0}
2019-04-14 04:05:18.51: SIM {TimeUS : 41734966, Roll : 0.0, Pitch : 0.0, Yaw : 0.0, Alt : 30.1000003815, Lat : 49.28357, Lng : -123.11502, Q1 : 1.0, Q2 : 0.0, Q3 : 0.0, Q4 : 0.0}
2019-04-14 04:05:18.61: SIM {TimeUS : 41834926, Roll : 0.0, Pitch : 0.0, Yaw : 0.0, Alt : 30.1000003815, Lat : 49.28357, Lng : -123.11502, Q1 : 1.0, Q2 : 0.0, Q3 : 0.0, Q4 : 0.0}
2019-04-14 04:05:18.71: SIM {TimeUS : 41934886, Roll : 0.0, Pitch : 0.0, Yaw : 0.0, Alt : 30.1000003815, Lat : 49.28357, Lng : -123.11502, Q1 : 1.0, Q2 : 0.0, Q3 : 0.0, Q4 : 0.0}
2019-04-14 04:05:18.81: SIM {TimeUS : 42034846, Roll : 0.0, Pitch : 0.0, Yaw : 0.0, Alt : 30.1000003815, Lat : 49.28357, Lng : -123.11502, Q1 : 1.0, Q2 : 0.0, Q3 : 0.0, Q4 : 0.0}
2019-04-14 04:05:18.91: SIM {TimeUS : 42134806, Roll : 0.0, Pitch : 0.0, Yaw : 0.0, Alt : 30.1000003815, Lat : 49.28357, Lng : -123.11502, Q1 : 1.0, Q2 : 0.0, Q3 : 0.0, Q4 : 0.0}
2019-04-14 04:05:19.01: SIM {TimeUS : 42234766, Roll : 0.0, Pitch : 0.0, Yaw : 0.0, Alt : 30.1000003815, Lat : 49.28357, Lng : -123.11502, Q1 : 1.0, Q2 : 0.0, Q3 : 0.0, Q4 : 0.0}
2019-04-14 04:05:19.11: SIM {TimeUS : 42334726, Roll : 0.0, Pitch : 0.0, Yaw : 0.0, Alt : 30.1000003815, Lat : 49.28357, Lng : -123.11502, Q1 : 1.0, Q2 : 0.0, Q3 : 0.0, Q4 : 0.0}
2019-04-14 04:05:19.21: SIM {TimeUS : 42434686, Roll : 0.0, Pitch : 0.0, Yaw : 0.0, Alt : 30.1000003815, Lat : 49.28357, Lng : -123.11502, Q1 : 1.0, Q2 : 0.0, Q3 : 0.0, Q4 : 0.0}
2019-04-14 04:05:19.31: SIM {TimeUS : 42534646, Roll : 0.0, Pitch : 0.0, Yaw : 0.0, Alt : 30.1000003815, Lat : 49.28357, Lng : -123.11502, Q1 : 1.0, Q2 : 0.0, Q3 : 0.0, Q4 : 0.0}
2019-04-14 04:05:19.41: SIM {TimeUS : 42634606, Roll : 0.0, Pitch : 0.0, Yaw : 0.0, Alt : 30.1000003815, Lat : 49.28357, Lng : -123.11502, Q1 : 1.0, Q2 : 0.0, Q3 : 0.0, Q4 : 0.0}
2019-04-14 04:05:19.51: SIM {TimeUS : 42734566, Roll : 0.0, Pitch : 0.0, Yaw : 0.0, Alt : 30.1000003815, Lat : 49.28357, Lng : -123.11502, Q1 : 1.0, Q2 : 0.0, Q3 : 0.0, Q4 : 0.0}
2019-04-14 04:05:19.61: SIM {TimeUS : 42834526, Roll : 0.0, Pitch : 0.0, Yaw : 0.0, Alt : 30.1000003815, Lat : 49.28357, Lng : -123.11502, Q1 : 1.0, Q2 : 0.0, Q3 : 0.0, Q4 : 0.0}
2019-04-14 04:05:19.71: SIM {TimeUS : 42935319, Roll : 0.0, Pitch : 0.0, Yaw : 0.0, Alt : 30.1000003815, Lat : 49.28357, Lng : -123.11502, Q1 : 1.0, Q2 : 0.0, Q3 : 0.0, Q4 : 0.0}
2019-04-14 04:05:19.81: SIM {TimeUS : 43035279, Roll : 0.0, Pitch : 0.0, Yaw : 0.0, Alt : 30.1000003815, Lat : 49.28357, Lng : -123.11502, Q1 : 1.0, Q2 : 0.0, Q3 : 0.0, Q4 : 0.0}
2019-04-14 04:05:19.91: SIM {TimeUS : 43135239, Roll : 0.0, Pitch : 0.0, Yaw : 360.0, Alt : 30.1000003815, Lat : 49.28357, Lng : -123.11502, Q1 : 1.0, Q2 : 0.0, Q3 : 0.0, Q4 : -5.76911088346e-12}
2019-04-14 04:05:20.01: SIM {TimeUS : 43235199, Roll : 0.0, Pitch : 0.0, Yaw : 0.0, Alt : 30.1000003815, Lat : 49.28357, Lng : -123.11502, Q1 : 1.0, Q2 : 0.0, Q3 : 0.0, Q4 : 1.67138317075e-11}
2019-04-14 04:05:20.11: SIM {TimeUS : 43335159, Roll : 0.0, Pitch : 0.0, Yaw : 360.0, Alt : 30.1000003815, Lat : 49.28357, Lng : -123.11502, Q1 : 1.0, Q2 : 0.0, Q3 : 0.0, Q4 : -9.67275255448e-08}
2019-04-14 04:05:20.21: SIM {TimeUS : 43435119, Roll : 0.0, Pitch : 0.0, Yaw : 359.99, Alt : 30.1000003815, Lat : 49.28357, Lng : -123.11502, Q1 : 1.0, Q2 : 0.0, Q3 : 0.0, Q4 : -2.55648444636e-07}
2019-04-14 04:05:20.31: SIM {TimeUS : 43535079, Roll : 0.0, Pitch : 0.0, Yaw : 359.99, Alt : 30.1000003815, Lat : 49.28357, Lng : -123.11502, Q1 : 1.0, Q2 : 0.0, Q3 : 0.0, Q4 : -4.0333785023e-07}
2019-04-14 04:05:20.41: SIM {TimeUS : 43635039, Roll : 0.0, Pitch : 0.0, Yaw : 359.99, Alt : 30.1000003815, Lat : 49.28357, Lng : -123.11502, Q1 : 1.0, Q2 : 0.0, Q3 : 0.0, Q4 : -6.29609814951e-07}
2019-04-14 04:05:20.51: SIM {TimeUS : 43734999, Roll : 0.0, Pitch : 0.0, Yaw : 359.99, Alt : 30.1000003815, Lat : 49.28357, Lng : -123.11502, Q1 : 1.0, Q2 : 0.0, Q3 : 0.0, Q4 : -8.0263265545e-07}
2019-04-14 04:05:20.61: SIM {TimeUS : 43834959, Roll : 0.0, Pitch : 0.0, Yaw : 359.99, Alt : 30.1000003815, Lat : 49.28357, Lng : -123.11502, Q1 : 1.0, Q2 : 0.0, Q3 : 0.0, Q4 : -9.62719468589e-07}
2019-04-14 04:05:20.71: SIM {TimeUS : 43934919, Roll : 0.0, Pitch : 0.0, Yaw : 359.99, Alt : 30.1000003815, Lat : 49.28357, Lng : -123.11502, Q1 : 1.0, Q2 : 0.0, Q3 : 0.0, Q4 : -1.20428239825e-06}
2019-04-14 04:05:20.81: SIM {TimeUS : 44034879, Roll : 0.0, Pitch : 0.0, Yaw : 359.99, Alt : 30.1100006104, Lat : 49.28357, Lng : -123.11502, Q1 : 1.0, Q2 : 0.0, Q3 : 0.0, Q4 : -1.42805185988e-06}
2019-04-14 04:05:20.91: SIM {TimeUS : 44134839, Roll : 0.0, Pitch : 0.0, Yaw : 359.99, Alt : 30.1299991608, Lat : 49.28357, Lng : -123.11502, Q1 : 1.0, Q2 : 0.0, Q3 : 0.0, Q4 : -1.61016384936e-06}
2019-04-14 04:05:21.01: SIM {TimeUS : 44234799, Roll : 0.0, Pitch : 0.0, Yaw : 359.99, Alt : 30.1499996185, Lat : 49.28357, Lng : -123.11502, Q1 : 1.0, Q2 : 0.0, Q3 : 0.0, Q4 : -1.85316901025e-06}
2019-04-14 04:05:21.11: SIM {TimeUS : 44334759, Roll : 0.0, Pitch : 0.0, Yaw : 359.99, Alt : 30.1900005341, Lat : 49.28357, Lng : -123.11502, Q1 : 1.0, Q2 : 0.0, Q3 : 0.0, Q4 : -2.01687339541e-06}
2019-04-14 04:05:21.21: SIM {TimeUS : 44434719, Roll : -0.02, Pitch : -0.02, Yaw : 359.99, Alt : 30.2299995422, Lat : 49.28357, Lng : -123.11502, Q1 : 0.999999940395, Q2 : -0.000260012893705, Q3 : -0.000253097881796, Q4 : -3.2687410112e-06}
2019-04-14 04:05:21.31: SIM {TimeUS : 44534679, Roll : -0.27, Pitch : -0.23, Yaw : 359.99, Alt : 30.2999992371, Lat : 49.28357, Lng : -123.11502, Q1 : 0.99999499321, Q2 : -0.00243157497607, Q3 : -0.00202836096287, Q4 : -2.58296458924e-05}
2019-04-14 04:05:21.41: SIM {TimeUS : 44634639, Roll : -0.6, Pitch : -0.48, Yaw : 359.99, Alt : 30.4400005341, Lat : 49.28357, Lng : -123.11502, Q1 : 0.99997729063, Q2 : -0.00526109943166, Q3 : -0.00421070400625, Q4 : -7.302184531e-05}
2019-04-14 04:05:21.51: SIM {TimeUS : 44734599, Roll : -0.81, Pitch : -0.66, Yaw : 359.98, Alt : 30.5900001526, Lat : 49.28357, Lng : -123.11502, Q1 : 0.999958097935, Q2 : -0.00709364004433, Q3 : -0.0057843499817, Q4 : -0.000137309587444}
2019-04-14 04:05:21.61: SIM {TimeUS : 44834559, Roll : -0.84, Pitch : -0.71, Yaw : 359.98, Alt : 30.75, Lat : 49.28357, Lng : -123.11502, Q1 : 0.999953150749, Q2 : -0.0073714600876, Q3 : -0.00626815576106, Q4 : -0.000208825862501}
2019-04-14 04:05:21.71: SIM {TimeUS : 44934519, Roll : -0.72, Pitch : -0.64, Yaw : 359.97, Alt : 30.9099998474, Lat : 49.28357, Lng : -123.1150201, Q1 : 0.999963998795, Q2 : -0.00631999922916, Q3 : -0.00565671361983, Q4 : -0.00027901129215}
2019-04-14 04:05:21.81: SIM {TimeUS : 45035312, Roll : -0.5, Pitch : -0.49, Yaw : 359.96, Alt : 31.0599994659, Lat : 49.2835701, Lng : -123.1150201, Q1 : 0.999980807304, Q2 : -0.00444349693134, Q3 : -0.00430608121678, Q4 : -0.000343647407135}
2019-04-14 04:05:21.91: SIM {TimeUS : 45135272, Roll : -0.27, Pitch : -0.29, Yaw : 359.95, Alt : 31.2199993134, Lat : 49.2835701, Lng : -123.1150202, Q1 : 0.999993681908, Q2 : -0.00238521327265, Q3 : -0.00260064774193, Q4 : -0.000395026698243}
2019-04-14 04:05:22.01: SIM {TimeUS : 45235232, Roll : -0.08, Pitch : -0.11, Yaw : 359.95, Alt : 31.3899993896, Lat : 49.2835702, Lng : -123.1150203, Q1 : 0.999999165535, Q2 : -0.000723203993402, Q3 : -0.00095966126537, Q4 : -0.000435676134657}
2019-04-14 04:05:22.11: SIM {TimeUS : 45335192, Roll : 0.02, Pitch : 0.02, Yaw : 359.94, Alt : 31.5599994659, Lat : 49.2835702, Lng : -123.1150203, Q1 : 0.999999821186, Q2 : 0.00025672162883, Q3 : 0.000260104279732, Q4 : -0.000470012921141}
2019-04-14 04:05:22.21: SIM {TimeUS : 45435152, Roll : 0.06, Pitch : 0.1, Yaw : 359.94, Alt : 31.7299995422, Lat : 49.2835702, Lng : -123.1150204, Q1 : 0.999999284744, Q2 : 0.000564725545701, Q3 : 0.000933340459596, Q4 : -0.000495451968163}
2019-04-14 04:05:22.31: SIM {TimeUS : 45535112, Roll : 0.07, Pitch : 0.14, Yaw : 359.94, Alt : 31.9099998474, Lat : 49.2835703, Lng : -123.1150205, Q1 : 0.999998927116, Q2 : 0.000671095447615, Q3 : 0.00122791307513, Q4 : -0.000497831555549}
2019-04-14 04:05:22.41: SIM {TimeUS : 45635072, Roll : 0.07, Pitch : 0.12, Yaw : 359.94, Alt : 32.0999984741, Lat : 49.2835703, Lng : -123.1150205, Q1 : 0.999999046326, Q2 : 0.000697815266903, Q3 : 0.00112648040522, Q4 : -0.000476362358313}
2019-04-14 04:05:22.51: SIM {TimeUS : 45735032, Roll : 0.07, Pitch : 0.11, Yaw : 359.94, Alt : 32.2900009155, Lat : 49.2835703, Lng : -123.1150206, Q1 : 0.999999165535, Q2 : 0.000696011353284, Q3 : 0.00100174208637, Q4 : -0.000451883272035}
2019-04-14 04:05:22.61: SIM {TimeUS : 45834992, Roll : 0.07, Pitch : 0.1, Yaw : 359.95, Alt : 32.4799995422, Lat : 49.2835703, Lng : -123.1150206, Q1 : 0.99999922514, Q2 : 0.000648501911201, Q3 : 0.000942615850363, Q4 : -0.000428197206929}
2019-04-14 04:05:22.71: SIM {TimeUS : 45934952, Roll : 0.08, Pitch : 0.09, Yaw : 359.95, Alt : 32.6699981689, Lat : 49.2835703, Lng : -123.1150207, Q1 : 0.999999344349, Q2 : 0.000711853674147, Q3 : 0.000794464780483, Q4 : -0.000414973212173}
2019-04-14 04:05:22.81: SIM {TimeUS : 46034912, Roll : 0.09, Pitch : 0.07, Yaw : 359.95, Alt : 32.8699989319, Lat : 49.2835703, Lng : -123.1150207, Q1 : 0.999999344349, Q2 : 0.000859324354678, Q3 : 0.000641848833766, Q4 : -0.000403561920393}
2019-04-14 04:05:22.91: SIM {TimeUS : 46134872, Roll : 0.11, Pitch : 0.08, Yaw : 359.95, Alt : 33.0699996948, Lat : 49.2835704, Lng : -123.1150207, Q1 : 0.99999910593, Q2 : 0.00100981467403, Q3 : 0.000756015011575, Q4 : -0.000399936980102}
2019-04-14 04:05:23.01: SIM {TimeUS : 46234832, Roll : 0.13, Pitch : 0.1, Yaw : 359.95, Alt : 33.2700004578, Lat : 49.2835704, Lng : -123.1150207, Q1 : 0.999998867512, Q2 : 0.00116346112918, Q3 : 0.000898942293134, Q4 : -0.000398859381676}
2019-04-14 04:05:23.11: SIM {TimeUS : 46334792, Roll : 0.15, Pitch : 0.12, Yaw : 359.95, Alt : 33.4799995422, Lat : 49.2835704, Lng : -123.1150208, Q1 : 0.999998450279, Q2 : 0.0013222435955, Q3 : 0.00109816330951, Q4 : -0.000404363323469}
2019-04-14 04:05:23.21: SIM {TimeUS : 46434752, Roll : 0.15, Pitch : 0.14, Yaw : 359.95, Alt : 33.6899986267, Lat : 49.2835704, Lng : -123.1150208, Q1 : 0.999998211861, Q2 : 0.00139523332473, Q3 : 0.00122337788343, Q4 : -0.000413869769545}
2019-04-14 04:05:23.31: SIM {TimeUS : 46534712, Roll : 0.14, Pitch : 0.13, Yaw : 359.95, Alt : 33.8899993896, Lat : 49.2835704, Lng : -123.1150208, Q1 : 0.99999833107, Q2 : 0.0012964628404, Q3 : 0.00121442880481, Q4 : -0.000428329425631}
2019-04-14 04:05:23.41: SIM {TimeUS : 46634672, Roll : 0.13, Pitch : 0.13, Yaw : 359.94, Alt : 34.0999984741, Lat : 49.2835704, Lng : -123.1150208, Q1 : 0.999998509884, Q2 : 0.00115760194603, Q3 : 0.00118230760563, Q4 : -0.000449742539786}
2019-04-14 04:05:23.51: SIM {TimeUS : 46734632, Roll : 0.11, Pitch : 0.12, Yaw : 359.94, Alt : 34.3199996948, Lat : 49.2835704, Lng : -123.1150208, Q1 : 0.999998807907, Q2 : 0.000969222164713, Q3 : 0.00111058808398, Q4 : -0.000476674409583}
2019-04-14 04:05:23.61: SIM {TimeUS : 46834592, Roll : 0.09, Pitch : 0.09, Yaw : 359.94, Alt : 34.5299987793, Lat : 49.2835704, Lng : -123.1150208, Q1 : 0.99999922514, Q2 : 0.000856096623465, Q3 : 0.00079199008178, Q4 : -0.000511186430231}
2019-04-14 04:05:23.71: SIM {TimeUS : 46934552, Roll : 0.08, Pitch : 0.05, Yaw : 359.93, Alt : 34.7400016785, Lat : 49.2835704, Lng : -123.1150208, Q1 : 0.999999403954, Q2 : 0.000785567739513, Q3 : 0.000488171208417, Q4 : -0.000549835385755}
2019-04-14 04:05:23.81: SIM {TimeUS : 47034512, Roll : 0.07, Pitch : 0.03, Yaw : 359.93, Alt : 34.9599990845, Lat : 49.2835704, Lng : -123.1150207, Q1 : 0.999999582767, Q2 : 0.000621122890152, Q3 : 0.000301048537949, Q4 : -0.000587751623243}
2019-04-14 04:05:23.91: SIM {TimeUS : 47135305, Roll : 0.05, Pitch : 0.02, Yaw : 359.92, Alt : 35.1800003052, Lat : 49.2835704, Lng : -123.1150207, Q1 : 0.999999642372, Q2 : 0.000507391232532, Q3 : 0.000248138356255, Q4 : -0.000621020561084}
2019-04-14 04:05:24.01: SIM {TimeUS : 47235265, Roll : 0.05, Pitch : 0.02, Yaw : 359.92, Alt : 35.3899993896, Lat : 49.2835704, Lng : -123.1150207, Q1 : 0.999999642372, Q2 : 0.000488433113787, Q3 : 0.000235516708926, Q4 : -0.000650140224025}
2019-04-14 04:05:24.11: SIM {TimeUS : 47335225, Roll : 0.03, Pitch : 0.0, Yaw : 359.92, Alt : 35.6100006104, Lat : 49.2835704, Lng : -123.1150207, Q1 : 0.999999761581, Q2 : 0.000298577360809, Q3 : 6.66595733492e-05, Q4 : -0.000676883326378}
2019-04-14 04:05:24.21: SIM {TimeUS : 47435185, Roll : 0.0, Pitch : -0.02, Yaw : 359.91, Alt : 35.8300018311, Lat : 49.2835704, Lng : -123.1150207, Q1 : 0.999999761581, Q2 : -4.30638501712e-05, Q3 : -0.000211555568967, Q4 : -0.00070080725709}
2019-04-14 04:05:24.31: SIM {TimeUS : 47535145, Roll : -0.04, Pitch : -0.04, Yaw : 359.91, Alt : 36.0499992371, Lat : 49.2835704, Lng : -123.1150207, Q1 : 0.999999582767, Q2 : -0.000409764121287, Q3 : -0.000415552553022, Q4 : -0.000725921418052}
2019-04-14 04:05:24.41: SIM {TimeUS : 47635105, Roll : -0.08, Pitch : -0.06, Yaw : 359.91, Alt : 36.2700004578, Lat : 49.2835704, Lng : -123.1150207, Q1 : 0.999999344349, Q2 : -0.00071029656101, Q3 : -0.000523827329744, Q4 : -0.000748011399992}
2019-04-14 04:05:24.51: SIM {TimeUS : 47735065, Roll : -0.08, Pitch : -0.06, Yaw : 359.91, Alt : 36.4900016785, Lat : 49.2835704, Lng : -123.1150206, Q1 : 0.999999284744, Q2 : -0.000750576553401, Q3 : -0.000568776740693, Q4 : -0.000761719653383}
2019-04-14 04:05:24.61: SIM {TimeUS : 47835025, Roll : -0.07, Pitch : -0.06, Yaw : 359.91, Alt : 36.7200012207, Lat : 49.2835704, Lng : -123.1150206, Q1 : 0.999999284744, Q2 : -0.000693294743542, Q3 : -0.000576527498197, Q4 : -0.000773132720497}
2019-04-14 04:05:24.71: SIM {TimeUS : 47934985, Roll : -0.06, Pitch : -0.05, Yaw : 359.9, Alt : 36.9399986267, Lat : 49.2835704, Lng : -123.1150206, Q1 : 0.999999403954, Q2 : -0.000571680895519, Q3 : -0.000461166404421, Q4 : -0.000788381381426}
2019-04-14 04:05:24.81: SIM {TimeUS : 48034945, Roll : -0.04, Pitch : -0.04, Yaw : 359.9, Alt : 37.1599998474, Lat : 49.2835704, Lng : -123.1150206, Q1 : 0.999999523163, Q2 : -0.00040916641592, Q3 : -0.000393767666537, Q4 : -0.00080375361722}
2019-04-14 04:05:24.91: SIM {TimeUS : 48134905, Roll : -0.05, Pitch : -0.04, Yaw : 359.9, Alt : 37.3899993896, Lat : 49.2835704, Lng : -123.1150206, Q1 : 0.999999463558, Q2 : -0.000444879377028, Q3 : -0.00041652424261, Q4 : -0.000815655221231}
2019-04-14 04:05:25.01: SIM {TimeUS : 48234865, Roll : -0.06, Pitch : -0.03, Yaw : 359.9, Alt : 37.6100006104, Lat : 49.2835704, Lng : -123.1150206, Q1 : 0.999999463558, Q2 : -0.000583004963119, Q3 : -0.00026506971335, Q4 : -0.000830996781588}
2019-04-14 04:05:25.11: SIM {TimeUS : 48334825, Roll : -0.09, Pitch : 0.0, Yaw : 359.9, Alt : 37.8400001526, Lat : 49.2835704, Lng : -123.1150206, Q1 : 0.999999344349, Q2 : -0.000828595308121, Q3 : -7.11637840141e-05, Q4 : -0.00085067935288}
2019-04-14 04:05:25.21: SIM {TimeUS : 48434785, Roll : -0.1, Pitch : 0.0, Yaw : 359.9, Alt : 38.0699996948, Lat : 49.2835704, Lng : -123.1150206, Q1 : 0.99999922514, Q2 : -0.000892971467692, Q3 : 8.10199635453e-05, Q4 : -0.000864067405928}
2019-04-14 04:05:25.31: SIM {TimeUS : 48534745, Roll : -0.08, Pitch : 0.03, Yaw : 359.89, Alt : 38.2900009155, Lat : 49.2835704, Lng : -123.1150206, Q1 : 0.999999284744, Q2 : -0.000720856653061, Q3 : 0.000335413555149, Q4 : -0.000879735685885}
2019-04-14 04:05:25.41: SIM {TimeUS : 48634705, Roll : -0.05, Pitch : 0.03, Yaw : 359.89, Alt : 38.5200004578, Lat : 49.2835704, Lng : -123.1150206, Q1 : 0.999999403954, Q2 : -0.000513792911079, Q3 : 0.000285998015897, Q4 : -0.000898268830497}
2019-04-14 04:05:25.51: SIM {TimeUS : 48734665, Roll : -0.02, Pitch : 0.01, Yaw : 359.89, Alt : 38.75, Lat : 49.2835704, Lng : -123.1150206, Q1 : 0.999999523163, Q2 : -0.000260541477473, Q3 : 0.000157569724252, Q4 : -0.000915740267374}
2019-04-14 04:05:25.61: SIM {TimeUS : 48834625, Roll : 0.0, Pitch : 0.02, Yaw : 359.89, Alt : 38.9799995422, Lat : 49.2835706, Lng : -123.1150206, Q1 : 0.999999523163, Q2 : 5.57984349143e-05, Q3 : 0.000235368876019, Q4 : -0.000934446579777}
2019-04-14 04:05:25.71: SIM {TimeUS : 48934585, Roll : 0.04, Pitch : 0.05, Yaw : 359.88, Alt : 39.2099990845, Lat : 49.2835706, Lng : -123.1150206, Q1 : 0.999999344349, Q2 : 0.000380761688575, Q3 : 0.000465982127935, Q4 : -0.000960305391345}
2019-04-14 04:05:25.81: SIM {TimeUS : 49034545, Roll : 0.07, Pitch : 0.07, Yaw : 359.88, Alt : 39.4399986267, Lat : 49.2835706, Lng : -123.1150206, Q1 : 0.999999046326, Q2 : 0.000642675615381, Q3 : 0.000693930021953, Q4 : -0.000989893218502}
2019-04-14 04:05:25.91: SIM {TimeUS : 49134505, Roll : 0.06, Pitch : 0.1, Yaw : 359.88, Alt : 39.6699981689, Lat : 49.2835706, Lng : -123.1150206, Q1 : 0.999998927116, Q2 : 0.00058296212228, Q3 : 0.000895286735613, Q4 : -0.00101411447395}
2019-04-14 04:05:26.01: SIM {TimeUS : 49235298, Roll : 0.02, Pitch : 0.12, Yaw : 359.87, Alt : 39.9000015259, Lat : 49.2835706, Lng : -123.1150206, Q1 : 0.999998807907, Q2 : 0.000190411505173, Q3 : 0.00107859109994, Q4 : -0.00105690967757}
2019-04-14 04:05:26.11: SIM {TimeUS : 49335258, Roll : -0.01, Pitch : 0.12, Yaw : 359.87, Alt : 40.1300010681, Lat : 49.2835706, Lng : -123.1150206, Q1 : 0.999998748302, Q2 : -0.000120511940622, Q3 : 0.00113260722719, Q4 : -0.00109271216206}
2019-04-14 04:05:26.21: SIM {TimeUS : 49435218, Roll : -0.04, Pitch : 0.11, Yaw : 359.87, Alt : 40.3600006104, Lat : 49.2835706, Lng : -123.1150206, Q1 : 0.999998748302, Q2 : -0.000361367565347, Q3 : 0.00103126349859, Q4 : -0.00112089305185}
2019-04-14 04:05:26.31: SIM {TimeUS : 49535178, Roll : -0.05, Pitch : 0.11, Yaw : 359.86, Alt : 40.5999984741, Lat : 49.2835706, Lng : -123.1150206, Q1 : 0.999998748302, Q2 : -0.000473115243949, Q3 : 0.00099113676697, Q4 : -0.0011518598767}
2019-04-14 04:05:26.41: SIM {TimeUS : 49635138, Roll : -0.04, Pitch : 0.13, Yaw : 359.86, Alt : 40.8300018311, Lat : 49.2835706, Lng : -123.1150206, Q1 : 0.999998569489, Q2 : -0.00036808103323, Q3 : 0.00116479210556, Q4 : -0.00118745781947}
2019-04-14 04:05:26.51: SIM {TimeUS : 49735098, Roll : 0.0, Pitch : 0.16, Yaw : 359.85, Alt : 41.0600013733, Lat : 49.2835706, Lng : -123.1150207, Q1 : 0.999998271465, Q2 : 2.04022053367e-05, Q3 : 0.00139948178548, Q4 : -0.00122539722361}
2019-04-14 04:05:26.61: SIM {TimeUS : 49835058, Roll : 0.05, Pitch : 0.17, Yaw : 359.85, Alt : 41.2999992371, Lat : 49.2835706, Lng : -123.1150207, Q1 : 0.999997973442, Q2 : 0.000477919413242, Q3 : 0.00149334874004, Q4 : -0.0012607142562}
2019-04-14 04:05:26.71: SIM {TimeUS : 49935018, Roll : 0.09, Pitch : 0.13, Yaw : 359.85, Alt : 41.5299987793, Lat : 49.2835706, Lng : -123.1150207, Q1 : 0.999998152256, Q2 : 0.000789826561231, Q3 : 0.0011836955091, Q4 : -0.00128983869217}
2019-04-14 04:05:26.81: SIM {TimeUS : 50034978, Roll : 0.09, Pitch : 0.08, Yaw : 359.84, Alt : 41.7599983215, Lat : 49.2835706, Lng : -123.1150207, Q1 : 0.999998569489, Q2 : 0.00079509941861, Q3 : 0.000705360027496, Q4 : -0.00131187262014}
2019-04-14 04:05:26.91: SIM {TimeUS : 50134938, Roll : 0.05, Pitch : 0.04, Yaw : 359.84, Alt : 42.0, Lat : 49.2835706, Lng : -123.1150207, Q1 : 0.999998927116, Q2 : 0.000485523894895, Q3 : 0.000370925699826, Q4 : -0.00132589193527}
2019-04-14 04:05:27.01: SIM {TimeUS : 50234898, Roll : 0.0, Pitch : 0.03, Yaw : 359.84, Alt : 42.2299995422, Lat : 49.2835706, Lng : -123.1150207, Q1 : 0.99999910593, Q2 : 2.81749016722e-05, Q3 : 0.00027064664755, Q4 : -0.00133073166944}
2019-04-14 04:05:27.11: SIM {TimeUS : 50334858, Roll : -0.03, Pitch : 0.05, Yaw : 359.84, Alt : 42.4599990845, Lat : 49.2835706, Lng : -123.1150207, Q1 : 0.999998986721, Q2 : -0.000261649751337, Q3 : 0.000479874230223, Q4 : -0.0013265212765}
2019-04-14 04:05:27.21: SIM {TimeUS : 50434818, Roll : -0.04, Pitch : 0.07, Yaw : 359.84, Alt : 42.7000007629, Lat : 49.2835704, Lng : -123.1150207, Q1 : 0.999998867512, Q2 : -0.000402745208703, Q3 : 0.000651189649943, Q4 : -0.00131985871121}
2019-04-14 04:05:27.31: SIM {TimeUS : 50534778, Roll : -0.04, Pitch : 0.07, Yaw : 359.84, Alt : 42.9300003052, Lat : 49.2835704, Lng : -123.1150206, Q1 : 0.999998867512, Q2 : -0.000391212961404, Q3 : 0.000629598973319, Q4 : -0.00131939002313}
2019-04-14 04:05:27.41: SIM {TimeUS : 50634738, Roll : -0.04, Pitch : 0.05, Yaw : 359.84, Alt : 43.1699981689, Lat : 49.2835704, Lng : -123.1150206, Q1 : 0.999998927116, Q2 : -0.000399274023948, Q3 : 0.00050027918769, Q4 : -0.00132682989351}
2019-04-14 04:05:27.51: SIM {TimeUS : 50734698, Roll : -0.03, Pitch : 0.04, Yaw : 359.84, Alt : 43.4000015259, Lat : 49.2835704, Lng : -123.1150206, Q1 : 0.999998986721, Q2 : -0.000324735563481, Q3 : 0.000380604265956, Q4 : -0.00134359928779}
2019-04-14 04:05:27.61: SIM {TimeUS : 50834658, Roll : -0.01, Pitch : 0.03, Yaw : 359.84, Alt : 43.6399993896, Lat : 49.2835704, Lng : -123.1150206, Q1 : 0.999998986721, Q2 : -0.000156214446179, Q3 : 0.000331243616529, Q4 : -0.00137232139241}
2019-04-14 04:05:27.71: SIM {TimeUS : 50934618, Roll : 0.0, Pitch : 0.03, Yaw : 359.83, Alt : 43.8699989319, Lat : 49.2835704, Lng : -123.1150206, Q1 : 0.999998986721, Q2 : -4.41068586952e-05, Q3 : 0.000317285797792, Q4 : -0.0014067501761}
2019-04-14 04:05:27.81: SIM {TimeUS : 51034578, Roll : 0.0, Pitch : 0.01, Yaw : 359.83, Alt : 44.1100006104, Lat : 49.2835704, Lng : -123.1150206, Q1 : 0.999998986721, Q2 : -5.66424823774e-05, Q3 : 0.0001584772981, Q4 : -0.0014365183888}
2019-04-14 04:05:27.91: SIM {TimeUS : 51134538, Roll : -0.01, Pitch : -0.01, Yaw : 359.83, Alt : 44.3499984741, Lat : 49.2835704, Lng : -123.1150206, Q1 : 0.999998927116, Q2 : -0.000123881400214, Q3 : -0.000149334271555, Q4 : -0.0014630072983}
2019-04-14 04:05:28.01: SIM {TimeUS : 51234498, Roll : -0.01, Pitch : -0.03, Yaw : 359.82, Alt : 44.5800018311, Lat : 49.2835704, Lng : -123.1150206, Q1 : 0.999998807907, Q2 : -0.000161443182151, Q3 : -0.000342861982062, Q4 : -0.00149606901687}
2019-04-14 04:05:28.11: SIM {TimeUS : 51335291, Roll : -0.01, Pitch : -0.05, Yaw : 359.82, Alt : 44.8199996948, Lat : 49.2835704, Lng : -123.1150206, Q1 : 0.999998688698, Q2 : -0.000157012982527, Q3 : -0.000441868032794, Q4 : -0.00153294205666}
2019-04-14 04:05:28.21: SIM {TimeUS : 51435251, Roll : -0.02, Pitch : -0.05, Yaw : 359.82, Alt : 45.0600013733, Lat : 49.2835703, Lng : -123.1150206, Q1 : 0.999998629093, Q2 : -0.000239079658058, Q3 : -0.000479069363791, Q4 : -0.00156655698083}
2019-04-14 04:05:28.31: SIM {TimeUS : 51535211, Roll : -0.05, Pitch : -0.04, Yaw : 359.81, Alt : 45.2900009155, Lat : 49.2835703, Lng : -123.1150206, Q1 : 0.999998509884, Q2 : -0.000492374703754, Q3 : -0.000410440174164, Q4 : -0.00159923033789}
2019-04-14 04:05:28.41: SIM {TimeUS : 51635171, Roll : -0.09, Pitch : -0.03, Yaw : 359.81, Alt : 45.5299987793, Lat : 49.2835703, Lng : -123.1150206, Q1 : 0.999998271465, Q2 : -0.000822360510938, Q3 : -0.00034063111525, Q4 : -0.00163383968174}
2019-04-14 04:05:28.51: SIM {TimeUS : 51735131, Roll : -0.11, Pitch : -0.03, Yaw : 359.8, Alt : 45.7599983215, Lat : 49.2835703, Lng : -123.1150206, Q1 : 0.999998033047, Q2 : -0.00102215923835, Q3 : -0.000273081299383, Q4 : -0.00167035544291}
2019-04-14 04:05:28.61: SIM {TimeUS : 51835091, Roll : -0.11, Pitch : -0.01, Yaw : 359.8, Alt : 45.9900016785, Lat : 49.2835703, Lng : -123.1150206, Q1 : 0.999997973442, Q2 : -0.00103384524118, Q3 : -0.000131286564283, Q4 : -0.00170674396213}
2019-04-14 04:05:28.71: SIM {TimeUS : 51935051, Roll : -0.1, Pitch : 0.01, Yaw : 359.8, Alt : 46.2200012207, Lat : 49.2835703, Lng : -123.1150206, Q1 : 0.999998092651, Q2 : -0.000881388376001, Q3 : 9.99895637506e-05, Q4 : -0.00173894152977}
2019-04-14 04:05:28.81: SIM {TimeUS : 52035011, Roll : -0.07, Pitch : 0.02, Yaw : 359.79, Alt : 46.4500007629, Lat : 49.2835703, Lng : -123.1150206, Q1 : 0.999998211861, Q2 : -0.000623069470748, Q3 : 0.000224383664317, Q4 : -0.00176693010144}
2019-04-14 04:05:28.91: SIM {TimeUS : 52134971, Roll : -0.04, Pitch : 0.01, Yaw : 359.79, Alt : 46.6699981689, Lat : 49.2835703, Lng : -123.1150206, Q1 : 0.99999833107, Q2 : -0.000409466651035, Q3 : 0.000170312676346, Q4 : -0.0017899973318}
2019-04-14 04:05:29.01: SIM {TimeUS : 52234931, Roll : -0.03, Pitch : 0.0, Yaw : 359.79, Alt : 46.8800010681, Lat : 49.2835703, Lng : -123.1150206, Q1 : 0.99999833107, Q2 : -0.000308573653456, Q3 : -1.81413834071e-05, Q4 : -0.00181050505489}
2019-04-14 04:05:29.11: SIM {TimeUS : 52334891, Roll : -0.01, Pitch : -0.03, Yaw : 359.79, Alt : 47.0900001526, Lat : 49.2835703, Lng : -123.1150206, Q1 : 0.999998271465, Q2 : -0.000159105504281, Q3 : -0.000306468980853, Q4 : -0.00182736350689}
2019-04-14 04:05:29.21: SIM {TimeUS : 52434851, Roll : 0.0, Pitch : -0.06, Yaw : 359.78, Alt : 47.2900009155, Lat : 49.2835703, Lng : -123.1150206, Q1 : 0.999998152256, Q2 : 2.0144840164e-05, Q3 : -0.000539389147889, Q4 : -0.00184320728295}
2019-04-14 04:05:29.31: SIM {TimeUS : 52534811, Roll : 0.01, Pitch : -0.08, Yaw : 359.78, Alt : 47.4799995422, Lat : 49.2835703, Lng : -123.1150206, Q1 : 0.999998033047, Q2 : 9.89726613625e-05, Q3 : -0.000729172024876, Q4 : -0.00186073861551}
2019-04-14 04:05:29.41: SIM {TimeUS : 52634771, Roll : 0.0, Pitch : -0.11, Yaw : 359.78, Alt : 47.6599998474, Lat : 49.2835703, Lng : -123.1150206, Q1 : 0.999997735023, Q2 : 6.99860975146e-05, Q3 : -0.000986802508123, Q4 : -0.00188172387425}
2019-04-14 04:05:29.51: SIM {TimeUS : 52734731, Roll : 0.02, Pitch : -0.14, Yaw : 359.78, Alt : 47.8400001526, Lat : 49.2835703, Lng : -123.1150206, Q1 : 0.999997377396, Q2 : 0.000179419861524, Q3 : -0.00124895432964, Q4 : -0.00190505490173}
2019-04-14 04:05:29.61: SIM {TimeUS : 52834691, Roll : 0.04, Pitch : -0.15, Yaw : 359.77, Alt : 48.0, Lat : 49.2835703, Lng : -123.1150206, Q1 : 0.999997198582, Q2 : 0.00037899450399, Q3 : -0.00133225764148, Q4 : -0.00192593294196}
2019-04-14 04:05:29.71: SIM {TimeUS : 52934651, Roll : 0.06, Pitch : -0.13, Yaw : 359.77, Alt : 48.1399993896, Lat : 49.2835704, Lng : -123.1150206, Q1 : 0.999997258186, Q2 : 0.000583695538808, Q3 : -0.00119187438395, Q4 : -0.00195008155424}
2019-04-14 04:05:29.81: SIM {TimeUS : 53034611, Roll : 0.08, Pitch : -0.1, Yaw : 359.77, Alt : 48.2799987793, Lat : 49.2835704, Lng : -123.1150206, Q1 : 0.999997377396, Q2 : 0.000696311879437, Q3 : -0.000942498561926, Q4 : -0.00197499059141}
2019-04-14 04:05:29.91: SIM {TimeUS : 53134571, Roll : 0.08, Pitch : -0.08, Yaw : 359.77, Alt : 48.4099998474, Lat : 49.2835704, Lng : -123.1150206, Q1 : 0.999997437, Q2 : 0.000778549001552, Q3 : -0.000720417010598, Q4 : -0.00200122897513}
2019-04-14 04:05:30.01: SIM {TimeUS : 53234531, Roll : 0.08, Pitch : -0.07, Yaw : 359.76, Alt : 48.5200004578, Lat : 49.2835704, Lng : -123.1150206, Q1 : 0.999997496605, Q2 : 0.000710543303285, Q3 : -0.000646227970719, Q4 : -0.00203105853871}
2019-04-14 04:05:30.11: SIM {TimeUS : 53335324, Roll : 0.05, Pitch : -0.06, Yaw : 359.76, Alt : 48.6199989319, Lat : 49.2835704, Lng : -123.1150206, Q1 : 0.999997615814, Q2 : 0.000491370854434, Q3 : -0.000558034924325, Q4 : -0.00206021149643}
2019-04-14 04:05:30.21: SIM {TimeUS : 53435284, Roll : 0.03, Pitch : -0.04, Yaw : 359.76, Alt : 48.7099990845, Lat : 49.2835704, Lng : -123.1150206, Q1 : 0.999997675419, Q2 : 0.000295443314826, Q3 : -0.000392121000914, Q4 : -0.00208523240872}
2019-04-14 04:05:30.31: SIM {TimeUS : 53535244, Roll : 0.01, Pitch : -0.02, Yaw : 359.75, Alt : 48.7799987793, Lat : 49.2835704, Lng : -123.1150206, Q1 : 0.999997794628, Q2 : 0.000113844456791, Q3 : -0.000209325749893, Q4 : -0.00210717320442}
2019-04-14 04:05:30.41: SIM {TimeUS : 53635204, Roll : 0.0, Pitch : 0.0, Yaw : 359.75, Alt : 48.8499984741, Lat : 49.2835704, Lng : -123.1150206, Q1 : 0.999997735023, Q2 : -1.59576520673e-05, Q3 : 2.2694672225e-05, Q4 : -0.00213189446367}
2019-04-14 04:05:30.51: SIM {TimeUS : 53735164, Roll : 0.01, Pitch : 0.03, Yaw : 359.75, Alt : 48.9099998474, Lat : 49.2835704, Lng : -123.1150206, Q1 : 0.999997615814, Q2 : 0.000103081736597, Q3 : 0.000328256894136, Q4 : -0.00216051051393}
2019-04-14 04:05:30.61: SIM {TimeUS : 53835124, Roll : 0.03, Pitch : 0.06, Yaw : 359.74, Alt : 48.9500007629, Lat : 49.2835704, Lng : -123.1150206, Q1 : 0.999997437, Q2 : 0.000320820690831, Q3 : 0.000525243987795, Q4 : -0.00218740385026}
2019-04-14 04:05:30.71: SIM {TimeUS : 53935084, Roll : 0.05, Pitch : 0.03, Yaw : 359.74, Alt : 49.0, Lat : 49.2835704, Lng : -123.1150206, Q1 : 0.999997377396, Q2 : 0.000512516882736, Q3 : 0.000318098376738, Q4 : -0.0022173107136}
2019-04-14 04:05:30.81: SIM {TimeUS : 54035044, Roll : 0.12, Pitch : -0.07, Yaw : 359.74, Alt : 49.0299987793, Lat : 49.2835704, Lng : -123.1150206, Q1 : 0.999996602535, Q2 : 0.00109325465746, Q3 : -0.000690255546942, Q4 : -0.00225338875316}
2019-04-14 04:05:30.91: SIM {TimeUS : 54135004, Roll : 0.3, Pitch : -0.4, Yaw : 359.73, Alt : 49.0600013733, Lat : 49.2835706, Lng : -123.1150206, Q1 : 0.999987542629, Q2 : 0.00266943383031, Q3 : -0.00355224590749, Q4 : -0.00229095364921}
2019-04-14 04:05:31.01: SIM {TimeUS : 54234964, Roll : 0.64, Pitch : -0.95, Yaw : 359.72, Alt : 49.0900001526, Lat : 49.2835706, Lng : -123.1150206, Q1 : 0.999946475029, Q2 : 0.0056070885621, Q3 : -0.00838134624064, Q4 : -0.00232145818882}
2019-04-14 04:05:31.11: SIM {TimeUS : 54334924, Roll : 1.12, Pitch : -1.67, Yaw : 359.71, Alt : 49.1100006104, Lat : 49.2835706, Lng : -123.1150206, Q1 : 0.999841570854, Q2 : 0.00978804100305, Q3 : -0.0146837513894, Q4 : -0.00232930365019}
2019-04-14 04:05:31.21: SIM {TimeUS : 54434884, Roll : 1.69, Pitch : -2.52, Yaw : 359.69, Alt : 49.1300010681, Lat : 49.2835706, Lng : -123.1150205, Q1 : 0.999644041061, Q2 : 0.0147729739547, Q3 : -0.0220981556922, Q4 : -0.00229827407748}
2019-04-14 04:05:31.31: SIM {TimeUS : 54534844, Roll : 2.28, Pitch : -3.37, Yaw : 359.68, Alt : 49.1500015259, Lat : 49.2835707, Lng : -123.1150205, Q1 : 0.999366164207, Q2 : 0.0198504757136, Q3 : -0.0294690355659, Q4 : -0.00220068660565}
2019-04-14 04:05:31.41: SIM {TimeUS : 54634804, Roll : 2.77, Pitch : -4.07, Yaw : 359.66, Alt : 49.1599998474, Lat : 49.2835709, Lng : -123.1150203, Q1 : 0.999072551727, Q2 : 0.0241164974868, Q3 : -0.0356130450964, Q4 : -0.00203917711042}
2019-04-14 04:05:31.51: SIM {TimeUS : 54734764, Roll : 3.13, Pitch : -4.6, Yaw : 359.66, Alt : 49.1800003052, Lat : 49.2835709, Lng : -123.1150201, Q1 : 0.998816251755, Q2 : 0.027236463502, Q3 : -0.040261041373, Q4 : -0.00182808714453}
2019-04-14 04:05:31.61: SIM {TimeUS : 54834724, Roll : 3.39, Pitch : -5.0, Yaw : 359.67, Alt : 49.1899986267, Lat : 49.2835713, Lng : -123.11502, Q1 : 0.998608052731, Q2 : 0.0295075569302, Q3 : -0.0436898954213, Q4 : -0.00157634855714}
2019-04-14 04:05:31.71: SIM {TimeUS : 54934684, Roll : 3.61, Pitch : -5.31, Yaw : 359.68, Alt : 49.2000007629, Lat : 49.2835715, Lng : -123.1150197, Q1 : 0.99842852354, Q2 : 0.0314123816788, Q3 : -0.0463901571929, Q4 : -0.00130082934629}
2019-04-14 04:05:31.81: SIM {TimeUS : 55034644, Roll : 3.81, Pitch : -5.57, Yaw : 359.69, Alt : 49.2099990845, Lat : 49.2835719, Lng : -123.1150193, Q1 : 0.998263239861, Q2 : 0.0330897383392, Q3 : -0.0487294644117, Q4 : -0.00102737138513}
2019-04-14 04:05:31.91: SIM {TimeUS : 55134604, Roll : 4.0, Pitch : -5.86, Yaw : 359.7, Alt : 49.2200012207, Lat : 49.2835722, Lng : -123.1150189, Q1 : 0.998082995415, Q2 : 0.0347781889141, Q3 : -0.0511885248125, Q4 : -0.000758501235396}
2019-04-14 04:05:32.01: SIM {TimeUS : 55234564, Roll : 4.21, Pitch : -6.17, Yaw : 359.71, Alt : 49.2200012207, Lat : 49.2835727, Lng : -123.1150184, Q1 : 0.997873306274, Q2 : 0.0365827083588, Q3 : -0.0539480820298, Q4 : -0.000510208948981}
2019-04-14 04:05:32.11: SIM {TimeUS : 55334524, Roll : 4.41, Pitch : -6.46, Yaw : 359.71, Alt : 49.2299995422, Lat : 49.2835733, Lng : -123.1150178, Q1 : 0.997669696808, Q2 : 0.0382999964058, Q3 : -0.0564643293619, Q4 : -0.000275000260444}
2019-04-14 04:05:32.21: SIM {TimeUS : 55435317, Roll : 4.57, Pitch : -6.68, Yaw : 359.72, Alt : 49.2400016785, Lat : 49.2835739, Lng : -123.1150172, Q1 : 0.997505307198, Q2 : 0.0397085659206, Q3 : -0.058364611119, Q4 : -6.01241372351e-05}
2019-04-14 04:05:32.31: SIM {TimeUS : 55535277, Roll : 4.68, Pitch : -6.84, Yaw : 359.73, Alt : 49.2400016785, Lat : 49.2835745, Lng : -123.1150165, Q1 : 0.997388005257, Q2 : 0.0406568199396, Q3 : -0.0597010478377, Q4 : 0.000112291127152}
2019-04-14 04:05:32.41: SIM {TimeUS : 55635237, Roll : 4.76, Pitch : -6.94, Yaw : 359.73, Alt : 49.25, Lat : 49.2835752, Lng : -123.1150157, Q1 : 0.997301757336, Q2 : 0.0413690395653, Q3 : -0.0606440939009, Q4 : 0.000241721456405}
2019-04-14 04:05:32.51: SIM {TimeUS : 55735197, Roll : 4.85, Pitch : -7.04, Yaw : 359.73, Alt : 49.25, Lat : 49.2835761, Lng : -123.1150149, Q1 : 0.997219800949, Q2 : 0.0421335548162, Q3 : -0.0614597909153, Q4 : 0.000317688682117}
2019-04-14 04:05:32.61: SIM {TimeUS : 55835157, Roll : 4.97, Pitch : -7.15, Yaw : 359.73, Alt : 49.25, Lat : 49.283577, Lng : -123.1150139, Q1 : 0.997113466263, Q2 : 0.0431558229029, Q3 : -0.0624676458538, Q4 : 0.000379662698833}
2019-04-14 04:05:32.71: SIM {TimeUS : 55935117, Roll : 5.29, Pitch : -7.22, Yaw : 359.87, Alt : 49.2599983215, Lat : 49.2835779, Lng : -123.1150131, Q1 : 0.996953964233, Q2 : 0.0460004843771, Q3 : -0.0629553422332, Q4 : 0.00183947267942}
2019-04-14 04:05:32.81: SIM {TimeUS : 56035077, Roll : 5.87, Pitch : -7.22, Yaw : 0.72, Alt : 49.2599983215, Lat : 49.2835788, Lng : -123.1150121, Q1 : 0.996660172939, Q2 : 0.0515200681984, Q3 : -0.0626394301653, Q4 : 0.00950997881591}
2019-04-14 04:05:32.91: SIM {TimeUS : 56135037, Roll : 6.47, Pitch : -7.39, Yaw : 2.92, Alt : 49.2599983215, Lat : 49.2835798, Lng : -123.115011, Q1 : 0.995905041695, Q2 : 0.0580005645752, Q3 : -0.0629634335637, Q4 : 0.0290634315461}
2019-04-14 04:05:33.01: SIM {TimeUS : 56234997, Roll : 6.75, Pitch : -7.91, Yaw : 6.73, Alt : 49.2599983215, Lat : 49.2835807, Lng : -123.1150099, Q1 : 0.993924617767, Q2 : 0.0627205595374, Q3 : -0.0653124079108, Q4 : 0.0625639036298}
2019-04-14 04:05:33.11: SIM {TimeUS : 56334957, Roll : 6.44, Pitch : -8.75, Yaw : 12.05, Alt : 49.2700004578, Lat : 49.2835818, Lng : -123.1150086, Q1 : 0.989544808865, Q2 : 0.0637822151184, Q3 : -0.0699333176017, Q4 : 0.108821935952}
2019-04-14 04:05:33.21: SIM {TimeUS : 56434917, Roll : 5.32, Pitch : -9.82, Yaw : 18.6, Alt : 49.2700004578, Lat : 49.283583, Lng : -123.1150072, Q1 : 0.981517195702, Q2 : 0.0594609454274, Q3 : -0.0769086703658, Q4 : 0.16484349966}
2019-04-14 04:05:33.31: SIM {TimeUS : 56534877, Roll : 3.19, Pitch : -10.9, Yaw : 25.78, Alt : 49.2700004578, Lat : 49.2835842, Lng : -123.1150057, Q1 : 0.969410836697, Q2 : 0.0482257679105, Q3 : -0.086384832859, Q4 : 0.224620953202}
2019-04-14 04:05:33.41: SIM {TimeUS : 56634837, Roll : 0.38, Pitch : -11.74, Yaw : 32.78, Alt : 49.2700004578, Lat : 49.2835854, Lng : -123.1150042, Q1 : 0.954204320908, Q2 : 0.0320595279336, Q3 : -0.0972302779555, Q4 : 0.281091868877}
2019-04-14 04:05:33.51: SIM {TimeUS : 56734797, Roll : -2.5, Pitch : -12.23, Yaw : 38.86, Alt : 49.2700004578, Lat : 49.2835867, Lng : -123.1150026, Q1 : 0.938200950623, Q2 : 0.0149454083294, Q3 : -0.107714109123, Q4 : 0.328562557697}
2019-04-14 04:05:33.61: SIM {TimeUS : 56834757, Roll : -4.86, Pitch : -12.42, Yaw : 43.46, Alt : 49.2700004578, Lat : 49.2835879, Lng : -123.1150009, Q1 : 0.924344658852, Q2 : 0.00085673306603, Q3 : -0.116058520973, Q4 : 0.363478630781}
2019-04-14 04:05:33.71: SIM {TimeUS : 56934717, Roll : -6.31, Pitch : -12.46, Yaw : 46.3, Alt : 49.2700004578, Lat : 49.2835895, Lng : -123.1149993, Q1 : 0.914979577065, Q2 : -0.00771128479391, Q3 : -0.12122323364, Q4 : 0.384782880545}
2019-04-14 04:05:33.81: SIM {TimeUS : 57034677, Roll : -6.78, Pitch : -12.52, Yaw : 47.47, Alt : 49.2700004578, Lat : 49.283591, Lng : -123.1149976, Q1 : 0.9109416008, Q2 : -0.00998617429286, Q3 : -0.123375535011, Q4 : 0.393527925014}
2019-04-14 04:05:33.91: SIM {TimeUS : 57134637, Roll : -6.4, Pitch : -12.73, Yaw : 47.21, Alt : 49.2700004578, Lat : 49.2835928, Lng : -123.114996, Q1 : 0.911704182625, Q2 : -0.00650295754895, Q3 : -0.123659424484, Q4 : 0.391741752625}
2019-04-14 04:05:34.01: SIM {TimeUS : 57234597, Roll : -5.4, Pitch : -13.13, Yaw : 45.86, Alt : 49.2700004578, Lat : 49.2835945, Lng : -123.1149943, Q1 : 0.916008770466, Q2 : 0.00135473604314, Q3 : -0.123495556414, Q4 : 0.381673902273}
2019-04-14 04:05:34.11: SIM {TimeUS : 57334557, Roll : -4.03, Pitch : -13.71, Yaw : 43.72, Alt : 49.2700004578, Lat : 49.2835964, Lng : -123.1149926, Q1 : 0.922440886497, Q2 : 0.0120050236583, Q3 : -0.123715996742, Q4 : 0.365585923195}
2019-04-14 04:05:34.21: SIM {TimeUS : 57434517, Roll : -2.48, Pitch : -14.35, Yaw : 41.1, Alt : 49.2700004578, Lat : 49.2835983, Lng : -123.1149908, Q1 : 0.929747104645, Q2 : 0.023721544072, Q3 : -0.124486975372, Q4 : 0.345703005791}
2019-04-14 04:05:34.31: SIM {TimeUS : 57535310, Roll : -0.91, Pitch : -14.92, Yaw : 38.28, Alt : 49.2799987793, Lat : 49.2836002, Lng : -123.114989, Q1 : 0.937011063099, Q2 : 0.0351499728858, Q3 : -0.125287368894, Q4 : 0.32415702939}
2019-04-14 04:05:34.41: SIM {TimeUS : 57635270, Roll : 0.51, Pitch : -15.32, Yaw : 35.62, Alt : 49.2799987793, Lat : 49.2836024, Lng : -123.1149871, Q1 : 0.943371236324, Q2 : 0.0450283102691, Q3 : -0.125602930784, Q4 : 0.303721994162}
2019-04-14 04:05:34.51: SIM {TimeUS : 57735230, Roll : 1.67, Pitch : -15.53, Yaw : 33.37, Alt : 49.2799987793, Lat : 49.2836044, Lng : -123.1149851, Q1 : 0.948434054852, Q2 : 0.0527097694576, Q3 : -0.125282973051, Q4 : 0.286354154348}
2019-04-14 04:05:34.61: SIM {TimeUS : 57835190, Roll : 2.5, Pitch : -15.59, Yaw : 31.71, Alt : 49.2799987793, Lat : 49.2836067, Lng : -123.114983, Q1 : 0.952005207539, Q2 : 0.0578898265958, Q3 : -0.124576576054, Q4 : 0.27352425456}
2019-04-14 04:05:34.71: SIM {TimeUS : 57935150, Roll : 2.93, Pitch : -15.6, Yaw : 30.74, Alt : 49.2799987793, Lat : 49.2836089, Lng : -123.1149808, Q1 : 0.954066634178, Q2 : 0.0604560375214, Q3 : -0.124104619026, Q4 : 0.265894591808}
2019-04-14 04:05:34.81: SIM {TimeUS : 58035110, Roll : 2.98, Pitch : -15.61, Yaw : 30.43, Alt : 49.2799987793, Lat : 49.2836111, Lng : -123.1149784, Q1 : 0.954738736153, Q2 : 0.0605378858745, Q3 : -0.124233625829, Q4 : 0.26339161396}
2019-04-14 04:05:34.91: SIM {TimeUS : 58135070, Roll : 2.67, Pitch : -15.66, Yaw : 30.71, Alt : 49.2799987793, Lat : 49.2836134, Lng : -123.114976, Q1 : 0.954193472862, Q2 : 0.0584129206836, Q3 : -0.125213012099, Q4 : 0.265376210213}
2019-04-14 04:05:35.01: SIM {TimeUS : 58235030, Roll : 2.11, Pitch : -15.73, Yaw : 31.44, Alt : 49.2799987793, Lat : 49.2836158, Lng : -123.1149735, Q1 : 0.952662169933, Q2 : 0.0547338537872, Q3 : -0.126797735691, Q4 : 0.2708530128}
2019-04-14 04:05:35.11: SIM {TimeUS : 58334990, Roll : 1.42, Pitch : -15.83, Yaw : 32.47, Alt : 49.2799987793, Lat : 49.2836182, Lng : -123.1149709, Q1 : 0.950398087502, Q2 : 0.0503387749195, Q3 : -0.128795623779, Q4 : 0.278605788946}
2019-04-14 04:05:35.21: SIM {TimeUS : 58434950, Roll : 0.67, Pitch : -15.94, Yaw : 33.64, Alt : 49.2799987793, Lat : 49.2836206, Lng : -123.1149683, Q1 : 0.947713792324, Q2 : 0.0457066483796, Q3 : -0.13107304275, Q4 : 0.287348747253}
2019-04-14 04:05:35.31: SIM {TimeUS : 58534910, Roll : -0.01, Pitch : -16.05, Yaw : 34.78, Alt : 49.2799987793, Lat : 49.283623, Lng : -123.1149656, Q1 : 0.944930493832, Q2 : 0.0416058003902, Q3 : -0.133317813277, Q4 : 0.295975744724}
2019-04-14 04:05:35.41: SIM {TimeUS : 58634870, Roll : -0.56, Pitch : -16.13, Yaw : 35.79, Alt : 49.2799987793, Lat : 49.2836256, Lng : -123.1149628, Q1 : 0.942394912243, Q2 : 0.0384608097374, Q3 : -0.135073632002, Q4 : 0.303591370583}
2019-04-14 04:05:35.51: SIM {TimeUS : 58734830, Roll : -0.96, Pitch : -16.18, Yaw : 36.57, Alt : 49.2799987793, Lat : 49.283628, Lng : -123.1149601, Q1 : 0.940378010273, Q2 : 0.0362693965435, Q3 : -0.136274859309, Q4 : 0.309520423412}
2019-04-14 04:05:35.61: SIM {TimeUS : 58834790, Roll : -1.2, Pitch : -16.22, Yaw : 37.08, Alt : 49.2799987793, Lat : 49.2836306, Lng : -123.1149572, Q1 : 0.939020454884, Q2 : 0.0350329317153, Q3 : -0.137126386166, Q4 : 0.313384115696}
2019-04-14 04:05:35.71: SIM {TimeUS : 58934750, Roll : -1.28, Pitch : -16.28, Yaw : 37.3, Alt : 49.2799987793, Lat : 49.2836334, Lng : -123.1149543, Q1 : 0.93836247921, Q2 : 0.0347903184593, Q3 : -0.137723997235, Q4 : 0.315115213394}
2019-04-14 04:05:35.81: SIM {TimeUS : 59034710, Roll : -1.21, Pitch : -16.35, Yaw : 37.27, Alt : 49.2799987793, Lat : 49.2836359, Lng : -123.1149515, Q1 : 0.938343048096, Q2 : 0.0355117693543, Q3 : -0.138133838773, Q4 : 0.314913243055}
2019-04-14 04:05:35.91: SIM {TimeUS : 59134670, Roll : -1.02, Pitch : -16.41, Yaw : 37.03, Alt : 49.2799987793, Lat : 49.2836388, Lng : -123.1149486, Q1 : 0.938876152039, Q2 : 0.036919426173, Q3 : -0.138167977333, Q4 : 0.313142478466}
2019-04-14 04:05:36.01: SIM {TimeUS : 59234630, Roll : -0.75, Pitch : -16.46, Yaw : 36.64, Alt : 49.2799987793, Lat : 49.2836414, Lng : -123.1149457, Q1 : 0.939784705639, Q2 : 0.0388348177075, Q3 : -0.137971654534, Q4 : 0.310258567333}
2019-04-14 04:05:36.11: SIM {TimeUS : 59334590, Roll : -0.43, Pitch : -16.51, Yaw : 36.17, Alt : 49.2900009155, Lat : 49.2836443, Lng : -123.1149427, Q1 : 0.940883100033, Q2 : 0.0410127826035, Q3 : -0.137670472264, Q4 : 0.306763410568}
2019-04-14 04:05:36.21: SIM {TimeUS : 59434550, Roll : -0.11, Pitch : -16.55, Yaw : 35.69, Alt : 49.2900009155, Lat : 49.2836472, Lng : -123.1149397, Q1 : 0.942009687424, Q2 : 0.0431674085557, Q3 : -0.13734357059, Q4 : 0.303135424852}
2019-04-14 04:05:36.31: SIM {TimeUS : 59534510, Roll : 0.17, Pitch : -16.58, Yaw : 35.24, Alt : 49.2900009155, Lat : 49.2836499, Lng : -123.1149367, Q1 : 0.943037807941, Q2 : 0.0450893454254, Q3 : -0.137027963996, Q4 : 0.299783349037}
2019-04-14 04:05:36.41: SIM {TimeUS : 59635303, Roll : 0.4, Pitch : -16.62, Yaw : 34.87, Alt : 49.2900009155, Lat : 49.2836529, Lng : -123.1149336, Q1 : 0.943867504597, Q2 : 0.0466338545084, Q3 : -0.136876568198, Q4 : 0.29699203372}
2019-04-14 04:05:36.51: SIM {TimeUS : 59735263, Roll : 0.54, Pitch : -16.65, Yaw : 34.61, Alt : 49.2900009155, Lat : 49.2836558, Lng : -123.1149305, Q1 : 0.944451570511, Q2 : 0.047562725842, Q3 : -0.136846914887, Q4 : 0.294994831085}
2019-04-14 04:05:36.61: SIM {TimeUS : 59835223, Roll : 0.6, Pitch : -16.68, Yaw : 34.46, Alt : 49.2900009155, Lat : 49.2836588, Lng : -123.1149274, Q1 : 0.944767594337, Q2 : 0.0479474179447, Q3 : -0.137031331658, Q4 : 0.293832838535}
2019-04-14 04:05:36.71: SIM {TimeUS : 59935183, Roll : 0.58, Pitch : -16.72, Yaw : 34.42, Alt : 49.2900009155, Lat : 49.2836616, Lng : -123.1149242, Q1 : 0.944817602634, Q2 : 0.0478926822543, Q3 : -0.137422323227, Q4 : 0.293498009443}
2019-04-14 04:05:36.81: SIM {TimeUS : 60035143, Roll : 0.5, Pitch : -16.77, Yaw : 34.48, Alt : 49.2900009155, Lat : 49.2836646, Lng : -123.114921, Q1 : 0.944648146629, Q2 : 0.0474318191409, Q3 : -0.137997031212, Q4 : 0.293848574162}
2019-04-14 04:05:36.91: SIM {TimeUS : 60135103, Roll : 0.36, Pitch : -16.82, Yaw : 34.6, Alt : 49.2900009155, Lat : 49.2836676, Lng : -123.1149177, Q1 : 0.944326639175, Q2 : 0.046552632004, Q3 : -0.138691321015, Q4 : 0.294694393873}
2019-04-14 04:05:37.01: SIM {TimeUS : 60235063, Roll : 0.2, Pitch : -16.85, Yaw : 34.77, Alt : 49.2900009155, Lat : 49.2836706, Lng : -123.1149145, Q1 : 0.943915843964, Q2 : 0.0454631224275, Q3 : -0.139362752438, Q4 : 0.295861393213}
2019-04-14 04:05:37.11: SIM {TimeUS : 60335023, Roll : 0.04, Pitch : -16.89, Yaw : 34.95, Alt : 49.2900009155, Lat : 49.2836736, Lng : -123.1149112, Q1 : 0.943462312222, Q2 : 0.0444653406739, Q3 : -0.140002459288, Q4 : 0.297154784203}
2019-04-14 04:05:37.21: SIM {TimeUS : 60434983, Roll : -0.07, Pitch : -16.94, Yaw : 35.12, Alt : 49.2900009155, Lat : 49.2836767, Lng : -123.1149079, Q1 : 0.943005204201, Q2 : 0.0438521914184, Q3 : -0.140625759959, Q4 : 0.298400074244}
2019-04-14 04:05:37.31: SIM {TimeUS : 60534943, Roll : -0.14, Pitch : -16.98, Yaw : 35.26, Alt : 49.2900009155, Lat : 49.2836797, Lng : -123.1149045, Q1 : 0.942613959312, Q2 : 0.0435311980546, Q3 : -0.141140818596, Q4 : 0.299438238144}
2019-04-14 04:05:37.41: SIM {TimeUS : 60634903, Roll : -0.17, Pitch : -17.02, Yaw : 35.36, Alt : 49.2999992371, Lat : 49.2836828, Lng : -123.1149012, Q1 : 0.942320287228, Q2 : 0.0434894040227, Q3 : -0.141517221928, Q4 : 0.300190061331}
2019-04-14 04:05:37.51: SIM {TimeUS : 60734863, Roll : -0.17, Pitch : -17.06, Yaw : 35.41, Alt : 49.2999992371, Lat : 49.2836859, Lng : -123.1148978, Q1 : 0.942129909992, Q2 : 0.0437369681895, Q3 : -0.141815617681, Q4 : 0.300610512495}
2019-04-14 04:05:37.61: SIM {TimeUS : 60834823, Roll : -0.14, Pitch : -17.09, Yaw : 35.42, Alt : 49.2999992371, Lat : 49.283689, Lng : -123.1148944, Q1 : 0.942070841789, Q2 : 0.0440018251538, Q3 : -0.142003044486, Q4 : 0.300668388605}
2019-04-14 04:05:37.71: SIM {TimeUS : 60934783, Roll : -0.13, Pitch : -17.11, Yaw : 35.38, Alt : 49.2999992371, Lat : 49.2836923, Lng : -123.114891, Q1 : 0.942136526108, Q2 : 0.0441580750048, Q3 : -0.142107188702, Q4 : 0.300390392542}
2019-04-14 04:05:37.81: SIM {TimeUS : 61034743, Roll : -0.1, Pitch : -17.13, Yaw : 35.32, Alt : 49.2999992371, Lat : 49.2836954, Lng : -123.1148876, Q1 : 0.942282736301, Q2 : 0.044323399663, Q3 : -0.142205327749, Q4 : 0.299860477448}
2019-04-14 04:05:37.91: SIM {TimeUS : 61134703, Roll : -0.05, Pitch : -17.13, Yaw : 35.23, Alt : 49.2999992371, Lat : 49.2836986, Lng : -123.1148842, Q1 : 0.94248765707, Q2 : 0.0446307212114, Q3 : -0.142162874341, Q4 : 0.299190342426}
2019-04-14 04:05:38.01: SIM {TimeUS : 61234663, Roll : 0.0, Pitch : -17.14, Yaw : 35.13, Alt : 49.2999992371, Lat : 49.2837017, Lng : -123.1148807, Q1 : 0.942707061768, Q2 : 0.0449818298221, Q3 : -0.142149344087, Q4 : 0.298452079296}
2019-04-14 04:05:38.11: SIM {TimeUS : 61334623, Roll : 0.07, Pitch : -17.18, Yaw : 35.03, Alt : 49.2999992371, Lat : 49.283705, Lng : -123.1148773, Q1 : 0.942884504795, Q2 : 0.0455550700426, Q3 : -0.142282232642, Q4 : 0.297740310431}
2019-04-14 04:05:38.21: SIM {TimeUS : 61434583, Roll : 0.14, Pitch : -17.24, Yaw : 34.95, Alt : 49.2999992371, Lat : 49.2837082, Lng : -123.1148738, Q1 : 0.943004071712, Q2 : 0.0461908951402, Q3 : -0.142638042569, Q4 : 0.297092735767}
2019-04-14 04:05:38.31: SIM {TimeUS : 61534543, Roll : 0.18, Pitch : -17.28, Yaw : 34.88, Alt : 49.2999992371, Lat : 49.2837113, Lng : -123.1148703, Q1 : 0.943120837212, Q2 : 0.0465748347342, Q3 : -0.142851889133, Q4 : 0.29655906558}
2019-04-14 04:05:38.41: SIM {TimeUS : 61634503, Roll : 0.21, Pitch : -17.28, Yaw : 34.83, Alt : 49.3100013733, Lat : 49.2837147, Lng : -123.1148668, Q1 : 0.943237483501, Q2 : 0.046753693372, Q3 : -0.142809480429, Q4 : 0.296180188656}
2019-04-14 04:05:38.51: SIM {TimeUS : 61735296, Roll : 0.22, Pitch : -17.29, Yaw : 34.8, Alt : 49.3100013733, Lat : 49.283718, Lng : -123.1148633, Q1 : 0.943304240704, Q2 : 0.0468182563782, Q3 : -0.142858728766, Q4 : 0.295933514833}
2019-04-14 04:05:38.61: SIM {TimeUS : 61835256, Roll : 0.2, Pitch : -17.31, Yaw : 34.78, Alt : 49.3100013733, Lat : 49.2837211, Lng : -123.1148598, Q1 : 0.943317949772, Q2 : 0.04670342803, Q3 : -0.143102705479, Q4 : 0.295790016651}
2019-04-14 04:05:38.71: SIM {TimeUS : 61935216, Roll : 0.18, Pitch : -17.33, Yaw : 34.78, Alt : 49.3100013733, Lat : 49.2837245, Lng : -123.1148562, Q1 : 0.943299889565, Q2 : 0.0465819276869, Q3 : -0.14336822927, Q4 : 0.295738101006}
2019-04-14 04:05:38.81: SIM {TimeUS : 62035176, Roll : 0.15, Pitch : -17.37, Yaw : 34.79, Alt : 49.3100013733, Lat : 49.2837278, Lng : -123.1148527, Q1 : 0.943249166012, Q2 : 0.0464370027184, Q3 : -0.143698036671, Q4 : 0.295762658119}
2019-04-14 04:05:38.91: SIM {TimeUS : 62135136, Roll : 0.13, Pitch : -17.39, Yaw : 34.8, Alt : 49.3100013733, Lat : 49.2837311, Lng : -123.1148491, Q1 : 0.943189382553, Q2 : 0.046340726316, Q3 : -0.143948793411, Q4 : 0.29584646225}
2019-04-14 04:05:39.01: SIM {TimeUS : 62235096, Roll : 0.11, Pitch : -17.41, Yaw : 34.82, Alt : 49.3100013733, Lat : 49.2837344, Lng : -123.1148455, Q1 : 0.943125844002, Q2 : 0.0462885163724, Q3 : -0.144187122583, Q4 : 0.29594117403}
2019-04-14 04:05:39.11: SIM {TimeUS : 62335056, Roll : 0.11, Pitch : -17.44, Yaw : 34.83, Alt : 49.3100013733, Lat : 49.2837376, Lng : -123.1148418, Q1 : 0.94306665659, Q2 : 0.0463546477258, Q3 : -0.144359603524, Q4 : 0.296035289764}
2019-04-14 04:05:39.21: SIM {TimeUS : 62435016, Roll : 0.12, Pitch : -17.46, Yaw : 34.84, Alt : 49.3100013733, Lat : 49.283741, Lng : -123.1148383, Q1 : 0.943019747734, Q2 : 0.0465199537575, Q3 : -0.144527316093, Q4 : 0.296076923609}
2019-04-14 04:05:39.31: SIM {TimeUS : 62534976, Roll : 0.14, Pitch : -17.48, Yaw : 34.83, Alt : 49.3100013733, Lat : 49.2837442, Lng : -123.1148347, Q1 : 0.942991018295, Q2 : 0.0467020794749, Q3 : -0.144653126597, Q4 : 0.29607835412}
2019-04-14 04:05:39.41: SIM {TimeUS : 62634936, Roll : 0.14, Pitch : -17.52, Yaw : 34.83, Alt : 49.3100013733, Lat : 49.2837477, Lng : -123.1148311, Q1 : 0.942962408066, Q2 : 0.0467613935471, Q3 : -0.144976347685, Q4 : 0.296001821756}
2019-04-14 04:05:39.51: SIM {TimeUS : 62734896, Roll : 0.11, Pitch : -17.56, Yaw : 34.82, Alt : 49.3100013733, Lat : 49.2837509, Lng : -123.1148275, Q1 : 0.942953765392, Q2 : 0.046632103622, Q3 : -0.145385339856, Q4 : 0.295849204063}
2019-04-14 04:05:39.61: SIM {TimeUS : 62834856, Roll : 0.09, Pitch : -17.6, Yaw : 34.8, Alt : 49.3199996948, Lat : 49.2837544, Lng : -123.1148239, Q1 : 0.942954421043, Q2 : 0.0465785339475, Q3 : -0.145773872733, Q4 : 0.295664340258}
2019-04-14 04:05:39.71: SIM {TimeUS : 62934816, Roll : 0.11, Pitch : -17.63, Yaw : 34.78, Alt : 49.3199996948, Lat : 49.2837576, Lng : -123.1148202, Q1 : 0.942962944508, Q2 : 0.0467701852322, Q3 : -0.14600379765, Q4 : 0.295493364334}
2019-04-14 04:05:39.81: SIM {TimeUS : 63034776, Roll : 0.14, Pitch : -17.64, Yaw : 34.75, Alt : 49.3199996948, Lat : 49.2837611, Lng : -123.1148166, Q1 : 0.942997694016, Q2 : 0.0470370799303, Q3 : -0.146004572511, Q4 : 0.295339763165}
2019-04-14 04:05:39.91: SIM {TimeUS : 63134736, Roll : 0.18, Pitch : -17.63, Yaw : 34.73, Alt : 49.3199996948, Lat : 49.2837644, Lng : -123.1148129, Q1 : 0.94305729866, Q2 : 0.0472404062748, Q3 : -0.145838737488, Q4 : 0.29519879818}
2019-04-14 04:05:40.01: SIM {TimeUS : 63234696, Roll : 0.18, Pitch : -17.62, Yaw : 34.71, Alt : 49.3199996948, Lat : 49.2837679, Lng : -123.1148092, Q1 : 0.943120062351, Q2 : 0.0472607202828, Q3 : -0.145749479532, Q4 : 0.295039176941}
2019-04-14 04:05:40.11: SIM {TimeUS : 63334656, Roll : 0.18, Pitch : -17.61, Yaw : 34.69, Alt : 49.3199996948, Lat : 49.2837713, Lng : -123.1148056, Q1 : 0.943187057972, Q2 : 0.0471924692392, Q3 : -0.145670160651, Q4 : 0.294875025749}
2019-04-14 04:05:40.21: SIM {TimeUS : 63434616, Roll : 0.18, Pitch : -17.59, Yaw : 34.67, Alt : 49.3199996948, Lat : 49.2837746, Lng : -123.1148019, Q1 : 0.943259000778, Q2 : 0.0470717065036, Q3 : -0.145568951964, Q4 : 0.29471424222}
2019-04-14 04:05:40.31: SIM {TimeUS : 63534576, Roll : 0.16, Pitch : -17.6, Yaw : 34.65, Alt : 49.3199996948, Lat : 49.2837781, Lng : -123.1147982, Q1 : 0.943300902843, Q2 : 0.0469320714474, Q3 : -0.145691260695, Q4 : 0.294541835785}
2019-04-14 04:05:40.41: SIM {TimeUS : 63634536, Roll : 0.15, Pitch : -17.63, Yaw : 34.63, Alt : 49.3199996948, Lat : 49.2837814, Lng : -123.1147944, Q1 : 0.943316340446, Q2 : 0.0469137839973, Q3 : -0.145912066102, Q4 : 0.294385910034}
2019-04-14 04:05:40.51: SIM {TimeUS : 63734496, Roll : 0.14, Pitch : -17.67, Yaw : 34.62, Alt : 49.3199996948, Lat : 49.2837849, Lng : -123.1147908, Q1 : 0.943302154541, Q2 : 0.0469076521695, Q3 : -0.146323949099, Q4 : 0.294227957726}
2019-04-14 04:05:40.61: SIM {TimeUS : 63835289, Roll : 0.14, Pitch : -17.73, Yaw : 34.61, Alt : 49.3199996948, Lat : 49.2837884, Lng : -123.114787, Q1 : 0.943258106709, Q2 : 0.0470407232642, Q3 : -0.14682328701, Q4 : 0.294099092484}
2019-04-14 04:05:40.71: SIM {TimeUS : 63935249, Roll : 0.15, Pitch : -17.76, Yaw : 34.59, Alt : 49.3199996948, Lat : 49.2837917, Lng : -123.1147833, Q1 : 0.943248569965, Q2 : 0.0471544861794, Q3 : -0.14704695344, Q4 : 0.293999761343}
2019-04-14 04:05:40.81: SIM {TimeUS : 64035209, Roll : 0.14, Pitch : -17.78, Yaw : 34.58, Alt : 49.3199996948, Lat : 49.2837953, Lng : -123.1147796, Q1 : 0.943248689175, Q2 : 0.0471968501806, Q3 : -0.147238999605, Q4 : 0.293896347284}
2019-04-14 04:05:40.91: SIM {TimeUS : 64135169, Roll : 0.14, Pitch : -17.8, Yaw : 34.57, Alt : 49.3300018311, Lat : 49.2837987, Lng : -123.1147758, Q1 : 0.943266272545, Q2 : 0.0471766144037, Q3 : -0.147355079651, Q4 : 0.293784856796}
2019-04-14 04:05:41.01: SIM {TimeUS : 64235129, Roll : 0.15, Pitch : -17.79, Yaw : 34.56, Alt : 49.3300018311, Lat : 49.2838021, Lng : -123.1147721, Q1 : 0.943301796913, Q2 : 0.047249365598, Q3 : -0.147283256054, Q4 : 0.293695271015}
2019-04-14 04:05:41.11: SIM {TimeUS : 64335089, Roll : 0.17, Pitch : -17.79, Yaw : 34.55, Alt : 49.3300018311, Lat : 49.2838056, Lng : -123.1147684, Q1 : 0.943321287632, Q2 : 0.0474122613668, Q3 : -0.147267386317, Q4 : 0.293614238501}
2019-04-14 04:05:41.21: SIM {TimeUS : 64435049, Roll : 0.19, Pitch : -17.82, Yaw : 34.53, Alt : 49.3300018311, Lat : 49.2838091, Lng : -123.1147646, Q1 : 0.943313419819, Q2 : 0.0475663878024, Q3 : -0.147457748652, Q4 : 0.293518990278}
2019-04-14 04:05:41.31: SIM {TimeUS : 64535009, Roll : 0.19, Pitch : -17.84, Yaw : 34.52, Alt : 49.3300018311, Lat : 49.2838126, Lng : -123.1147609, Q1 : 0.943315625191, Q2 : 0.0476573109627, Q3 : -0.14760877192, Q4 : 0.293421387672}
2019-04-14 04:05:41.41: SIM {TimeUS : 64634969, Roll : 0.2, Pitch : -17.84, Yaw : 34.51, Alt : 49.3300018311, Lat : 49.283816, Lng : -123.1147571, Q1 : 0.943341314793, Q2 : 0.0477126613259, Q3 : -0.14761082828, Q4 : 0.293328732252}
2019-04-14 04:05:41.51: SIM {TimeUS : 64734929, Roll : 0.2, Pitch : -17.85, Yaw : 34.5, Alt : 49.3300018311, Lat : 49.2838195, Lng : -123.1147534, Q1 : 0.943360447884, Q2 : 0.0477016307414, Q3 : -0.147703081369, Q4 : 0.293222427368}
2019-04-14 04:05:41.61: SIM {TimeUS : 64834889, Roll : 0.18, Pitch : -17.88, Yaw : 34.48, Alt : 49.3300018311, Lat : 49.283823, Lng : -123.1147496, Q1 : 0.943365693092, Q2 : 0.0475965030491, Q3 : -0.147970095277, Q4 : 0.293088048697}
2019-04-14 04:05:41.71: SIM {TimeUS : 64934849, Roll : 0.15, Pitch : -17.92, Yaw : 34.47, Alt : 49.3300018311, Lat : 49.2838264, Lng : -123.1147458, Q1 : 0.943355798721, Q2 : 0.0474511757493, Q3 : -0.148383438587, Q4 : 0.292934566736}
2019-04-14 04:05:41.81: SIM {TimeUS : 65034809, Roll : 0.14, Pitch : -17.93, Yaw : 34.46, Alt : 49.3300018311, Lat : 49.2838299, Lng : -123.1147421, Q1 : 0.943379700184, Q2 : 0.0473318956792, Q3 : -0.148516118526, Q4 : 0.292809545994}
2019-04-14 04:05:41.91: SIM {TimeUS : 65134769, Roll : 0.14, Pitch : -17.92, Yaw : 34.45, Alt : 49.3300018311, Lat : 49.2838335, Lng : -123.1147383, Q1 : 0.943418443203, Q2 : 0.0473308265209, Q3 : -0.148448437452, Q4 : 0.292719274759}
2019-04-14 04:05:42.01: SIM {TimeUS : 65234729, Roll : 0.17, Pitch : -17.91, Yaw : 34.44, Alt : 49.3300018311, Lat : 49.283837, Lng : -123.1147345, Q1 : 0.943451106548, Q2 : 0.0475128702819, Q3 : -0.14831186831, Q4 : 0.29265370965}
2019-04-14 04:05:42.11: SIM {TimeUS : 65334689, Roll : 0.18, Pitch : -17.92, Yaw : 34.42, Alt : 49.3300018311, Lat : 49.2838404, Lng : -123.1147307, Q1 : 0.943469524384, Q2 : 0.0476519092917, Q3 : -0.148322686553, Q4 : 0.292566210032}
2019-04-14 04:05:42.21: SIM {TimeUS : 65434649, Roll : 0.17, Pitch : -17.94, Yaw : 34.41, Alt : 49.3300018311, Lat : 49.283844, Lng : -123.1147269, Q1 : 0.943481147289, Q2 : 0.0476133041084, Q3 : -0.148500755429, Q4 : 0.292444676161}
2019-04-14 04:05:42.31: SIM {TimeUS : 65534609, Roll : 0.15, Pitch : -17.96, Yaw : 34.4, Alt : 49.3400001526, Lat : 49.2838475, Lng : -123.1147231, Q1 : 0.943499624729, Q2 : 0.0474252142012, Q3 : -0.148721635342, Q4 : 0.292303264141}
2019-04-14 04:05:42.41: SIM {TimeUS : 65634569, Roll : 0.13, Pitch : -17.97, Yaw : 34.39, Alt : 49.3400001526, Lat : 49.2838511, Lng : -123.1147193, Q1 : 0.943510890007, Q2 : 0.0473463460803, Q3 : -0.148918747902, Q4 : 0.292179346085}
2019-04-14 04:05:42.51: SIM {TimeUS : 65734529, Roll : 0.14, Pitch : -18.0, Yaw : 34.37, Alt : 49.3400001526, Lat : 49.2838546, Lng : -123.1147155, Q1 : 0.943512022495, Q2 : 0.0474586524069, Q3 : -0.149068772793, Q4 : 0.292080789804}
2019-04-14 04:05:42.61: SIM {TimeUS : 65835322, Roll : 0.16, Pitch : -18.01, Yaw : 34.36, Alt : 49.3400001526, Lat : 49.2838582, Lng : -123.1147117, Q1 : 0.943515717983, Q2 : 0.0476044304669, Q3 : -0.149167254567, Q4 : 0.291994899511}
2019-04-14 04:05:42.71: SIM {TimeUS : 65935282, Roll : 0.18, Pitch : -18.02, Yaw : 34.35, Alt : 49.3400001526, Lat : 49.2838616, Lng : -123.1147079, Q1 : 0.943517386913, Q2 : 0.0478113554418, Q3 : -0.149193868041, Q4 : 0.291942149401}
2019-04-14 04:05:42.81: SIM {TimeUS : 66035242, Roll : 0.19, Pitch : -18.04, Yaw : 34.34, Alt : 49.3400001526, Lat : 49.2838652, Lng : -123.1147041, Q1 : 0.943516552448, Q2 : 0.0479103624821, Q3 : -0.149295017123, Q4 : 0.291877001524}
2019-04-14 04:05:42.91: SIM {TimeUS : 66135202, Roll : 0.2, Pitch : -18.06, Yaw : 34.33, Alt : 49.3400001526, Lat : 49.2838688, Lng : -123.1147003, Q1 : 0.943508386612, Q2 : 0.0480171553791, Q3 : -0.149437069893, Q4 : 0.29181304574}
2019-04-14 04:05:43.01: SIM {TimeUS : 66235162, Roll : 0.21, Pitch : -18.07, Yaw : 34.33, Alt : 49.3400001526, Lat : 49.2838723, Lng : -123.1146965, Q1 : 0.94350039959, Q2 : 0.0481302179396, Q3 : -0.149565890431, Q4 : 0.291754305363}
2019-04-14 04:05:43.11: SIM {TimeUS : 66335122, Roll : 0.23, Pitch : -18.08, Yaw : 34.32, Alt : 49.3400001526, Lat : 49.2838759, Lng : -123.1146927, Q1 : 0.943495690823, Q2 : 0.0482882224023, Q3 : -0.149616658688, Q4 : 0.291717261076}
2019-04-14 04:05:43.21: SIM {TimeUS : 66435082, Roll : 0.25, Pitch : -18.1, Yaw : 34.31, Alt : 49.3400001526, Lat : 49.2838793, Lng : -123.1146888, Q1 : 0.943483531475, Q2 : 0.0485499240458, Q3 : -0.149640589952, Q4 : 0.291700959206}
2019-04-14 04:05:43.31: SIM {TimeUS : 66535042, Roll : 0.26, Pitch : -18.09, Yaw : 34.31, Alt : 49.3400001526, Lat : 49.2838829, Lng : -123.114685, Q1 : 0.943498492241, Q2 : 0.0485672987998, Q3 : -0.149606481194, Q4 : 0.291667103767}
2019-04-14 04:05:43.41: SIM {TimeUS : 66635002, Roll : 0.24, Pitch : -18.1, Yaw : 34.3, Alt : 49.3400001526, Lat : 49.2838865, Lng : -123.1146812, Q1 : 0.943508803844, Q2 : 0.0484152324498, Q3 : -0.149729713798, Q4 : 0.291595935822}
2019-04-14 04:05:43.51: SIM {TimeUS : 66734962, Roll : 0.21, Pitch : -18.12, Yaw : 34.3, Alt : 49.3400001526, Lat : 49.2838901, Lng : -123.1146774, Q1 : 0.943504214287, Q2 : 0.0482689663768, Q3 : -0.149975523353, Q4 : 0.291508555412}
