2019-04-14 12:04:30.00: SIM {TimeUS : 40816167, Roll : 0.0, Pitch : 0.0, Yaw : 0.0, Alt : 30.1000003815, Lat : 49.28357, Lng : -123.11502, Q1 : 1.0, Q2 : 0.0, Q3 : 0.0, Q4 : 0.0}
2019-04-14 12:04:30.11: SIM {TimeUS : 40935286, Roll : 0.0, Pitch : 0.0, Yaw : 0.0, Alt : 30.1000003815, Lat : 49.28357, Lng : -123.11502, Q1 : 1.0, Q2 : 0.0, Q3 : 0.0, Q4 : 0.0}
2019-04-14 12:04:30.21: SIM {TimeUS : 41035246, Roll : 0.0, Pitch : 0.0, Yaw : 0.0, Alt : 30.1000003815, Lat : 49.28357, Lng : -123.11502, Q1 : 1.0, Q2 : 0.0, Q3 : 0.0, Q4 : 0.0}
2019-04-14 12:04:30.31: SIM {TimeUS : 41135206, Roll : 0.0, Pitch : 0.0, Yaw : 0.0, Alt : 30.1000003815, Lat : 49.28357, Lng : -123.11502, Q1 : 1.0, Q2 : 0.0, Q3 : 0.0, Q4 : 0.0}
2019-04-14 12:04:30.41: SIM {TimeUS : 41235166, Roll : 0.0, Pitch : 0.0, Yaw : 0.0, Alt : 30.1000003815, Lat : 49.28357, Lng : -123.11502, Q1 : 1.0, Q2 : 0.0, Q3 : 0.0, Q4 : 0.0}
2019-04-14 12:04:30.51: SIM {TimeUS : 41335126, Roll : 0.0, Pitch : 0.0, Yaw : 0.0, Alt : 30.1000003815, Lat : 49.28357, Lng : -123.11502, Q1 : 1.0, Q2 : 0.0, Q3 : 0.0, Q4 : 0.0}
2019-04-14 12:04:30.61: SIM {TimeUS : 41435086, Roll : 0.0, Pitch : 0.0, Yaw : 0.0, Alt : 30.1000003815, Lat : 49.28357, Lng : -123.11502, Q1 : 1.0, Q2 : 0.0, Q3 : 0.0, Q4 : 0.0}
2019-04-14 12:04:30.71: SIM {TimeUS : 41535046, Roll : 0.0, Pitch : 0.0, Yaw : 0.0, Alt : 30.1000003815, Lat : 49.28357, Lng : -123.11502, Q1 : 1.0, Q2 : 0.0, Q3 : 0.0, Q4 : 0.0}
2019-04-14 12:04:30.81: SIM {TimeUS : 41635006, Roll : 0.0, Pitch : 0.0, Yaw : 0.0, Alt : 30.1000003815, Lat : 49.28357, Lng : -123.11502, Q1 : 1.0, Q2 : 0.0, Q3 : 0.0, Q4 : 0.0}
2019-04-14 12:04:30.91: SIM {TimeUS : 41734966, Roll : 0.0, Pitch : 0.0, Yaw : 0.0, Alt : 30.1000003815, Lat : 49.28357, Lng : -123.11502, Q1 : 1.0, Q2 : 0.0, Q3 : 0.0, Q4 : 0.0}
2019-04-14 12:04:31.01: SIM {TimeUS : 41834926, Roll : 0.0, Pitch : 0.0, Yaw : 0.0, Alt : 30.1000003815, Lat : 49.28357, Lng : -123.11502, Q1 : 1.0, Q2 : 0.0, Q3 : 0.0, Q4 : 0.0}
2019-04-14 12:04:31.11: SIM {TimeUS : 41934886, Roll : 0.0, Pitch : 0.0, Yaw : 0.0, Alt : 30.1000003815, Lat : 49.28357, Lng : -123.11502, Q1 : 1.0, Q2 : 0.0, Q3 : 0.0, Q4 : 0.0}
2019-04-14 12:04:31.21: SIM {TimeUS : 42034846, Roll : 0.0, Pitch : 0.0, Yaw : 0.0, Alt : 30.1000003815, Lat : 49.28357, Lng : -123.11502, Q1 : 1.0, Q2 : 0.0, Q3 : 0.0, Q4 : 0.0}
2019-04-14 12:04:31.31: SIM {TimeUS : 42134806, Roll : 0.0, Pitch : 0.0, Yaw : 0.0, Alt : 30.1000003815, Lat : 49.28357, Lng : -123.11502, Q1 : 1.0, Q2 : 0.0, Q3 : 0.0, Q4 : 0.0}
2019-04-14 12:04:31.41: SIM {TimeUS : 42234766, Roll : 0.0, Pitch : 0.0, Yaw : 0.0, Alt : 30.1000003815, Lat : 49.28357, Lng : -123.11502, Q1 : 1.0, Q2 : 0.0, Q3 : 0.0, Q4 : 0.0}
2019-04-14 12:04:31.51: SIM {TimeUS : 42334726, Roll : 0.0, Pitch : 0.0, Yaw : 0.0, Alt : 30.1000003815, Lat : 49.28357, Lng : -123.11502, Q1 : 1.0, Q2 : 0.0, Q3 : 0.0, Q4 : 0.0}
2019-04-14 12:04:31.61: SIM {TimeUS : 42434686, Roll : 0.0, Pitch : 0.0, Yaw : 0.0, Alt : 30.1000003815, Lat : 49.28357, Lng : -123.11502, Q1 : 1.0, Q2 : 0.0, Q3 : 0.0, Q4 : 0.0}
2019-04-14 12:04:31.71: SIM {TimeUS : 42534646, Roll : 0.0, Pitch : 0.0, Yaw : 0.0, Alt : 30.1000003815, Lat : 49.28357, Lng : -123.11502, Q1 : 1.0, Q2 : 0.0, Q3 : 0.0, Q4 : 0.0}
2019-04-14 12:04:31.81: SIM {TimeUS : 42634606, Roll : 0.0, Pitch : 0.0, Yaw : 0.0, Alt : 30.1000003815, Lat : 49.28357, Lng : -123.11502, Q1 : 1.0, Q2 : 0.0, Q3 : 0.0, Q4 : 0.0}
2019-04-14 12:04:31.91: SIM {TimeUS : 42734566, Roll : 0.0, Pitch : 0.0, Yaw : 0.0, Alt : 30.1000003815, Lat : 49.28357, Lng : -123.11502, Q1 : 1.0, Q2 : 0.0, Q3 : 0.0, Q4 : 0.0}
2019-04-14 12:04:32.01: SIM {TimeUS : 42834526, Roll : 0.0, Pitch : 0.0, Yaw : 0.0, Alt : 30.1000003815, Lat : 49.28357, Lng : -123.11502, Q1 : 1.0, Q2 : 0.0, Q3 : 0.0, Q4 : 0.0}
2019-04-14 12:04:32.11: SIM {TimeUS : 42935319, Roll : 0.0, Pitch : 0.0, Yaw : 0.0, Alt : 30.1000003815, Lat : 49.28357, Lng : -123.11502, Q1 : 1.0, Q2 : 0.0, Q3 : 0.0, Q4 : 0.0}
2019-04-14 12:04:32.21: SIM {TimeUS : 43035279, Roll : 0.0, Pitch : 0.0, Yaw : 0.0, Alt : 30.1000003815, Lat : 49.28357, Lng : -123.11502, Q1 : 1.0, Q2 : 0.0, Q3 : 0.0, Q4 : 0.0}
2019-04-14 12:04:32.31: SIM {TimeUS : 43135239, Roll : 0.0, Pitch : 0.0, Yaw : 360.0, Alt : 30.1000003815, Lat : 49.28357, Lng : -123.11502, Q1 : 1.0, Q2 : 0.0, Q3 : 0.0, Q4 : -1.30378364355e-11}
2019-04-14 12:04:32.41: SIM {TimeUS : 43235199, Roll : 0.0, Pitch : 0.0, Yaw : 360.0, Alt : 30.1000003815, Lat : 49.28357, Lng : -123.11502, Q1 : 1.0, Q2 : 0.0, Q3 : 0.0, Q4 : -1.61347042393e-08}
2019-04-14 12:04:32.51: SIM {TimeUS : 43335159, Roll : 0.0, Pitch : 0.0, Yaw : 359.99, Alt : 30.1000003815, Lat : 49.28357, Lng : -123.11502, Q1 : 1.0, Q2 : 0.0, Q3 : 0.0, Q4 : -2.17456857854e-07}
2019-04-14 12:04:32.61: SIM {TimeUS : 43435119, Roll : 0.0, Pitch : 0.0, Yaw : 359.99, Alt : 30.1000003815, Lat : 49.28357, Lng : -123.11502, Q1 : 1.0, Q2 : 0.0, Q3 : 0.0, Q4 : -4.08245227845e-07}
2019-04-14 12:04:32.71: SIM {TimeUS : 43535079, Roll : 0.0, Pitch : 0.0, Yaw : 359.99, Alt : 30.1000003815, Lat : 49.28357, Lng : -123.11502, Q1 : 1.0, Q2 : 0.0, Q3 : 0.0, Q4 : -6.20802381945e-07}
2019-04-14 12:04:32.81: SIM {TimeUS : 43635039, Roll : 0.0, Pitch : 0.0, Yaw : 359.99, Alt : 30.1000003815, Lat : 49.28357, Lng : -123.11502, Q1 : 1.0, Q2 : 0.0, Q3 : 0.0, Q4 : -8.22876188522e-07}
2019-04-14 12:04:32.91: SIM {TimeUS : 43734999, Roll : 0.0, Pitch : 0.0, Yaw : 359.99, Alt : 30.1000003815, Lat : 49.28357, Lng : -123.11502, Q1 : 1.0, Q2 : 0.0, Q3 : 0.0, Q4 : -9.95500158751e-07}
2019-04-14 12:04:33.01: SIM {TimeUS : 43834959, Roll : 0.0, Pitch : 0.0, Yaw : 359.99, Alt : 30.1000003815, Lat : 49.28357, Lng : -123.11502, Q1 : 1.0, Q2 : 0.0, Q3 : 0.0, Q4 : -1.17972990665e-06}
2019-04-14 12:04:33.11: SIM {TimeUS : 43934919, Roll : 0.0, Pitch : 0.0, Yaw : 359.99, Alt : 30.1000003815, Lat : 49.28357, Lng : -123.11502, Q1 : 1.0, Q2 : 0.0, Q3 : 0.0, Q4 : -1.3805429262e-06}
2019-04-14 12:04:33.21: SIM {TimeUS : 44034879, Roll : 0.0, Pitch : 0.0, Yaw : 359.99, Alt : 30.1200008392, Lat : 49.28357, Lng : -123.11502, Q1 : 1.0, Q2 : 0.0, Q3 : 0.0, Q4 : -1.55610359798e-06}
2019-04-14 12:04:33.31: SIM {TimeUS : 44134839, Roll : 0.0, Pitch : 0.0, Yaw : 359.99, Alt : 30.1499996185, Lat : 49.28357, Lng : -123.11502, Q1 : 1.0, Q2 : 0.0, Q3 : 0.0, Q4 : -1.81880204764e-06}
2019-04-14 12:04:33.41: SIM {TimeUS : 44234799, Roll : 0.0, Pitch : 0.0, Yaw : 359.99, Alt : 30.1800003052, Lat : 49.28357, Lng : -123.11502, Q1 : 1.0, Q2 : 0.0, Q3 : 0.0, Q4 : -2.06184176932e-06}
2019-04-14 12:04:33.51: SIM {TimeUS : 44334759, Roll : 0.0, Pitch : 0.0, Yaw : 359.99, Alt : 30.2099990845, Lat : 49.28357, Lng : -123.11502, Q1 : 1.0, Q2 : -7.32536864234e-06, Q3 : -7.5440798355e-06, Q4 : -2.18642730943e-06}
2019-04-14 12:04:33.61: SIM {TimeUS : 44434719, Roll : -0.16, Pitch : -0.16, Yaw : 359.99, Alt : 30.2700004578, Lat : 49.28357, Lng : -123.11502, Q1 : 0.999998033047, Q2 : -0.00141816399992, Q3 : -0.00140721607022, Q4 : -1.70366056409e-05}
2019-04-14 12:04:33.71: SIM {TimeUS : 44534679, Roll : -0.47, Pitch : -0.41, Yaw : 359.99, Alt : 30.3899993896, Lat : 49.28357, Lng : -123.11502, Q1 : 0.99998497963, Q2 : -0.00414405949414, Q3 : -0.00358851370402, Q4 : -6.15807148279e-05}
2019-04-14 12:04:33.81: SIM {TimeUS : 44634639, Roll : -0.76, Pitch : -0.6, Yaw : 359.98, Alt : 30.5400009155, Lat : 49.28357, Lng : -123.11502, Q1 : 0.999963998795, Q2 : -0.00665355753154, Q3 : -0.00526213133708, Q4 : -0.000126299506519}
2019-04-14 12:04:33.91: SIM {TimeUS : 44734599, Roll : -0.88, Pitch : -0.68, Yaw : 359.98, Alt : 30.7000007629, Lat : 49.28357, Lng : -123.11502, Q1 : 0.999951839447, Q2 : -0.00776489730924, Q3 : -0.00599567685276, Q4 : -0.000203363757464}
2019-04-14 12:04:34.01: SIM {TimeUS : 44834559, Roll : -0.83, Pitch : -0.65, Yaw : 359.97, Alt : 30.8500003815, Lat : 49.28357, Lng : -123.11502, Q1 : 0.999957203865, Q2 : -0.00726203294471, Q3 : -0.00572445150465, Q4 : -0.000286050431896}
2019-04-14 12:04:34.11: SIM {TimeUS : 44934519, Roll : -0.64, Pitch : -0.53, Yaw : 359.96, Alt : 31.0100002289, Lat : 49.28357, Lng : -123.1150201, Q1 : 0.999973356724, Q2 : -0.0056023048237, Q3 : -0.00466762250289, Q4 : -0.00036048021866}
2019-04-14 12:04:34.21: SIM {TimeUS : 45035312, Roll : -0.38, Pitch : -0.36, Yaw : 359.95, Alt : 31.1599998474, Lat : 49.2835701, Lng : -123.1150202, Q1 : 0.999989151955, Q2 : -0.00337982247584, Q3 : -0.00318261329085, Q4 : -0.00042024202412}
2019-04-14 12:04:34.31: SIM {TimeUS : 45135272, Roll : -0.14, Pitch : -0.19, Yaw : 359.94, Alt : 31.3299999237, Lat : 49.2835701, Lng : -123.1150203, Q1 : 0.999997675419, Q2 : -0.00129770499188, Q3 : -0.00167582964059, Q4 : -0.000465475808596}
2019-04-14 12:04:34.41: SIM {TimeUS : 45235232, Roll : 0.01, Pitch : -0.04, Yaw : 359.94, Alt : 31.5, Lat : 49.2835702, Lng : -123.1150203, Q1 : 0.999999761581, Q2 : 0.000127206731122, Q3 : -0.000381978199584, Q4 : -0.000497546046972}
2019-04-14 12:04:34.51: SIM {TimeUS : 45335192, Roll : 0.08, Pitch : 0.06, Yaw : 359.94, Alt : 31.6700000763, Lat : 49.2835702, Lng : -123.1150204, Q1 : 0.999999463558, Q2 : 0.000750593375415, Q3 : 0.000524264352862, Q4 : -0.0005176893319}
2019-04-14 12:04:34.61: SIM {TimeUS : 45435152, Roll : 0.07, Pitch : 0.11, Yaw : 359.93, Alt : 31.8500003815, Lat : 49.2835703, Lng : -123.1150205, Q1 : 0.99999910593, Q2 : 0.0006699685473, Q3 : 0.000998934963718, Q4 : -0.000525761279278}
2019-04-14 12:04:34.71: SIM {TimeUS : 45535112, Roll : 0.05, Pitch : 0.13, Yaw : 359.93, Alt : 32.0400009155, Lat : 49.2835703, Lng : -123.1150205, Q1 : 0.999998986721, Q2 : 0.000475239154184, Q3 : 0.00121361983474, Q4 : -0.000536414969247}
2019-04-14 12:04:34.81: SIM {TimeUS : 45635072, Roll : 0.04, Pitch : 0.14, Yaw : 359.93, Alt : 32.2200012207, Lat : 49.2835703, Lng : -123.1150206, Q1 : 0.999998986721, Q2 : 0.0003793532087, Q3 : 0.00125425925944, Q4 : -0.000538559688721}
2019-04-14 12:04:34.91: SIM {TimeUS : 45735032, Roll : 0.03, Pitch : 0.14, Yaw : 359.93, Alt : 32.4199981689, Lat : 49.2835703, Lng : -123.1150206, Q1 : 0.999998986721, Q2 : 0.00033989030635, Q3 : 0.00127321935724, Q4 : -0.000536279694643}
2019-04-14 12:04:35.01: SIM {TimeUS : 45834992, Roll : 0.05, Pitch : 0.16, Yaw : 359.94, Alt : 32.6100006104, Lat : 49.2835703, Lng : -123.1150207, Q1 : 0.999998748302, Q2 : 0.000483533745864, Q3 : 0.0014021913521, Q4 : -0.000521404086612}
2019-04-14 12:04:35.11: SIM {TimeUS : 45934952, Roll : 0.08, Pitch : 0.14, Yaw : 359.94, Alt : 32.8100013733, Lat : 49.2835703, Lng : -123.1150207, Q1 : 0.999998748302, Q2 : 0.00075923698023, Q3 : 0.00130118918605, Q4 : -0.000504316936713}
2019-04-14 12:04:35.21: SIM {TimeUS : 46034912, Roll : 0.12, Pitch : 0.12, Yaw : 359.94, Alt : 33.0099983215, Lat : 49.2835704, Lng : -123.1150207, Q1 : 0.999998748302, Q2 : 0.00108168879524, Q3 : 0.00105502293445, Q4 : -0.000487060373416}
2019-04-14 12:04:35.31: SIM {TimeUS : 46134872, Roll : 0.15, Pitch : 0.1, Yaw : 359.94, Alt : 33.2099990845, Lat : 49.2835704, Lng : -123.1150208, Q1 : 0.999998509884, Q2 : 0.0013765366748, Q3 : 0.000906358996872, Q4 : -0.000472724728752}
2019-04-14 12:04:35.41: SIM {TimeUS : 46234832, Roll : 0.18, Pitch : 0.1, Yaw : 359.94, Alt : 33.4099998474, Lat : 49.2835704, Lng : -123.1150208, Q1 : 0.999998271465, Q2 : 0.00157311290968, Q3 : 0.000896878365893, Q4 : -0.000456433888758}
2019-04-14 12:04:35.51: SIM {TimeUS : 46334792, Roll : 0.19, Pitch : 0.11, Yaw : 359.95, Alt : 33.6199989319, Lat : 49.2835704, Lng : -123.1150208, Q1 : 0.999997973442, Q2 : 0.00169236736838, Q3 : 0.00103347469121, Q4 : -0.000437073176727}
2019-04-14 12:04:35.61: SIM {TimeUS : 46434752, Roll : 0.18, Pitch : 0.12, Yaw : 359.95, Alt : 33.8300018311, Lat : 49.2835704, Lng : -123.1150208, Q1 : 0.999997973442, Q2 : 0.0016318942653, Q3 : 0.00109447108116, Q4 : -0.000425377977081}
2019-04-14 12:04:35.71: SIM {TimeUS : 46534712, Roll : 0.16, Pitch : 0.12, Yaw : 359.95, Alt : 34.0400009155, Lat : 49.2835704, Lng : -123.1150208, Q1 : 0.999998271465, Q2 : 0.00142554275226, Q3 : 0.00110635953024, Q4 : -0.000414594338508}
2019-04-14 12:04:35.81: SIM {TimeUS : 46634672, Roll : 0.13, Pitch : 0.12, Yaw : 359.95, Alt : 34.25, Lat : 49.2835704, Lng : -123.1150208, Q1 : 0.999998569489, Q2 : 0.00115734443534, Q3 : 0.00113005121239, Q4 : -0.000412500812672}
2019-04-14 12:04:35.91: SIM {TimeUS : 46734632, Roll : 0.1, Pitch : 0.12, Yaw : 359.95, Alt : 34.4599990845, Lat : 49.2835704, Lng : -123.1150208, Q1 : 0.999998927116, Q2 : 0.000910724105779, Q3 : 0.00110051175579, Q4 : -0.00041611524648}
2019-04-14 12:04:36.01: SIM {TimeUS : 46834592, Roll : 0.09, Pitch : 0.08, Yaw : 359.94, Alt : 34.6699981689, Lat : 49.2835704, Lng : -123.1150208, Q1 : 0.999999284744, Q2 : 0.000799596717115, Q3 : 0.000771989638451, Q4 : -0.000441013864474}
2019-04-14 12:04:36.11: SIM {TimeUS : 46934552, Roll : 0.08, Pitch : 0.05, Yaw : 359.94, Alt : 34.8899993896, Lat : 49.2835704, Lng : -123.1150208, Q1 : 0.999999523163, Q2 : 0.000752446008846, Q3 : 0.00044759051525, Q4 : -0.000485760363517}
2019-04-14 12:04:36.21: SIM {TimeUS : 47034512, Roll : 0.06, Pitch : 0.02, Yaw : 359.93, Alt : 35.0999984741, Lat : 49.2835704, Lng : -123.1150208, Q1 : 0.999999642372, Q2 : 0.000605899840593, Q3 : 0.000235105850152, Q4 : -0.000532762496732}
2019-04-14 12:04:36.31: SIM {TimeUS : 47135305, Roll : 0.05, Pitch : 0.02, Yaw : 359.93, Alt : 35.3199996948, Lat : 49.2835704, Lng : -123.1150207, Q1 : 0.999999701977, Q2 : 0.000485888449475, Q3 : 0.000175968321855, Q4 : -0.000577304745093}
2019-04-14 12:04:36.41: SIM {TimeUS : 47235265, Roll : 0.05, Pitch : 0.01, Yaw : 359.92, Alt : 35.5400009155, Lat : 49.2835704, Lng : -123.1150207, Q1 : 0.999999701977, Q2 : 0.000447238475317, Q3 : 0.000164086159202, Q4 : -0.000616478617303}
2019-04-14 12:04:36.51: SIM {TimeUS : 47335225, Roll : 0.02, Pitch : 0.0, Yaw : 359.92, Alt : 35.7599983215, Lat : 49.2835704, Lng : -123.1150207, Q1 : 0.999999761581, Q2 : 0.00024913623929, Q3 : -1.4972722056e-05, Q4 : -0.000656179676298}
2019-04-14 12:04:36.61: SIM {TimeUS : 47435185, Roll : 0.0, Pitch : -0.03, Yaw : 359.92, Alt : 35.9799995422, Lat : 49.2835704, Lng : -123.1150207, Q1 : 0.999999701977, Q2 : -5.49714422959e-05, Q3 : -0.000305413530441, Q4 : -0.000692384899594}
2019-04-14 12:04:36.71: SIM {TimeUS : 47535145, Roll : -0.04, Pitch : -0.05, Yaw : 359.91, Alt : 36.2000007629, Lat : 49.2835704, Lng : -123.1150207, Q1 : 0.999999523163, Q2 : -0.000383018283173, Q3 : -0.000515223713592, Q4 : -0.000728245533537}
2019-04-14 12:04:36.81: SIM {TimeUS : 47635105, Roll : -0.07, Pitch : -0.07, Yaw : 359.91, Alt : 36.4199981689, Lat : 49.2835704, Lng : -123.1150207, Q1 : 0.999999284744, Q2 : -0.000660251243971, Q3 : -0.00062854657881, Q4 : -0.000760629714932}
2019-04-14 12:04:36.91: SIM {TimeUS : 47735065, Roll : -0.08, Pitch : -0.07, Yaw : 359.91, Alt : 36.6399993896, Lat : 49.2835704, Lng : -123.1150206, Q1 : 0.99999922514, Q2 : -0.000701930432115, Q3 : -0.000617557321675, Q4 : -0.000784593285061}
2019-04-14 12:04:37.01: SIM {TimeUS : 47835025, Roll : -0.08, Pitch : -0.06, Yaw : 359.9, Alt : 36.8699989319, Lat : 49.2835704, Lng : -123.1150206, Q1 : 0.999999284744, Q2 : -0.000698796880897, Q3 : -0.000586623151321, Q4 : -0.000805229006801}
2019-04-14 12:04:37.11: SIM {TimeUS : 47934985, Roll : -0.07, Pitch : -0.05, Yaw : 359.9, Alt : 37.0900001526, Lat : 49.2835704, Lng : -123.1150206, Q1 : 0.999999344349, Q2 : -0.000647710228804, Q3 : -0.000461999617983, Q4 : -0.000820631510578}
2019-04-14 12:04:37.21: SIM {TimeUS : 48034945, Roll : -0.06, Pitch : -0.04, Yaw : 359.9, Alt : 37.3199996948, Lat : 49.2835704, Lng : -123.1150206, Q1 : 0.999999403954, Q2 : -0.000566108035855, Q3 : -0.000391007604776, Q4 : -0.000827210547868}
2019-04-14 12:04:37.31: SIM {TimeUS : 48134905, Roll : -0.07, Pitch : -0.04, Yaw : 359.9, Alt : 37.5400009155, Lat : 49.2835704, Lng : -123.1150206, Q1 : 0.999999344349, Q2 : -0.000629302870948, Q3 : -0.000405904458603, Q4 : -0.000835632730741}
2019-04-14 12:04:37.41: SIM {TimeUS : 48234865, Roll : -0.08, Pitch : -0.03, Yaw : 359.9, Alt : 37.7700004578, Lat : 49.2835704, Lng : -123.1150206, Q1 : 0.999999344349, Q2 : -0.000715599162504, Q3 : -0.000281626184005, Q4 : -0.000844714115374}
2019-04-14 12:04:37.51: SIM {TimeUS : 48334825, Roll : -0.1, Pitch : -0.01, Yaw : 359.9, Alt : 37.9900016785, Lat : 49.2835704, Lng : -123.1150206, Q1 : 0.99999922514, Q2 : -0.000908667570911, Q3 : -0.00011038017692, Q4 : -0.0008525524172}
2019-04-14 12:04:37.61: SIM {TimeUS : 48434785, Roll : -0.1, Pitch : 0.0, Yaw : 359.9, Alt : 38.2200012207, Lat : 49.2835704, Lng : -123.1150206, Q1 : 0.99999922514, Q2 : -0.000910120666958, Q3 : 2.18119039346e-05, Q4 : -0.000854594807606}
2019-04-14 12:04:37.71: SIM {TimeUS : 48534745, Roll : -0.08, Pitch : 0.03, Yaw : 359.9, Alt : 38.4500007629, Lat : 49.2835704, Lng : -123.1150206, Q1 : 0.999999344349, Q2 : -0.000700060627423, Q3 : 0.000292205048027, Q4 : -0.000857101287693}
2019-04-14 12:04:37.81: SIM {TimeUS : 48634705, Roll : -0.05, Pitch : 0.03, Yaw : 359.9, Alt : 38.6800003052, Lat : 49.2835704, Lng : -123.1150206, Q1 : 0.999999463558, Q2 : -0.00045937957475, Q3 : 0.000276131293504, Q4 : -0.000868577393703}
2019-04-14 12:04:37.91: SIM {TimeUS : 48734665, Roll : -0.01, Pitch : 0.02, Yaw : 359.89, Alt : 38.9099998474, Lat : 49.2835704, Lng : -123.1150206, Q1 : 0.999999582767, Q2 : -0.000172018815647, Q3 : 0.000181484996574, Q4 : -0.000881317420863}
2019-04-14 12:04:38.01: SIM {TimeUS : 48834625, Roll : 0.01, Pitch : 0.03, Yaw : 359.89, Alt : 39.1399993896, Lat : 49.2835704, Lng : -123.1150206, Q1 : 0.999999582767, Q2 : 0.000147023878526, Q3 : 0.000290917552775, Q4 : -0.000895129633136}
2019-04-14 12:04:38.11: SIM {TimeUS : 48934585, Roll : 0.05, Pitch : 0.05, Yaw : 359.89, Alt : 39.3600006104, Lat : 49.2835704, Lng : -123.1150206, Q1 : 0.999999344349, Q2 : 0.000446007412393, Q3 : 0.000519906287082, Q4 : -0.000917751982342}
2019-04-14 12:04:38.21: SIM {TimeUS : 49034545, Roll : 0.07, Pitch : 0.08, Yaw : 359.89, Alt : 39.5999984741, Lat : 49.2835704, Lng : -123.1150206, Q1 : 0.999999046326, Q2 : 0.00065192457987, Q3 : 0.000741247320548, Q4 : -0.000947917578742}
2019-04-14 12:04:38.31: SIM {TimeUS : 49134505, Roll : 0.06, Pitch : 0.1, Yaw : 359.88, Alt : 39.8300018311, Lat : 49.2835706, Lng : -123.1150206, Q1 : 0.999998927116, Q2 : 0.00056399294408, Q3 : 0.000949493376538, Q4 : -0.000975346774794}
2019-04-14 12:04:38.41: SIM {TimeUS : 49235298, Roll : 0.01, Pitch : 0.12, Yaw : 359.88, Alt : 40.0600013733, Lat : 49.2835706, Lng : -123.1150206, Q1 : 0.999998867512, Q2 : 0.000150304607814, Q3 : 0.00112806435209, Q4 : -0.00101947691292}
2019-04-14 12:04:38.51: SIM {TimeUS : 49335258, Roll : -0.01, Pitch : 0.11, Yaw : 359.87, Alt : 40.2900009155, Lat : 49.2835706, Lng : -123.1150206, Q1 : 0.999998867512, Q2 : -0.000164482495165, Q3 : 0.0010391115211, Q4 : -0.00105632632039}
2019-04-14 12:04:38.61: SIM {TimeUS : 49435218, Roll : -0.04, Pitch : 0.08, Yaw : 359.87, Alt : 40.5200004578, Lat : 49.2835706, Lng : -123.1150206, Q1 : 0.999999046326, Q2 : -0.000377530959668, Q3 : 0.00076906074537, Q4 : -0.00109408330172}
2019-04-14 12:04:38.71: SIM {TimeUS : 49535178, Roll : -0.05, Pitch : 0.06, Yaw : 359.87, Alt : 40.75, Lat : 49.2835706, Lng : -123.1150206, Q1 : 0.99999910593, Q2 : -0.000458516296931, Q3 : 0.000595914723817, Q4 : -0.00113021687139}
2019-04-14 12:04:38.81: SIM {TimeUS : 49635138, Roll : -0.03, Pitch : 0.08, Yaw : 359.86, Alt : 40.9900016785, Lat : 49.2835706, Lng : -123.1150206, Q1 : 0.999999046326, Q2 : -0.000344673724612, Q3 : 0.000703284400515, Q4 : -0.00116900773719}
2019-04-14 12:04:38.91: SIM {TimeUS : 49735098, Roll : 0.0, Pitch : 0.11, Yaw : 359.86, Alt : 41.2200012207, Lat : 49.2835706, Lng : -123.1150206, Q1 : 0.999998807907, Q2 : 4.15464382968e-05, Q3 : 0.000989322783425, Q4 : -0.0011993177468}
2019-04-14 12:04:39.01: SIM {TimeUS : 49835058, Roll : 0.05, Pitch : 0.13, Yaw : 359.85, Alt : 41.4500007629, Lat : 49.2835706, Lng : -123.1150207, Q1 : 0.999998390675, Q2 : 0.000488650868647, Q3 : 0.00119732064195, Q4 : -0.00122890598141}
2019-04-14 12:04:39.11: SIM {TimeUS : 49935018, Roll : 0.08, Pitch : 0.11, Yaw : 359.85, Alt : 41.6899986267, Lat : 49.2835706, Lng : -123.1150207, Q1 : 0.999998450279, Q2 : 0.000762867974117, Q3 : 0.00100548600312, Q4 : -0.00125624856446}
2019-04-14 12:04:39.21: SIM {TimeUS : 50034978, Roll : 0.08, Pitch : 0.07, Yaw : 359.85, Alt : 41.9199981689, Lat : 49.2835706, Lng : -123.1150207, Q1 : 0.999998688698, Q2 : 0.000757202506065, Q3 : 0.000634888070635, Q4 : -0.00128258438781}
2019-04-14 12:04:39.31: SIM {TimeUS : 50134938, Roll : 0.05, Pitch : 0.04, Yaw : 359.85, Alt : 42.1500015259, Lat : 49.2835706, Lng : -123.1150207, Q1 : 0.999998986721, Q2 : 0.000442771910457, Q3 : 0.000351755850716, Q4 : -0.00130178441759}
2019-04-14 12:04:39.41: SIM {TimeUS : 50234898, Roll : 0.0, Pitch : 0.03, Yaw : 359.84, Alt : 42.3899993896, Lat : 49.2835706, Lng : -123.1150207, Q1 : 0.99999910593, Q2 : -2.03622148547e-05, Q3 : 0.000298175640637, Q4 : -0.00131581304595}
2019-04-14 12:04:39.51: SIM {TimeUS : 50334858, Roll : -0.03, Pitch : 0.06, Yaw : 359.84, Alt : 42.6199989319, Lat : 49.2835706, Lng : -123.1150207, Q1 : 0.999998927116, Q2 : -0.000312482181471, Q3 : 0.000541956687812, Q4 : -0.00132259284146}
2019-04-14 12:04:39.61: SIM {TimeUS : 50434818, Roll : -0.04, Pitch : 0.08, Yaw : 359.84, Alt : 42.8600006104, Lat : 49.2835704, Lng : -123.1150206, Q1 : 0.999998807907, Q2 : -0.000424462166848, Q3 : 0.000716020178515, Q4 : -0.00132659100927}
2019-04-14 12:04:39.71: SIM {TimeUS : 50534778, Roll : -0.04, Pitch : 0.07, Yaw : 359.84, Alt : 43.0900001526, Lat : 49.2835704, Lng : -123.1150206, Q1 : 0.999998807907, Q2 : -0.000382160244044, Q3 : 0.000694766407833, Q4 : -0.0013334385585}
2019-04-14 12:04:39.81: SIM {TimeUS : 50634738, Roll : -0.04, Pitch : 0.06, Yaw : 359.84, Alt : 43.3300018311, Lat : 49.2835704, Lng : -123.1150206, Q1 : 0.999998867512, Q2 : -0.000394235714339, Q3 : 0.000575474870857, Q4 : -0.00134340988006}
2019-04-14 12:04:39.91: SIM {TimeUS : 50734698, Roll : -0.03, Pitch : 0.04, Yaw : 359.84, Alt : 43.5600013733, Lat : 49.2835704, Lng : -123.1150206, Q1 : 0.999998927116, Q2 : -0.000323131971527, Q3 : 0.000426242535468, Q4 : -0.00135820789728}
2019-04-14 12:04:40.01: SIM {TimeUS : 50834658, Roll : -0.01, Pitch : 0.04, Yaw : 359.84, Alt : 43.7999992371, Lat : 49.2835704, Lng : -123.1150206, Q1 : 0.999998986721, Q2 : -0.000165865654708, Q3 : 0.000360667501809, Q4 : -0.00138121750206}
2019-04-14 12:04:40.11: SIM {TimeUS : 50934618, Roll : 0.0, Pitch : 0.04, Yaw : 359.83, Alt : 44.0299987793, Lat : 49.2835704, Lng : -123.1150206, Q1 : 0.999998927116, Q2 : -6.3009931182e-05, Q3 : 0.00037477578735, Q4 : -0.00140567321796}
2019-04-14 12:04:40.21: SIM {TimeUS : 51034578, Roll : -0.01, Pitch : 0.02, Yaw : 359.83, Alt : 44.2700004578, Lat : 49.2835704, Lng : -123.1150206, Q1 : 0.999998927116, Q2 : -9.85936931102e-05, Q3 : 0.000208501049201, Q4 : -0.00143095536623}
2019-04-14 12:04:40.31: SIM {TimeUS : 51134538, Roll : -0.02, Pitch : 0.0, Yaw : 359.83, Alt : 44.5, Lat : 49.2835704, Lng : -123.1150206, Q1 : 0.999998927116, Q2 : -0.000181327530299, Q3 : -8.68713177624e-05, Q4 : -0.00146199588198}
2019-04-14 12:04:40.41: SIM {TimeUS : 51234498, Roll : -0.02, Pitch : -0.02, Yaw : 359.82, Alt : 44.7400016785, Lat : 49.2835704, Lng : -123.1150206, Q1 : 0.999998807907, Q2 : -0.0002348167327, Q3 : -0.000243746937485, Q4 : -0.00149415701162}
2019-04-14 12:04:40.51: SIM {TimeUS : 51335291, Roll : -0.02, Pitch : -0.04, Yaw : 359.82, Alt : 44.9799995422, Lat : 49.2835704, Lng : -123.1150206, Q1 : 0.999998748302, Q2 : -0.000229100871366, Q3 : -0.000361190468539, Q4 : -0.00152736203745}
2019-04-14 12:04:40.61: SIM {TimeUS : 51435251, Roll : -0.02, Pitch : -0.04, Yaw : 359.82, Alt : 45.2099990845, Lat : 49.2835704, Lng : -123.1150206, Q1 : 0.999998688698, Q2 : -0.000259292311966, Q3 : -0.000394318572944, Q4 : -0.00155960139818}
2019-04-14 12:04:40.71: SIM {TimeUS : 51535211, Roll : -0.04, Pitch : -0.03, Yaw : 359.81, Alt : 45.4500007629, Lat : 49.2835704, Lng : -123.1150206, Q1 : 0.999998569489, Q2 : -0.00042154971743, Q3 : -0.000333428091835, Q4 : -0.00159543810878}
2019-04-14 12:04:40.81: SIM {TimeUS : 51635171, Roll : -0.07, Pitch : -0.03, Yaw : 359.81, Alt : 45.6800003052, Lat : 49.2835704, Lng : -123.1150206, Q1 : 0.999998390675, Q2 : -0.000698579882737, Q3 : -0.000276630860753, Q4 : -0.00163250428159}
2019-04-14 12:04:40.91: SIM {TimeUS : 51735131, Roll : -0.1, Pitch : -0.02, Yaw : 359.8, Alt : 45.9199981689, Lat : 49.2835703, Lng : -123.1150206, Q1 : 0.999998152256, Q2 : -0.000907297420781, Q3 : -0.000212857921724, Q4 : -0.00166739686392}
2019-04-14 12:04:41.01: SIM {TimeUS : 51835091, Roll : -0.1, Pitch : 0.0, Yaw : 359.8, Alt : 46.1500015259, Lat : 49.2835703, Lng : -123.1150206, Q1 : 0.999998092651, Q2 : -0.000957679527346, Q3 : -6.78531068843e-05, Q4 : -0.00169675960205}
2019-04-14 12:04:41.11: SIM {TimeUS : 51935051, Roll : -0.09, Pitch : 0.01, Yaw : 359.8, Alt : 46.3699989319, Lat : 49.2835704, Lng : -123.1150206, Q1 : 0.999998152256, Q2 : -0.000844128197059, Q3 : 0.000166170546436, Q4 : -0.00171904673334}
2019-04-14 12:04:41.21: SIM {TimeUS : 52035011, Roll : -0.07, Pitch : 0.03, Yaw : 359.8, Alt : 46.5900001526, Lat : 49.2835704, Lng : -123.1150206, Q1 : 0.999998211861, Q2 : -0.000617720652372, Q3 : 0.000312046700856, Q4 : -0.00174024619628}
2019-04-14 12:04:41.31: SIM {TimeUS : 52134971, Roll : -0.04, Pitch : 0.03, Yaw : 359.79, Alt : 46.8100013733, Lat : 49.2835704, Lng : -123.1150206, Q1 : 0.99999833107, Q2 : -0.000421290285885, Q3 : 0.00029620694113, Q4 : -0.0017607845366}
2019-04-14 12:04:41.41: SIM {TimeUS : 52234931, Roll : -0.03, Pitch : 0.01, Yaw : 359.79, Alt : 47.0200004578, Lat : 49.2835704, Lng : -123.1150206, Q1 : 0.99999833107, Q2 : -0.000324447726598, Q3 : 0.000144564241054, Q4 : -0.0017792340368}
2019-04-14 12:04:41.51: SIM {TimeUS : 52334891, Roll : -0.01, Pitch : -0.01, Yaw : 359.79, Alt : 47.2200012207, Lat : 49.2835703, Lng : -123.1150206, Q1 : 0.99999833107, Q2 : -0.000166873403941, Q3 : -0.000138706498547, Q4 : -0.00180003140122}
2019-04-14 12:04:41.61: SIM {TimeUS : 52434851, Roll : 0.0, Pitch : -0.05, Yaw : 359.79, Alt : 47.4199981689, Lat : 49.2835703, Lng : -123.1150206, Q1 : 0.999998271465, Q2 : 4.20721189585e-05, Q3 : -0.000440091855126, Q4 : -0.00182025891263}
2019-04-14 12:04:41.71: SIM {TimeUS : 52534811, Roll : 0.01, Pitch : -0.07, Yaw : 359.78, Alt : 47.5999984741, Lat : 49.2835703, Lng : -123.1150206, Q1 : 0.999998092651, Q2 : 0.000133926107083, Q3 : -0.000663211452775, Q4 : -0.00184485060163}
2019-04-14 12:04:41.81: SIM {TimeUS : 52634771, Roll : 0.02, Pitch : -0.11, Yaw : 359.78, Alt : 47.7799987793, Lat : 49.2835703, Lng : -123.1150206, Q1 : 0.999997735023, Q2 : 0.000201700138859, Q3 : -0.000977190095, Q4 : -0.0018713765312}
2019-04-14 12:04:41.91: SIM {TimeUS : 52734731, Roll : 0.04, Pitch : -0.12, Yaw : 359.78, Alt : 47.9399986267, Lat : 49.2835703, Lng : -123.1150206, Q1 : 0.999997496605, Q2 : 0.000424970785389, Q3 : -0.00110536511056, Q4 : -0.00189697463065}
2019-04-14 12:04:42.01: SIM {TimeUS : 52834691, Roll : 0.07, Pitch : -0.11, Yaw : 359.77, Alt : 48.0999984741, Lat : 49.2835703, Lng : -123.1150206, Q1 : 0.999997437, Q2 : 0.000651777372696, Q3 : -0.00102438020986, Q4 : -0.00192004651763}
2019-04-14 12:04:42.11: SIM {TimeUS : 52934651, Roll : 0.09, Pitch : -0.09, Yaw : 359.77, Alt : 48.2400016785, Lat : 49.2835704, Lng : -123.1150206, Q1 : 0.999997437, Q2 : 0.000792652950622, Q3 : -0.00083671376342, Q4 : -0.00193994457368}
2019-04-14 12:04:42.21: SIM {TimeUS : 53034611, Roll : 0.08, Pitch : -0.06, Yaw : 359.77, Alt : 48.3600006104, Lat : 49.2835704, Lng : -123.1150206, Q1 : 0.999997615814, Q2 : 0.000763004587498, Q3 : -0.000601205218118, Q4 : -0.0019617904909}
2019-04-14 12:04:42.31: SIM {TimeUS : 53134571, Roll : 0.07, Pitch : -0.04, Yaw : 359.77, Alt : 48.4799995422, Lat : 49.2835704, Lng : -123.1150206, Q1 : 0.999997735023, Q2 : 0.000694043177646, Q3 : -0.000427052989835, Q4 : -0.00198552524671}
2019-04-14 12:04:42.41: SIM {TimeUS : 53234531, Roll : 0.06, Pitch : -0.05, Yaw : 359.76, Alt : 48.5900001526, Lat : 49.2835704, Lng : -123.1150206, Q1 : 0.999997735023, Q2 : 0.000574808218516, Q3 : -0.00044731789967, Q4 : -0.00201121624559}
2019-04-14 12:04:42.51: SIM {TimeUS : 53335324, Roll : 0.04, Pitch : -0.05, Yaw : 359.76, Alt : 48.6800003052, Lat : 49.2835704, Lng : -123.1150206, Q1 : 0.999997735023, Q2 : 0.000353741779691, Q3 : -0.000462241529021, Q4 : -0.00204325839877}
2019-04-14 12:04:42.61: SIM {TimeUS : 53435284, Roll : 0.01, Pitch : -0.04, Yaw : 359.76, Alt : 48.7599983215, Lat : 49.2835704, Lng : -123.1150206, Q1 : 0.999997735023, Q2 : 0.000163989403518, Q3 : -0.0003830473579, Q4 : -0.00207574106753}
2019-04-14 12:04:42.71: SIM {TimeUS : 53535244, Roll : 0.0, Pitch : -0.02, Yaw : 359.75, Alt : 48.8300018311, Lat : 49.2835704, Lng : -123.1150206, Q1 : 0.999997735023, Q2 : 1.00193392427e-05, Q3 : -0.000231852376601, Q4 : -0.00210763211362}
2019-04-14 12:04:42.81: SIM {TimeUS : 53635204, Roll : 0.0, Pitch : 0.0, Yaw : 359.75, Alt : 48.8899993896, Lat : 49.2835704, Lng : -123.1150206, Q1 : 0.999997735023, Q2 : -6.3823776145e-05, Q3 : 8.10293499853e-07, Q4 : -0.00213564955629}
2019-04-14 12:04:42.91: SIM {TimeUS : 53735164, Roll : 0.0, Pitch : 0.03, Yaw : 359.75, Alt : 48.9399986267, Lat : 49.2835704, Lng : -123.1150206, Q1 : 0.999997615814, Q2 : 5.62812529097e-05, Q3 : 0.000303908745991, Q4 : -0.00216243835166}
2019-04-14 12:04:43.01: SIM {TimeUS : 53835124, Roll : 0.03, Pitch : 0.05, Yaw : 359.74, Alt : 48.9799995422, Lat : 49.2835704, Lng : -123.1150206, Q1 : 0.999997437, Q2 : 0.000291975040454, Q3 : 0.00047174905194, Q4 : -0.00218537007459}
2019-04-14 12:04:43.11: SIM {TimeUS : 53935084, Roll : 0.1, Pitch : 0.0, Yaw : 359.74, Alt : 49.0200004578, Lat : 49.2835704, Lng : -123.1150206, Q1 : 0.999997138977, Q2 : 0.00091789412545, Q3 : -5.64533038414e-05, Q4 : -0.00221683434211}
2019-04-14 12:04:43.21: SIM {TimeUS : 54035044, Roll : 0.29, Pitch : -0.21, Yaw : 359.74, Alt : 49.0499992371, Lat : 49.2835704, Lng : -123.1150206, Q1 : 0.999992370605, Q2 : 0.00261072162539, Q3 : -0.00183870387264, Q4 : -0.00225037522614}
2019-04-14 12:04:43.31: SIM {TimeUS : 54135004, Roll : 0.68, Pitch : -0.62, Yaw : 359.73, Alt : 49.0800018311, Lat : 49.2835704, Lng : -123.1150206, Q1 : 0.999965012074, Q2 : 0.00595105672255, Q3 : -0.00542484968901, Q4 : -0.00227773538791}
2019-04-14 12:04:43.41: SIM {TimeUS : 54234964, Roll : 1.25, Pitch : -1.2, Yaw : 359.72, Alt : 49.1100006104, Lat : 49.2835704, Lng : -123.1150206, Q1 : 0.999881863594, Q2 : 0.0109541807324, Q3 : -0.0105399489403, Q4 : -0.00228432798758}
2019-04-14 12:04:43.51: SIM {TimeUS : 54334924, Roll : 1.97, Pitch : -1.88, Yaw : 359.7, Alt : 49.1300010681, Lat : 49.2835706, Lng : -123.1150205, Q1 : 0.999713003635, Q2 : 0.0171948540956, Q3 : -0.0165281128138, Q4 : -0.00225294032134}
2019-04-14 12:04:43.61: SIM {TimeUS : 54434884, Roll : 2.73, Pitch : -2.6, Yaw : 359.69, Alt : 49.1399993896, Lat : 49.2835706, Lng : -123.1150204, Q1 : 0.999455034733, Q2 : 0.023800259456, Q3 : -0.0227725934237, Q4 : -0.00215826043859}
2019-04-14 12:04:43.71: SIM {TimeUS : 54534844, Roll : 3.41, Pitch : -3.23, Yaw : 359.67, Alt : 49.1599998474, Lat : 49.2835707, Lng : -123.1150203, Q1 : 0.999157726765, Q2 : 0.029671985656, Q3 : -0.0282740686089, Q4 : -0.00199327943847}
2019-04-14 12:04:43.81: SIM {TimeUS : 54634804, Roll : 3.93, Pitch : -3.72, Yaw : 359.66, Alt : 49.1699981689, Lat : 49.2835709, Lng : -123.1150201, Q1 : 0.998883783817, Q2 : 0.034187078476, Q3 : -0.0325480625033, Q4 : -0.00176935351919}
2019-04-14 12:04:43.91: SIM {TimeUS : 54734764, Roll : 4.3, Pitch : -4.09, Yaw : 359.67, Alt : 49.1899986267, Lat : 49.2835709, Lng : -123.1150199, Q1 : 0.998655498028, Q2 : 0.0374342426658, Q3 : -0.0358279012144, Q4 : -0.00151453993749}
2019-04-14 12:04:44.01: SIM {TimeUS : 54834724, Roll : 4.59, Pitch : -4.39, Yaw : 359.68, Alt : 49.2000007629, Lat : 49.2835713, Lng : -123.1150195, Q1 : 0.99846124649, Q2 : 0.039970356971, Q3 : -0.0384184010327, Q4 : -0.0012394124642}
2019-04-14 12:04:44.11: SIM {TimeUS : 54934684, Roll : 4.86, Pitch : -4.64, Yaw : 359.69, Alt : 49.2099990845, Lat : 49.2835715, Lng : -123.115019, Q1 : 0.998278915882, Q2 : 0.0423299521208, Q3 : -0.0405772216618, Q4 : -0.000951648806222}
2019-04-14 12:04:44.21: SIM {TimeUS : 55034644, Roll : 5.13, Pitch : -4.86, Yaw : 359.7, Alt : 49.2099990845, Lat : 49.2835719, Lng : -123.1150185, Q1 : 0.998094856739, Q2 : 0.0446726456285, Q3 : -0.0425517894328, Q4 : -0.000663735729177}
2019-04-14 12:04:44.31: SIM {TimeUS : 55134604, Roll : 5.41, Pitch : -5.11, Yaw : 359.71, Alt : 49.2200012207, Lat : 49.2835722, Lng : -123.1150179, Q1 : 0.997893095016, Q2 : 0.0470668748021, Q3 : -0.0446533598006, Q4 : -0.000402671284974}
2019-04-14 12:04:44.41: SIM {TimeUS : 55234564, Roll : 5.65, Pitch : -5.33, Yaw : 359.71, Alt : 49.2299995422, Lat : 49.2835727, Lng : -123.1150172, Q1 : 0.997700154781, Q2 : 0.0491879694164, Q3 : -0.0466372594237, Q4 : -0.000167944803252}
2019-04-14 12:04:44.51: SIM {TimeUS : 55334524, Roll : 5.85, Pitch : -5.51, Yaw : 359.72, Alt : 49.2299995422, Lat : 49.2835732, Lng : -123.1150163, Q1 : 0.997543156147, Q2 : 0.05089315027, Q3 : -0.0481400154531, Q4 : 4.99873349327e-05}
2019-04-14 12:04:44.61: SIM {TimeUS : 55435317, Roll : 5.99, Pitch : -5.63, Yaw : 359.73, Alt : 49.2400016785, Lat : 49.2835737, Lng : -123.1150155, Q1 : 0.997426509857, Q2 : 0.052127532661, Q3 : -0.049223843962, Q4 : 0.000232120073633}
2019-04-14 12:04:44.71: SIM {TimeUS : 55535277, Roll : 6.09, Pitch : -5.74, Yaw : 359.73, Alt : 49.2400016785, Lat : 49.2835743, Lng : -123.1150146, Q1 : 0.99733710289, Q2 : 0.052973665297, Q3 : -0.0501241497695, Q4 : 0.000357285549399}
2019-04-14 12:04:44.81: SIM {TimeUS : 55635237, Roll : 6.19, Pitch : -5.82, Yaw : 359.73, Alt : 49.25, Lat : 49.283575, Lng : -123.1150135, Q1 : 0.997253239155, Q2 : 0.0538325719535, Q3 : -0.0508711226285, Q4 : 0.000452535838122}
2019-04-14 12:04:44.91: SIM {TimeUS : 55735197, Roll : 6.34, Pitch : -5.92, Yaw : 359.73, Alt : 49.25, Lat : 49.2835756, Lng : -123.1150124, Q1 : 0.997140526772, Q2 : 0.0551100745797, Q3 : -0.0517045706511, Q4 : 0.000544081558473}
2019-04-14 12:04:45.01: SIM {TimeUS : 55835157, Roll : 6.66, Pitch : -5.93, Yaw : 359.85, Alt : 49.2599983215, Lat : 49.2835764, Lng : -123.1150112, Q1 : 0.996974289417, Q2 : 0.0579883567989, Q3 : -0.0517361797392, Q4 : 0.00174257811159}
2019-04-14 12:04:45.11: SIM {TimeUS : 55935117, Roll : 7.22, Pitch : -5.81, Yaw : 0.61, Alt : 49.2599983215, Lat : 49.2835771, Lng : -123.1150099, Q1 : 0.996693253517, Q2 : 0.0632278770208, Q3 : -0.0503144338727, Q4 : 0.00856117624789}
2019-04-14 12:04:45.21: SIM {TimeUS : 56035077, Roll : 7.85, Pitch : -5.8, Yaw : 2.68, Alt : 49.2599983215, Lat : 49.283578, Lng : -123.1150086, Q1 : 0.996015310287, Q2 : 0.0695817098022, Q3 : -0.0489103719592, Q4 : 0.026827480644}
2019-04-14 12:04:45.31: SIM {TimeUS : 56135037, Roll : 8.24, Pitch : -6.19, Yaw : 6.34, Alt : 49.2599983215, Lat : 49.2835788, Lng : -123.1150071, Q1 : 0.994209587574, Q2 : 0.0746869519353, Q3 : -0.0498600378633, Q4 : 0.0590181164443}
2019-04-14 12:04:45.41: SIM {TimeUS : 56234997, Roll : 8.17, Pitch : -7.06, Yaw : 11.5, Alt : 49.2700004578, Lat : 49.2835797, Lng : -123.1150056, Q1 : 0.99010515213, Q2 : 0.0769567415118, Q3 : -0.0539852716029, Q4 : 0.104187652469}
2019-04-14 12:04:45.51: SIM {TimeUS : 56334957, Roll : 7.48, Pitch : -8.29, Yaw : 17.95, Alt : 49.2700004578, Lat : 49.2835806, Lng : -123.1150039, Q1 : 0.982335090637, Q2 : 0.0755415931344, Q3 : -0.0611133687198, Q4 : 0.159926265478}
2019-04-14 12:04:45.61: SIM {TimeUS : 56434917, Roll : 6.13, Pitch : -9.69, Yaw : 25.41, Alt : 49.2700004578, Lat : 49.2835814, Lng : -123.1150021, Q1 : 0.969626545906, Q2 : 0.0705895796418, Q3 : -0.0705807358027, Q4 : 0.22329325974}
2019-04-14 12:04:45.71: SIM {TimeUS : 56534877, Roll : 4.08, Pitch : -11.06, Yaw : 33.6, Alt : 49.2700004578, Lat : 49.2835824, Lng : -123.1150002, Q1 : 0.951250910759, Q2 : 0.0617947168648, Q3 : -0.081953831017, Q4 : 0.290837854147}
2019-04-14 12:04:45.81: SIM {TimeUS : 56634837, Roll : 1.23, Pitch : -12.13, Yaw : 41.92, Alt : 49.2700004578, Lat : 49.2835834, Lng : -123.1149981, Q1 : 0.928127586842, Q2 : 0.0478402487934, Q3 : -0.0948111265898, Q4 : 0.356793165207}
2019-04-14 12:04:45.91: SIM {TimeUS : 56734797, Roll : -1.97, Pitch : -12.7, Yaw : 49.49, Alt : 49.2700004578, Lat : 49.2835844, Lng : -123.1149961, Q1 : 0.903247773647, Q2 : 0.0307795479894, Q3 : -0.107661791146, Q4 : 0.414252340794}
2019-04-14 12:04:46.01: SIM {TimeUS : 56834757, Roll : -4.87, Pitch : -12.82, Yaw : 55.53, Alt : 49.2700004578, Lat : 49.2835855, Lng : -123.1149938, Q1 : 0.880734860897, Q2 : 0.0145900230855, Q3 : -0.118442952633, Q4 : 0.458327978849}
2019-04-14 12:04:46.11: SIM {TimeUS : 56934717, Roll : -6.91, Pitch : -12.67, Yaw : 59.6, Alt : 49.2700004578, Lat : 49.2835867, Lng : -123.1149917, Q1 : 0.864191710949, Q2 : 0.00272835511714, Q3 : -0.125439733267, Q4 : 0.487268030643}
2019-04-14 12:04:46.21: SIM {TimeUS : 57034677, Roll : -7.87, Pitch : -12.51, Yaw : 61.69, Alt : 49.2700004578, Lat : 49.2835881, Lng : -123.1149895, Q1 : 0.855251789093, Q2 : -0.00287464191206, Q3 : -0.128328457475, Q4 : 0.502063691616}
2019-04-14 12:04:46.31: SIM {TimeUS : 57134637, Roll : -7.82, Pitch : -12.52, Yaw : 62.06, Alt : 49.2700004578, Lat : 49.2835896, Lng : -123.1149871, Q1 : 0.853602409363, Q2 : -0.00199246173725, Q3 : -0.128185614944, Q4 : 0.504903376102}
2019-04-14 12:04:46.41: SIM {TimeUS : 57234597, Roll : -6.97, Pitch : -12.8, Yaw : 61.07, Alt : 49.2700004578, Lat : 49.2835911, Lng : -123.1149849, Q1 : 0.857784867287, Q2 : 0.00444546621293, Q3 : -0.126590147614, Q4 : 0.498156964779}
2019-04-14 12:04:46.51: SIM {TimeUS : 57334557, Roll : -5.59, Pitch : -13.33, Yaw : 59.06, Alt : 49.2700004578, Lat : 49.2835928, Lng : -123.1149826, Q1 : 0.865944623947, Q2 : 0.0149655062705, Q3 : -0.124760322273, Q4 : 0.484097957611}
2019-04-14 12:04:46.61: SIM {TimeUS : 57434517, Roll : -3.9, Pitch : -14.01, Yaw : 56.37, Alt : 49.2700004578, Lat : 49.2835946, Lng : -123.1149802, Q1 : 0.876281201839, Q2 : 0.0277829375118, Q3 : -0.123455621302, Q4 : 0.464884996414}
2019-04-14 12:04:46.71: SIM {TimeUS : 57535310, Roll : -2.08, Pitch : -14.71, Yaw : 53.27, Alt : 49.2799987793, Lat : 49.2835964, Lng : -123.1149777, Q1 : 0.88739746809, Q2 : 0.0412827134132, Q3 : -0.122570477426, Q4 : 0.442490667105}
2019-04-14 12:04:46.81: SIM {TimeUS : 57635270, Roll : -0.33, Pitch : -15.28, Yaw : 50.13, Alt : 49.2799987793, Lat : 49.2835982, Lng : -123.1149752, Q1 : 0.897919774055, Q2 : 0.0537117645144, Q3 : -0.121651120484, Q4 : 0.41959053278}
2019-04-14 12:04:46.91: SIM {TimeUS : 57735230, Roll : 1.2, Pitch : -15.62, Yaw : 47.26, Alt : 49.2799987793, Lat : 49.2836, Lng : -123.1149725, Q1 : 0.906995534897, Q2 : 0.0640508756042, Q3 : -0.120367489755, Q4 : 0.398457407951}
2019-04-14 12:04:47.01: SIM {TimeUS : 57835190, Roll : 2.41, Pitch : -15.76, Yaw : 44.94, Alt : 49.2799987793, Lat : 49.2836019, Lng : -123.1149698, Q1 : 0.914026916027, Q2 : 0.0716979131103, Q3 : -0.118749693036, Q4 : 0.381199091673}
2019-04-14 12:04:47.11: SIM {TimeUS : 57935150, Roll : 3.19, Pitch : -15.78, Yaw : 43.33, Alt : 49.2799987793, Lat : 49.2836038, Lng : -123.1149669, Q1 : 0.918767750263, Q2 : 0.0763594955206, Q3 : -0.117330119014, Q4 : 0.369145929813}
2019-04-14 12:04:47.21: SIM {TimeUS : 58035110, Roll : 3.52, Pitch : -15.74, Yaw : 42.5, Alt : 49.2799987793, Lat : 49.2836057, Lng : -123.1149638, Q1 : 0.921256005764, Q2 : 0.0779997780919, Q3 : -0.116596862674, Q4 : 0.362778961658}
2019-04-14 12:04:47.31: SIM {TimeUS : 58135070, Roll : 3.4, Pitch : -15.73, Yaw : 42.39, Alt : 49.2799987793, Lat : 49.2836077, Lng : -123.1149607, Q1 : 0.921682357788, Q2 : 0.0768984183669, Q3 : -0.116971723735, Q4 : 0.361809283495}
2019-04-14 12:04:47.41: SIM {TimeUS : 58235030, Roll : 2.92, Pitch : -15.76, Yaw : 42.9, Alt : 49.2799987793, Lat : 49.2836097, Lng : -123.1149574, Q1 : 0.920351922512, Q2 : 0.0736493989825, Q3 : -0.118354268372, Q4 : 0.365404486656}
2019-04-14 12:04:47.51: SIM {TimeUS : 58334990, Roll : 2.21, Pitch : -15.83, Yaw : 43.86, Alt : 49.2799987793, Lat : 49.2836116, Lng : -123.1149541, Q1 : 0.917615532875, Q2 : 0.0691980272532, Q3 : -0.120597831905, Q4 : 0.372356772423}
2019-04-14 12:04:47.61: SIM {TimeUS : 58434950, Roll : 1.36, Pitch : -15.94, Yaw : 45.09, Alt : 49.2799987793, Lat : 49.2836136, Lng : -123.1149507, Q1 : 0.913927972317, Q2 : 0.0641037523746, Q3 : -0.123562924564, Q4 : 0.381259202957}
2019-04-14 12:04:47.71: SIM {TimeUS : 58534910, Roll : 0.52, Pitch : -16.07, Yaw : 46.41, Alt : 49.2799987793, Lat : 49.2836158, Lng : -123.1149472, Q1 : 0.909773766994, Q2 : 0.0592884421349, Q3 : -0.126752451062, Q4 : 0.390807300806}
2019-04-14 12:04:47.81: SIM {TimeUS : 58634870, Roll : -0.21, Pitch : -16.18, Yaw : 47.67, Alt : 49.2799987793, Lat : 49.2836178, Lng : -123.1149436, Q1 : 0.905694127083, Q2 : 0.0552265048027, Q3 : -0.129532277584, Q4 : 0.399861961603}
2019-04-14 12:04:47.91: SIM {TimeUS : 58734830, Roll : -0.79, Pitch : -16.26, Yaw : 48.73, Alt : 49.2799987793, Lat : 49.28362, Lng : -123.11494, Q1 : 0.902154922485, Q2 : 0.0520814172924, Q3 : -0.131690531969, Q4 : 0.407506614923}
2019-04-14 12:04:48.01: SIM {TimeUS : 58834790, Roll : -1.21, Pitch : -16.32, Yaw : 49.51, Alt : 49.2799987793, Lat : 49.2836221, Lng : -123.1149363, Q1 : 0.899475932121, Q2 : 0.0499295592308, Q3 : -0.133295923471, Q4 : 0.41313713789}
2019-04-14 12:04:48.11: SIM {TimeUS : 58934750, Roll : -1.43, Pitch : -16.37, Yaw : 49.97, Alt : 49.2900009155, Lat : 49.2836244, Lng : -123.1149326, Q1 : 0.897826254368, Q2 : 0.0489269271493, Q3 : -0.13432687521, Q4 : 0.416497826576}
2019-04-14 12:04:48.21: SIM {TimeUS : 59034710, Roll : -1.46, Pitch : -16.43, Yaw : 50.13, Alt : 49.2900009155, Lat : 49.2836266, Lng : -123.1149289, Q1 : 0.897221624851, Q2 : 0.0490462332964, Q3 : -0.134822994471, Q4 : 0.417624980211}
2019-04-14 12:04:48.31: SIM {TimeUS : 59134670, Roll : -1.34, Pitch : -16.47, Yaw : 50.0, Alt : 49.2900009155, Lat : 49.2836288, Lng : -123.1149251, Q1 : 0.897566854954, Q2 : 0.0500609427691, Q3 : -0.134776547551, Q4 : 0.416776865721}
2019-04-14 12:04:48.41: SIM {TimeUS : 59234630, Roll : -1.08, Pitch : -16.52, Yaw : 49.66, Alt : 49.2900009155, Lat : 49.2836311, Lng : -123.1149213, Q1 : 0.898638367653, Q2 : 0.0518612600863, Q3 : -0.13431340456, Q4 : 0.414390474558}
2019-04-14 12:04:48.51: SIM {TimeUS : 59334590, Roll : -0.73, Pitch : -16.56, Yaw : 49.18, Alt : 49.2900009155, Lat : 49.2836335, Lng : -123.1149174, Q1 : 0.900170624256, Q2 : 0.0541619732976, Q3 : -0.133641034365, Q4 : 0.410973697901}
2019-04-14 12:04:48.61: SIM {TimeUS : 59434550, Roll : -0.36, Pitch : -16.6, Yaw : 48.63, Alt : 49.2900009155, Lat : 49.2836359, Lng : -123.1149135, Q1 : 0.901908934116, Q2 : 0.0565988719463, Q3 : -0.132899105549, Q4 : 0.407056182623}
2019-04-14 12:04:48.71: SIM {TimeUS : 59534510, Roll : 0.0, Pitch : -16.64, Yaw : 48.08, Alt : 49.2900009155, Lat : 49.2836383, Lng : -123.1149096, Q1 : 0.90362405777, Q2 : 0.0588970780373, Q3 : -0.132197141647, Q4 : 0.403136074543}
2019-04-14 12:04:48.81: SIM {TimeUS : 59635303, Roll : 0.29, Pitch : -16.68, Yaw : 47.59, Alt : 49.2900009155, Lat : 49.2836407, Lng : -123.1149056, Q1 : 0.905139863491, Q2 : 0.0608753673732, Q3 : -0.131686359644, Q4 : 0.399593293667}
2019-04-14 12:04:48.91: SIM {TimeUS : 59735263, Roll : 0.51, Pitch : -16.71, Yaw : 47.21, Alt : 49.2900009155, Lat : 49.2836431, Lng : -123.1149016, Q1 : 0.906327605247, Q2 : 0.0622516833246, Q3 : -0.131369292736, Q4 : 0.396783471107}
2019-04-14 12:04:49.01: SIM {TimeUS : 59835223, Roll : 0.63, Pitch : -16.74, Yaw : 46.95, Alt : 49.2900009155, Lat : 49.2836456, Lng : -123.1148975, Q1 : 0.907117187977, Q2 : 0.0630443915725, Q3 : -0.131340533495, Q4 : 0.39485886693}
2019-04-14 12:04:49.11: SIM {TimeUS : 59935183, Roll : 0.67, Pitch : -16.78, Yaw : 46.82, Alt : 49.2900009155, Lat : 49.283648, Lng : -123.1148934, Q1 : 0.907491922379, Q2 : 0.0633291229606, Q3 : -0.131582692266, Q4 : 0.393870294094}
2019-04-14 12:04:49.21: SIM {TimeUS : 60035143, Roll : 0.62, Pitch : -16.82, Yaw : 46.81, Alt : 49.2900009155, Lat : 49.2836505, Lng : -123.1148893, Q1 : 0.907498121262, Q2 : 0.0631036907434, Q3 : -0.132096290588, Q4 : 0.393720328808}
2019-04-14 12:04:49.31: SIM {TimeUS : 60135103, Roll : 0.5, Pitch : -16.86, Yaw : 46.9, Alt : 49.2900009155, Lat : 49.283653, Lng : -123.1148851, Q1 : 0.907213270664, Q2 : 0.0623843260109, Q3 : -0.13279530406, Q4 : 0.394255906343}
2019-04-14 12:04:49.41: SIM {TimeUS : 60235063, Roll : 0.34, Pitch : -16.89, Yaw : 47.05, Alt : 49.2900009155, Lat : 49.2836554, Lng : -123.1148809, Q1 : 0.906722664833, Q2 : 0.0613628476858, Q3 : -0.133540153503, Q4 : 0.395291864872}
2019-04-14 12:04:49.51: SIM {TimeUS : 60335023, Roll : 0.15, Pitch : -16.92, Yaw : 47.25, Alt : 49.2999992371, Lat : 49.2836579, Lng : -123.1148766, Q1 : 0.906110644341, Q2 : 0.0602204501629, Q3 : -0.134308740497, Q4 : 0.396608293056}
2019-04-14 12:04:49.61: SIM {TimeUS : 60434983, Roll : 0.0, Pitch : -16.96, Yaw : 47.45, Alt : 49.2999992371, Lat : 49.2836604, Lng : -123.1148722, Q1 : 0.905434250832, Q2 : 0.0594022646546, Q3 : -0.135030433536, Q4 : 0.398028820753}
2019-04-14 12:04:49.71: SIM {TimeUS : 60534943, Roll : -0.11, Pitch : -17.01, Yaw : 47.64, Alt : 49.2999992371, Lat : 49.283663, Lng : -123.114868, Q1 : 0.904789984226, Q2 : 0.0588586218655, Q3 : -0.135686799884, Q4 : 0.399349361658}
2019-04-14 12:04:49.81: SIM {TimeUS : 60634903, Roll : -0.18, Pitch : -17.05, Yaw : 47.79, Alt : 49.2999992371, Lat : 49.2836656, Lng : -123.1148637, Q1 : 0.904244840145, Q2 : 0.058644104749, Q3 : -0.1362477988, Q4 : 0.400423169136}
2019-04-14 12:04:49.91: SIM {TimeUS : 60734863, Roll : -0.2, Pitch : -17.1, Yaw : 47.89, Alt : 49.2999992371, Lat : 49.2836681, Lng : -123.1148594, Q1 : 0.903850018978, Q2 : 0.0587317161262, Q3 : -0.136664867401, Q4 : 0.401158869267}
2019-04-14 12:04:50.01: SIM {TimeUS : 60834823, Roll : -0.21, Pitch : -17.14, Yaw : 47.94, Alt : 49.2999992371, Lat : 49.2836706, Lng : -123.114855, Q1 : 0.903645634651, Q2 : 0.0588530376554, Q3 : -0.136946842074, Q4 : 0.401505321264}
2019-04-14 12:04:50.11: SIM {TimeUS : 60934783, Roll : -0.21, Pitch : -17.15, Yaw : 47.94, Alt : 49.2999992371, Lat : 49.2836732, Lng : -123.1148506, Q1 : 0.903640031815, Q2 : 0.058928668499, Q3 : -0.137041479349, Q4 : 0.401474565268}
2019-04-14 12:04:50.21: SIM {TimeUS : 61034743, Roll : -0.19, Pitch : -17.17, Yaw : 47.89, Alt : 49.2999992371, Lat : 49.2836759, Lng : -123.1148462, Q1 : 0.903785228729, Q2 : 0.059073176235, Q3 : -0.13713273406, Q4 : 0.401095062494}
2019-04-14 12:04:50.31: SIM {TimeUS : 61134703, Roll : -0.14, Pitch : -17.18, Yaw : 47.8, Alt : 49.2999992371, Lat : 49.2836785, Lng : -123.1148418, Q1 : 0.904040753841, Q2 : 0.0593899674714, Q3 : -0.137088060379, Q4 : 0.400487244129}
2019-04-14 12:04:50.41: SIM {TimeUS : 61234663, Roll : -0.08, Pitch : -17.19, Yaw : 47.7, Alt : 49.2999992371, Lat : 49.2836811, Lng : -123.1148374, Q1 : 0.904357671738, Q2 : 0.0598284527659, Q3 : -0.137030124664, Q4 : 0.399725645781}
2019-04-14 12:04:50.51: SIM {TimeUS : 61334623, Roll : 0.0, Pitch : -17.23, Yaw : 47.58, Alt : 49.3100013733, Lat : 49.2836839, Lng : -123.1148329, Q1 : 0.904665231705, Q2 : 0.0605109333992, Q3 : -0.137049868703, Q4 : 0.398919314146}
2019-04-14 12:04:50.61: SIM {TimeUS : 61434583, Roll : 0.09, Pitch : -17.28, Yaw : 47.47, Alt : 49.3100013733, Lat : 49.2836864, Lng : -123.1148284, Q1 : 0.904942631721, Q2 : 0.0612465403974, Q3 : -0.137212395668, Q4 : 0.398121207952}
2019-04-14 12:04:50.71: SIM {TimeUS : 61534543, Roll : 0.15, Pitch : -17.31, Yaw : 47.38, Alt : 49.3100013733, Lat : 49.2836892, Lng : -123.114824, Q1 : 0.905205190182, Q2 : 0.0617414489388, Q3 : -0.137321203947, Q4 : 0.397409707308}
2019-04-14 12:04:50.81: SIM {TimeUS : 61634503, Roll : 0.19, Pitch : -17.32, Yaw : 47.3, Alt : 49.3100013733, Lat : 49.2836919, Lng : -123.1148195, Q1 : 0.90544116497, Q2 : 0.0619827918708, Q3 : -0.137286648154, Q4 : 0.396846055984}
2019-04-14 12:04:50.91: SIM {TimeUS : 61735296, Roll : 0.21, Pitch : -17.33, Yaw : 47.25, Alt : 49.3100013733, Lat : 49.2836945, Lng : -123.1148149, Q1 : 0.905609965324, Q2 : 0.0620536580682, Q3 : -0.137340188026, Q4 : 0.39643111825}
2019-04-14 12:04:51.01: SIM {TimeUS : 61835256, Roll : 0.2, Pitch : -17.35, Yaw : 47.22, Alt : 49.3100013733, Lat : 49.2836973, Lng : -123.1148104, Q1 : 0.905691444874, Q2 : 0.0620544925332, Q3 : -0.137551262975, Q4 : 0.396171599627}
2019-04-14 12:04:51.11: SIM {TimeUS : 61935216, Roll : 0.19, Pitch : -17.37, Yaw : 47.21, Alt : 49.3100013733, Lat : 49.2836999, Lng : -123.1148058, Q1 : 0.90569794178, Q2 : 0.0620722062886, Q3 : -0.137758180499, Q4 : 0.396082013845}
2019-04-14 12:04:51.21: SIM {TimeUS : 62035176, Roll : 0.18, Pitch : -17.41, Yaw : 47.21, Alt : 49.3100013733, Lat : 49.2837027, Lng : -123.1148013, Q1 : 0.905646502972, Q2 : 0.0620628036559, Q3 : -0.138046443462, Q4 : 0.396100789309}
2019-04-14 12:04:51.31: SIM {TimeUS : 62135136, Roll : 0.16, Pitch : -17.43, Yaw : 47.23, Alt : 49.3100013733, Lat : 49.2837054, Lng : -123.1147967, Q1 : 0.905571341515, Q2 : 0.061996307224, Q3 : -0.138297468424, Q4 : 0.396195441484}
2019-04-14 12:04:51.41: SIM {TimeUS : 62235096, Roll : 0.14, Pitch : -17.46, Yaw : 47.25, Alt : 49.3100013733, Lat : 49.2837082, Lng : -123.1147921, Q1 : 0.905476391315, Q2 : 0.0619710721076, Q3 : -0.138584583998, Q4 : 0.396316051483}
2019-04-14 12:04:51.51: SIM {TimeUS : 62335056, Roll : 0.12, Pitch : -17.48, Yaw : 47.27, Alt : 49.3100013733, Lat : 49.2837108, Lng : -123.1147875, Q1 : 0.905390739441, Q2 : 0.0619467422366, Q3 : -0.138783484697, Q4 : 0.396445870399}
2019-04-14 12:04:51.61: SIM {TimeUS : 62435016, Roll : 0.12, Pitch : -17.5, Yaw : 47.29, Alt : 49.3100013733, Lat : 49.2837137, Lng : -123.1147828, Q1 : 0.905316054821, Q2 : 0.0620073191822, Q3 : -0.138934314251, Q4 : 0.396554201841}
2019-04-14 12:04:51.71: SIM {TimeUS : 62534976, Roll : 0.13, Pitch : -17.52, Yaw : 47.29, Alt : 49.3199996948, Lat : 49.2837163, Lng : -123.1147782, Q1 : 0.905256688595, Q2 : 0.0621333383024, Q3 : -0.139077618718, Q4 : 0.396619707346}
2019-04-14 12:04:51.81: SIM {TimeUS : 62634936, Roll : 0.12, Pitch : -17.55, Yaw : 47.3, Alt : 49.3199996948, Lat : 49.2837192, Lng : -123.1147736, Q1 : 0.905213236809, Q2 : 0.0621904954314, Q3 : -0.13939319551, Q4 : 0.396599173546}
2019-04-14 12:04:51.91: SIM {TimeUS : 62734896, Roll : 0.09, Pitch : -17.6, Yaw : 47.29, Alt : 49.3199996948, Lat : 49.283722, Lng : -123.1147689, Q1 : 0.905194282532, Q2 : 0.062087289989, Q3 : -0.139833927155, Q4 : 0.396503448486}
2019-04-14 12:04:52.01: SIM {TimeUS : 62834856, Roll : 0.06, Pitch : -17.64, Yaw : 47.28, Alt : 49.3199996948, Lat : 49.2837247, Lng : -123.1147642, Q1 : 0.905194282532, Q2 : 0.0620288699865, Q3 : -0.140258714557, Q4 : 0.396362453699}
2019-04-14 12:04:52.11: SIM {TimeUS : 62934816, Roll : 0.07, Pitch : -17.67, Yaw : 47.26, Alt : 49.3199996948, Lat : 49.2837275, Lng : -123.1147596, Q1 : 0.90521043539, Q2 : 0.0621801093221, Q3 : -0.140514910221, Q4 : 0.396211117506}
2019-04-14 12:04:52.21: SIM {TimeUS : 63034776, Roll : 0.1, Pitch : -17.68, Yaw : 47.24, Alt : 49.3199996948, Lat : 49.2837302, Lng : -123.1147549, Q1 : 0.905271708965, Q2 : 0.0624016150832, Q3 : -0.140464127064, Q4 : 0.39605435729}
2019-04-14 12:04:52.31: SIM {TimeUS : 63134736, Roll : 0.13, Pitch : -17.66, Yaw : 47.21, Alt : 49.3199996948, Lat : 49.2837331, Lng : -123.1147502, Q1 : 0.905368030071, Q2 : 0.0625736266375, Q3 : -0.140238434076, Q4 : 0.395886987448}
2019-04-14 12:04:52.41: SIM {TimeUS : 63234696, Roll : 0.15, Pitch : -17.65, Yaw : 47.18, Alt : 49.3199996948, Lat : 49.2837358, Lng : -123.1147454, Q1 : 0.905471384525, Q2 : 0.0626244097948, Q3 : -0.140098512173, Q4 : 0.395692020655}
2019-04-14 12:04:52.51: SIM {TimeUS : 63334656, Roll : 0.15, Pitch : -17.64, Yaw : 47.15, Alt : 49.3199996948, Lat : 49.2837387, Lng : -123.1147407, Q1 : 0.905580580235, Q2 : 0.0625723227859, Q3 : -0.140007838607, Q4 : 0.395482391119}
2019-04-14 12:04:52.61: SIM {TimeUS : 63434616, Roll : 0.15, Pitch : -17.62, Yaw : 47.13, Alt : 49.3199996948, Lat : 49.2837415, Lng : -123.114736, Q1 : 0.905691504478, Q2 : 0.0624888129532, Q3 : -0.139907985926, Q4 : 0.395276844501}
2019-04-14 12:04:52.71: SIM {TimeUS : 63534576, Roll : 0.15, Pitch : -17.64, Yaw : 47.1, Alt : 49.3199996948, Lat : 49.2837443, Lng : -123.1147312, Q1 : 0.905763864517, Q2 : 0.0624700300395, Q3 : -0.140048608184, Q4 : 0.395064175129}
2019-04-14 12:04:52.81: SIM {TimeUS : 63634536, Roll : 0.14, Pitch : -17.66, Yaw : 47.08, Alt : 49.3199996948, Lat : 49.2837472, Lng : -123.1147265, Q1 : 0.90580701828, Q2 : 0.0625049993396, Q3 : -0.140300497413, Q4 : 0.394870311022}
2019-04-14 12:04:52.91: SIM {TimeUS : 63734496, Roll : 0.13, Pitch : -17.71, Yaw : 47.06, Alt : 49.3199996948, Lat : 49.28375, Lng : -123.1147217, Q1 : 0.905816316605, Q2 : 0.0625604242086, Q3 : -0.14070956409, Q4 : 0.394694596529}
2019-04-14 12:04:53.01: SIM {TimeUS : 63835289, Roll : 0.13, Pitch : -17.77, Yaw : 47.05, Alt : 49.3199996948, Lat : 49.2837528, Lng : -123.1147169, Q1 : 0.90579199791, Q2 : 0.0627117455006, Q3 : -0.141204237938, Q4 : 0.394549757242}
2019-04-14 12:04:53.11: SIM {TimeUS : 63935249, Roll : 0.13, Pitch : -17.8, Yaw : 47.04, Alt : 49.3199996948, Lat : 49.2837557, Lng : -123.1147121, Q1 : 0.905790746212, Q2 : 0.0628549009562, Q3 : -0.141384989023, Q4 : 0.39446502924}
2019-04-14 12:04:53.21: SIM {TimeUS : 64035209, Roll : 0.14, Pitch : -17.82, Yaw : 47.03, Alt : 49.3300018311, Lat : 49.2837586, Lng : -123.1147074, Q1 : 0.905796408653, Q2 : 0.0629191696644, Q3 : -0.141545936465, Q4 : 0.394384086132}
2019-04-14 12:04:53.31: SIM {TimeUS : 64135169, Roll : 0.13, Pitch : -17.83, Yaw : 47.02, Alt : 49.3300018311, Lat : 49.2837613, Lng : -123.1147026, Q1 : 0.905815422535, Q2 : 0.06291256845, Q3 : -0.141652807593, Q4 : 0.394303113222}
2019-04-14 12:04:53.41: SIM {TimeUS : 64235129, Roll : 0.14, Pitch : -17.82, Yaw : 47.01, Alt : 49.3300018311, Lat : 49.2837642, Lng : -123.1146977, Q1 : 0.905845761299, Q2 : 0.0629731714725, Q3 : -0.141562566161, Q4 : 0.394256085157}
2019-04-14 12:04:53.51: SIM {TimeUS : 64335089, Roll : 0.17, Pitch : -17.83, Yaw : 47.0, Alt : 49.3300018311, Lat : 49.2837671, Lng : -123.114693, Q1 : 0.905852735043, Q2 : 0.0631675794721, Q3 : -0.141546204686, Q4 : 0.394214898348}
2019-04-14 12:04:53.61: SIM {TimeUS : 64435049, Roll : 0.18, Pitch : -17.85, Yaw : 47.0, Alt : 49.3300018311, Lat : 49.2837699, Lng : -123.1146882, Q1 : 0.905843734741, Q2 : 0.0633441656828, Q3 : -0.141707286239, Q4 : 0.394149422646}
2019-04-14 12:04:53.71: SIM {TimeUS : 64535009, Roll : 0.19, Pitch : -17.87, Yaw : 46.99, Alt : 49.3300018311, Lat : 49.2837728, Lng : -123.1146833, Q1 : 0.905844449997, Q2 : 0.0634575560689, Q3 : -0.141832277179, Q4 : 0.394084572792}
2019-04-14 12:04:53.81: SIM {TimeUS : 64634969, Roll : 0.19, Pitch : -17.87, Yaw : 46.98, Alt : 49.3300018311, Lat : 49.2837758, Lng : -123.1146785, Q1 : 0.905871033669, Q2 : 0.0635186508298, Q3 : -0.141821980476, Q4 : 0.394017249346}
2019-04-14 12:04:53.91: SIM {TimeUS : 64734929, Roll : 0.19, Pitch : -17.88, Yaw : 46.97, Alt : 49.3300018311, Lat : 49.2837786, Lng : -123.1146737, Q1 : 0.905900061131, Q2 : 0.0635075420141, Q3 : -0.141910031438, Q4 : 0.39392054081}
2019-04-14 12:04:54.01: SIM {TimeUS : 64834889, Roll : 0.17, Pitch : -17.9, Yaw : 46.95, Alt : 49.3300018311, Lat : 49.2837814, Lng : -123.1146689, Q1 : 0.905927062035, Q2 : 0.0634009838104, Q3 : -0.142142161727, Q4 : 0.393791973591}
2019-04-14 12:04:54.11: SIM {TimeUS : 64934849, Roll : 0.14, Pitch : -17.94, Yaw : 46.94, Alt : 49.3300018311, Lat : 49.2837843, Lng : -123.114664, Q1 : 0.905945301056, Q2 : 0.0632390230894, Q3 : -0.142531782389, Q4 : 0.393635213375}
2019-04-14 12:04:54.21: SIM {TimeUS : 65034809, Roll : 0.12, Pitch : -17.94, Yaw : 46.93, Alt : 49.3300018311, Lat : 49.2837873, Lng : -123.1146592, Q1 : 0.905990421772, Q2 : 0.0631091743708, Q3 : -0.142655983567, Q4 : 0.393507182598}
2019-04-14 12:04:54.31: SIM {TimeUS : 65134769, Roll : 0.13, Pitch : -17.93, Yaw : 46.92, Alt : 49.3300018311, Lat : 49.2837902, Lng : -123.1146543, Q1 : 0.906045615673, Q2 : 0.0630996003747, Q3 : -0.142563581467, Q4 : 0.39341506362}
2019-04-14 12:04:54.41: SIM {TimeUS : 65234729, Roll : 0.15, Pitch : -17.92, Yaw : 46.9, Alt : 49.3300018311, Lat : 49.283793, Lng : -123.1146494, Q1 : 0.906092643738, Q2 : 0.0632407069206, Q3 : -0.142395675182, Q4 : 0.393344908953}
2019-04-14 12:04:54.51: SIM {TimeUS : 65334689, Roll : 0.17, Pitch : -17.93, Yaw : 46.89, Alt : 49.3300018311, Lat : 49.2837959, Lng : -123.1146446, Q1 : 0.906123995781, Q2 : 0.0633830055594, Q3 : -0.142405465245, Q4 : 0.39324632287}
2019-04-14 12:04:54.61: SIM {TimeUS : 65434649, Roll : 0.16, Pitch : -17.95, Yaw : 46.87, Alt : 49.3300018311, Lat : 49.2837989, Lng : -123.1146397, Q1 : 0.906145334244, Q2 : 0.0634039714932, Q3 : -0.142610222101, Q4 : 0.393119484186}
2019-04-14 12:04:54.71: SIM {TimeUS : 65534609, Roll : 0.14, Pitch : -17.98, Yaw : 46.86, Alt : 49.3400001526, Lat : 49.2838018, Lng : -123.1146348, Q1 : 0.906172275543, Q2 : 0.0632935762405, Q3 : -0.142879933119, Q4 : 0.392977118492}
2019-04-14 12:04:54.81: SIM {TimeUS : 65634569, Roll : 0.13, Pitch : -18.0, Yaw : 46.85, Alt : 49.3400001526, Lat : 49.2838047, Lng : -123.11463, Q1 : 0.906195878983, Q2 : 0.0632559657097, Q3 : -0.143108978868, Q4 : 0.392845541239}
2019-04-14 12:04:54.91: SIM {TimeUS : 65734529, Roll : 0.13, Pitch : -18.02, Yaw : 46.83, Alt : 49.3400001526, Lat : 49.2838075, Lng : -123.1146251, Q1 : 0.906218290329, Q2 : 0.0633310750127, Q3 : -0.143247187138, Q4 : 0.392731368542}
2019-04-14 12:04:55.01: SIM {TimeUS : 65835322, Roll : 0.14, Pitch : -18.03, Yaw : 46.82, Alt : 49.3400001526, Lat : 49.2838105, Lng : -123.1146201, Q1 : 0.906241595745, Q2 : 0.0634267404675, Q3 : -0.143319815397, Q4 : 0.392635554075}
2019-04-14 12:04:55.11: SIM {TimeUS : 65935282, Roll : 0.16, Pitch : -18.03, Yaw : 46.81, Alt : 49.3400001526, Lat : 49.2838135, Lng : -123.1146153, Q1 : 0.906253874302, Q2 : 0.0636176913977, Q3 : -0.143285378814, Q4 : 0.392588883638}
2019-04-14 12:04:55.21: SIM {TimeUS : 66035242, Roll : 0.18, Pitch : -18.05, Yaw : 46.81, Alt : 49.3400001526, Lat : 49.2838164, Lng : -123.1146104, Q1 : 0.906253755093, Q2 : 0.0637516379356, Q3 : -0.143341064453, Q4 : 0.392547130585}
2019-04-14 12:04:55.31: SIM {TimeUS : 66135202, Roll : 0.19, Pitch : -18.06, Yaw : 46.8, Alt : 49.3400001526, Lat : 49.2838193, Lng : -123.1146055, Q1 : 0.906247973442, Q2 : 0.0638910159469, Q3 : -0.143427625299, Q4 : 0.392506182194}
2019-04-14 12:04:55.41: SIM {TimeUS : 66235162, Roll : 0.2, Pitch : -18.08, Yaw : 46.79, Alt : 49.3400001526, Lat : 49.2838223, Lng : -123.1146006, Q1 : 0.906241476536, Q2 : 0.0640281811357, Q3 : -0.143515065312, Q4 : 0.392466843128}
2019-04-14 12:04:55.51: SIM {TimeUS : 66335122, Roll : 0.22, Pitch : -18.09, Yaw : 46.79, Alt : 49.3400001526, Lat : 49.2838251, Lng : -123.1145957, Q1 : 0.906233489513, Q2 : 0.0642085522413, Q3 : -0.143553689122, Q4 : 0.392441689968}
2019-04-14 12:04:55.61: SIM {TimeUS : 66435082, Roll : 0.25, Pitch : -18.11, Yaw : 46.78, Alt : 49.3400001526, Lat : 49.2838281, Lng : -123.1145907, Q1 : 0.906211256981, Q2 : 0.0645016357303, Q3 : -0.14358663559, Q4 : 0.39243298769}
2019-04-14 12:04:55.71: SIM {TimeUS : 66535042, Roll : 0.25, Pitch : -18.11, Yaw : 46.78, Alt : 49.3400001526, Lat : 49.2838311, Lng : -123.1145859, Q1 : 0.906222820282, Q2 : 0.0644930824637, Q3 : -0.143627330661, Q4 : 0.392392724752}
2019-04-14 12:04:55.81: SIM {TimeUS : 66635002, Roll : 0.22, Pitch : -18.12, Yaw : 46.77, Alt : 49.3400001526, Lat : 49.283834, Lng : -123.1145809, Q1 : 0.906246840954, Q2 : 0.0642920657992, Q3 : -0.14380325377, Q4 : 0.39230582118}
2019-04-14 12:04:55.91: SIM {TimeUS : 66734962, Roll : 0.19, Pitch : -18.14, Yaw : 46.77, Alt : 49.3499984741, Lat : 49.283837, Lng : -123.114576, Q1 : 0.906261324883, Q2 : 0.0641276240349, Q3 : -0.144057929516, Q4 : 0.392205834389}
