2019-04-14 12:53:02.20: SIM {TimeUS : 40416327, Roll : 0.0, Pitch : 0.0, Yaw : 0.0, Alt : 30.1000003815, Lat : 49.28357, Lng : -123.11502, Q1 : 1.0, Q2 : 0.0, Q3 : 0.0, Q4 : 0.0}
2019-04-14 12:53:02.31: SIM {TimeUS : 40535446, Roll : 0.0, Pitch : 0.0, Yaw : 0.0, Alt : 30.1000003815, Lat : 49.28357, Lng : -123.11502, Q1 : 1.0, Q2 : 0.0, Q3 : 0.0, Q4 : 0.0}
2019-04-14 12:53:02.41: SIM {TimeUS : 40635406, Roll : 0.0, Pitch : 0.0, Yaw : 0.0, Alt : 30.1000003815, Lat : 49.28357, Lng : -123.11502, Q1 : 1.0, Q2 : 0.0, Q3 : 0.0, Q4 : 0.0}
2019-04-14 12:53:02.51: SIM {TimeUS : 40735366, Roll : 0.0, Pitch : 0.0, Yaw : 0.0, Alt : 30.1000003815, Lat : 49.28357, Lng : -123.11502, Q1 : 1.0, Q2 : 0.0, Q3 : 0.0, Q4 : 0.0}
2019-04-14 12:53:02.61: SIM {TimeUS : 40835326, Roll : 0.0, Pitch : 0.0, Yaw : 0.0, Alt : 30.1000003815, Lat : 49.28357, Lng : -123.11502, Q1 : 1.0, Q2 : 0.0, Q3 : 0.0, Q4 : 0.0}
2019-04-14 12:53:02.71: SIM {TimeUS : 40935286, Roll : 0.0, Pitch : 0.0, Yaw : 0.0, Alt : 30.1000003815, Lat : 49.28357, Lng : -123.11502, Q1 : 1.0, Q2 : 0.0, Q3 : 0.0, Q4 : 0.0}
2019-04-14 12:53:02.81: SIM {TimeUS : 41035246, Roll : 0.0, Pitch : 0.0, Yaw : 0.0, Alt : 30.1000003815, Lat : 49.28357, Lng : -123.11502, Q1 : 1.0, Q2 : 0.0, Q3 : 0.0, Q4 : 0.0}
2019-04-14 12:53:02.91: SIM {TimeUS : 41135206, Roll : 0.0, Pitch : 0.0, Yaw : 0.0, Alt : 30.1000003815, Lat : 49.28357, Lng : -123.11502, Q1 : 1.0, Q2 : 0.0, Q3 : 0.0, Q4 : 0.0}
2019-04-14 12:53:03.01: SIM {TimeUS : 41235166, Roll : 0.0, Pitch : 0.0, Yaw : 0.0, Alt : 30.1000003815, Lat : 49.28357, Lng : -123.11502, Q1 : 1.0, Q2 : 0.0, Q3 : 0.0, Q4 : 0.0}
2019-04-14 12:53:03.11: SIM {TimeUS : 41335126, Roll : 0.0, Pitch : 0.0, Yaw : 0.0, Alt : 30.1000003815, Lat : 49.28357, Lng : -123.11502, Q1 : 1.0, Q2 : 0.0, Q3 : 0.0, Q4 : 0.0}
2019-04-14 12:53:03.21: SIM {TimeUS : 41435086, Roll : 0.0, Pitch : 0.0, Yaw : 0.0, Alt : 30.1000003815, Lat : 49.28357, Lng : -123.11502, Q1 : 1.0, Q2 : 0.0, Q3 : 0.0, Q4 : 0.0}
2019-04-14 12:53:03.31: SIM {TimeUS : 41535046, Roll : 0.0, Pitch : 0.0, Yaw : 0.0, Alt : 30.1000003815, Lat : 49.28357, Lng : -123.11502, Q1 : 1.0, Q2 : 0.0, Q3 : 0.0, Q4 : 0.0}
2019-04-14 12:53:03.41: SIM {TimeUS : 41635006, Roll : 0.0, Pitch : 0.0, Yaw : 0.0, Alt : 30.1000003815, Lat : 49.28357, Lng : -123.11502, Q1 : 1.0, Q2 : 0.0, Q3 : 0.0, Q4 : 0.0}
2019-04-14 12:53:03.51: SIM {TimeUS : 41734966, Roll : 0.0, Pitch : 0.0, Yaw : 0.0, Alt : 30.1000003815, Lat : 49.28357, Lng : -123.11502, Q1 : 1.0, Q2 : 0.0, Q3 : 0.0, Q4 : 0.0}
2019-04-14 12:53:03.61: SIM {TimeUS : 41834926, Roll : 0.0, Pitch : 0.0, Yaw : 0.0, Alt : 30.1000003815, Lat : 49.28357, Lng : -123.11502, Q1 : 1.0, Q2 : 0.0, Q3 : 0.0, Q4 : 0.0}
2019-04-14 12:53:03.71: SIM {TimeUS : 41934886, Roll : 0.0, Pitch : 0.0, Yaw : 0.0, Alt : 30.1000003815, Lat : 49.28357, Lng : -123.11502, Q1 : 1.0, Q2 : 0.0, Q3 : 0.0, Q4 : 0.0}
2019-04-14 12:53:03.81: SIM {TimeUS : 42034846, Roll : 0.0, Pitch : 0.0, Yaw : 0.0, Alt : 30.1000003815, Lat : 49.28357, Lng : -123.11502, Q1 : 1.0, Q2 : 0.0, Q3 : 0.0, Q4 : 0.0}
2019-04-14 12:53:03.91: SIM {TimeUS : 42134806, Roll : 0.0, Pitch : 0.0, Yaw : 0.0, Alt : 30.1000003815, Lat : 49.28357, Lng : -123.11502, Q1 : 1.0, Q2 : 0.0, Q3 : 0.0, Q4 : 0.0}
2019-04-14 12:53:04.01: SIM {TimeUS : 42234766, Roll : 0.0, Pitch : 0.0, Yaw : 0.0, Alt : 30.1000003815, Lat : 49.28357, Lng : -123.11502, Q1 : 1.0, Q2 : 0.0, Q3 : 0.0, Q4 : 0.0}
2019-04-14 12:53:04.11: SIM {TimeUS : 42334726, Roll : 0.0, Pitch : 0.0, Yaw : 0.0, Alt : 30.1000003815, Lat : 49.28357, Lng : -123.11502, Q1 : 1.0, Q2 : 0.0, Q3 : 0.0, Q4 : 0.0}
2019-04-14 12:53:04.21: SIM {TimeUS : 42434686, Roll : 0.0, Pitch : 0.0, Yaw : 0.0, Alt : 30.1000003815, Lat : 49.28357, Lng : -123.11502, Q1 : 1.0, Q2 : 0.0, Q3 : 0.0, Q4 : 0.0}
2019-04-14 12:53:04.31: SIM {TimeUS : 42535479, Roll : 0.0, Pitch : 0.0, Yaw : 0.0, Alt : 30.1000003815, Lat : 49.28357, Lng : -123.11502, Q1 : 1.0, Q2 : 0.0, Q3 : 0.0, Q4 : 0.0}
2019-04-14 12:53:04.41: SIM {TimeUS : 42635439, Roll : 0.0, Pitch : 0.0, Yaw : 0.0, Alt : 30.1000003815, Lat : 49.28357, Lng : -123.11502, Q1 : 1.0, Q2 : 0.0, Q3 : 0.0, Q4 : 0.0}
2019-04-14 12:53:04.51: SIM {TimeUS : 42735399, Roll : 0.0, Pitch : 0.0, Yaw : 0.0, Alt : 30.1000003815, Lat : 49.28357, Lng : -123.11502, Q1 : 1.0, Q2 : 0.0, Q3 : 0.0, Q4 : 6.82903594784e-11}
2019-04-14 12:53:04.61: SIM {TimeUS : 42835359, Roll : 0.0, Pitch : 0.0, Yaw : 0.0, Alt : 30.1000003815, Lat : 49.28357, Lng : -123.11502, Q1 : 1.0, Q2 : 0.0, Q3 : 0.0, Q4 : 2.50326148699e-10}
2019-04-14 12:53:04.71: SIM {TimeUS : 42935319, Roll : 0.0, Pitch : 0.0, Yaw : 360.0, Alt : 30.1000003815, Lat : 49.28357, Lng : -123.11502, Q1 : 1.0, Q2 : 0.0, Q3 : 0.0, Q4 : -1.69380413695e-07}
2019-04-14 12:53:04.81: SIM {TimeUS : 43035279, Roll : 0.0, Pitch : 0.0, Yaw : 359.99, Alt : 30.1000003815, Lat : 49.28357, Lng : -123.11502, Q1 : 1.0, Q2 : 0.0, Q3 : 0.0, Q4 : -3.49062020177e-07}
2019-04-14 12:53:04.91: SIM {TimeUS : 43135239, Roll : 0.0, Pitch : 0.0, Yaw : 359.99, Alt : 30.1000003815, Lat : 49.28357, Lng : -123.11502, Q1 : 1.0, Q2 : 0.0, Q3 : 0.0, Q4 : -5.82690972806e-07}
2019-04-14 12:53:05.01: SIM {TimeUS : 43235199, Roll : 0.0, Pitch : 0.0, Yaw : 359.99, Alt : 30.1000003815, Lat : 49.28357, Lng : -123.11502, Q1 : 1.0, Q2 : 0.0, Q3 : 0.0, Q4 : -7.43505324863e-07}
2019-04-14 12:53:05.11: SIM {TimeUS : 43335159, Roll : 0.0, Pitch : 0.0, Yaw : 359.99, Alt : 30.1000003815, Lat : 49.28357, Lng : -123.11502, Q1 : 1.0, Q2 : 0.0, Q3 : 0.0, Q4 : -9.60154579843e-07}
2019-04-14 12:53:05.21: SIM {TimeUS : 43435119, Roll : 0.0, Pitch : 0.0, Yaw : 359.99, Alt : 30.1000003815, Lat : 49.28357, Lng : -123.11502, Q1 : 1.0, Q2 : 0.0, Q3 : 0.0, Q4 : -1.17296974622e-06}
2019-04-14 12:53:05.31: SIM {TimeUS : 43535079, Roll : 0.0, Pitch : 0.0, Yaw : 359.99, Alt : 30.1000003815, Lat : 49.28357, Lng : -123.11502, Q1 : 1.0, Q2 : 0.0, Q3 : 0.0, Q4 : -1.3951598703e-06}
2019-04-14 12:53:05.41: SIM {TimeUS : 43635039, Roll : 0.0, Pitch : 0.0, Yaw : 359.99, Alt : 30.1100006104, Lat : 49.28357, Lng : -123.11502, Q1 : 1.0, Q2 : 0.0, Q3 : 0.0, Q4 : -1.5973535028e-06}
2019-04-14 12:53:05.51: SIM {TimeUS : 43734999, Roll : 0.0, Pitch : 0.0, Yaw : 359.99, Alt : 30.1399993896, Lat : 49.28357, Lng : -123.11502, Q1 : 1.0, Q2 : 0.0, Q3 : 0.0, Q4 : -1.8168468614e-06}
2019-04-14 12:53:05.61: SIM {TimeUS : 43834959, Roll : 0.0, Pitch : 0.0, Yaw : 359.99, Alt : 30.1700000763, Lat : 49.28357, Lng : -123.11502, Q1 : 1.0, Q2 : 0.0, Q3 : 0.0, Q4 : -2.00072531698e-06}
2019-04-14 12:53:05.71: SIM {TimeUS : 43934919, Roll : 0.0, Pitch : 0.0, Yaw : 359.99, Alt : 30.2000007629, Lat : 49.28357, Lng : -123.11502, Q1 : 1.0, Q2 : 0.0, Q3 : 0.0, Q4 : -2.21538857659e-06}
2019-04-14 12:53:05.81: SIM {TimeUS : 44034879, Roll : -0.1, Pitch : -0.09, Yaw : 359.99, Alt : 30.25, Lat : 49.28357, Lng : -123.11502, Q1 : 0.999999284744, Q2 : -0.00088410108583, Q3 : -0.00081121257972, Q4 : -9.7759111668e-06}
2019-04-14 12:53:05.91: SIM {TimeUS : 44134839, Roll : -0.4, Pitch : -0.36, Yaw : 359.99, Alt : 30.3400001526, Lat : 49.28357, Lng : -123.11502, Q1 : 0.999988496304, Q2 : -0.00356861576438, Q3 : -0.00321631180122, Q4 : -4.14524620282e-05}
2019-04-14 12:53:06.01: SIM {TimeUS : 44234799, Roll : -0.72, Pitch : -0.63, Yaw : 359.99, Alt : 30.4899997711, Lat : 49.28357, Lng : -123.11502, Q1 : 0.999964773655, Q2 : -0.00629699183628, Q3 : -0.00555035099387, Q4 : -0.000101353107311}
2019-04-14 12:53:06.11: SIM {TimeUS : 44334759, Roll : -0.89, Pitch : -0.77, Yaw : 359.98, Alt : 30.6499996185, Lat : 49.28357, Lng : -123.11502, Q1 : 0.99994713068, Q2 : -0.00776982866228, Q3 : -0.00673892907798, Q4 : -0.000182086747373}
2019-04-14 12:53:06.21: SIM {TimeUS : 44434719, Roll : -0.86, Pitch : -0.77, Yaw : 359.97, Alt : 30.8099994659, Lat : 49.28357, Lng : -123.11502, Q1 : 0.999948859215, Q2 : -0.00751882372424, Q3 : -0.0067537506111, Q4 : -0.000266746908892}
2019-04-14 12:53:06.31: SIM {TimeUS : 44534679, Roll : -0.69, Pitch : -0.64, Yaw : 359.96, Alt : 30.9599990845, Lat : 49.28357, Lng : -123.1150201, Q1 : 0.999965429306, Q2 : -0.00610380945727, Q3 : -0.00563738215715, Q4 : -0.000348227913491}
2019-04-14 12:53:06.41: SIM {TimeUS : 44635472, Roll : -0.48, Pitch : -0.43, Yaw : 359.95, Alt : 31.1100006104, Lat : 49.2835701, Lng : -123.1150202, Q1 : 0.999983787537, Q2 : -0.0041998308152, Q3 : -0.0038181305863, Q4 : -0.000418608688051}
2019-04-14 12:53:06.51: SIM {TimeUS : 44735432, Roll : -0.26, Pitch : -0.22, Yaw : 359.94, Alt : 31.2700004578, Lat : 49.2835701, Lng : -123.1150203, Q1 : 0.999995291233, Q2 : -0.00229497440159, Q3 : -0.00199537165463, Q4 : -0.000477049994515}
2019-04-14 12:53:06.61: SIM {TimeUS : 44835392, Roll : -0.08, Pitch : -0.06, Yaw : 359.94, Alt : 31.4400005341, Lat : 49.2835702, Lng : -123.1150203, Q1 : 0.999999463558, Q2 : -0.000707851548214, Q3 : -0.000567566079553, Q4 : -0.000522728718352}
2019-04-14 12:53:06.71: SIM {TimeUS : 44935352, Roll : 0.03, Pitch : 0.03, Yaw : 359.93, Alt : 31.6200008392, Lat : 49.2835702, Lng : -123.1150204, Q1 : 0.999999761581, Q2 : 0.000298290600767, Q3 : 0.000270599906798, Q4 : -0.000554016442038}
2019-04-14 12:53:06.81: SIM {TimeUS : 45035312, Roll : 0.09, Pitch : 0.05, Yaw : 359.93, Alt : 31.7900009155, Lat : 49.2835703, Lng : -123.1150205, Q1 : 0.999999403954, Q2 : 0.00079041859135, Q3 : 0.000520429050084, Q4 : -0.000559199484996}
2019-04-14 12:53:06.91: SIM {TimeUS : 45135272, Roll : 0.1, Pitch : 0.04, Yaw : 359.93, Alt : 31.9799995422, Lat : 49.2835703, Lng : -123.1150206, Q1 : 0.999999344349, Q2 : 0.000927105080336, Q3 : 0.000428224739153, Q4 : -0.00054384325631}
2019-04-14 12:53:07.01: SIM {TimeUS : 45235232, Roll : 0.1, Pitch : 0.03, Yaw : 359.94, Alt : 32.1599998474, Lat : 49.2835703, Lng : -123.1150206, Q1 : 0.999999463558, Q2 : 0.000878826656844, Q3 : 0.000325924193021, Q4 : -0.000516633910593}
2019-04-14 12:53:07.11: SIM {TimeUS : 45335192, Roll : 0.08, Pitch : 0.04, Yaw : 359.94, Alt : 32.3600006104, Lat : 49.2835703, Lng : -123.1150207, Q1 : 0.999999523163, Q2 : 0.000773560954258, Q3 : 0.000396170769818, Q4 : -0.000486029486638}
2019-04-14 12:53:07.21: SIM {TimeUS : 45435152, Roll : 0.06, Pitch : 0.08, Yaw : 359.94, Alt : 32.5499992371, Lat : 49.2835703, Lng : -123.1150207, Q1 : 0.999999463558, Q2 : 0.000575383019168, Q3 : 0.000740184041206, Q4 : -0.000476632936625}
2019-04-14 12:53:07.31: SIM {TimeUS : 45535112, Roll : 0.07, Pitch : 0.13, Yaw : 359.94, Alt : 32.75, Lat : 49.2835703, Lng : -123.1150208, Q1 : 0.999998986721, Q2 : 0.000637787219603, Q3 : 0.00119243189692, Q4 : -0.000469344202429}
2019-04-14 12:53:07.41: SIM {TimeUS : 45635072, Roll : 0.1, Pitch : 0.17, Yaw : 359.94, Alt : 32.9399986267, Lat : 49.2835704, Lng : -123.1150208, Q1 : 0.999998271465, Q2 : 0.000921848637518, Q3 : 0.00155475211795, Q4 : -0.00046571547864}
2019-04-14 12:53:07.51: SIM {TimeUS : 45735032, Roll : 0.14, Pitch : 0.2, Yaw : 359.94, Alt : 33.1500015259, Lat : 49.2835704, Lng : -123.1150208, Q1 : 0.999997615814, Q2 : 0.00122572667897, Q3 : 0.00176259409636, Q4 : -0.000457295478554}
2019-04-14 12:53:07.61: SIM {TimeUS : 45834992, Roll : 0.15, Pitch : 0.21, Yaw : 359.94, Alt : 33.3499984741, Lat : 49.2835704, Lng : -123.1150208, Q1 : 0.999997258186, Q2 : 0.00134775904007, Q3 : 0.00185695406981, Q4 : -0.000452219916042}
2019-04-14 12:53:07.71: SIM {TimeUS : 45934952, Roll : 0.16, Pitch : 0.18, Yaw : 359.94, Alt : 33.5499992371, Lat : 49.2835704, Lng : -123.1150209, Q1 : 0.999997615814, Q2 : 0.00141508074012, Q3 : 0.0015930616064, Q4 : -0.000467754667625}
2019-04-14 12:53:07.81: SIM {TimeUS : 46034912, Roll : 0.16, Pitch : 0.14, Yaw : 359.94, Alt : 33.7599983215, Lat : 49.2835704, Lng : -123.1150209, Q1 : 0.999998092651, Q2 : 0.00141624582466, Q3 : 0.00124820019118, Q4 : -0.000491429702379}
2019-04-14 12:53:07.91: SIM {TimeUS : 46134872, Roll : 0.15, Pitch : 0.11, Yaw : 359.94, Alt : 33.9700012207, Lat : 49.2835704, Lng : -123.1150209, Q1 : 0.999998450279, Q2 : 0.0013459691545, Q3 : 0.00101820705459, Q4 : -0.000522757589351}
2019-04-14 12:53:08.01: SIM {TimeUS : 46234832, Roll : 0.14, Pitch : 0.1, Yaw : 359.93, Alt : 34.1800003052, Lat : 49.2835704, Lng : -123.1150209, Q1 : 0.999998569489, Q2 : 0.00130254856776, Q3 : 0.000880449719261, Q4 : -0.000563803710975}
2019-04-14 12:53:08.11: SIM {TimeUS : 46334792, Roll : 0.15, Pitch : 0.1, Yaw : 359.93, Alt : 34.3899993896, Lat : 49.2835704, Lng : -123.1150209, Q1 : 0.999998509884, Q2 : 0.00132019130979, Q3 : 0.000912198622245, Q4 : -0.000608113827184}
2019-04-14 12:53:08.21: SIM {TimeUS : 46434752, Roll : 0.13, Pitch : 0.08, Yaw : 359.92, Alt : 34.6100006104, Lat : 49.2835704, Lng : -123.1150209, Q1 : 0.999998748302, Q2 : 0.00121973140631, Q3 : 0.000782819988672, Q4 : -0.000637554505374}
2019-04-14 12:53:08.31: SIM {TimeUS : 46534712, Roll : 0.11, Pitch : 0.07, Yaw : 359.92, Alt : 34.8199996948, Lat : 49.2835704, Lng : -123.1150209, Q1 : 0.999999046326, Q2 : 0.00101809122134, Q3 : 0.000666187435854, Q4 : -0.000660407589749}
2019-04-14 12:53:08.41: SIM {TimeUS : 46634672, Roll : 0.08, Pitch : 0.06, Yaw : 359.92, Alt : 35.0400009155, Lat : 49.2835704, Lng : -123.1150208, Q1 : 0.999999284744, Q2 : 0.000783120980486, Q3 : 0.000572506396566, Q4 : -0.000681203790009}
2019-04-14 12:53:08.51: SIM {TimeUS : 46735465, Roll : 0.06, Pitch : 0.05, Yaw : 359.92, Alt : 35.25, Lat : 49.2835704, Lng : -123.1150208, Q1 : 0.999999523163, Q2 : 0.000544337788597, Q3 : 0.00048643728951, Q4 : -0.000698328134604}
2019-04-14 12:53:08.61: SIM {TimeUS : 46835425, Roll : 0.04, Pitch : 0.02, Yaw : 359.91, Alt : 35.4700012207, Lat : 49.2835704, Lng : -123.1150208, Q1 : 0.999999642372, Q2 : 0.000430793123087, Q3 : 0.000181060822797, Q4 : -0.000706531107426}
2019-04-14 12:53:08.71: SIM {TimeUS : 46935385, Roll : 0.04, Pitch : 0.0, Yaw : 359.91, Alt : 35.6899986267, Lat : 49.2835704, Lng : -123.1150208, Q1 : 0.999999701977, Q2 : 0.00034961901838, Q3 : -6.05988934694e-05, Q4 : -0.000711722357664}
2019-04-14 12:53:08.81: SIM {TimeUS : 47035345, Roll : 0.01, Pitch : -0.01, Yaw : 359.91, Alt : 35.9099998474, Lat : 49.2835704, Lng : -123.1150208, Q1 : 0.999999701977, Q2 : 0.000148386578076, Q3 : -0.000129956097226, Q4 : -0.000720683077816}
2019-04-14 12:53:08.91: SIM {TimeUS : 47135305, Roll : 0.01, Pitch : -0.01, Yaw : 359.91, Alt : 36.1300010681, Lat : 49.2835704, Lng : -123.1150208, Q1 : 0.999999761581, Q2 : 9.09844675334e-05, Q3 : -9.84738653642e-05, Q4 : -0.000728340295609}
2019-04-14 12:53:09.01: SIM {TimeUS : 47235265, Roll : 0.01, Pitch : 0.0, Yaw : 359.91, Alt : 36.3499984741, Lat : 49.2835704, Lng : -123.1150207, Q1 : 0.999999701977, Q2 : 0.000129946012748, Q3 : -3.73507391487e-05, Q4 : -0.000738178030588}
2019-04-14 12:53:09.11: SIM {TimeUS : 47335225, Roll : 0.0, Pitch : -0.01, Yaw : 359.91, Alt : 36.5699996948, Lat : 49.2835704, Lng : -123.1150207, Q1 : 0.999999701977, Q2 : 1.4266072867e-05, Q3 : -0.000147181082866, Q4 : -0.000751864223275}
2019-04-14 12:53:09.21: SIM {TimeUS : 47435185, Roll : -0.03, Pitch : -0.05, Yaw : 359.91, Alt : 36.7999992371, Lat : 49.2835704, Lng : -123.1150207, Q1 : 0.999999582767, Q2 : -0.000283098721411, Q3 : -0.000441218930064, Q4 : -0.000773130974267}
2019-04-14 12:53:09.31: SIM {TimeUS : 47535145, Roll : -0.07, Pitch : -0.07, Yaw : 359.9, Alt : 37.0200004578, Lat : 49.2835704, Lng : -123.1150207, Q1 : 0.99999922514, Q2 : -0.000638431229163, Q3 : -0.000688420317601, Q4 : -0.000800913607236}
2019-04-14 12:53:09.41: SIM {TimeUS : 47635105, Roll : -0.11, Pitch : -0.1, Yaw : 359.9, Alt : 37.25, Lat : 49.2835704, Lng : -123.1150207, Q1 : 0.999998807907, Q2 : -0.000982942176051, Q3 : -0.000880344421603, Q4 : -0.000830866687465}
2019-04-14 12:53:09.51: SIM {TimeUS : 47735065, Roll : -0.12, Pitch : -0.1, Yaw : 359.9, Alt : 37.4700012207, Lat : 49.2835704, Lng : -123.1150207, Q1 : 0.999998569489, Q2 : -0.00110720004886, Q3 : -0.000940418511163, Q4 : -0.000864639412612}
2019-04-14 12:53:09.61: SIM {TimeUS : 47835025, Roll : -0.11, Pitch : -0.09, Yaw : 359.89, Alt : 37.7000007629, Lat : 49.2835704, Lng : -123.1150207, Q1 : 0.999998748302, Q2 : -0.0010446223896, Q3 : -0.0008176532574, Q4 : -0.000901145860553}
2019-04-14 12:53:09.71: SIM {TimeUS : 47934985, Roll : -0.09, Pitch : -0.05, Yaw : 359.89, Alt : 37.9199981689, Lat : 49.2835704, Lng : -123.1150206, Q1 : 0.999999046326, Q2 : -0.000862335087731, Q3 : -0.000497798901051, Q4 : -0.000938218377996}
2019-04-14 12:53:09.81: SIM {TimeUS : 48034945, Roll : -0.07, Pitch : -0.02, Yaw : 359.88, Alt : 38.1500015259, Lat : 49.2835704, Lng : -123.1150206, Q1 : 0.999999284744, Q2 : -0.000657898839563, Q3 : -0.000249054108281, Q4 : -0.000976061448455}
2019-04-14 12:53:09.91: SIM {TimeUS : 48134905, Roll : -0.07, Pitch : -0.02, Yaw : 359.88, Alt : 38.3800010681, Lat : 49.2835704, Lng : -123.1150206, Q1 : 0.999999284744, Q2 : -0.000611865893006, Q3 : -0.000228338161833, Q4 : -0.00101636908948}
2019-04-14 12:53:10.01: SIM {TimeUS : 48234865, Roll : -0.07, Pitch : -0.01, Yaw : 359.88, Alt : 38.5999984741, Lat : 49.2835704, Lng : -123.1150206, Q1 : 0.99999922514, Q2 : -0.000623206258751, Q3 : -0.000134875692311, Q4 : -0.00104274030309}
2019-04-14 12:53:10.11: SIM {TimeUS : 48334825, Roll : -0.08, Pitch : 0.0, Yaw : 359.87, Alt : 38.8300018311, Lat : 49.2835704, Lng : -123.1150206, Q1 : 0.999999165535, Q2 : -0.000766666489653, Q3 : -3.09324536829e-06, Q4 : -0.00105511397123}
2019-04-14 12:53:10.21: SIM {TimeUS : 48434785, Roll : -0.08, Pitch : 0.01, Yaw : 359.87, Alt : 39.0600013733, Lat : 49.2835706, Lng : -123.1150206, Q1 : 0.999999165535, Q2 : -0.0007516471087, Q3 : 0.00011373549205, Q4 : -0.00106070295442}
2019-04-14 12:53:10.31: SIM {TimeUS : 48534745, Roll : -0.06, Pitch : 0.03, Yaw : 359.87, Alt : 39.2900009155, Lat : 49.2835706, Lng : -123.1150206, Q1 : 0.99999922514, Q2 : -0.000579557323363, Q3 : 0.00030054920353, Q4 : -0.00106337585021}
2019-04-14 12:53:10.41: SIM {TimeUS : 48634705, Roll : -0.04, Pitch : 0.03, Yaw : 359.87, Alt : 39.5200004578, Lat : 49.2835706, Lng : -123.1150207, Q1 : 0.999999344349, Q2 : -0.000380572339054, Q3 : 0.000288180250209, Q4 : -0.00105821830221}
2019-04-14 12:53:10.51: SIM {TimeUS : 48734665, Roll : -0.01, Pitch : 0.02, Yaw : 359.87, Alt : 39.75, Lat : 49.2835706, Lng : -123.1150207, Q1 : 0.999999403954, Q2 : -0.00013908672554, Q3 : 0.000253972684732, Q4 : -0.00105172663461}
2019-04-14 12:53:10.61: SIM {TimeUS : 48835458, Roll : 0.02, Pitch : 0.04, Yaw : 359.88, Alt : 39.9900016785, Lat : 49.2835706, Lng : -123.1150207, Q1 : 0.999999344349, Q2 : 0.000187919824384, Q3 : 0.000417391274823, Q4 : -0.00104538421147}
2019-04-14 12:53:10.71: SIM {TimeUS : 48935418, Roll : 0.06, Pitch : 0.07, Yaw : 359.88, Alt : 40.2200012207, Lat : 49.2835706, Lng : -123.1150207, Q1 : 0.999999046326, Q2 : 0.000538687745575, Q3 : 0.000672736903653, Q4 : -0.00104577816091}
2019-04-14 12:53:10.81: SIM {TimeUS : 49035378, Roll : 0.09, Pitch : 0.11, Yaw : 359.87, Alt : 40.4500007629, Lat : 49.2835706, Lng : -123.1150207, Q1 : 0.999998629093, Q2 : 0.000816552084871, Q3 : 0.000990733737126, Q4 : -0.00105744693428}
2019-04-14 12:53:10.91: SIM {TimeUS : 49135338, Roll : 0.08, Pitch : 0.14, Yaw : 359.87, Alt : 40.6800003052, Lat : 49.2835706, Lng : -123.1150207, Q1 : 0.999998271465, Q2 : 0.000758484529797, Q3 : 0.00130388315301, Q4 : -0.00106206140481}
2019-04-14 12:53:11.01: SIM {TimeUS : 49235298, Roll : 0.03, Pitch : 0.17, Yaw : 359.87, Alt : 40.9099998474, Lat : 49.2835706, Lng : -123.1150207, Q1 : 0.999998152256, Q2 : 0.000346123648342, Q3 : 0.00154453306459, Q4 : -0.00108457228635}
2019-04-14 12:53:11.11: SIM {TimeUS : 49335258, Roll : 0.0, Pitch : 0.19, Yaw : 359.87, Alt : 41.1500015259, Lat : 49.2835706, Lng : -123.1150207, Q1 : 0.999998033047, Q2 : -3.89322995034e-05, Q3 : 0.00166247179732, Q4 : -0.00110817432869}
2019-04-14 12:53:11.21: SIM {TimeUS : 49435218, Roll : -0.02, Pitch : 0.17, Yaw : 359.86, Alt : 41.3800010681, Lat : 49.2835706, Lng : -123.1150207, Q1 : 0.999998211861, Q2 : -0.000238339416683, Q3 : 0.00149288401008, Q4 : -0.00113920320291}
2019-04-14 12:53:11.31: SIM {TimeUS : 49535178, Roll : -0.03, Pitch : 0.13, Yaw : 359.86, Alt : 41.6100006104, Lat : 49.2835706, Lng : -123.1150207, Q1 : 0.999998569489, Q2 : -0.000268015050096, Q3 : 0.00119842309505, Q4 : -0.00118006544653}
2019-04-14 12:53:11.41: SIM {TimeUS : 49635138, Roll : -0.01, Pitch : 0.12, Yaw : 359.85, Alt : 41.8499984741, Lat : 49.2835706, Lng : -123.1150207, Q1 : 0.999998569489, Q2 : -0.000150109393871, Q3 : 0.0011267074151, Q4 : -0.0012286414858}
2019-04-14 12:53:11.51: SIM {TimeUS : 49735098, Roll : 0.02, Pitch : 0.14, Yaw : 359.85, Alt : 42.0800018311, Lat : 49.2835706, Lng : -123.1150207, Q1 : 0.999998390675, Q2 : 0.000189341852092, Q3 : 0.0012327489676, Q4 : -0.00127988960594}
2019-04-14 12:53:11.61: SIM {TimeUS : 49835058, Roll : 0.06, Pitch : 0.14, Yaw : 359.84, Alt : 42.3100013733, Lat : 49.2835706, Lng : -123.1150207, Q1 : 0.999998092651, Q2 : 0.000609500450082, Q3 : 0.00128402432892, Q4 : -0.0013299175771}
2019-04-14 12:53:11.71: SIM {TimeUS : 49935018, Roll : 0.1, Pitch : 0.12, Yaw : 359.84, Alt : 42.5499992371, Lat : 49.2835706, Lng : -123.1150207, Q1 : 0.999998033047, Q2 : 0.000912033312488, Q3 : 0.00108179985546, Q4 : -0.00137545738835}
2019-04-14 12:53:11.81: SIM {TimeUS : 50034978, Roll : 0.1, Pitch : 0.08, Yaw : 359.83, Alt : 42.7799987793, Lat : 49.2835706, Lng : -123.1150207, Q1 : 0.999998271465, Q2 : 0.000954151619226, Q3 : 0.000764048600104, Q4 : -0.00141421554144}
2019-04-14 12:53:11.91: SIM {TimeUS : 50134938, Roll : 0.07, Pitch : 0.06, Yaw : 359.83, Alt : 43.0200004578, Lat : 49.2835706, Lng : -123.1150207, Q1 : 0.999998629093, Q2 : 0.000645094260108, Q3 : 0.000531249970663, Q4 : -0.00143849500455}
2019-04-14 12:53:12.01: SIM {TimeUS : 50234898, Roll : 0.01, Pitch : 0.05, Yaw : 359.83, Alt : 43.25, Lat : 49.2835706, Lng : -123.1150207, Q1 : 0.999998807907, Q2 : 0.000157497721375, Q3 : 0.000470548256999, Q4 : -0.00145160767715}
2019-04-14 12:53:12.11: SIM {TimeUS : 50334858, Roll : -0.02, Pitch : 0.07, Yaw : 359.83, Alt : 43.4900016785, Lat : 49.2835704, Lng : -123.1150207, Q1 : 0.999998688698, Q2 : -0.00019560995861, Q3 : 0.000678486889228, Q4 : -0.00145479035564}
2019-04-14 12:53:12.21: SIM {TimeUS : 50434818, Roll : -0.04, Pitch : 0.09, Yaw : 359.83, Alt : 43.7200012207, Lat : 49.2835704, Lng : -123.1150207, Q1 : 0.999998509884, Q2 : -0.000383219390642, Q3 : 0.000820183136966, Q4 : -0.00145477906335}
2019-04-14 12:53:12.31: SIM {TimeUS : 50534778, Roll : -0.04, Pitch : 0.08, Yaw : 359.83, Alt : 43.9599990845, Lat : 49.2835704, Lng : -123.1150207, Q1 : 0.999998569489, Q2 : -0.000382585829357, Q3 : 0.000740361050703, Q4 : -0.00146184652112}
2019-04-14 12:53:12.41: SIM {TimeUS : 50634738, Roll : -0.05, Pitch : 0.06, Yaw : 359.83, Alt : 44.1899986267, Lat : 49.2835704, Lng : -123.1150206, Q1 : 0.999998629093, Q2 : -0.000457876129076, Q3 : 0.000600217666943, Q4 : -0.00148339115549}
2019-04-14 12:53:12.51: SIM {TimeUS : 50734698, Roll : -0.05, Pitch : 0.04, Yaw : 359.82, Alt : 44.4300003052, Lat : 49.2835704, Lng : -123.1150206, Q1 : 0.999998688698, Q2 : -0.000451871135738, Q3 : 0.000431834865594, Q4 : -0.00150787935127}
2019-04-14 12:53:12.61: SIM {TimeUS : 50834658, Roll : -0.03, Pitch : 0.03, Yaw : 359.82, Alt : 44.6699981689, Lat : 49.2835704, Lng : -123.1150206, Q1 : 0.999998688698, Q2 : -0.000311601208523, Q3 : 0.000326446373947, Q4 : -0.00153939786833}
2019-04-14 12:53:12.71: SIM {TimeUS : 50935451, Roll : -0.02, Pitch : 0.03, Yaw : 359.81, Alt : 44.9000015259, Lat : 49.2835704, Lng : -123.1150206, Q1 : 0.999998748302, Q2 : -0.000177420544787, Q3 : 0.000273066980299, Q4 : -0.00157377927098}
2019-04-14 12:53:12.81: SIM {TimeUS : 51035411, Roll : -0.02, Pitch : 0.01, Yaw : 359.81, Alt : 45.1399993896, Lat : 49.2835704, Lng : -123.1150206, Q1 : 0.999998688698, Q2 : -0.000198287860258, Q3 : 9.61754194577e-05, Q4 : -0.00160871027038}
2019-04-14 12:53:12.91: SIM {TimeUS : 51135371, Roll : -0.02, Pitch : -0.02, Yaw : 359.81, Alt : 45.3800010681, Lat : 49.2835703, Lng : -123.1150206, Q1 : 0.999998629093, Q2 : -0.000257878680713, Q3 : -0.000189144091564, Q4 : -0.00164271134418}
2019-04-14 12:53:13.01: SIM {TimeUS : 51235331, Roll : -0.03, Pitch : -0.04, Yaw : 359.8, Alt : 45.6100006104, Lat : 49.2835703, Lng : -123.1150206, Q1 : 0.999998450279, Q2 : -0.000308179995045, Q3 : -0.000400933175115, Q4 : -0.00167577387765}
2019-04-14 12:53:13.11: SIM {TimeUS : 51335291, Roll : -0.03, Pitch : -0.05, Yaw : 359.8, Alt : 45.8400001526, Lat : 49.2835703, Lng : -123.1150206, Q1 : 0.999998390675, Q2 : -0.00027369565214, Q3 : -0.000509242876433, Q4 : -0.00170661858283}
2019-04-14 12:53:13.21: SIM {TimeUS : 51435251, Roll : -0.03, Pitch : -0.05, Yaw : 359.8, Alt : 46.0699996948, Lat : 49.2835703, Lng : -123.1150206, Q1 : 0.99999833107, Q2 : -0.000327186891809, Q3 : -0.000496658380143, Q4 : -0.00173480354715}
2019-04-14 12:53:13.31: SIM {TimeUS : 51535211, Roll : -0.05, Pitch : -0.04, Yaw : 359.79, Alt : 46.2999992371, Lat : 49.2835703, Lng : -123.1150206, Q1 : 0.999998211861, Q2 : -0.000521572597791, Q3 : -0.000395393726649, Q4 : -0.00175910617691}
2019-04-14 12:53:13.41: SIM {TimeUS : 51635171, Roll : -0.09, Pitch : -0.03, Yaw : 359.79, Alt : 46.5200004578, Lat : 49.2835703, Lng : -123.1150206, Q1 : 0.999998033047, Q2 : -0.000805815274362, Q3 : -0.000303925975459, Q4 : -0.00178440380841}
2019-04-14 12:53:13.51: SIM {TimeUS : 51735131, Roll : -0.11, Pitch : -0.02, Yaw : 359.79, Alt : 46.7400016785, Lat : 49.2835703, Lng : -123.1150206, Q1 : 0.999997854233, Q2 : -0.000993586611003, Q3 : -0.000250881188549, Q4 : -0.0018058726564}
2019-04-14 12:53:13.61: SIM {TimeUS : 51835091, Roll : -0.11, Pitch : -0.01, Yaw : 359.79, Alt : 46.9599990845, Lat : 49.2835703, Lng : -123.1150206, Q1 : 0.999997794628, Q2 : -0.00103817111813, Q3 : -0.000154947148985, Q4 : -0.00182290677913}
2019-04-14 12:53:13.71: SIM {TimeUS : 51935051, Roll : -0.1, Pitch : 0.0, Yaw : 359.78, Alt : 47.1599998474, Lat : 49.2835703, Lng : -123.1150206, Q1 : 0.999997913837, Q2 : -0.000934454903472, Q3 : 3.78490003641e-05, Q4 : -0.00183669768739}
2019-04-14 12:53:13.81: SIM {TimeUS : 52035011, Roll : -0.08, Pitch : 0.01, Yaw : 359.78, Alt : 47.3600006104, Lat : 49.2835703, Lng : -123.1150206, Q1 : 0.999998033047, Q2 : -0.000732420419808, Q3 : 0.000124447004055, Q4 : -0.0018509599613}
2019-04-14 12:53:13.91: SIM {TimeUS : 52134971, Roll : -0.06, Pitch : 0.0, Yaw : 359.78, Alt : 47.5499992371, Lat : 49.2835703, Lng : -123.1150206, Q1 : 0.999998092651, Q2 : -0.000539798638783, Q3 : 7.82870847615e-05, Q4 : -0.00187115406152}
2019-04-14 12:53:14.01: SIM {TimeUS : 52234931, Roll : -0.06, Pitch : -0.01, Yaw : 359.78, Alt : 47.7299995422, Lat : 49.2835703, Lng : -123.1150206, Q1 : 0.999998033047, Q2 : -0.000527498777956, Q3 : -0.000128144936753, Q4 : -0.00189453922212}
2019-04-14 12:53:14.11: SIM {TimeUS : 52334891, Roll : -0.05, Pitch : -0.04, Yaw : 359.77, Alt : 47.8899993896, Lat : 49.2835703, Lng : -123.1150206, Q1 : 0.999997973442, Q2 : -0.000502453534864, Q3 : -0.000409378350014, Q4 : -0.0019207932055}
2019-04-14 12:53:14.21: SIM {TimeUS : 52434851, Roll : -0.04, Pitch : -0.07, Yaw : 359.77, Alt : 48.0499992371, Lat : 49.2835703, Lng : -123.1150206, Q1 : 0.999997794628, Q2 : -0.000366497843061, Q3 : -0.000674913055263, Q4 : -0.00194959237706}
2019-04-14 12:53:14.31: SIM {TimeUS : 52534811, Roll : -0.03, Pitch : -0.09, Yaw : 359.77, Alt : 48.1899986267, Lat : 49.2835703, Lng : -123.1150206, Q1 : 0.999997615814, Q2 : -0.000278808962321, Q3 : -0.000858172541484, Q4 : -0.00198015244678}
2019-04-14 12:53:14.41: SIM {TimeUS : 52634771, Roll : -0.02, Pitch : -0.11, Yaw : 359.76, Alt : 48.3300018311, Lat : 49.2835703, Lng : -123.1150206, Q1 : 0.999997496605, Q2 : -0.000263553636614, Q3 : -0.000974836759269, Q4 : -0.00201165652834}
2019-04-14 12:53:14.51: SIM {TimeUS : 52734731, Roll : 0.0, Pitch : -0.1, Yaw : 359.76, Alt : 48.4500007629, Lat : 49.2835703, Lng : -123.1150206, Q1 : 0.999997496605, Q2 : -3.3658790926e-05, Q3 : -0.000900057784747, Q4 : -0.00204138620757}
2019-04-14 12:53:14.61: SIM {TimeUS : 52834691, Roll : 0.02, Pitch : -0.08, Yaw : 359.76, Alt : 48.5499992371, Lat : 49.2835703, Lng : -123.1150206, Q1 : 0.99999755621, Q2 : 0.000243154019699, Q3 : -0.000704713806044, Q4 : -0.00206964276731}
2019-04-14 12:53:14.71: SIM {TimeUS : 52935484, Roll : 0.05, Pitch : -0.04, Yaw : 359.75, Alt : 48.6500015259, Lat : 49.2835703, Lng : -123.1150206, Q1 : 0.999997615814, Q2 : 0.000489291502163, Q3 : -0.000432578934124, Q4 : -0.00209550280124}
2019-04-14 12:53:14.81: SIM {TimeUS : 53035444, Roll : 0.06, Pitch : -0.02, Yaw : 359.75, Alt : 48.7299995422, Lat : 49.2835703, Lng : -123.1150206, Q1 : 0.99999755621, Q2 : 0.000591104151681, Q3 : -0.000198819732759, Q4 : -0.0021266695112}
2019-04-14 12:53:14.91: SIM {TimeUS : 53135404, Roll : 0.07, Pitch : -0.01, Yaw : 359.75, Alt : 48.8100013733, Lat : 49.2835703, Lng : -123.1150207, Q1 : 0.999997437, Q2 : 0.000671222747769, Q3 : -0.000116062299639, Q4 : -0.00216068746522}
2019-04-14 12:53:15.01: SIM {TimeUS : 53235364, Roll : 0.06, Pitch : -0.02, Yaw : 359.74, Alt : 48.8699989319, Lat : 49.2835703, Lng : -123.1150207, Q1 : 0.999997377396, Q2 : 0.000592288386542, Q3 : -0.00023402775696, Q4 : -0.00219216081314}
2019-04-14 12:53:15.11: SIM {TimeUS : 53335324, Roll : 0.03, Pitch : -0.03, Yaw : 359.74, Alt : 48.9300003052, Lat : 49.2835703, Lng : -123.1150207, Q1 : 0.999997437, Q2 : 0.000346419139532, Q3 : -0.000303074688418, Q4 : -0.00222174823284}
2019-04-14 12:53:15.21: SIM {TimeUS : 53435284, Roll : 0.01, Pitch : -0.03, Yaw : 359.74, Alt : 48.9700012207, Lat : 49.2835703, Lng : -123.1150207, Q1 : 0.999997437, Q2 : 0.00015992455883, Q3 : -0.000268179865088, Q4 : -0.0022492131684}
2019-04-14 12:53:15.31: SIM {TimeUS : 53535244, Roll : 0.02, Pitch : -0.04, Yaw : 359.73, Alt : 49.0099983215, Lat : 49.2835703, Lng : -123.1150207, Q1 : 0.999997317791, Q2 : 0.000220956993871, Q3 : -0.000411696673837, Q4 : -0.00227426504716}
2019-04-14 12:53:15.41: SIM {TimeUS : 53635204, Roll : 0.15, Pitch : -0.15, Yaw : 359.73, Alt : 49.0499992371, Lat : 49.2835703, Lng : -123.1150207, Q1 : 0.999995470047, Q2 : 0.00134877068922, Q3 : -0.00139722740278, Q4 : -0.00229591107927}
2019-04-14 12:53:15.51: SIM {TimeUS : 53735164, Roll : 0.5, Pitch : -0.43, Yaw : 359.73, Alt : 49.0800018311, Lat : 49.2835703, Lng : -123.1150207, Q1 : 0.999980449677, Q2 : 0.00435989629477, Q3 : -0.00384601997212, Q4 : -0.0023085642606}
2019-04-14 12:53:15.61: SIM {TimeUS : 53835124, Roll : 1.05, Pitch : -0.91, Yaw : 359.72, Alt : 49.0999984741, Lat : 49.2835704, Lng : -123.1150207, Q1 : 0.999923586845, Q2 : 0.00916190631688, Q3 : -0.00796830747277, Q4 : -0.00231234240346}
2019-04-14 12:53:15.71: SIM {TimeUS : 53935084, Roll : 1.74, Pitch : -1.55, Yaw : 359.71, Alt : 49.1199989319, Lat : 49.2835704, Lng : -123.1150206, Q1 : 0.999789178371, Q2 : 0.0152196772397, Q3 : -0.0135882887989, Q4 : -0.00230220565572}
2019-04-14 12:53:15.81: SIM {TimeUS : 54035044, Roll : 2.5, Pitch : -2.28, Yaw : 359.69, Alt : 49.1399993896, Lat : 49.2835704, Lng : -123.1150206, Q1 : 0.999559700489, Q2 : 0.0218323115259, Q3 : -0.0199687574059, Q4 : -0.00224515795708}
2019-04-14 12:53:15.91: SIM {TimeUS : 54135004, Roll : 3.21, Pitch : -2.99, Yaw : 359.67, Alt : 49.1599998474, Lat : 49.2835706, Lng : -123.1150204, Q1 : 0.999262928963, Q2 : 0.0280047468841, Q3 : -0.0261698272079, Q4 : -0.00211914931424}
2019-04-14 12:53:16.01: SIM {TimeUS : 54234964, Roll : 3.79, Pitch : -3.57, Yaw : 359.66, Alt : 49.1699981689, Lat : 49.2835707, Lng : -123.1150203, Q1 : 0.998963654041, Q2 : 0.0330208055675, Q3 : -0.0312643423676, Q4 : -0.00192519812845}
2019-04-14 12:53:16.11: SIM {TimeUS : 54334924, Roll : 4.22, Pitch : -3.98, Yaw : 359.66, Alt : 49.1800003052, Lat : 49.2835709, Lng : -123.11502, Q1 : 0.998714864254, Q2 : 0.0367267280817, Q3 : -0.0348854325712, Q4 : -0.00166062661447}
2019-04-14 12:53:16.21: SIM {TimeUS : 54434884, Roll : 4.53, Pitch : -4.29, Yaw : 359.67, Alt : 49.1899986267, Lat : 49.283571, Lng : -123.1150198, Q1 : 0.998515367508, Q2 : 0.0394537188113, Q3 : -0.0375327691436, Q4 : -0.00136347778607}
2019-04-14 12:53:16.31: SIM {TimeUS : 54534844, Roll : 4.79, Pitch : -4.52, Yaw : 359.68, Alt : 49.2000007629, Lat : 49.2835714, Lng : -123.1150193, Q1 : 0.998345315456, Q2 : 0.0416848175228, Q3 : -0.0395968295634, Q4 : -0.00106533174403}
2019-04-14 12:53:16.41: SIM {TimeUS : 54634804, Roll : 5.03, Pitch : -4.75, Yaw : 359.7, Alt : 49.2099990845, Lat : 49.2835716, Lng : -123.1150188, Q1 : 0.998175382614, Q2 : 0.0438109263778, Q3 : -0.0415446087718, Q4 : -0.000777627225034}
2019-04-14 12:53:16.51: SIM {TimeUS : 54734764, Roll : 5.3, Pitch : -5.01, Yaw : 359.7, Alt : 49.2200012207, Lat : 49.283572, Lng : -123.1150182, Q1 : 0.997974693775, Q2 : 0.0461222492158, Q3 : -0.0438066795468, Q4 : -0.000516346655786}
2019-04-14 12:53:16.61: SIM {TimeUS : 54834724, Roll : 5.58, Pitch : -5.29, Yaw : 359.71, Alt : 49.2299995422, Lat : 49.2835725, Lng : -123.1150175, Q1 : 0.997748851776, Q2 : 0.0485846847296, Q3 : -0.046223718673, Q4 : -0.000270370888757}
2019-04-14 12:53:16.71: SIM {TimeUS : 54934684, Roll : 5.83, Pitch : -5.52, Yaw : 359.71, Alt : 49.2299995422, Lat : 49.2835728, Lng : -123.1150168, Q1 : 0.997545003891, Q2 : 0.0507523864508, Q3 : -0.0482509545982, Q4 : -3.61677630281e-05}
2019-04-14 12:53:16.81: SIM {TimeUS : 55035477, Roll : 6.01, Pitch : -5.67, Yaw : 359.72, Alt : 49.2400016785, Lat : 49.2835734, Lng : -123.115016, Q1 : 0.997401714325, Q2 : 0.0522702001035, Q3 : -0.0495746843517, Q4 : 0.000173768770765}
2019-04-14 12:53:16.91: SIM {TimeUS : 55135437, Roll : 6.12, Pitch : -5.77, Yaw : 359.73, Alt : 49.2400016785, Lat : 49.2835739, Lng : -123.115015, Q1 : 0.997309863567, Q2 : 0.0532267875969, Q3 : -0.0503964573145, Q4 : 0.000346798886312}
2019-04-14 12:53:17.01: SIM {TimeUS : 55235397, Roll : 6.19, Pitch : -5.85, Yaw : 359.73, Alt : 49.25, Lat : 49.2835745, Lng : -123.1150139, Q1 : 0.997241616249, Q2 : 0.0538266152143, Q3 : -0.0511038079858, Q4 : 0.000455626606708}
2019-04-14 12:53:17.11: SIM {TimeUS : 55335357, Roll : 6.28, Pitch : -5.93, Yaw : 359.73, Alt : 49.25, Lat : 49.2835752, Lng : -123.1150129, Q1 : 0.99716180563, Q2 : 0.0546155720949, Q3 : -0.0518182143569, Q4 : 0.000527790689375}
2019-04-14 12:53:17.21: SIM {TimeUS : 55435317, Roll : 6.49, Pitch : -5.97, Yaw : 359.77, Alt : 49.2599983215, Lat : 49.2835759, Lng : -123.1150118, Q1 : 0.997042059898, Q2 : 0.0564693398774, Q3 : -0.0521287880838, Q4 : 0.00101350189652}
2019-04-14 12:53:17.31: SIM {TimeUS : 55535277, Roll : 6.96, Pitch : -5.88, Yaw : 0.25, Alt : 49.2599983215, Lat : 49.2835768, Lng : -123.1150105, Q1 : 0.996829092503, Q2 : 0.0607364922762, Q3 : -0.0511341355741, Q4 : 0.00530680222437}
2019-04-14 12:53:17.41: SIM {TimeUS : 55635237, Roll : 7.6, Pitch : -5.8, Yaw : 1.83, Alt : 49.2599983215, Lat : 49.2835776, Lng : -123.1150092, Q1 : 0.996335685253, Q2 : 0.0670729652047, Q3 : -0.0494249947369, Q4 : 0.0193276237696}
2019-04-14 12:53:17.51: SIM {TimeUS : 55735197, Roll : 8.14, Pitch : -6.03, Yaw : 4.97, Alt : 49.2599983215, Lat : 49.2835783, Lng : -123.1150078, Q1 : 0.994992256165, Q2 : 0.0731176137924, Q3 : -0.0493616461754, Q4 : 0.0469866767526}
2019-04-14 12:53:17.61: SIM {TimeUS : 55835157, Roll : 8.27, Pitch : -6.71, Yaw : 9.67, Alt : 49.2599983215, Lat : 49.2835793, Lng : -123.1150062, Q1 : 0.99177801609, Q2 : 0.0767328515649, Q3 : -0.0520952567458, Q4 : 0.0881733298302}
2019-04-14 12:53:17.71: SIM {TimeUS : 55935117, Roll : 7.81, Pitch : -7.79, Yaw : 15.72, Alt : 49.2700004578, Lat : 49.2835801, Lng : -123.1150046, Q1 : 0.985371947289, Q2 : 0.0766457691789, Q3 : -0.0578348077834, Q4 : 0.140793070197}
2019-04-14 12:53:17.81: SIM {TimeUS : 56035077, Roll : 6.68, Pitch : -9.11, Yaw : 22.88, Alt : 49.2700004578, Lat : 49.2835811, Lng : -123.1150028, Q1 : 0.974434137344, Q2 : 0.0727111101151, Q3 : -0.0662470012903, Q4 : 0.201996520162}
2019-04-14 12:53:17.91: SIM {TimeUS : 56135037, Roll : 4.87, Pitch : -10.5, Yaw : 30.87, Alt : 49.2700004578, Lat : 49.2835819, Lng : -123.115001, Q1 : 0.95795828104, Q2 : 0.065190680325, Q3 : -0.076890796423, Q4 : 0.268614768982}
2019-04-14 12:53:18.01: SIM {TimeUS : 56234997, Roll : 2.25, Pitch : -11.72, Yaw : 39.23, Alt : 49.2700004578, Lat : 49.283583, Lng : -123.114999, Q1 : 0.936173081398, Q2 : 0.0527000464499, Q3 : -0.0895961672068, Q4 : 0.335820227861}
2019-04-14 12:53:18.11: SIM {TimeUS : 56334957, Roll : -0.94, Pitch : -12.5, Yaw : 47.14, Alt : 49.2700004578, Lat : 49.283584, Lng : -123.1149969, Q1 : 0.911431968212, Q2 : 0.0360733158886, Q3 : -0.103072397411, Q4 : 0.39669457078}
2019-04-14 12:53:18.21: SIM {TimeUS : 56434917, Roll : -4.04, Pitch : -12.77, Yaw : 53.75, Alt : 49.2700004578, Lat : 49.283585, Lng : -123.1149948, Q1 : 0.887658238411, Q2 : 0.0190166849643, Q3 : -0.115047313273, Q4 : 0.445494502783}
2019-04-14 12:53:18.31: SIM {TimeUS : 56534877, Roll : -6.4, Pitch : -12.71, Yaw : 58.49, Alt : 49.2700004578, Lat : 49.2835862, Lng : -123.1149926, Q1 : 0.868819594383, Q2 : 0.00562040694058, Q3 : -0.123592793941, Q4 : 0.479422330856}
2019-04-14 12:53:18.41: SIM {TimeUS : 56634837, Roll : -7.69, Pitch : -12.55, Yaw : 61.21, Alt : 49.2700004578, Lat : 49.2835876, Lng : -123.1149904, Q1 : 0.857302427292, Q2 : -0.00184657727368, Q3 : -0.127898737788, Q4 : 0.498669266701}
2019-04-14 12:53:18.51: SIM {TimeUS : 56734797, Roll : -7.92, Pitch : -12.53, Yaw : 62.12, Alt : 49.2700004578, Lat : 49.283589, Lng : -123.1149881, Q1 : 0.853362739086, Q2 : -0.0027062878944, Q3 : -0.128724053502, Q4 : 0.505168139935}
2019-04-14 12:53:18.61: SIM {TimeUS : 56834757, Roll : -7.29, Pitch : -12.75, Yaw : 61.53, Alt : 49.2700004578, Lat : 49.2835905, Lng : -123.1149859, Q1 : 0.85580945015, Q2 : 0.00239532487467, Q3 : -0.127622440457, Q4 : 0.501295268536}
2019-04-14 12:53:18.71: SIM {TimeUS : 56934717, Roll : -6.05, Pitch : -13.22, Yaw : 59.82, Alt : 49.2700004578, Lat : 49.2835922, Lng : -123.1149835, Q1 : 0.862865686417, Q2 : 0.011857541278, Q3 : -0.125878512859, Q4 : 0.489363640547}
2019-04-14 12:53:18.81: SIM {TimeUS : 57034677, Roll : -4.43, Pitch : -13.85, Yaw : 57.31, Alt : 49.2799987793, Lat : 49.2835939, Lng : -123.1149812, Q1 : 0.872689664364, Q2 : 0.0240714158863, Q3 : -0.124229185283, Q4 : 0.471593499184}
2019-04-14 12:53:18.91: SIM {TimeUS : 57135470, Roll : -2.62, Pitch : -14.53, Yaw : 54.29, Alt : 49.2799987793, Lat : 49.2835957, Lng : -123.1149788, Q1 : 0.883755624294, Q2 : 0.0374751240015, Q3 : -0.122945472598, Q4 : 0.449951171875}
2019-04-14 12:53:19.01: SIM {TimeUS : 57235430, Roll : -0.83, Pitch : -15.11, Yaw : 51.14, Alt : 49.2799987793, Lat : 49.2835975, Lng : -123.1149762, Q1 : 0.894588947296, Q2 : 0.0502316020429, Q3 : -0.121794380248, Q4 : 0.427028656006}
2019-04-14 12:53:19.11: SIM {TimeUS : 57335390, Roll : 0.78, Pitch : -15.51, Yaw : 48.15, Alt : 49.2799987793, Lat : 49.2835993, Lng : -123.1149736, Q1 : 0.904238581657, Q2 : 0.0612316057086, Q3 : -0.120483137667, Q4 : 0.405076622963}
2019-04-14 12:53:19.21: SIM {TimeUS : 57435350, Roll : 2.07, Pitch : -15.72, Yaw : 45.63, Alt : 49.2799987793, Lat : 49.2836012, Lng : -123.1149709, Q1 : 0.911984443665, Q2 : 0.0695904046297, Q3 : -0.119077570736, Q4 : 0.386344611645}
2019-04-14 12:53:19.31: SIM {TimeUS : 57535310, Roll : 2.96, Pitch : -15.77, Yaw : 43.77, Alt : 49.2799987793, Lat : 49.2836031, Lng : -123.114968, Q1 : 0.917496442795, Q2 : 0.074946410954, Q3 : -0.117697902024, Q4 : 0.37246543169}
2019-04-14 12:53:19.41: SIM {TimeUS : 57635270, Roll : 3.4, Pitch : -15.73, Yaw : 42.69, Alt : 49.2799987793, Lat : 49.2836049, Lng : -123.114965, Q1 : 0.92073994875, Q2 : 0.0772324278951, Q3 : -0.116727352142, Q4 : 0.364208459854}
2019-04-14 12:53:19.51: SIM {TimeUS : 57735230, Roll : 3.4, Pitch : -15.69, Yaw : 42.35, Alt : 49.2799987793, Lat : 49.2836069, Lng : -123.1149619, Q1 : 0.921849727631, Q2 : 0.0767623856664, Q3 : -0.116580799222, Q4 : 0.361537754536}
2019-04-14 12:53:19.61: SIM {TimeUS : 57835190, Roll : 3.04, Pitch : -15.69, Yaw : 42.68, Alt : 49.2799987793, Lat : 49.2836089, Lng : -123.1149587, Q1 : 0.921056270599, Q2 : 0.074221663177, Q3 : -0.117540031672, Q4 : 0.363773077726}
2019-04-14 12:53:19.71: SIM {TimeUS : 57935150, Roll : 2.42, Pitch : -15.78, Yaw : 43.51, Alt : 49.2799987793, Lat : 49.2836109, Lng : -123.1149554, Q1 : 0.918690860271, Q2 : 0.0703115388751, Q3 : -0.119741767645, Q4 : 0.369763880968}
2019-04-14 12:53:19.81: SIM {TimeUS : 58035110, Roll : 1.62, Pitch : -15.93, Yaw : 44.67, Alt : 49.2799987793, Lat : 49.2836128, Lng : -123.114952, Q1 : 0.915202021599, Q2 : 0.065670222044, Q3 : -0.122832983732, Q4 : 0.378159701824}
2019-04-14 12:53:19.91: SIM {TimeUS : 58135070, Roll : 0.77, Pitch : -16.1, Yaw : 45.98, Alt : 49.2799987793, Lat : 49.283615, Lng : -123.1149485, Q1 : 0.911103248596, Q2 : 0.0608471371233, Q3 : -0.126351565123, Q4 : 0.387587100267}
2019-04-14 12:53:20.01: SIM {TimeUS : 58235030, Roll : -0.03, Pitch : -16.23, Yaw : 47.26, Alt : 49.2799987793, Lat : 49.283617, Lng : -123.114945, Q1 : 0.90695053339, Q2 : 0.0563862845302, Q3 : -0.129504114389, Q4 : 0.3968501091}
2019-04-14 12:53:20.11: SIM {TimeUS : 58334990, Roll : -0.67, Pitch : -16.32, Yaw : 48.39, Alt : 49.2799987793, Lat : 49.2836191, Lng : -123.1149414, Q1 : 0.903217852116, Q2 : 0.0528461299837, Q3 : -0.131871640682, Q4 : 0.404987215996}
2019-04-14 12:53:20.21: SIM {TimeUS : 58434950, Roll : -1.15, Pitch : -16.36, Yaw : 49.27, Alt : 49.2799987793, Lat : 49.2836213, Lng : -123.1149377, Q1 : 0.900275707245, Q2 : 0.0502660833299, Q3 : -0.133508339524, Q4 : 0.411281555891}
2019-04-14 12:53:20.31: SIM {TimeUS : 58534910, Roll : -1.4, Pitch : -16.38, Yaw : 49.83, Alt : 49.2900009155, Lat : 49.2836235, Lng : -123.114934, Q1 : 0.898318111897, Q2 : 0.0490070208907, Q3 : -0.134387627244, Q4 : 0.415406823158}
2019-04-14 12:53:20.41: SIM {TimeUS : 58634870, Roll : -1.44, Pitch : -16.39, Yaw : 50.08, Alt : 49.2900009155, Lat : 49.2836256, Lng : -123.1149303, Q1 : 0.897420823574, Q2 : 0.049057547003, Q3 : -0.134434491396, Q4 : 0.417320787907}
2019-04-14 12:53:20.51: SIM {TimeUS : 58734830, Roll : -1.31, Pitch : -16.38, Yaw : 50.04, Alt : 49.2900009155, Lat : 49.283628, Lng : -123.1149265, Q1 : 0.897516071796, Q2 : 0.0500300824642, Q3 : -0.133937969804, Q4 : 0.417160093784}
2019-04-14 12:53:20.61: SIM {TimeUS : 58834790, Roll : -1.07, Pitch : -16.41, Yaw : 49.77, Alt : 49.2900009155, Lat : 49.2836303, Lng : -123.1149227, Q1 : 0.898382484913, Q2 : 0.0516505353153, Q3 : -0.133399769664, Q4 : 0.415265709162}
2019-04-14 12:53:20.71: SIM {TimeUS : 58934750, Roll : -0.77, Pitch : -16.46, Yaw : 49.33, Alt : 49.2900009155, Lat : 49.2836326, Lng : -123.1149189, Q1 : 0.89977067709, Q2 : 0.0537235029042, Q3 : -0.132929190993, Q4 : 0.412136435509}
2019-04-14 12:53:20.81: SIM {TimeUS : 59034710, Roll : -0.43, Pitch : -16.54, Yaw : 48.8, Alt : 49.2900009155, Lat : 49.2836349, Lng : -123.114915, Q1 : 0.901416957378, Q2 : 0.0560024939477, Q3 : -0.132634669542, Q4 : 0.40831258893}
2019-04-14 12:53:20.91: SIM {TimeUS : 59134670, Roll : -0.12, Pitch : -16.62, Yaw : 48.25, Alt : 49.2900009155, Lat : 49.2836373, Lng : -123.1149111, Q1 : 0.903116047382, Q2 : 0.058137781918, Q3 : -0.132354184985, Q4 : 0.404331356287}
2019-04-14 12:53:21.01: SIM {TimeUS : 59235463, Roll : 0.16, Pitch : -16.68, Yaw : 47.74, Alt : 49.2900009155, Lat : 49.2836397, Lng : -123.1149071, Q1 : 0.904678046703, Q2 : 0.0600494146347, Q3 : -0.132092371583, Q4 : 0.400628685951}
2019-04-14 12:53:21.11: SIM {TimeUS : 59335423, Roll : 0.39, Pitch : -16.72, Yaw : 47.33, Alt : 49.2900009155, Lat : 49.2836421, Lng : -123.1149031, Q1 : 0.905945897102, Q2 : 0.0615329295397, Q3 : -0.131858065724, Q4 : 0.397604286671}
2019-04-14 12:53:21.21: SIM {TimeUS : 59435383, Roll : 0.55, Pitch : -16.75, Yaw : 47.03, Alt : 49.2900009155, Lat : 49.2836445, Lng : -123.114899, Q1 : 0.906857430935, Q2 : 0.0624995902181, Q3 : -0.131693795323, Q4 : 0.395423978567}
2019-04-14 12:53:21.31: SIM {TimeUS : 59535343, Roll : 0.62, Pitch : -16.78, Yaw : 46.86, Alt : 49.2900009155, Lat : 49.283647, Lng : -123.1148949, Q1 : 0.9073600173, Q2 : 0.0630224198103, Q3 : -0.131733492017, Q4 : 0.39417296648}
2019-04-14 12:53:21.41: SIM {TimeUS : 59635303, Roll : 0.63, Pitch : -16.81, Yaw : 46.82, Alt : 49.2900009155, Lat : 49.2836495, Lng : -123.1148908, Q1 : 0.907479405403, Q2 : 0.0630750432611, Q3 : -0.131979689002, Q4 : 0.393807083368}
2019-04-14 12:53:21.51: SIM {TimeUS : 59735263, Roll : 0.56, Pitch : -16.83, Yaw : 46.88, Alt : 49.2900009155, Lat : 49.2836519, Lng : -123.1148866, Q1 : 0.907289624214, Q2 : 0.0626625791192, Q3 : -0.132349416614, Q4 : 0.394185990095}
2019-04-14 12:53:21.61: SIM {TimeUS : 59835223, Roll : 0.43, Pitch : -16.85, Yaw : 47.02, Alt : 49.2900009155, Lat : 49.2836545, Lng : -123.1148824, Q1 : 0.906858146191, Q2 : 0.0619302727282, Q3 : -0.132874205709, Q4 : 0.39511692524}
2019-04-14 12:53:21.71: SIM {TimeUS : 59935183, Roll : 0.29, Pitch : -16.89, Yaw : 47.2, Alt : 49.2900009155, Lat : 49.283657, Lng : -123.1148782, Q1 : 0.906253397465, Q2 : 0.0611541904509, Q3 : -0.133564099669, Q4 : 0.396390706301}
2019-04-14 12:53:21.81: SIM {TimeUS : 60035143, Roll : 0.14, Pitch : -16.94, Yaw : 47.4, Alt : 49.2999992371, Lat : 49.2836595, Lng : -123.114874, Q1 : 0.905566751957, Q2 : 0.0604147650301, Q3 : -0.13439181447, Q4 : 0.397791087627}
2019-04-14 12:53:21.91: SIM {TimeUS : 60135103, Roll : 0.0, Pitch : -16.99, Yaw : 47.59, Alt : 49.2999992371, Lat : 49.2836621, Lng : -123.1148697, Q1 : 0.904924094677, Q2 : 0.059586007148, Q3 : -0.13517741859, Q4 : 0.399110257626}
2019-04-14 12:53:22.01: SIM {TimeUS : 60235063, Roll : -0.14, Pitch : -17.01, Yaw : 47.76, Alt : 49.2999992371, Lat : 49.2836645, Lng : -123.1148653, Q1 : 0.904404103756, Q2 : 0.0587529465556, Q3 : -0.13575398922, Q4 : 0.400215178728}
2019-04-14 12:53:22.11: SIM {TimeUS : 60335023, Roll : -0.24, Pitch : -17.03, Yaw : 47.87, Alt : 49.2999992371, Lat : 49.2836671, Lng : -123.114861, Q1 : 0.904030025005, Q2 : 0.0581235550344, Q3 : -0.136233150959, Q4 : 0.400988698006}
2019-04-14 12:53:22.21: SIM {TimeUS : 60434983, Roll : -0.29, Pitch : -17.06, Yaw : 47.94, Alt : 49.2999992371, Lat : 49.2836698, Lng : -123.1148567, Q1 : 0.903790533543, Q2 : 0.057960677892, Q3 : -0.136627674103, Q4 : 0.401417583227}
2019-04-14 12:53:22.31: SIM {TimeUS : 60534943, Roll : -0.28, Pitch : -17.11, Yaw : 47.95, Alt : 49.2999992371, Lat : 49.2836723, Lng : -123.1148523, Q1 : 0.903688192368, Q2 : 0.0581983812153, Q3 : -0.136981472373, Q4 : 0.401493161917}
2019-04-14 12:53:22.41: SIM {TimeUS : 60634903, Roll : -0.23, Pitch : -17.16, Yaw : 47.91, Alt : 49.2999992371, Lat : 49.2836749, Lng : -123.1148479, Q1 : 0.90372633934, Q2 : 0.0587247312069, Q3 : -0.137226343155, Q4 : 0.401246905327}
2019-04-14 12:53:22.51: SIM {TimeUS : 60734863, Roll : -0.16, Pitch : -17.21, Yaw : 47.84, Alt : 49.2999992371, Lat : 49.2836776, Lng : -123.1148435, Q1 : 0.903878509998, Q2 : 0.0594172999263, Q3 : -0.137399405241, Q4 : 0.40074262023}
2019-04-14 12:53:22.61: SIM {TimeUS : 60834823, Roll : -0.08, Pitch : -17.25, Yaw : 47.74, Alt : 49.2999992371, Lat : 49.2836802, Lng : -123.1148391, Q1 : 0.904129683971, Q2 : 0.060057207942, Q3 : -0.13745893538, Q4 : 0.400059610605}
2019-04-14 12:53:22.71: SIM {TimeUS : 60934783, Roll : -0.01, Pitch : -17.26, Yaw : 47.64, Alt : 49.2999992371, Lat : 49.2836828, Lng : -123.1148346, Q1 : 0.904457271099, Q2 : 0.0604880638421, Q3 : -0.137386247516, Q4 : 0.399278402328}
2019-04-14 12:53:22.81: SIM {TimeUS : 61034743, Roll : 0.03, Pitch : -17.27, Yaw : 47.53, Alt : 49.3100013733, Lat : 49.2836855, Lng : -123.1148301, Q1 : 0.904796242714, Q2 : 0.0608137063682, Q3 : -0.137325510383, Q4 : 0.398481070995}
2019-04-14 12:53:22.91: SIM {TimeUS : 61134703, Roll : 0.1, Pitch : -17.27, Yaw : 47.43, Alt : 49.3100013733, Lat : 49.2836882, Lng : -123.1148257, Q1 : 0.905111312866, Q2 : 0.061205662787, Q3 : -0.137149304152, Q4 : 0.397765547037}
2019-04-14 12:53:23.01: SIM {TimeUS : 61234663, Roll : 0.15, Pitch : -17.28, Yaw : 47.34, Alt : 49.3100013733, Lat : 49.2836908, Lng : -123.1148212, Q1 : 0.905368924141, Q2 : 0.0615536645055, Q3 : -0.137081697583, Q4 : 0.39714846015}
2019-04-14 12:53:23.11: SIM {TimeUS : 61335456, Roll : 0.2, Pitch : -17.32, Yaw : 47.28, Alt : 49.3100013733, Lat : 49.2836936, Lng : -123.1148166, Q1 : 0.905522823334, Q2 : 0.0619791783392, Q3 : -0.137258157134, Q4 : 0.396670162678}
2019-04-14 12:53:23.21: SIM {TimeUS : 61435416, Roll : 0.22, Pitch : -17.37, Yaw : 47.23, Alt : 49.3100013733, Lat : 49.2836962, Lng : -123.1148121, Q1 : 0.905589163303, Q2 : 0.062321819365, Q3 : -0.137600913644, Q4 : 0.396346092224}
2019-04-14 12:53:23.31: SIM {TimeUS : 61535376, Roll : 0.22, Pitch : -17.39, Yaw : 47.21, Alt : 49.3100013733, Lat : 49.283699, Lng : -123.1148075, Q1 : 0.905629515648, Q2 : 0.0623948052526, Q3 : -0.137801095843, Q4 : 0.396172970533}
2019-04-14 12:53:23.41: SIM {TimeUS : 61635336, Roll : 0.21, Pitch : -17.4, Yaw : 47.21, Alt : 49.3100013733, Lat : 49.2837016, Lng : -123.114803, Q1 : 0.905641436577, Q2 : 0.0622934922576, Q3 : -0.137858003378, Q4 : 0.396141678095}
2019-04-14 12:53:23.51: SIM {TimeUS : 61735296, Roll : 0.19, Pitch : -17.41, Yaw : 47.22, Alt : 49.3100013733, Lat : 49.2837044, Lng : -123.1147984, Q1 : 0.905608415604, Q2 : 0.0621523745358, Q3 : -0.138016372919, Q4 : 0.396184295416}
2019-04-14 12:53:23.61: SIM {TimeUS : 61835256, Roll : 0.14, Pitch : -17.44, Yaw : 47.24, Alt : 49.3100013733, Lat : 49.2837071, Lng : -123.1147938, Q1 : 0.905533850193, Q2 : 0.0619348101318, Q3 : -0.138394743204, Q4 : 0.396256804466}
2019-04-14 12:53:23.71: SIM {TimeUS : 61935216, Roll : 0.11, Pitch : -17.47, Yaw : 47.26, Alt : 49.3100013733, Lat : 49.2837099, Lng : -123.1147892, Q1 : 0.905442595482, Q2 : 0.0617960207164, Q3 : -0.138733670115, Q4 : 0.396368414164}
2019-04-14 12:53:23.81: SIM {TimeUS : 62035176, Roll : 0.08, Pitch : -17.5, Yaw : 47.28, Alt : 49.3100013733, Lat : 49.2837126, Lng : -123.1147846, Q1 : 0.905348539352, Q2 : 0.0617293044925, Q3 : -0.139086872339, Q4 : 0.396469920874}
2019-04-14 12:53:23.91: SIM {TimeUS : 62135136, Roll : 0.07, Pitch : -17.52, Yaw : 47.29, Alt : 49.3199996948, Lat : 49.2837154, Lng : -123.1147798, Q1 : 0.905281186104, Q2 : 0.061701785773, Q3 : -0.139328539371, Q4 : 0.396543055773}
2019-04-14 12:53:24.01: SIM {TimeUS : 62235096, Roll : 0.07, Pitch : -17.54, Yaw : 47.3, Alt : 49.3199996948, Lat : 49.283718, Lng : -123.1147753, Q1 : 0.905241549015, Q2 : 0.0617543682456, Q3 : -0.139469698071, Q4 : 0.396575838327}
2019-04-14 12:53:24.11: SIM {TimeUS : 62335056, Roll : 0.08, Pitch : -17.54, Yaw : 47.3, Alt : 49.3199996948, Lat : 49.2837209, Lng : -123.1147706, Q1 : 0.905238330364, Q2 : 0.0618444047868, Q3 : -0.139450460672, Q4 : 0.396575897932}
2019-04-14 12:53:24.21: SIM {TimeUS : 62435016, Roll : 0.1, Pitch : -17.56, Yaw : 47.29, Alt : 49.3199996948, Lat : 49.2837236, Lng : -123.114766, Q1 : 0.905241370201, Q2 : 0.0620491467416, Q3 : -0.139480337501, Q4 : 0.396526396275}
2019-04-14 12:53:24.31: SIM {TimeUS : 62534976, Roll : 0.12, Pitch : -17.58, Yaw : 47.27, Alt : 49.3199996948, Lat : 49.2837264, Lng : -123.1147613, Q1 : 0.90525662899, Q2 : 0.0623014383018, Q3 : -0.139598324895, Q4 : 0.39641046524}
2019-04-14 12:53:24.41: SIM {TimeUS : 62634936, Roll : 0.13, Pitch : -17.62, Yaw : 47.25, Alt : 49.3199996948, Lat : 49.2837291, Lng : -123.1147566, Q1 : 0.905289769173, Q2 : 0.0624920614064, Q3 : -0.139853075147, Q4 : 0.396215051413}
2019-04-14 12:53:24.51: SIM {TimeUS : 62734896, Roll : 0.12, Pitch : -17.66, Yaw : 47.22, Alt : 49.3199996948, Lat : 49.283732, Lng : -123.1147518, Q1 : 0.90534055233, Q2 : 0.0625003278255, Q3 : -0.140240490437, Q4 : 0.395960628986}
2019-04-14 12:53:24.61: SIM {TimeUS : 62834856, Roll : 0.11, Pitch : -17.7, Yaw : 47.19, Alt : 49.3199996948, Lat : 49.2837348, Lng : -123.1147472, Q1 : 0.905392587185, Q2 : 0.0625417903066, Q3 : -0.140660136938, Q4 : 0.395686179399}
2019-04-14 12:53:24.71: SIM {TimeUS : 62934816, Roll : 0.13, Pitch : -17.73, Yaw : 47.16, Alt : 49.3199996948, Lat : 49.2837375, Lng : -123.1147425, Q1 : 0.905453562737, Q2 : 0.062722556293, Q3 : -0.140853196383, Q4 : 0.395449280739}
2019-04-14 12:53:24.81: SIM {TimeUS : 63034776, Roll : 0.14, Pitch : -17.74, Yaw : 47.13, Alt : 49.3199996948, Lat : 49.2837404, Lng : -123.1147378, Q1 : 0.905535101891, Q2 : 0.0628500953317, Q3 : -0.140850320458, Q4 : 0.395243257284}
2019-04-14 12:53:24.91: SIM {TimeUS : 63134736, Roll : 0.16, Pitch : -17.72, Yaw : 47.11, Alt : 49.3199996948, Lat : 49.2837433, Lng : -123.114733, Q1 : 0.90563583374, Q2 : 0.0628806725144, Q3 : -0.140695810318, Q4 : 0.395062595606}
2019-04-14 12:53:25.01: SIM {TimeUS : 63234696, Roll : 0.16, Pitch : -17.71, Yaw : 47.09, Alt : 49.3199996948, Lat : 49.283746, Lng : -123.1147283, Q1 : 0.905725955963, Q2 : 0.0627815052867, Q3 : -0.140608742833, Q4 : 0.394902646542}
2019-04-14 12:53:25.11: SIM {TimeUS : 63334656, Roll : 0.16, Pitch : -17.7, Yaw : 47.07, Alt : 49.3199996948, Lat : 49.2837489, Lng : -123.1147235, Q1 : 0.905802428722, Q2 : 0.0627122446895, Q3 : -0.140524283051, Q4 : 0.394768387079}
2019-04-14 12:53:25.21: SIM {TimeUS : 63435449, Roll : 0.16, Pitch : -17.69, Yaw : 47.05, Alt : 49.3199996948, Lat : 49.2837518, Lng : -123.1147187, Q1 : 0.905859827995, Q2 : 0.0626630038023, Q3 : -0.140428259969, Q4 : 0.394678682089}
2019-04-14 12:53:25.31: SIM {TimeUS : 63535409, Roll : 0.15, Pitch : -17.69, Yaw : 47.05, Alt : 49.3199996948, Lat : 49.2837545, Lng : -123.114714, Q1 : 0.905886054039, Q2 : 0.0626426413655, Q3 : -0.140506207943, Q4 : 0.394593894482}
2019-04-14 12:53:25.41: SIM {TimeUS : 63635369, Roll : 0.15, Pitch : -17.71, Yaw : 47.04, Alt : 49.3199996948, Lat : 49.2837575, Lng : -123.1147092, Q1 : 0.905894458294, Q2 : 0.062682621181, Q3 : -0.140655487776, Q4 : 0.394515097141}
2019-04-14 12:53:25.51: SIM {TimeUS : 63735329, Roll : 0.13, Pitch : -17.75, Yaw : 47.03, Alt : 49.3300018311, Lat : 49.2837603, Lng : -123.1147044, Q1 : 0.905876100063, Q2 : 0.062699303031, Q3 : -0.141059368849, Q4 : 0.394410401583}
2019-04-14 12:53:25.61: SIM {TimeUS : 63835289, Roll : 0.13, Pitch : -17.81, Yaw : 47.02, Alt : 49.3300018311, Lat : 49.2837631, Lng : -123.1146996, Q1 : 0.905841469765, Q2 : 0.0628074780107, Q3 : -0.141512483358, Q4 : 0.394310355186}
2019-04-14 12:53:25.71: SIM {TimeUS : 63935249, Roll : 0.14, Pitch : -17.85, Yaw : 47.01, Alt : 49.3300018311, Lat : 49.283766, Lng : -123.1146948, Q1 : 0.905813038349, Q2 : 0.0630057677627, Q3 : -0.141799628735, Q4 : 0.394240915775}
2019-04-14 12:53:25.81: SIM {TimeUS : 64035209, Roll : 0.13, Pitch : -17.88, Yaw : 47.01, Alt : 49.3300018311, Lat : 49.2837689, Lng : -123.11469, Q1 : 0.905802130699, Q2 : 0.063098706305, Q3 : -0.14205878973, Q4 : 0.394157797098}
2019-04-14 12:53:25.91: SIM {TimeUS : 64135169, Roll : 0.13, Pitch : -17.9, Yaw : 47.0, Alt : 49.3300018311, Lat : 49.2837716, Lng : -123.1146852, Q1 : 0.905812263489, Q2 : 0.0631233304739, Q3 : -0.142230942845, Q4 : 0.394068419933}
2019-04-14 12:53:26.01: SIM {TimeUS : 64235129, Roll : 0.15, Pitch : -17.89, Yaw : 46.99, Alt : 49.3300018311, Lat : 49.2837746, Lng : -123.1146804, Q1 : 0.905850052834, Q2 : 0.0632097944617, Q3 : -0.142112702131, Q4 : 0.394010454416}
2019-04-14 12:53:26.11: SIM {TimeUS : 64335089, Roll : 0.17, Pitch : -17.89, Yaw : 46.97, Alt : 49.3300018311, Lat : 49.2837775, Lng : -123.1146755, Q1 : 0.905874371529, Q2 : 0.0633929669857, Q3 : -0.142073884606, Q4 : 0.393939048052}
2019-04-14 12:53:26.21: SIM {TimeUS : 64435049, Roll : 0.18, Pitch : -17.91, Yaw : 46.96, Alt : 49.3300018311, Lat : 49.2837804, Lng : -123.1146707, Q1 : 0.905896186829, Q2 : 0.063506282866, Q3 : -0.142147943377, Q4 : 0.393843859434}
2019-04-14 12:53:26.31: SIM {TimeUS : 64535009, Roll : 0.19, Pitch : -17.92, Yaw : 46.95, Alt : 49.3300018311, Lat : 49.2837832, Lng : -123.1146659, Q1 : 0.90591943264, Q2 : 0.0636137351394, Q3 : -0.142204552889, Q4 : 0.393752634525}
2019-04-14 12:53:26.41: SIM {TimeUS : 64634969, Roll : 0.2, Pitch : -17.91, Yaw : 46.93, Alt : 49.3300018311, Lat : 49.2837861, Lng : -123.114661, Q1 : 0.905965745449, Q2 : 0.0636299997568, Q3 : -0.142153963447, Q4 : 0.39366170764}
2019-04-14 12:53:26.51: SIM {TimeUS : 64734929, Roll : 0.19, Pitch : -17.91, Yaw : 46.92, Alt : 49.3300018311, Lat : 49.2837891, Lng : -123.1146562, Q1 : 0.906016290188, Q2 : 0.0635754913092, Q3 : -0.142150193453, Q4 : 0.393555611372}
2019-04-14 12:53:26.61: SIM {TimeUS : 64834889, Roll : 0.17, Pitch : -17.93, Yaw : 46.91, Alt : 49.3300018311, Lat : 49.2837919, Lng : -123.1146513, Q1 : 0.906051456928, Q2 : 0.0634397119284, Q3 : -0.142387956381, Q4 : 0.393410503864}
2019-04-14 12:53:26.71: SIM {TimeUS : 64934849, Roll : 0.14, Pitch : -17.97, Yaw : 46.9, Alt : 49.3300018311, Lat : 49.2837947, Lng : -123.1146464, Q1 : 0.906064689159, Q2 : 0.0632921010256, Q3 : -0.142830431461, Q4 : 0.393243342638}
2019-04-14 12:53:26.81: SIM {TimeUS : 65034809, Roll : 0.12, Pitch : -17.98, Yaw : 46.88, Alt : 49.3300018311, Lat : 49.2837977, Lng : -123.1146416, Q1 : 0.906101226807, Q2 : 0.0632211491466, Q3 : -0.142976403236, Q4 : 0.393117576838}
2019-04-14 12:53:26.91: SIM {TimeUS : 65134769, Roll : 0.14, Pitch : -17.98, Yaw : 46.87, Alt : 49.3300018311, Lat : 49.2838007, Lng : -123.1146367, Q1 : 0.906145215034, Q2 : 0.0632801651955, Q3 : -0.142889067531, Q4 : 0.393038451672}
2019-04-14 12:53:27.01: SIM {TimeUS : 65234729, Roll : 0.16, Pitch : -17.97, Yaw : 46.86, Alt : 49.3400001526, Lat : 49.2838036, Lng : -123.1146318, Q1 : 0.906183540821, Q2 : 0.0634082779288, Q3 : -0.142768844962, Q4 : 0.392973035574}
2019-04-14 12:53:27.11: SIM {TimeUS : 65334689, Roll : 0.17, Pitch : -17.98, Yaw : 46.85, Alt : 49.3400001526, Lat : 49.2838065, Lng : -123.114627, Q1 : 0.906208097935, Q2 : 0.0635386481881, Q3 : -0.142784416676, Q4 : 0.39288982749}
2019-04-14 12:53:27.21: SIM {TimeUS : 65435482, Roll : 0.16, Pitch : -17.99, Yaw : 46.83, Alt : 49.3400001526, Lat : 49.2838093, Lng : -123.114622, Q1 : 0.906229376793, Q2 : 0.0635097622871, Q3 : -0.142963334918, Q4 : 0.392780303955}
2019-04-14 12:53:27.31: SIM {TimeUS : 65535442, Roll : 0.14, Pitch : -18.01, Yaw : 46.82, Alt : 49.3400001526, Lat : 49.2838123, Lng : -123.1146171, Q1 : 0.906251788139, Q2 : 0.063375197351, Q3 : -0.143202319741, Q4 : 0.392663300037}
2019-04-14 12:53:27.41: SIM {TimeUS : 65635402, Roll : 0.13, Pitch : -18.02, Yaw : 46.81, Alt : 49.3400001526, Lat : 49.2838153, Lng : -123.1146122, Q1 : 0.906279981136, Q2 : 0.0632971897721, Q3 : -0.143322303891, Q4 : 0.392566949129}
2019-04-14 12:53:27.51: SIM {TimeUS : 65735362, Roll : 0.13, Pitch : -18.03, Yaw : 46.8, Alt : 49.3400001526, Lat : 49.2838182, Lng : -123.1146073, Q1 : 0.90630453825, Q2 : 0.0633474513888, Q3 : -0.14336617291, Q4 : 0.392486065626}
2019-04-14 12:53:27.61: SIM {TimeUS : 65835322, Roll : 0.14, Pitch : -18.04, Yaw : 46.79, Alt : 49.3400001526, Lat : 49.2838211, Lng : -123.1146024, Q1 : 0.906321942806, Q2 : 0.0634530410171, Q3 : -0.143403083086, Q4 : 0.392415374517}
2019-04-14 12:53:27.71: SIM {TimeUS : 65935282, Roll : 0.17, Pitch : -18.06, Yaw : 46.79, Alt : 49.3400001526, Lat : 49.283824, Lng : -123.1145974, Q1 : 0.906307399273, Q2 : 0.06371755898, Q3 : -0.143481492996, Q4 : 0.392377465963}
2019-04-14 12:53:27.81: SIM {TimeUS : 66035242, Roll : 0.18, Pitch : -18.09, Yaw : 46.78, Alt : 49.3400001526, Lat : 49.2838269, Lng : -123.1145926, Q1 : 0.90628606081, Q2 : 0.0638965517282, Q3 : -0.143655776978, Q4 : 0.39233392477}
2019-04-14 12:53:27.91: SIM {TimeUS : 66135202, Roll : 0.19, Pitch : -18.11, Yaw : 46.78, Alt : 49.3400001526, Lat : 49.2838299, Lng : -123.1145877, Q1 : 0.906263828278, Q2 : 0.0640744045377, Q3 : -0.143830865622, Q4 : 0.392292022705}
2019-04-14 12:53:28.01: SIM {TimeUS : 66235162, Roll : 0.21, Pitch : -18.13, Yaw : 46.77, Alt : 49.3400001526, Lat : 49.2838329, Lng : -123.1145828, Q1 : 0.906250715256, Q2 : 0.0642535164952, Q3 : -0.143925309181, Q4 : 0.392258375883}
2019-04-14 12:53:28.11: SIM {TimeUS : 66335122, Roll : 0.24, Pitch : -18.14, Yaw : 46.76, Alt : 49.3400001526, Lat : 49.2838358, Lng : -123.1145779, Q1 : 0.906249821186, Q2 : 0.0644815415144, Q3 : -0.143880456686, Q4 : 0.392239481211}
