2019-04-14 11:15:58.80: SIM {TimeUS : 40816167, Roll : 0.0, Pitch : 0.0, Yaw : 0.0, Alt : 30.1000003815, Lat : 49.28357, Lng : -123.11502, Q1 : 1.0, Q2 : 0.0, Q3 : 0.0, Q4 : 0.0}
2019-04-14 11:15:58.91: SIM {TimeUS : 40935286, Roll : 0.0, Pitch : 0.0, Yaw : 0.0, Alt : 30.1000003815, Lat : 49.28357, Lng : -123.11502, Q1 : 1.0, Q2 : 0.0, Q3 : 0.0, Q4 : 0.0}
2019-04-14 11:15:59.01: SIM {TimeUS : 41035246, Roll : 0.0, Pitch : 0.0, Yaw : 0.0, Alt : 30.1000003815, Lat : 49.28357, Lng : -123.11502, Q1 : 1.0, Q2 : 0.0, Q3 : 0.0, Q4 : 0.0}
2019-04-14 11:15:59.11: SIM {TimeUS : 41135206, Roll : 0.0, Pitch : 0.0, Yaw : 0.0, Alt : 30.1000003815, Lat : 49.28357, Lng : -123.11502, Q1 : 1.0, Q2 : 0.0, Q3 : 0.0, Q4 : 0.0}
2019-04-14 11:15:59.21: SIM {TimeUS : 41235166, Roll : 0.0, Pitch : 0.0, Yaw : 0.0, Alt : 30.1000003815, Lat : 49.28357, Lng : -123.11502, Q1 : 1.0, Q2 : 0.0, Q3 : 0.0, Q4 : 0.0}
2019-04-14 11:15:59.31: SIM {TimeUS : 41335126, Roll : 0.0, Pitch : 0.0, Yaw : 0.0, Alt : 30.1000003815, Lat : 49.28357, Lng : -123.11502, Q1 : 1.0, Q2 : 0.0, Q3 : 0.0, Q4 : 0.0}
2019-04-14 11:15:59.41: SIM {TimeUS : 41435086, Roll : 0.0, Pitch : 0.0, Yaw : 0.0, Alt : 30.1000003815, Lat : 49.28357, Lng : -123.11502, Q1 : 1.0, Q2 : 0.0, Q3 : 0.0, Q4 : 0.0}
2019-04-14 11:15:59.51: SIM {TimeUS : 41535046, Roll : 0.0, Pitch : 0.0, Yaw : 0.0, Alt : 30.1000003815, Lat : 49.28357, Lng : -123.11502, Q1 : 1.0, Q2 : 0.0, Q3 : 0.0, Q4 : 0.0}
2019-04-14 11:15:59.61: SIM {TimeUS : 41635006, Roll : 0.0, Pitch : 0.0, Yaw : 0.0, Alt : 30.1000003815, Lat : 49.28357, Lng : -123.11502, Q1 : 1.0, Q2 : 0.0, Q3 : 0.0, Q4 : 0.0}
2019-04-14 11:15:59.71: SIM {TimeUS : 41734966, Roll : 0.0, Pitch : 0.0, Yaw : 0.0, Alt : 30.1000003815, Lat : 49.28357, Lng : -123.11502, Q1 : 1.0, Q2 : 0.0, Q3 : 0.0, Q4 : 0.0}
2019-04-14 11:15:59.81: SIM {TimeUS : 41834926, Roll : 0.0, Pitch : 0.0, Yaw : 0.0, Alt : 30.1000003815, Lat : 49.28357, Lng : -123.11502, Q1 : 1.0, Q2 : 0.0, Q3 : 0.0, Q4 : 0.0}
2019-04-14 11:15:59.91: SIM {TimeUS : 41934886, Roll : 0.0, Pitch : 0.0, Yaw : 0.0, Alt : 30.1000003815, Lat : 49.28357, Lng : -123.11502, Q1 : 1.0, Q2 : 0.0, Q3 : 0.0, Q4 : 0.0}
2019-04-14 11:16:00.01: SIM {TimeUS : 42034846, Roll : 0.0, Pitch : 0.0, Yaw : 0.0, Alt : 30.1000003815, Lat : 49.28357, Lng : -123.11502, Q1 : 1.0, Q2 : 0.0, Q3 : 0.0, Q4 : 0.0}
2019-04-14 11:16:00.11: SIM {TimeUS : 42134806, Roll : 0.0, Pitch : 0.0, Yaw : 0.0, Alt : 30.1000003815, Lat : 49.28357, Lng : -123.11502, Q1 : 1.0, Q2 : 0.0, Q3 : 0.0, Q4 : 0.0}
2019-04-14 11:16:00.21: SIM {TimeUS : 42234766, Roll : 0.0, Pitch : 0.0, Yaw : 0.0, Alt : 30.1000003815, Lat : 49.28357, Lng : -123.11502, Q1 : 1.0, Q2 : 0.0, Q3 : 0.0, Q4 : 0.0}
2019-04-14 11:16:00.31: SIM {TimeUS : 42334726, Roll : 0.0, Pitch : 0.0, Yaw : 0.0, Alt : 30.1000003815, Lat : 49.28357, Lng : -123.11502, Q1 : 1.0, Q2 : 0.0, Q3 : 0.0, Q4 : 0.0}
2019-04-14 11:16:00.41: SIM {TimeUS : 42434686, Roll : 0.0, Pitch : 0.0, Yaw : 0.0, Alt : 30.1000003815, Lat : 49.28357, Lng : -123.11502, Q1 : 1.0, Q2 : 0.0, Q3 : 0.0, Q4 : 0.0}
2019-04-14 11:16:00.51: SIM {TimeUS : 42534646, Roll : 0.0, Pitch : 0.0, Yaw : 0.0, Alt : 30.1000003815, Lat : 49.28357, Lng : -123.11502, Q1 : 1.0, Q2 : 0.0, Q3 : 0.0, Q4 : 0.0}
2019-04-14 11:16:00.61: SIM {TimeUS : 42634606, Roll : 0.0, Pitch : 0.0, Yaw : 0.0, Alt : 30.1000003815, Lat : 49.28357, Lng : -123.11502, Q1 : 1.0, Q2 : 0.0, Q3 : 0.0, Q4 : 0.0}
2019-04-14 11:16:00.71: SIM {TimeUS : 42734566, Roll : 0.0, Pitch : 0.0, Yaw : 0.0, Alt : 30.1000003815, Lat : 49.28357, Lng : -123.11502, Q1 : 1.0, Q2 : 0.0, Q3 : 0.0, Q4 : 0.0}
2019-04-14 11:16:00.81: SIM {TimeUS : 42834526, Roll : 0.0, Pitch : 0.0, Yaw : 0.0, Alt : 30.1000003815, Lat : 49.28357, Lng : -123.11502, Q1 : 1.0, Q2 : 0.0, Q3 : 0.0, Q4 : 0.0}
2019-04-14 11:16:00.91: SIM {TimeUS : 42935319, Roll : 0.0, Pitch : 0.0, Yaw : 0.0, Alt : 30.1000003815, Lat : 49.28357, Lng : -123.11502, Q1 : 1.0, Q2 : 0.0, Q3 : 0.0, Q4 : 0.0}
2019-04-14 11:16:01.01: SIM {TimeUS : 43035279, Roll : 0.0, Pitch : 0.0, Yaw : 0.0, Alt : 30.1000003815, Lat : 49.28357, Lng : -123.11502, Q1 : 1.0, Q2 : 0.0, Q3 : 0.0, Q4 : 0.0}
2019-04-14 11:16:01.11: SIM {TimeUS : 43135239, Roll : 0.0, Pitch : 0.0, Yaw : 360.0, Alt : 30.1000003815, Lat : 49.28357, Lng : -123.11502, Q1 : 1.0, Q2 : 0.0, Q3 : 0.0, Q4 : -5.76911088346e-12}
2019-04-14 11:16:01.21: SIM {TimeUS : 43235199, Roll : 0.0, Pitch : 0.0, Yaw : 0.0, Alt : 30.1000003815, Lat : 49.28357, Lng : -123.11502, Q1 : 1.0, Q2 : 0.0, Q3 : 0.0, Q4 : 1.67138317075e-11}
2019-04-14 11:16:01.31: SIM {TimeUS : 43335159, Roll : 0.0, Pitch : 0.0, Yaw : 360.0, Alt : 30.1000003815, Lat : 49.28357, Lng : -123.11502, Q1 : 1.0, Q2 : 0.0, Q3 : 0.0, Q4 : -1.04802055034e-07}
2019-04-14 11:16:01.41: SIM {TimeUS : 43435119, Roll : 0.0, Pitch : 0.0, Yaw : 359.99, Alt : 30.1000003815, Lat : 49.28357, Lng : -123.11502, Q1 : 1.0, Q2 : 0.0, Q3 : 0.0, Q4 : -2.71796835705e-07}
2019-04-14 11:16:01.51: SIM {TimeUS : 43535079, Roll : 0.0, Pitch : 0.0, Yaw : 359.99, Alt : 30.1000003815, Lat : 49.28357, Lng : -123.11502, Q1 : 1.0, Q2 : 0.0, Q3 : 0.0, Q4 : -4.59854902601e-07}
2019-04-14 11:16:01.61: SIM {TimeUS : 43635039, Roll : 0.0, Pitch : 0.0, Yaw : 359.99, Alt : 30.1000003815, Lat : 49.28357, Lng : -123.11502, Q1 : 1.0, Q2 : 0.0, Q3 : 0.0, Q4 : -6.53830795727e-07}
2019-04-14 11:16:01.71: SIM {TimeUS : 43734999, Roll : 0.0, Pitch : 0.0, Yaw : 359.99, Alt : 30.1000003815, Lat : 49.28357, Lng : -123.11502, Q1 : 1.0, Q2 : 0.0, Q3 : 0.0, Q4 : -8.10706239918e-07}
2019-04-14 11:16:01.81: SIM {TimeUS : 43834959, Roll : 0.0, Pitch : 0.0, Yaw : 359.99, Alt : 30.1000003815, Lat : 49.28357, Lng : -123.11502, Q1 : 1.0, Q2 : 0.0, Q3 : 0.0, Q4 : -1.0030885278e-06}
2019-04-14 11:16:01.91: SIM {TimeUS : 43934919, Roll : 0.0, Pitch : 0.0, Yaw : 359.99, Alt : 30.1000003815, Lat : 49.28357, Lng : -123.11502, Q1 : 1.0, Q2 : 0.0, Q3 : 0.0, Q4 : -1.21235711958e-06}
2019-04-14 11:16:02.01: SIM {TimeUS : 44034879, Roll : 0.0, Pitch : 0.0, Yaw : 359.99, Alt : 30.1100006104, Lat : 49.28357, Lng : -123.11502, Q1 : 1.0, Q2 : 0.0, Q3 : 0.0, Q4 : -1.41997884384e-06}
2019-04-14 11:16:02.11: SIM {TimeUS : 44134839, Roll : 0.0, Pitch : 0.0, Yaw : 359.99, Alt : 30.1299991608, Lat : 49.28357, Lng : -123.11502, Q1 : 1.0, Q2 : 0.0, Q3 : 0.0, Q4 : -1.61823516009e-06}
2019-04-14 11:16:02.21: SIM {TimeUS : 44234799, Roll : 0.0, Pitch : 0.0, Yaw : 359.99, Alt : 30.1499996185, Lat : 49.28357, Lng : -123.11502, Q1 : 1.0, Q2 : 0.0, Q3 : 0.0, Q4 : -1.85316628176e-06}
2019-04-14 11:16:02.31: SIM {TimeUS : 44334759, Roll : 0.0, Pitch : 0.0, Yaw : 359.99, Alt : 30.1900005341, Lat : 49.28357, Lng : -123.11502, Q1 : 1.0, Q2 : 0.0, Q3 : 0.0, Q4 : -2.04109255719e-06}
2019-04-14 11:16:02.41: SIM {TimeUS : 44434719, Roll : -0.02, Pitch : -0.02, Yaw : 359.99, Alt : 30.2299995422, Lat : 49.28357, Lng : -123.11502, Q1 : 0.999999940395, Q2 : -0.000261122331722, Q3 : -0.000251083896728, Q4 : -3.18895490636e-06}
2019-04-14 11:16:02.51: SIM {TimeUS : 44534679, Roll : -0.27, Pitch : -0.23, Yaw : 359.99, Alt : 30.2999992371, Lat : 49.28357, Lng : -123.11502, Q1 : 0.99999499321, Q2 : -0.00243808468804, Q3 : -0.00202953396365, Q4 : -2.43866870733e-05}
2019-04-14 11:16:02.61: SIM {TimeUS : 44634639, Roll : -0.6, Pitch : -0.48, Yaw : 359.99, Alt : 30.4400005341, Lat : 49.28357, Lng : -123.11502, Q1 : 0.999977350235, Q2 : -0.00526312179863, Q3 : -0.00419859029353, Q4 : -6.81704186718e-05}
2019-04-14 11:16:02.71: SIM {TimeUS : 44734599, Roll : -0.81, Pitch : -0.66, Yaw : 359.98, Alt : 30.5900001526, Lat : 49.28357, Lng : -123.11502, Q1 : 0.999957978725, Q2 : -0.00711445137858, Q3 : -0.00577854737639, Q4 : -0.000129294567159}
2019-04-14 11:16:02.81: SIM {TimeUS : 44834559, Roll : -0.84, Pitch : -0.71, Yaw : 359.98, Alt : 30.75, Lat : 49.28357, Lng : -123.11502, Q1 : 0.999952912331, Q2 : -0.00740240700543, Q3 : -0.00627489807084, Q4 : -0.000199994974537}
2019-04-14 11:16:02.91: SIM {TimeUS : 44934519, Roll : -0.72, Pitch : -0.64, Yaw : 359.97, Alt : 30.9099998474, Lat : 49.28357, Lng : -123.1150201, Q1 : 0.999963760376, Q2 : -0.00635374896228, Q3 : -0.00566447945312, Q4 : -0.000270817632554}
2019-04-14 11:16:03.01: SIM {TimeUS : 45035312, Roll : -0.51, Pitch : -0.49, Yaw : 359.96, Alt : 31.0599994659, Lat : 49.2835701, Lng : -123.1150201, Q1 : 0.999980568886, Q2 : -0.00446525495499, Q3 : -0.00433153705671, Q4 : -0.000338214566}
2019-04-14 11:16:03.11: SIM {TimeUS : 45135272, Roll : -0.27, Pitch : -0.3, Yaw : 359.95, Alt : 31.2199993134, Lat : 49.2835701, Lng : -123.1150202, Q1 : 0.999993562698, Q2 : -0.00238942354918, Q3 : -0.00264531862922, Q4 : -0.000390658446122}
2019-04-14 11:16:03.21: SIM {TimeUS : 45235232, Roll : -0.08, Pitch : -0.11, Yaw : 359.95, Alt : 31.3899993896, Lat : 49.2835702, Lng : -123.1150203, Q1 : 0.999999165535, Q2 : -0.000699787284248, Q3 : -0.00100417097565, Q4 : -0.000430694053648}
2019-04-14 11:16:03.31: SIM {TimeUS : 45335192, Roll : 0.03, Pitch : 0.02, Yaw : 359.94, Alt : 31.5599994659, Lat : 49.2835702, Lng : -123.1150204, Q1 : 0.999999821186, Q2 : 0.000291436503176, Q3 : 0.000222194881644, Q4 : -0.00046264033881}
2019-04-14 11:16:03.41: SIM {TimeUS : 45435152, Roll : 0.06, Pitch : 0.1, Yaw : 359.94, Alt : 31.7299995422, Lat : 49.2835702, Lng : -123.1150204, Q1 : 0.999999284744, Q2 : 0.000585803354625, Q3 : 0.00092686136486, Q4 : -0.00048664805945}
2019-04-14 11:16:03.51: SIM {TimeUS : 45535112, Roll : 0.07, Pitch : 0.14, Yaw : 359.94, Alt : 31.9099998474, Lat : 49.2835703, Lng : -123.1150205, Q1 : 0.999998927116, Q2 : 0.00068106292747, Q3 : 0.00123130169231, Q4 : -0.000488934805617}
2019-04-14 11:16:03.61: SIM {TimeUS : 45635072, Roll : 0.07, Pitch : 0.13, Yaw : 359.94, Alt : 32.0999984741, Lat : 49.2835703, Lng : -123.1150205, Q1 : 0.999998986721, Q2 : 0.000691513589118, Q3 : 0.00114114361349, Q4 : -0.000467848323751}
2019-04-14 11:16:03.71: SIM {TimeUS : 45735032, Roll : 0.07, Pitch : 0.11, Yaw : 359.94, Alt : 32.2900009155, Lat : 49.2835703, Lng : -123.1150206, Q1 : 0.999999165535, Q2 : 0.000663289683871, Q3 : 0.00101877970155, Q4 : -0.000444657140179}
2019-04-14 11:16:03.81: SIM {TimeUS : 45834992, Roll : 0.06, Pitch : 0.1, Yaw : 359.95, Alt : 32.4799995422, Lat : 49.2835703, Lng : -123.1150206, Q1 : 0.999999284744, Q2 : 0.000592785014305, Q3 : 0.000958194432314, Q4 : -0.000421125616413}
2019-04-14 11:16:03.91: SIM {TimeUS : 45934952, Roll : 0.07, Pitch : 0.09, Yaw : 359.95, Alt : 32.6699981689, Lat : 49.2835703, Lng : -123.1150207, Q1 : 0.999999344349, Q2 : 0.000680474797264, Q3 : 0.000805285410024, Q4 : -0.000407662126236}
2019-04-14 11:16:04.01: SIM {TimeUS : 46034912, Roll : 0.09, Pitch : 0.07, Yaw : 359.95, Alt : 32.8699989319, Lat : 49.2835703, Lng : -123.1150207, Q1 : 0.999999344349, Q2 : 0.000835617480334, Q3 : 0.000655516807456, Q4 : -0.000397316733142}
2019-04-14 11:16:04.11: SIM {TimeUS : 46134872, Roll : 0.11, Pitch : 0.08, Yaw : 359.95, Alt : 33.0699996948, Lat : 49.2835704, Lng : -123.1150207, Q1 : 0.99999910593, Q2 : 0.00101221771911, Q3 : 0.000772057392169, Q4 : -0.000391713343561}
2019-04-14 11:16:04.21: SIM {TimeUS : 46234832, Roll : 0.13, Pitch : 0.1, Yaw : 359.95, Alt : 33.2799987793, Lat : 49.2835704, Lng : -123.1150207, Q1 : 0.999998807907, Q2 : 0.00117774214596, Q3 : 0.00091262900969, Q4 : -0.00038783729542}
2019-04-14 11:16:04.31: SIM {TimeUS : 46334792, Roll : 0.15, Pitch : 0.12, Yaw : 359.95, Alt : 33.4799995422, Lat : 49.2835704, Lng : -123.1150208, Q1 : 0.999998450279, Q2 : 0.00134305399843, Q3 : 0.00108924228698, Q4 : -0.000388283311622}
2019-04-14 11:16:04.41: SIM {TimeUS : 46434752, Roll : 0.16, Pitch : 0.14, Yaw : 359.95, Alt : 33.6899986267, Lat : 49.2835704, Lng : -123.1150208, Q1 : 0.999998211861, Q2 : 0.00141547783278, Q3 : 0.00122302083764, Q4 : -0.000393451598939}
2019-04-14 11:16:04.51: SIM {TimeUS : 46534712, Roll : 0.14, Pitch : 0.13, Yaw : 359.95, Alt : 33.8899993896, Lat : 49.2835704, Lng : -123.1150208, Q1 : 0.99999833107, Q2 : 0.00130399654154, Q3 : 0.00120920094196, Q4 : -0.000407799991081}
2019-04-14 11:16:04.61: SIM {TimeUS : 46634672, Roll : 0.13, Pitch : 0.13, Yaw : 359.95, Alt : 34.0999984741, Lat : 49.2835704, Lng : -123.1150208, Q1 : 0.999998569489, Q2 : 0.00116097263526, Q3 : 0.00115482357796, Q4 : -0.000430170592153}
2019-04-14 11:16:04.71: SIM {TimeUS : 46734632, Roll : 0.11, Pitch : 0.12, Yaw : 359.94, Alt : 34.3199996948, Lat : 49.2835704, Lng : -123.1150208, Q1 : 0.999998807907, Q2 : 0.000987294828519, Q3 : 0.00108468451072, Q4 : -0.000463783217128}
2019-04-14 11:16:04.81: SIM {TimeUS : 46834592, Roll : 0.09, Pitch : 0.08, Yaw : 359.94, Alt : 34.5299987793, Lat : 49.2835704, Lng : -123.1150208, Q1 : 0.99999922514, Q2 : 0.000857756764162, Q3 : 0.000753677566536, Q4 : -0.000508007477038}
2019-04-14 11:16:04.91: SIM {TimeUS : 46934552, Roll : 0.08, Pitch : 0.05, Yaw : 359.93, Alt : 34.7400016785, Lat : 49.2835704, Lng : -123.1150208, Q1 : 0.999999463558, Q2 : 0.000739917100873, Q3 : 0.000450037303381, Q4 : -0.000558131956495}
2019-04-14 11:16:05.01: SIM {TimeUS : 47034512, Roll : 0.06, Pitch : 0.03, Yaw : 359.92, Alt : 34.9599990845, Lat : 49.2835704, Lng : -123.1150207, Q1 : 0.999999642372, Q2 : 0.000563712732401, Q3 : 0.000299823994283, Q4 : -0.000613063690253}
2019-04-14 11:16:05.11: SIM {TimeUS : 47135305, Roll : 0.05, Pitch : 0.02, Yaw : 359.92, Alt : 35.1800003052, Lat : 49.2835704, Lng : -123.1150207, Q1 : 0.999999642372, Q2 : 0.000470301834866, Q3 : 0.00025989979622, Q4 : -0.000658490462229}
2019-04-14 11:16:05.21: SIM {TimeUS : 47235265, Roll : 0.05, Pitch : 0.02, Yaw : 359.92, Alt : 35.3899993896, Lat : 49.2835704, Lng : -123.1150207, Q1 : 0.999999642372, Q2 : 0.000485261261929, Q3 : 0.000253594247624, Q4 : -0.000689165317453}
2019-04-14 11:16:05.31: SIM {TimeUS : 47335225, Roll : 0.03, Pitch : 0.0, Yaw : 359.91, Alt : 35.6100006104, Lat : 49.2835704, Lng : -123.1150207, Q1 : 0.999999701977, Q2 : 0.000296532496577, Q3 : 8.68752103997e-05, Q4 : -0.000708957901224}
2019-04-14 11:16:05.41: SIM {TimeUS : 47435185, Roll : 0.0, Pitch : -0.02, Yaw : 359.91, Alt : 35.8300018311, Lat : 49.2835704, Lng : -123.1150207, Q1 : 0.999999701977, Q2 : -3.41029408446e-05, Q3 : -0.000198318535695, Q4 : -0.000723131932318}
2019-04-14 11:16:05.51: SIM {TimeUS : 47535145, Roll : -0.04, Pitch : -0.04, Yaw : 359.91, Alt : 36.0499992371, Lat : 49.2835704, Lng : -123.1150207, Q1 : 0.999999582767, Q2 : -0.000379946024623, Q3 : -0.000428544881288, Q4 : -0.000737672613468}
2019-04-14 11:16:05.61: SIM {TimeUS : 47635105, Roll : -0.07, Pitch : -0.06, Yaw : 359.91, Alt : 36.2700004578, Lat : 49.2835704, Lng : -123.1150207, Q1 : 0.999999344349, Q2 : -0.000663651328068, Q3 : -0.000569349271245, Q4 : -0.000751797342673}
2019-04-14 11:16:05.71: SIM {TimeUS : 47735065, Roll : -0.08, Pitch : -0.06, Yaw : 359.91, Alt : 36.4900016785, Lat : 49.2835704, Lng : -123.1150207, Q1 : 0.999999284744, Q2 : -0.000700073374901, Q3 : -0.000602169136982, Q4 : -0.00075996707892}
2019-04-14 11:16:05.81: SIM {TimeUS : 47835025, Roll : -0.07, Pitch : -0.06, Yaw : 359.91, Alt : 36.7200012207, Lat : 49.2835704, Lng : -123.1150206, Q1 : 0.999999344349, Q2 : -0.000678883166984, Q3 : -0.000585595378652, Q4 : -0.000765240576584}
2019-04-14 11:16:05.91: SIM {TimeUS : 47934985, Roll : -0.06, Pitch : -0.05, Yaw : 359.91, Alt : 36.9399986267, Lat : 49.2835704, Lng : -123.1150206, Q1 : 0.999999403954, Q2 : -0.000599686405621, Q3 : -0.000468326790724, Q4 : -0.000775061082095}
2019-04-14 11:16:06.01: SIM {TimeUS : 48034945, Roll : -0.05, Pitch : -0.04, Yaw : 359.91, Alt : 37.1599998474, Lat : 49.2835704, Lng : -123.1150206, Q1 : 0.999999463558, Q2 : -0.000494310399517, Q3 : -0.000380341894925, Q4 : -0.000785612151958}
2019-04-14 11:16:06.11: SIM {TimeUS : 48134905, Roll : -0.05, Pitch : -0.04, Yaw : 359.9, Alt : 37.3899993896, Lat : 49.2835704, Lng : -123.1150206, Q1 : 0.999999463558, Q2 : -0.000521279522218, Q3 : -0.000380341458367, Q4 : -0.000792552542407}
2019-04-14 11:16:06.21: SIM {TimeUS : 48234865, Roll : -0.06, Pitch : -0.02, Yaw : 359.9, Alt : 37.6100006104, Lat : 49.2835704, Lng : -123.1150206, Q1 : 0.999999463558, Q2 : -0.000608122325502, Q3 : -0.000255707680481, Q4 : -0.000807672913652}
2019-04-14 11:16:06.31: SIM {TimeUS : 48334825, Roll : -0.09, Pitch : -0.01, Yaw : 359.9, Alt : 37.8400001526, Lat : 49.2835704, Lng : -123.1150206, Q1 : 0.999999284744, Q2 : -0.000834356644191, Q3 : -0.000113075082481, Q4 : -0.000828980468214}
2019-04-14 11:16:06.41: SIM {TimeUS : 48434785, Roll : -0.1, Pitch : 0.0, Yaw : 359.9, Alt : 38.0699996948, Lat : 49.2835704, Lng : -123.1150206, Q1 : 0.999999284744, Q2 : -0.000880872772541, Q3 : 1.34945303216e-05, Q4 : -0.000848457217216}
2019-04-14 11:16:06.51: SIM {TimeUS : 48534745, Roll : -0.07, Pitch : 0.03, Yaw : 359.9, Alt : 38.2900009155, Lat : 49.2835704, Lng : -123.1150206, Q1 : 0.999999344349, Q2 : -0.000695355702192, Q3 : 0.000263962021563, Q4 : -0.000867025228217}
2019-04-14 11:16:06.61: SIM {TimeUS : 48634705, Roll : -0.05, Pitch : 0.02, Yaw : 359.89, Alt : 38.5200004578, Lat : 49.2835704, Lng : -123.1150206, Q1 : 0.999999463558, Q2 : -0.000449765997473, Q3 : 0.000234933177126, Q4 : -0.000886916299351}
2019-04-14 11:16:06.71: SIM {TimeUS : 48734665, Roll : -0.01, Pitch : 0.01, Yaw : 359.89, Alt : 38.75, Lat : 49.2835706, Lng : -123.1150206, Q1 : 0.999999582767, Q2 : -0.000160249444889, Q3 : 0.000131473614601, Q4 : -0.000905800610781}
2019-04-14 11:16:06.81: SIM {TimeUS : 48834625, Roll : 0.01, Pitch : 0.02, Yaw : 359.89, Alt : 38.9799995422, Lat : 49.2835706, Lng : -123.1150206, Q1 : 0.999999523163, Q2 : 0.000121035707707, Q3 : 0.000227882730542, Q4 : -0.000922515639104}
2019-04-14 11:16:06.91: SIM {TimeUS : 48934585, Roll : 0.04, Pitch : 0.05, Yaw : 359.89, Alt : 39.2099990845, Lat : 49.2835706, Lng : -123.1150206, Q1 : 0.999999344349, Q2 : 0.000396210380131, Q3 : 0.00044581637485, Q4 : -0.000944775121752}
2019-04-14 11:16:07.01: SIM {TimeUS : 49034545, Roll : 0.06, Pitch : 0.08, Yaw : 359.88, Alt : 39.4399986267, Lat : 49.2835706, Lng : -123.1150207, Q1 : 0.99999910593, Q2 : 0.000605307228398, Q3 : 0.000697739073075, Q4 : -0.000970570952632}
2019-04-14 11:16:07.11: SIM {TimeUS : 49134505, Roll : 0.06, Pitch : 0.1, Yaw : 359.88, Alt : 39.6699981689, Lat : 49.2835706, Lng : -123.1150207, Q1 : 0.999998927116, Q2 : 0.000539801665582, Q3 : 0.00094194576377, Q4 : -0.000993698253296}
2019-04-14 11:16:07.21: SIM {TimeUS : 49235298, Roll : 0.01, Pitch : 0.13, Yaw : 359.88, Alt : 39.9000015259, Lat : 49.2835706, Lng : -123.1150207, Q1 : 0.999998807907, Q2 : 0.000152215303387, Q3 : 0.00115633313544, Q4 : -0.00103693257552}
2019-04-14 11:16:07.31: SIM {TimeUS : 49335258, Roll : -0.01, Pitch : 0.13, Yaw : 359.87, Alt : 40.1300010681, Lat : 49.2835706, Lng : -123.1150207, Q1 : 0.999998748302, Q2 : -0.000157893300639, Q3 : 0.00116085738409, Q4 : -0.00107279012445}
2019-04-14 11:16:07.41: SIM {TimeUS : 49435218, Roll : -0.04, Pitch : 0.11, Yaw : 359.87, Alt : 40.3699989319, Lat : 49.2835706, Lng : -123.1150207, Q1 : 0.999998867512, Q2 : -0.000363069179002, Q3 : 0.000983966980129, Q4 : -0.00110330653843}
2019-04-14 11:16:07.51: SIM {TimeUS : 49535178, Roll : -0.05, Pitch : 0.1, Yaw : 359.86, Alt : 40.5999984741, Lat : 49.2835706, Lng : -123.1150207, Q1 : 0.999998867512, Q2 : -0.000437700684415, Q3 : 0.000877415237483, Q4 : -0.00113645242527}
2019-04-14 11:16:07.61: SIM {TimeUS : 49635138, Roll : -0.03, Pitch : 0.11, Yaw : 359.86, Alt : 40.8300018311, Lat : 49.2835706, Lng : -123.1150207, Q1 : 0.999998748302, Q2 : -0.000303834007354, Q3 : 0.00102391466498, Q4 : -0.0011754805455}
2019-04-14 11:16:07.71: SIM {TimeUS : 49735098, Roll : 0.01, Pitch : 0.14, Yaw : 359.86, Alt : 41.0600013733, Lat : 49.2835706, Lng : -123.1150207, Q1 : 0.999998450279, Q2 : 9.22759645618e-05, Q3 : 0.00127395521849, Q4 : -0.00121697771829}
2019-04-14 11:16:07.81: SIM {TimeUS : 49835058, Roll : 0.06, Pitch : 0.16, Yaw : 359.85, Alt : 41.2999992371, Lat : 49.2835706, Lng : -123.1150207, Q1 : 0.999998033047, Q2 : 0.000558983185329, Q3 : 0.00142357312143, Q4 : -0.00125875149388}
2019-04-14 11:16:07.91: SIM {TimeUS : 49935018, Roll : 0.1, Pitch : 0.13, Yaw : 359.85, Alt : 41.5299987793, Lat : 49.2835706, Lng : -123.1150207, Q1 : 0.999998092651, Q2 : 0.00089176435722, Q3 : 0.00117682188284, Q4 : -0.00129535875749}
2019-04-14 11:16:08.01: SIM {TimeUS : 50034978, Roll : 0.1, Pitch : 0.08, Yaw : 359.84, Alt : 41.7599983215, Lat : 49.2835706, Lng : -123.1150207, Q1 : 0.999998390675, Q2 : 0.000933178467676, Q3 : 0.000757461239118, Q4 : -0.0013246263843}
2019-04-14 11:16:08.11: SIM {TimeUS : 50134938, Roll : 0.07, Pitch : 0.04, Yaw : 359.84, Alt : 42.0, Lat : 49.2835706, Lng : -123.1150207, Q1 : 0.999998807907, Q2 : 0.000632252485957, Q3 : 0.000409109488828, Q4 : -0.00133465183899}
2019-04-14 11:16:08.21: SIM {TimeUS : 50234898, Roll : 0.01, Pitch : 0.03, Yaw : 359.84, Alt : 42.2299995422, Lat : 49.2835706, Lng : -123.1150207, Q1 : 0.999999046326, Q2 : 0.000170146697201, Q3 : 0.000284064299194, Q4 : -0.00133304612245}
2019-04-14 11:16:08.31: SIM {TimeUS : 50334858, Roll : -0.02, Pitch : 0.05, Yaw : 359.84, Alt : 42.4599990845, Lat : 49.2835706, Lng : -123.1150207, Q1 : 0.999998986721, Q2 : -0.000178880727617, Q3 : 0.000481065450003, Q4 : -0.00132010108791}
2019-04-14 11:16:08.41: SIM {TimeUS : 50434818, Roll : -0.04, Pitch : 0.07, Yaw : 359.85, Alt : 42.7000007629, Lat : 49.2835706, Lng : -123.1150206, Q1 : 0.999998867512, Q2 : -0.000393917929614, Q3 : 0.000651706650387, Q4 : -0.0013055606978}
2019-04-14 11:16:08.51: SIM {TimeUS : 50534778, Roll : -0.04, Pitch : 0.07, Yaw : 359.85, Alt : 42.9300003052, Lat : 49.2835704, Lng : -123.1150206, Q1 : 0.999998867512, Q2 : -0.000420731987106, Q3 : 0.000632559880614, Q4 : -0.00129875773564}
2019-04-14 11:16:08.61: SIM {TimeUS : 50634738, Roll : -0.05, Pitch : 0.06, Yaw : 359.85, Alt : 43.1699981689, Lat : 49.2835704, Lng : -123.1150206, Q1 : 0.999998927116, Q2 : -0.000451962725492, Q3 : 0.000527092954144, Q4 : -0.00130673719104}
2019-04-14 11:16:08.71: SIM {TimeUS : 50734698, Roll : -0.04, Pitch : 0.04, Yaw : 359.84, Alt : 43.4000015259, Lat : 49.2835704, Lng : -123.1150206, Q1 : 0.999998986721, Q2 : -0.00038917150232, Q3 : 0.000402229255997, Q4 : -0.0013205021387}
2019-04-14 11:16:08.81: SIM {TimeUS : 50834658, Roll : -0.02, Pitch : 0.04, Yaw : 359.84, Alt : 43.6399993896, Lat : 49.2835704, Lng : -123.1150206, Q1 : 0.999999046326, Q2 : -0.00020145085, Q3 : 0.000349570444087, Q4 : -0.00134403712582}
2019-04-14 11:16:08.91: SIM {TimeUS : 50934618, Roll : 0.0, Pitch : 0.04, Yaw : 359.84, Alt : 43.8699989319, Lat : 49.2835704, Lng : -123.1150206, Q1 : 0.999998986721, Q2 : -4.44366742158e-05, Q3 : 0.000369382236386, Q4 : -0.00137233640999}
2019-04-14 11:16:09.01: SIM {TimeUS : 51034578, Roll : 0.0, Pitch : 0.03, Yaw : 359.83, Alt : 44.1100006104, Lat : 49.2835704, Lng : -123.1150206, Q1 : 0.999998986721, Q2 : -5.8772155171e-05, Q3 : 0.000290935044177, Q4 : -0.00140203034971}
2019-04-14 11:16:09.11: SIM {TimeUS : 51134538, Roll : -0.01, Pitch : 0.0, Yaw : 359.83, Alt : 44.3499984741, Lat : 49.2835704, Lng : -123.1150206, Q1 : 0.999998986721, Q2 : -0.000160723211593, Q3 : 4.70247468911e-05, Q4 : -0.00143636984285}
2019-04-14 11:16:09.21: SIM {TimeUS : 51234498, Roll : -0.02, Pitch : -0.01, Yaw : 359.83, Alt : 44.5800018311, Lat : 49.2835704, Lng : -123.1150206, Q1 : 0.999998867512, Q2 : -0.000230884150369, Q3 : -0.00013580689847, Q4 : -0.0014822158264}
2019-04-14 11:16:09.31: SIM {TimeUS : 51335291, Roll : -0.02, Pitch : -0.03, Yaw : 359.82, Alt : 44.8199996948, Lat : 49.2835704, Lng : -123.1150206, Q1 : 0.999998748302, Q2 : -0.000187607089174, Q3 : -0.000281890912447, Q4 : -0.00153575325385}
2019-04-14 11:16:09.41: SIM {TimeUS : 51435251, Roll : -0.02, Pitch : -0.04, Yaw : 359.81, Alt : 45.0600013733, Lat : 49.2835704, Lng : -123.1150206, Q1 : 0.999998688698, Q2 : -0.00024195817241, Q3 : -0.000364042323781, Q4 : -0.0015876898542}
2019-04-14 11:16:09.51: SIM {TimeUS : 51535211, Roll : -0.05, Pitch : -0.04, Yaw : 359.81, Alt : 45.2900009155, Lat : 49.2835704, Lng : -123.1150206, Q1 : 0.999998450279, Q2 : -0.000467067962745, Q3 : -0.000349915964762, Q4 : -0.00163743237499}
2019-04-14 11:16:09.61: SIM {TimeUS : 51635171, Roll : -0.09, Pitch : -0.03, Yaw : 359.8, Alt : 45.5299987793, Lat : 49.2835703, Lng : -123.1150206, Q1 : 0.999998211861, Q2 : -0.000818024622276, Q3 : -0.000298585771816, Q4 : -0.00168063351884}
2019-04-14 11:16:09.71: SIM {TimeUS : 51735131, Roll : -0.12, Pitch : -0.02, Yaw : 359.8, Alt : 45.7599983215, Lat : 49.2835703, Lng : -123.1150206, Q1 : 0.999997913837, Q2 : -0.00106256664731, Q3 : -0.00024843000574, Q4 : -0.0017146387836}
2019-04-14 11:16:09.81: SIM {TimeUS : 51835091, Roll : -0.12, Pitch : -0.01, Yaw : 359.8, Alt : 45.9900016785, Lat : 49.2835703, Lng : -123.1150206, Q1 : 0.999997854233, Q2 : -0.00110425939783, Q3 : -0.000150358348037, Q4 : -0.00174093060195}
2019-04-14 11:16:09.91: SIM {TimeUS : 51935051, Roll : -0.11, Pitch : 0.0, Yaw : 359.79, Alt : 46.2200012207, Lat : 49.2835703, Lng : -123.1150206, Q1 : 0.999997973442, Q2 : -0.00097670184914, Q3 : 3.39686557709e-05, Q4 : -0.00176333577838}
2019-04-14 11:16:10.01: SIM {TimeUS : 52035011, Roll : -0.08, Pitch : 0.01, Yaw : 359.79, Alt : 46.4500007629, Lat : 49.2835703, Lng : -123.1150206, Q1 : 0.999998152256, Q2 : -0.000738092465326, Q3 : 0.000149742831127, Q4 : -0.00177907012403}
2019-04-14 11:16:10.11: SIM {TimeUS : 52134971, Roll : -0.05, Pitch : 0.01, Yaw : 359.79, Alt : 46.6699981689, Lat : 49.2835703, Lng : -123.1150206, Q1 : 0.999998271465, Q2 : -0.000504782947246, Q3 : 0.000159388640895, Q4 : -0.00179004226811}
2019-04-14 11:16:10.21: SIM {TimeUS : 52234931, Roll : -0.04, Pitch : 0.0, Yaw : 359.79, Alt : 46.8800010681, Lat : 49.2835703, Lng : -123.1150206, Q1 : 0.99999833107, Q2 : -0.000360144622391, Q3 : 3.97417970817e-05, Q4 : -0.00180046609603}
2019-04-14 11:16:10.31: SIM {TimeUS : 52334891, Roll : -0.02, Pitch : -0.02, Yaw : 359.79, Alt : 47.0900001526, Lat : 49.2835703, Lng : -123.1150206, Q1 : 0.99999833107, Q2 : -0.000187668658327, Q3 : -0.000209732592339, Q4 : -0.00181251217145}
2019-04-14 11:16:10.41: SIM {TimeUS : 52434851, Roll : 0.0, Pitch : -0.05, Yaw : 359.79, Alt : 47.2900009155, Lat : 49.2835703, Lng : -123.1150206, Q1 : 0.999998211861, Q2 : 1.81763498404e-05, Q3 : -0.000466098455945, Q4 : -0.00182669854257}
2019-04-14 11:16:10.51: SIM {TimeUS : 52534811, Roll : 0.01, Pitch : -0.08, Yaw : 359.78, Alt : 47.4799995422, Lat : 49.2835703, Lng : -123.1150206, Q1 : 0.999998033047, Q2 : 8.64289395395e-05, Q3 : -0.000729097169824, Q4 : -0.00184204336256}
2019-04-14 11:16:10.61: SIM {TimeUS : 52634771, Roll : 0.0, Pitch : -0.11, Yaw : 359.78, Alt : 47.6599998474, Lat : 49.2835703, Lng : -123.1150206, Q1 : 0.999997735023, Q2 : 5.49147189304e-05, Q3 : -0.0010346530471, Q4 : -0.00186204968486}
2019-04-14 11:16:10.71: SIM {TimeUS : 52734731, Roll : 0.02, Pitch : -0.15, Yaw : 359.78, Alt : 47.8400001526, Lat : 49.2835703, Lng : -123.1150206, Q1 : 0.999997317791, Q2 : 0.000178566770046, Q3 : -0.00132764282171, Q4 : -0.00188706268091}
2019-04-14 11:16:10.81: SIM {TimeUS : 52834691, Roll : 0.04, Pitch : -0.16, Yaw : 359.78, Alt : 48.0, Lat : 49.2835703, Lng : -123.1150206, Q1 : 0.999997079372, Q2 : 0.000389600725612, Q3 : -0.00142302992754, Q4 : -0.00191229395568}
2019-04-14 11:16:10.91: SIM {TimeUS : 52934651, Roll : 0.07, Pitch : -0.14, Yaw : 359.77, Alt : 48.1399993896, Lat : 49.2835704, Lng : -123.1150206, Q1 : 0.999997079372, Q2 : 0.000621943327133, Q3 : -0.00128657906316, Q4 : -0.00193530833349}
2019-04-14 11:16:11.01: SIM {TimeUS : 53034611, Roll : 0.08, Pitch : -0.11, Yaw : 359.77, Alt : 48.2799987793, Lat : 49.2835704, Lng : -123.1150206, Q1 : 0.999997258186, Q2 : 0.000742691394407, Q3 : -0.00102289405186, Q4 : -0.00195999699645}
2019-04-14 11:16:11.11: SIM {TimeUS : 53134571, Roll : 0.09, Pitch : -0.08, Yaw : 359.77, Alt : 48.4099998474, Lat : 49.2835704, Lng : -123.1150206, Q1 : 0.999997437, Q2 : 0.000807928969152, Q3 : -0.000780606875196, Q4 : -0.00198618369177}
2019-04-14 11:16:11.21: SIM {TimeUS : 53234531, Roll : 0.08, Pitch : -0.07, Yaw : 359.76, Alt : 48.5200004578, Lat : 49.2835704, Lng : -123.1150206, Q1 : 0.999997496605, Q2 : 0.000730041472707, Q3 : -0.0006804218865, Q4 : -0.00201482325792}
2019-04-14 11:16:11.31: SIM {TimeUS : 53335324, Roll : 0.05, Pitch : -0.06, Yaw : 359.76, Alt : 48.6199989319, Lat : 49.2835704, Lng : -123.1150206, Q1 : 0.999997675419, Q2 : 0.000480476475786, Q3 : -0.000569148396607, Q4 : -0.00204048119485}
2019-04-14 11:16:11.41: SIM {TimeUS : 53435284, Roll : 0.02, Pitch : -0.04, Yaw : 359.76, Alt : 48.7099990845, Lat : 49.2835704, Lng : -123.1150206, Q1 : 0.999997735023, Q2 : 0.000256068015005, Q3 : -0.000384977349313, Q4 : -0.00206597312354}
2019-04-14 11:16:11.51: SIM {TimeUS : 53535244, Roll : 0.0, Pitch : -0.02, Yaw : 359.76, Alt : 48.7799987793, Lat : 49.2835704, Lng : -123.1150206, Q1 : 0.999997794628, Q2 : 5.16312902619e-05, Q3 : -0.000207678225706, Q4 : -0.00209299614653}
2019-04-14 11:16:11.61: SIM {TimeUS : 53635204, Roll : 0.0, Pitch : 0.0, Yaw : 359.75, Alt : 48.8499984741, Lat : 49.2835704, Lng : -123.1150206, Q1 : 0.999997735023, Q2 : -5.08711818838e-05, Q3 : 1.10138225864e-05, Q4 : -0.00211710156873}
2019-04-14 11:16:11.71: SIM {TimeUS : 53735164, Roll : 0.01, Pitch : 0.03, Yaw : 359.75, Alt : 48.9099998474, Lat : 49.2835704, Lng : -123.1150206, Q1 : 0.999997675419, Q2 : 9.28700319491e-05, Q3 : 0.000295765959891, Q4 : -0.00214213342406}
2019-04-14 11:16:11.81: SIM {TimeUS : 53835124, Roll : 0.03, Pitch : 0.05, Yaw : 359.75, Alt : 48.9500007629, Lat : 49.2835704, Lng : -123.1150206, Q1 : 0.999997437, Q2 : 0.000321611005347, Q3 : 0.000486113334773, Q4 : -0.00216830568388}
2019-04-14 11:16:11.91: SIM {TimeUS : 53935084, Roll : 0.07, Pitch : 0.02, Yaw : 359.74, Alt : 49.0, Lat : 49.2835704, Lng : -123.1150206, Q1 : 0.999997317791, Q2 : 0.000681177771185, Q3 : 0.000182781514013, Q4 : -0.00220131338574}
2019-04-14 11:16:12.01: SIM {TimeUS : 54035044, Roll : 0.2, Pitch : -0.12, Yaw : 359.74, Alt : 49.0299987793, Lat : 49.2835704, Lng : -123.1150206, Q1 : 0.999995231628, Q2 : 0.0018178463215, Q3 : -0.00108411186375, Q4 : -0.00223780609667}
2019-04-14 11:16:12.11: SIM {TimeUS : 54135004, Roll : 0.51, Pitch : -0.46, Yaw : 359.73, Alt : 49.0600013733, Lat : 49.2835706, Lng : -123.1150206, Q1 : 0.999979317188, Q2 : 0.00445775454864, Q3 : -0.00404846016318, Q4 : -0.00226951483637}
2019-04-14 11:16:12.21: SIM {TimeUS : 54234964, Roll : 1.02, Pitch : -0.98, Yaw : 359.72, Alt : 49.0900001526, Lat : 49.2835706, Lng : -123.1150206, Q1 : 0.999920725822, Q2 : 0.00888638477772, Q3 : -0.00862385705113, Q4 : -0.00229201326147}
2019-04-14 11:16:12.31: SIM {TimeUS : 54334924, Roll : 1.69, Pitch : -1.63, Yaw : 359.71, Alt : 49.1100006104, Lat : 49.2835706, Lng : -123.1150206, Q1 : 0.999785900116, Q2 : 0.0147887198254, Q3 : -0.0142924059182, Q4 : -0.00228472519666}
2019-04-14 11:16:12.41: SIM {TimeUS : 54434884, Roll : 2.46, Pitch : -2.35, Yaw : 359.69, Alt : 49.1300010681, Lat : 49.2835706, Lng : -123.1150205, Q1 : 0.999556660652, Q2 : 0.021415585652, Q3 : -0.0205621272326, Q4 : -0.0022350915242}
2019-04-14 11:16:12.51: SIM {TimeUS : 54534844, Roll : 3.19, Pitch : -3.02, Yaw : 359.67, Alt : 49.1500015259, Lat : 49.2835707, Lng : -123.1150204, Q1 : 0.999262094498, Q2 : 0.0277506411076, Q3 : -0.0264698583633, Q4 : -0.00212030578405}
2019-04-14 11:16:12.61: SIM {TimeUS : 54634804, Roll : 3.77, Pitch : -3.56, Yaw : 359.66, Alt : 49.1599998474, Lat : 49.2835709, Lng : -123.1150202, Q1 : 0.998973071575, Q2 : 0.0328158512712, Q3 : -0.0311794616282, Q4 : -0.00193699251395}
2019-04-14 11:16:12.71: SIM {TimeUS : 54734764, Roll : 4.19, Pitch : -3.96, Yaw : 359.65, Alt : 49.1800003052, Lat : 49.2835709, Lng : -123.11502, Q1 : 0.998731553555, Q2 : 0.0364320613444, Q3 : -0.0347140580416, Q4 : -0.00170774722937}
2019-04-14 11:16:12.81: SIM {TimeUS : 54834724, Roll : 4.5, Pitch : -4.27, Yaw : 359.66, Alt : 49.1899986267, Lat : 49.2835712, Lng : -123.1150197, Q1 : 0.998532772064, Q2 : 0.0391671285033, Q3 : -0.0373659990728, Q4 : -0.00144190865103}
2019-04-14 11:16:12.91: SIM {TimeUS : 54934684, Roll : 4.77, Pitch : -4.51, Yaw : 359.68, Alt : 49.2000007629, Lat : 49.2835715, Lng : -123.1150192, Q1 : 0.998356938362, Q2 : 0.0415345914662, Q3 : -0.0394596904516, Q4 : -0.00113899505232}
2019-04-14 11:16:13.01: SIM {TimeUS : 55034644, Roll : 5.03, Pitch : -4.73, Yaw : 359.69, Alt : 49.2099990845, Lat : 49.2835718, Lng : -123.1150187, Q1 : 0.998184680939, Q2 : 0.043753515929, Q3 : -0.0413788557053, Q4 : -0.000833404948935}
2019-04-14 11:16:13.11: SIM {TimeUS : 55134604, Roll : 5.3, Pitch : -4.98, Yaw : 359.7, Alt : 49.2200012207, Lat : 49.2835721, Lng : -123.1150181, Q1 : 0.997984230518, Q2 : 0.0461141876876, Q3 : -0.0435964539647, Q4 : -0.000558835628908}
2019-04-14 11:16:13.21: SIM {TimeUS : 55234564, Roll : 5.56, Pitch : -5.25, Yaw : 359.7, Alt : 49.2200012207, Lat : 49.2835726, Lng : -123.1150175, Q1 : 0.997775137424, Q2 : 0.0483700111508, Q3 : -0.0458800755441, Q4 : -0.000311219744617}
2019-04-14 11:16:13.31: SIM {TimeUS : 55334524, Roll : 5.79, Pitch : -5.46, Yaw : 359.71, Alt : 49.2299995422, Lat : 49.2835729, Lng : -123.1150167, Q1 : 0.997591137886, Q2 : 0.0503314845264, Q3 : -0.0477350614965, Q4 : -7.51956758904e-05}
2019-04-14 11:16:13.41: SIM {TimeUS : 55435317, Roll : 5.95, Pitch : -5.61, Yaw : 359.72, Alt : 49.2400016785, Lat : 49.2835735, Lng : -123.1150159, Q1 : 0.99745208025, Q2 : 0.0518038161099, Q3 : -0.0490487366915, Q4 : 0.000144091623952}
2019-04-14 11:16:13.51: SIM {TimeUS : 55535277, Roll : 6.07, Pitch : -5.72, Yaw : 359.73, Alt : 49.2400016785, Lat : 49.283574, Lng : -123.1150149, Q1 : 0.997351944447, Q2 : 0.0528014265001, Q3 : -0.0500109530985, Q4 : 0.00032204616582}
2019-04-14 11:16:13.61: SIM {TimeUS : 55635237, Roll : 6.17, Pitch : -5.81, Yaw : 359.73, Alt : 49.25, Lat : 49.2835747, Lng : -123.1150139, Q1 : 0.997268557549, Q2 : 0.0536524914205, Q3 : -0.0507602617145, Q4 : 0.000454146240372}
2019-04-14 11:16:13.71: SIM {TimeUS : 55735197, Roll : 6.28, Pitch : -5.89, Yaw : 359.73, Alt : 49.25, Lat : 49.2835753, Lng : -123.1150128, Q1 : 0.997178852558, Q2 : 0.0546131655574, Q3 : -0.0514930933714, Q4 : 0.000533309183083}
2019-04-14 11:16:13.81: SIM {TimeUS : 55835157, Roll : 6.51, Pitch : -5.94, Yaw : 359.77, Alt : 49.2599983215, Lat : 49.2835761, Lng : -123.1150117, Q1 : 0.997044920921, Q2 : 0.0566176064312, Q3 : -0.0519131906331, Q4 : 0.000953259237576}
2019-04-14 11:16:13.91: SIM {TimeUS : 55935117, Roll : 6.98, Pitch : -5.86, Yaw : 0.21, Alt : 49.2599983215, Lat : 49.2835769, Lng : -123.1150104, Q1 : 0.9968277812, Q2 : 0.0609111897647, Q3 : -0.0509888790548, Q4 : 0.00494487676769}
2019-04-14 11:16:14.01: SIM {TimeUS : 56035077, Roll : 7.62, Pitch : -5.77, Yaw : 1.72, Alt : 49.2599983215, Lat : 49.2835776, Lng : -123.1150091, Q1 : 0.996357440948, Q2 : 0.0671692565084, Q3 : -0.049222227186, Q4 : 0.0183672457933}
2019-04-14 11:16:14.11: SIM {TimeUS : 56135037, Roll : 8.14, Pitch : -5.99, Yaw : 4.78, Alt : 49.2599983215, Lat : 49.2835785, Lng : -123.1150077, Q1 : 0.995084226131, Q2 : 0.0730722397566, Q3 : -0.0491380505264, Q4 : 0.045313090086}
2019-04-14 11:16:14.21: SIM {TimeUS : 56234997, Roll : 8.28, Pitch : -6.68, Yaw : 9.4, Alt : 49.2599983215, Lat : 49.2835794, Lng : -123.1150062, Q1 : 0.991990745068, Q2 : 0.0766485780478, Q3 : -0.0520537272096, Q4 : 0.0858469977975}
2019-04-14 11:16:14.31: SIM {TimeUS : 56334957, Roll : 7.83, Pitch : -7.79, Yaw : 15.39, Alt : 49.2700004578, Lat : 49.2835802, Lng : -123.1150045, Q1 : 0.985758185387, Q2 : 0.076664455235, Q3 : -0.0580715872347, Q4 : 0.137953221798}
2019-04-14 11:16:14.41: SIM {TimeUS : 56434917, Roll : 6.73, Pitch : -9.15, Yaw : 22.51, Alt : 49.2700004578, Lat : 49.2835812, Lng : -123.1150028, Q1 : 0.975036978722, Q2 : 0.0729507058859, Q3 : -0.0667055398226, Q4 : 0.19882529974}
2019-04-14 11:16:14.51: SIM {TimeUS : 56534877, Roll : 4.96, Pitch : -10.56, Yaw : 30.47, Alt : 49.2700004578, Lat : 49.283582, Lng : -123.1150009, Q1 : 0.958795726299, Q2 : 0.0658168718219, Q3 : -0.0773687660694, Q4 : 0.26531675458}
2019-04-14 11:16:14.61: SIM {TimeUS : 56634837, Roll : 2.4, Pitch : -11.77, Yaw : 38.84, Alt : 49.2700004578, Lat : 49.2835831, Lng : -123.1149989, Q1 : 0.937202751637, Q2 : 0.053773548454, Q3 : -0.0897861793637, Q4 : 0.332712858915}
2019-04-14 11:16:14.71: SIM {TimeUS : 56734797, Roll : -0.74, Pitch : -12.55, Yaw : 46.8, Alt : 49.2700004578, Lat : 49.2835841, Lng : -123.1149968, Q1 : 0.912511944771, Q2 : 0.0374612659216, Q3 : -0.102905765176, Q4 : 0.3941180408}
2019-04-14 11:16:14.81: SIM {TimeUS : 56834757, Roll : -3.85, Pitch : -12.82, Yaw : 53.49, Alt : 49.2700004578, Lat : 49.2835852, Lng : -123.1149947, Q1 : 0.888598322868, Q2 : 0.020382296294, Q3 : -0.114721603692, Q4 : 0.443640112877}
2019-04-14 11:16:14.91: SIM {TimeUS : 56934717, Roll : -6.28, Pitch : -12.73, Yaw : 58.33, Alt : 49.2700004578, Lat : 49.2835864, Lng : -123.1149925, Q1 : 0.869477570057, Q2 : 0.00642732623965, Q3 : -0.123251505196, Q4 : 0.478305846453}
2019-04-14 11:16:15.01: SIM {TimeUS : 57034677, Roll : -7.65, Pitch : -12.54, Yaw : 61.15, Alt : 49.2700004578, Lat : 49.2835877, Lng : -123.1149903, Q1 : 0.857606887817, Q2 : -0.00170314253774, Q3 : -0.127631038427, Q4 : 0.49821472168}
2019-04-14 11:16:15.11: SIM {TimeUS : 57134637, Roll : -7.96, Pitch : -12.47, Yaw : 62.13, Alt : 49.2700004578, Lat : 49.2835891, Lng : -123.1149881, Q1 : 0.853333413601, Q2 : -0.00319603248499, Q3 : -0.128484204412, Q4 : 0.505275905132}
2019-04-14 11:16:15.21: SIM {TimeUS : 57234597, Roll : -7.39, Pitch : -12.65, Yaw : 61.61, Alt : 49.2700004578, Lat : 49.2835907, Lng : -123.1149858, Q1 : 0.855537116528, Q2 : 0.001287488034, Q3 : -0.127288535237, Q4 : 0.501848816872}
2019-04-14 11:16:15.31: SIM {TimeUS : 57334557, Roll : -6.18, Pitch : -13.1, Yaw : 59.94, Alt : 49.2700004578, Lat : 49.2835922, Lng : -123.1149835, Q1 : 0.862429499626, Q2 : 0.0105006573722, Q3 : -0.125465363264, Q4 : 0.490268826485}
2019-04-14 11:16:15.41: SIM {TimeUS : 57434517, Roll : -4.58, Pitch : -13.75, Yaw : 57.46, Alt : 49.2700004578, Lat : 49.283594, Lng : -123.1149811, Q1 : 0.872151851654, Q2 : 0.02269333601, Q3 : -0.123987801373, Q4 : 0.472718954086}
2019-04-14 11:16:15.51: SIM {TimeUS : 57535310, Roll : -2.78, Pitch : -14.47, Yaw : 54.47, Alt : 49.2799987793, Lat : 49.2835957, Lng : -123.1149787, Q1 : 0.883182048798, Q2 : 0.0362214483321, Q3 : -0.122972838581, Q4 : 0.451170831919}
2019-04-14 11:16:15.61: SIM {TimeUS : 57635270, Roll : -0.98, Pitch : -15.09, Yaw : 51.31, Alt : 49.2799987793, Lat : 49.2835975, Lng : -123.1149761, Q1 : 0.894040167332, Q2 : 0.0492000244558, Q3 : -0.12207904458, Q4 : 0.428215116262}
2019-04-14 11:16:15.71: SIM {TimeUS : 57735230, Roll : 0.66, Pitch : -15.52, Yaw : 48.3, Alt : 49.2799987793, Lat : 49.2835994, Lng : -123.1149735, Q1 : 0.903768360615, Q2 : 0.0604744069278, Q3 : -0.120901957154, Q4 : 0.406113803387}
2019-04-14 11:16:15.81: SIM {TimeUS : 57835190, Roll : 2.01, Pitch : -15.73, Yaw : 45.74, Alt : 49.2799987793, Lat : 49.2836013, Lng : -123.1149708, Q1 : 0.91162109375, Q2 : 0.069266282022, Q3 : -0.11935377121, Q4 : 0.387174218893}
2019-04-14 11:16:15.91: SIM {TimeUS : 57935150, Roll : 2.97, Pitch : -15.79, Yaw : 43.85, Alt : 49.2799987793, Lat : 49.2836031, Lng : -123.1149679, Q1 : 0.917232513428, Q2 : 0.0751203373075, Q3 : -0.117832906544, Q4 : 0.373037457466}
2019-04-14 11:16:16.01: SIM {TimeUS : 58035110, Roll : 3.46, Pitch : -15.76, Yaw : 42.72, Alt : 49.2799987793, Lat : 49.283605, Lng : -123.114965, Q1 : 0.920563340187, Q2 : 0.0778411999345, Q3 : -0.116783462465, Q4 : 0.364507287741}
2019-04-14 11:16:16.11: SIM {TimeUS : 58135070, Roll : 3.49, Pitch : -15.74, Yaw : 42.35, Alt : 49.2799987793, Lat : 49.2836071, Lng : -123.1149619, Q1 : 0.921750426292, Q2 : 0.077607601881, Q3 : -0.11672090739, Q4 : 0.361565381289}
2019-04-14 11:16:16.21: SIM {TimeUS : 58235030, Roll : 3.13, Pitch : -15.74, Yaw : 42.64, Alt : 49.2799987793, Lat : 49.283609, Lng : -123.1149587, Q1 : 0.92105358839, Q2 : 0.0750255510211, Q3 : -0.11765550077, Q4 : 0.363577574492}
2019-04-14 11:16:16.31: SIM {TimeUS : 58334990, Roll : 2.5, Pitch : -15.79, Yaw : 43.46, Alt : 49.2799987793, Lat : 49.283611, Lng : -123.1149553, Q1 : 0.918789684772, Q2 : 0.0710071474314, Q3 : -0.119560308754, Q4 : 0.369443953037}
2019-04-14 11:16:16.41: SIM {TimeUS : 58434950, Roll : 1.7, Pitch : -15.89, Yaw : 44.61, Alt : 49.2799987793, Lat : 49.2836129, Lng : -123.1149519, Q1 : 0.915392041206, Q2 : 0.0660797283053, Q3 : -0.122350811958, Q4 : 0.37778455019}
2019-04-14 11:16:16.51: SIM {TimeUS : 58534910, Roll : 0.84, Pitch : -16.03, Yaw : 45.92, Alt : 49.2799987793, Lat : 49.2836151, Lng : -123.1149485, Q1 : 0.911334514618, Q2 : 0.0611392818391, Q3 : -0.125565066934, Q4 : 0.387252867222}
2019-04-14 11:16:16.61: SIM {TimeUS : 58634870, Roll : 0.06, Pitch : -16.15, Yaw : 47.22, Alt : 49.2799987793, Lat : 49.2836171, Lng : -123.1149449, Q1 : 0.90716034174, Q2 : 0.0567877739668, Q3 : -0.128510966897, Q4 : 0.396636128426}
2019-04-14 11:16:16.71: SIM {TimeUS : 58734830, Roll : -0.59, Pitch : -16.23, Yaw : 48.36, Alt : 49.2799987793, Lat : 49.2836191, Lng : -123.1149413, Q1 : 0.903369486332, Q2 : 0.0532013252378, Q3 : -0.130941495299, Q4 : 0.404904454947}
2019-04-14 11:16:16.81: SIM {TimeUS : 58834790, Roll : -1.08, Pitch : -16.3, Yaw : 49.26, Alt : 49.2799987793, Lat : 49.2836214, Lng : -123.1149377, Q1 : 0.900331139565, Q2 : 0.050586014986, Q3 : -0.132846578956, Q4 : 0.411335289478}
2019-04-14 11:16:16.91: SIM {TimeUS : 58934750, Roll : -1.38, Pitch : -16.36, Yaw : 49.85, Alt : 49.2799987793, Lat : 49.2836236, Lng : -123.114934, Q1 : 0.898278057575, Q2 : 0.0491135977209, Q3 : -0.134140610695, Q4 : 0.415560692549}
2019-04-14 11:16:17.01: SIM {TimeUS : 59034710, Roll : -1.48, Pitch : -16.42, Yaw : 50.12, Alt : 49.2900009155, Lat : 49.2836257, Lng : -123.1149302, Q1 : 0.897280871868, Q2 : 0.0488554649055, Q3 : -0.134849518538, Q4 : 0.417511463165}
2019-04-14 11:16:17.11: SIM {TimeUS : 59134670, Roll : -1.41, Pitch : -16.47, Yaw : 50.09, Alt : 49.2900009155, Lat : 49.283628, Lng : -123.1149265, Q1 : 0.897288024426, Q2 : 0.0496030971408, Q3 : -0.134967938066, Q4 : 0.417369604111}
2019-04-14 11:16:17.21: SIM {TimeUS : 59234630, Roll : -1.19, Pitch : -16.51, Yaw : 49.82, Alt : 49.2900009155, Lat : 49.2836304, Lng : -123.1149227, Q1 : 0.898128211498, Q2 : 0.0511511787772, Q3 : -0.134551137686, Q4 : 0.415506064892}
2019-04-14 11:16:17.31: SIM {TimeUS : 59334590, Roll : -0.86, Pitch : -16.54, Yaw : 49.38, Alt : 49.2900009155, Lat : 49.2836327, Lng : -123.1149188, Q1 : 0.899536788464, Q2 : 0.0532756671309, Q3 : -0.133846238256, Q4 : 0.412408173084}
2019-04-14 11:16:17.41: SIM {TimeUS : 59434550, Roll : -0.5, Pitch : -16.57, Yaw : 48.85, Alt : 49.2900009155, Lat : 49.2836349, Lng : -123.1149148, Q1 : 0.901242017746, Q2 : 0.0556599386036, Q3 : -0.133060127497, Q4 : 0.408607155085}
2019-04-14 11:16:17.51: SIM {TimeUS : 59534510, Roll : -0.13, Pitch : -16.61, Yaw : 48.29, Alt : 49.2900009155, Lat : 49.2836373, Lng : -123.114911, Q1 : 0.902997851372, Q2 : 0.0580617524683, Q3 : -0.132287457585, Q4 : 0.404627889395}
2019-04-14 11:16:17.61: SIM {TimeUS : 59635303, Roll : 0.2, Pitch : -16.65, Yaw : 47.77, Alt : 49.2900009155, Lat : 49.2836397, Lng : -123.114907, Q1 : 0.904606223106, Q2 : 0.060242395848, Q3 : -0.131717741489, Q4 : 0.400885134935}
2019-04-14 11:16:17.71: SIM {TimeUS : 59735263, Roll : 0.45, Pitch : -16.68, Yaw : 47.34, Alt : 49.2900009155, Lat : 49.2836422, Lng : -123.114903, Q1 : 0.905921697617, Q2 : 0.0618540719151, Q3 : -0.131327107549, Q4 : 0.397785395384}
2019-04-14 11:16:17.81: SIM {TimeUS : 59835223, Roll : 0.61, Pitch : -16.72, Yaw : 47.03, Alt : 49.2900009155, Lat : 49.2836446, Lng : -123.114899, Q1 : 0.906868994236, Q2 : 0.0628589391708, Q3 : -0.131224900484, Q4 : 0.395496457815}
2019-04-14 11:16:17.91: SIM {TimeUS : 59935183, Roll : 0.67, Pitch : -16.76, Yaw : 46.85, Alt : 49.2900009155, Lat : 49.283647, Lng : -123.1148949, Q1 : 0.907413423061, Q2 : 0.063261218369, Q3 : -0.131433948874, Q4 : 0.394111782312}
2019-04-14 11:16:18.01: SIM {TimeUS : 60035143, Roll : 0.64, Pitch : -16.81, Yaw : 46.79, Alt : 49.2900009155, Lat : 49.2836495, Lng : -123.1148908, Q1 : 0.907563924789, Q2 : 0.0631673038006, Q3 : -0.131935745478, Q4 : 0.393612265587}
2019-04-14 11:16:18.11: SIM {TimeUS : 60135103, Roll : 0.53, Pitch : -16.85, Yaw : 46.84, Alt : 49.2900009155, Lat : 49.2836521, Lng : -123.1148866, Q1 : 0.907395899296, Q2 : 0.0625222176313, Q3 : -0.132586598396, Q4 : 0.393883794546}
2019-04-14 11:16:18.21: SIM {TimeUS : 60235063, Roll : 0.37, Pitch : -16.87, Yaw : 46.98, Alt : 49.2900009155, Lat : 49.2836546, Lng : -123.1148824, Q1 : 0.906992793083, Q2 : 0.0614838376641, Q3 : -0.133256390691, Q4 : 0.394748717546}
2019-04-14 11:16:18.31: SIM {TimeUS : 60335023, Roll : 0.2, Pitch : -16.9, Yaw : 47.16, Alt : 49.2900009155, Lat : 49.2836571, Lng : -123.1148782, Q1 : 0.906412422657, Q2 : 0.0603928677738, Q3 : -0.134019732475, Q4 : 0.395989865065}
2019-04-14 11:16:18.41: SIM {TimeUS : 60434983, Roll : 0.04, Pitch : -16.94, Yaw : 47.37, Alt : 49.2999992371, Lat : 49.2836596, Lng : -123.1148739, Q1 : 0.905733823776, Q2 : 0.0595800317824, Q3 : -0.13478846848, Q4 : 0.397402316332}
2019-04-14 11:16:18.51: SIM {TimeUS : 60534943, Roll : -0.06, Pitch : -16.99, Yaw : 47.56, Alt : 49.2999992371, Lat : 49.2836621, Lng : -123.1148696, Q1 : 0.905058205128, Q2 : 0.0590792112052, Q3 : -0.135485321283, Q4 : 0.398776978254}
2019-04-14 11:16:18.61: SIM {TimeUS : 60634903, Roll : -0.14, Pitch : -17.04, Yaw : 47.73, Alt : 49.2999992371, Lat : 49.2836646, Lng : -123.1148653, Q1 : 0.904467701912, Q2 : 0.0588347688317, Q3 : -0.136031895876, Q4 : 0.399964928627}
2019-04-14 11:16:18.71: SIM {TimeUS : 60734863, Roll : -0.17, Pitch : -17.08, Yaw : 47.85, Alt : 49.2999992371, Lat : 49.2836671, Lng : -123.114861, Q1 : 0.904009878635, Q2 : 0.0588784590364, Q3 : -0.136430203915, Q4 : 0.400856941938}
2019-04-14 11:16:18.81: SIM {TimeUS : 60834823, Roll : -0.19, Pitch : -17.12, Yaw : 47.92, Alt : 49.2999992371, Lat : 49.2836698, Lng : -123.1148566, Q1 : 0.903734147549, Q2 : 0.0589239783585, Q3 : -0.13675712049, Q4 : 0.401360213757}
2019-04-14 11:16:18.91: SIM {TimeUS : 60934783, Roll : -0.2, Pitch : -17.14, Yaw : 47.93, Alt : 49.2999992371, Lat : 49.2836724, Lng : -123.1148523, Q1 : 0.903660237789, Q2 : 0.0589232891798, Q3 : -0.136947929859, Q4 : 0.40146163106}
2019-04-14 11:16:19.01: SIM {TimeUS : 61034743, Roll : -0.19, Pitch : -17.16, Yaw : 47.9, Alt : 49.2999992371, Lat : 49.2836749, Lng : -123.1148479, Q1 : 0.903751790524, Q2 : 0.0590099617839, Q3 : -0.13707986474, Q4 : 0.401197731495}
2019-04-14 11:16:19.11: SIM {TimeUS : 61134703, Roll : -0.15, Pitch : -17.17, Yaw : 47.83, Alt : 49.2999992371, Lat : 49.2836776, Lng : -123.1148435, Q1 : 0.903963446617, Q2 : 0.0593283213675, Q3 : -0.137050926685, Q4 : 0.400683492422}
2019-04-14 11:16:19.21: SIM {TimeUS : 61234663, Roll : -0.09, Pitch : -17.18, Yaw : 47.73, Alt : 49.2999992371, Lat : 49.2836803, Lng : -123.114839, Q1 : 0.904252886772, Q2 : 0.0597491972148, Q3 : -0.136957883835, Q4 : 0.399999111891}
2019-04-14 11:16:19.31: SIM {TimeUS : 61334623, Roll : 0.0, Pitch : -17.21, Yaw : 47.63, Alt : 49.2999992371, Lat : 49.2836828, Lng : -123.1148346, Q1 : 0.904551744461, Q2 : 0.060362894088, Q3 : -0.136942401528, Q4 : 0.399235934019}
2019-04-14 11:16:19.41: SIM {TimeUS : 61434583, Roll : 0.07, Pitch : -17.26, Yaw : 47.52, Alt : 49.3100013733, Lat : 49.2836856, Lng : -123.1148301, Q1 : 0.904821455479, Q2 : 0.0610623471439, Q3 : -0.137140333652, Q4 : 0.398449569941}
2019-04-14 11:16:19.51: SIM {TimeUS : 61534543, Roll : 0.14, Pitch : -17.3, Yaw : 47.42, Alt : 49.3100013733, Lat : 49.2836882, Lng : -123.1148256, Q1 : 0.905085861683, Q2 : 0.0616349466145, Q3 : -0.13723897934, Q4 : 0.397726267576}
2019-04-14 11:16:19.61: SIM {TimeUS : 61634503, Roll : 0.19, Pitch : -17.31, Yaw : 47.33, Alt : 49.3100013733, Lat : 49.2836908, Lng : -123.1148211, Q1 : 0.905332446098, Q2 : 0.0619849599898, Q3 : -0.137184977531, Q4 : 0.397128820419}
2019-04-14 11:16:19.71: SIM {TimeUS : 61735296, Roll : 0.21, Pitch : -17.32, Yaw : 47.27, Alt : 49.3100013733, Lat : 49.2836936, Lng : -123.1148166, Q1 : 0.90552264452, Q2 : 0.0621009804308, Q3 : -0.137241646647, Q4 : 0.396657258272}
2019-04-14 11:16:19.81: SIM {TimeUS : 61835256, Roll : 0.2, Pitch : -17.34, Yaw : 47.23, Alt : 49.3100013733, Lat : 49.2836962, Lng : -123.1148121, Q1 : 0.905638217926, Q2 : 0.0620542280376, Q3 : -0.137482449412, Q4 : 0.396317094564}
2019-04-14 11:16:19.91: SIM {TimeUS : 61935216, Roll : 0.19, Pitch : -17.37, Yaw : 47.21, Alt : 49.3100013733, Lat : 49.283699, Lng : -123.1148075, Q1 : 0.905680537224, Q2 : 0.0620246902108, Q3 : -0.137705013156, Q4 : 0.396147787571}
2019-04-14 11:16:20.01: SIM {TimeUS : 62035176, Roll : 0.17, Pitch : -17.4, Yaw : 47.21, Alt : 49.3100013733, Lat : 49.2837016, Lng : -123.1148029, Q1 : 0.90566021204, Q2 : 0.0619916953146, Q3 : -0.138008162379, Q4 : 0.396093904972}
2019-04-14 11:16:20.11: SIM {TimeUS : 62135136, Roll : 0.15, Pitch : -17.42, Yaw : 47.22, Alt : 49.3100013733, Lat : 49.2837045, Lng : -123.1147984, Q1 : 0.905610501766, Q2 : 0.0619307346642, Q3 : -0.138260260224, Q4 : 0.396129190922}
2019-04-14 11:16:20.21: SIM {TimeUS : 62235096, Roll : 0.14, Pitch : -17.45, Yaw : 47.24, Alt : 49.3100013733, Lat : 49.2837071, Lng : -123.1147938, Q1 : 0.905528366566, Q2 : 0.0619632229209, Q3 : -0.138516426086, Q4 : 0.396222412586}
2019-04-14 11:16:20.31: SIM {TimeUS : 62335056, Roll : 0.13, Pitch : -17.47, Yaw : 47.25, Alt : 49.3100013733, Lat : 49.2837099, Lng : -123.1147892, Q1 : 0.905454993248, Q2 : 0.0619517862797, Q3 : -0.138668701053, Q4 : 0.396338522434}
2019-04-14 11:16:20.41: SIM {TimeUS : 62435016, Roll : 0.13, Pitch : -17.48, Yaw : 47.27, Alt : 49.3100013733, Lat : 49.2837126, Lng : -123.1147845, Q1 : 0.905383050442, Q2 : 0.0620042011142, Q3 : -0.138779103756, Q4 : 0.396456062794}
2019-04-14 11:16:20.51: SIM {TimeUS : 62534976, Roll : 0.13, Pitch : -17.5, Yaw : 47.28, Alt : 49.3100013733, Lat : 49.2837154, Lng : -123.1147798, Q1 : 0.905320703983, Q2 : 0.0621176250279, Q3 : -0.138893932104, Q4 : 0.396540522575}
2019-04-14 11:16:20.61: SIM {TimeUS : 62634936, Roll : 0.13, Pitch : -17.53, Yaw : 47.29, Alt : 49.3199996948, Lat : 49.2837181, Lng : -123.1147753, Q1 : 0.905267000198, Q2 : 0.0621794424951, Q3 : -0.139196455479, Q4 : 0.396547317505}
2019-04-14 11:16:20.71: SIM {TimeUS : 62734896, Roll : 0.1, Pitch : -17.57, Yaw : 47.28, Alt : 49.3199996948, Lat : 49.2837209, Lng : -123.1147706, Q1 : 0.905241131783, Q2 : 0.0620669089258, Q3 : -0.139610275626, Q4 : 0.39647847414}
2019-04-14 11:16:20.81: SIM {TimeUS : 62834856, Roll : 0.07, Pitch : -17.62, Yaw : 47.28, Alt : 49.3199996948, Lat : 49.2837236, Lng : -123.114766, Q1 : 0.90522891283, Q2 : 0.0620133802295, Q3 : -0.140060439706, Q4 : 0.396355986595}
2019-04-14 11:16:20.91: SIM {TimeUS : 62934816, Roll : 0.08, Pitch : -17.66, Yaw : 47.26, Alt : 49.3199996948, Lat : 49.2837265, Lng : -123.1147613, Q1 : 0.905228614807, Q2 : 0.0621831081808, Q3 : -0.140352651477, Q4 : 0.396226733923}
2019-04-14 11:16:21.01: SIM {TimeUS : 63034776, Roll : 0.11, Pitch : -17.67, Yaw : 47.24, Alt : 49.3199996948, Lat : 49.2837293, Lng : -123.1147566, Q1 : 0.905273795128, Q2 : 0.0624250471592, Q3 : -0.140358895063, Q4 : 0.396083176136}
2019-04-14 11:16:21.11: SIM {TimeUS : 63134736, Roll : 0.14, Pitch : -17.65, Yaw : 47.21, Alt : 49.3199996948, Lat : 49.283732, Lng : -123.1147518, Q1 : 0.90535980463, Q2 : 0.0626069232821, Q3 : -0.140151232481, Q4 : 0.395931363106}
2019-04-14 11:16:21.21: SIM {TimeUS : 63234696, Roll : 0.16, Pitch : -17.64, Yaw : 47.19, Alt : 49.3199996948, Lat : 49.2837349, Lng : -123.1147472, Q1 : 0.905458986759, Q2 : 0.062656879425, Q3 : -0.139979675412, Q4 : 0.395757347345}
2019-04-14 11:16:21.31: SIM {TimeUS : 63334656, Roll : 0.16, Pitch : -17.62, Yaw : 47.16, Alt : 49.3199996948, Lat : 49.2837376, Lng : -123.1147425, Q1 : 0.905565083027, Q2 : 0.0626148581505, Q3 : -0.13983784616, Q4 : 0.395571321249}
2019-04-14 11:16:21.41: SIM {TimeUS : 63434616, Roll : 0.16, Pitch : -17.6, Yaw : 47.14, Alt : 49.3199996948, Lat : 49.2837405, Lng : -123.1147377, Q1 : 0.905671536922, Q2 : 0.0625357627869, Q3 : -0.139714956284, Q4 : 0.395383447409}
2019-04-14 11:16:21.51: SIM {TimeUS : 63534576, Roll : 0.16, Pitch : -17.62, Yaw : 47.11, Alt : 49.3199996948, Lat : 49.2837433, Lng : -123.114733, Q1 : 0.905741095543, Q2 : 0.0624947585166, Q3 : -0.139855638146, Q4 : 0.395180791616}
2019-04-14 11:16:21.61: SIM {TimeUS : 63634536, Roll : 0.15, Pitch : -17.65, Yaw : 47.09, Alt : 49.3199996948, Lat : 49.2837461, Lng : -123.1147281, Q1 : 0.9057726264, Q2 : 0.0625386759639, Q3 : -0.140170663595, Q4 : 0.394989967346}
2019-04-14 11:16:21.71: SIM {TimeUS : 63734496, Roll : 0.13, Pitch : -17.71, Yaw : 47.08, Alt : 49.3199996948, Lat : 49.283749, Lng : -123.1147235, Q1 : 0.905778050423, Q2 : 0.0625390708447, Q3 : -0.140668705106, Q4 : 0.394800394773}
2019-04-14 11:16:21.81: SIM {TimeUS : 63835289, Roll : 0.12, Pitch : -17.77, Yaw : 47.06, Alt : 49.3199996948, Lat : 49.2837518, Lng : -123.1147187, Q1 : 0.905759871006, Q2 : 0.0626632273197, Q3 : -0.141185775399, Q4 : 0.3946377635}
2019-04-14 11:16:21.91: SIM {TimeUS : 63935249, Roll : 0.12, Pitch : -17.8, Yaw : 47.05, Alt : 49.3199996948, Lat : 49.2837546, Lng : -123.1147139, Q1 : 0.905765593052, Q2 : 0.0627907216549, Q3 : -0.141422390938, Q4 : 0.394519627094}
2019-04-14 11:16:22.01: SIM {TimeUS : 64035209, Roll : 0.12, Pitch : -17.82, Yaw : 47.03, Alt : 49.3300018311, Lat : 49.2837575, Lng : -123.1147091, Q1 : 0.905779063702, Q2 : 0.0628312379122, Q3 : -0.141640812159, Q4 : 0.394403874874}
2019-04-14 11:16:22.11: SIM {TimeUS : 64135169, Roll : 0.12, Pitch : -17.84, Yaw : 47.02, Alt : 49.3300018311, Lat : 49.2837604, Lng : -123.1147043, Q1 : 0.905804812908, Q2 : 0.0628358945251, Q3 : -0.141764253378, Q4 : 0.394299685955}
2019-04-14 11:16:22.21: SIM {TimeUS : 64235129, Roll : 0.14, Pitch : -17.82, Yaw : 47.01, Alt : 49.3300018311, Lat : 49.2837631, Lng : -123.1146995, Q1 : 0.905849337578, Q2 : 0.0629271492362, Q3 : -0.141599819064, Q4 : 0.394241929054}
2019-04-14 11:16:22.31: SIM {TimeUS : 64335089, Roll : 0.16, Pitch : -17.82, Yaw : 47.0, Alt : 49.3300018311, Lat : 49.2837661, Lng : -123.1146947, Q1 : 0.905871093273, Q2 : 0.0631349980831, Q3 : -0.141524150968, Q4 : 0.394185811281}
2019-04-14 11:16:22.41: SIM {TimeUS : 64435049, Roll : 0.18, Pitch : -17.84, Yaw : 46.99, Alt : 49.3300018311, Lat : 49.2837689, Lng : -123.1146898, Q1 : 0.905876040459, Q2 : 0.0633045211434, Q3 : -0.141644999385, Q4 : 0.394103854895}
2019-04-14 11:16:22.51: SIM {TimeUS : 64535009, Roll : 0.18, Pitch : -17.86, Yaw : 46.98, Alt : 49.3300018311, Lat : 49.2837717, Lng : -123.1146851, Q1 : 0.905887901783, Q2 : 0.0633778423071, Q3 : -0.141793176532, Q4 : 0.394011437893}
2019-04-14 11:16:22.61: SIM {TimeUS : 64634969, Roll : 0.18, Pitch : -17.87, Yaw : 46.97, Alt : 49.3300018311, Lat : 49.2837746, Lng : -123.1146803, Q1 : 0.905922651291, Q2 : 0.0633946731687, Q3 : -0.141829252243, Q4 : 0.393915951252}
2019-04-14 11:16:22.71: SIM {TimeUS : 64734929, Roll : 0.18, Pitch : -17.88, Yaw : 46.95, Alt : 49.3300018311, Lat : 49.2837776, Lng : -123.1146755, Q1 : 0.905956804752, Q2 : 0.0633761882782, Q3 : -0.141927659512, Q4 : 0.393804877996}
2019-04-14 11:16:22.81: SIM {TimeUS : 64834889, Roll : 0.16, Pitch : -17.9, Yaw : 46.94, Alt : 49.3300018311, Lat : 49.2837804, Lng : -123.1146706, Q1 : 0.905988574028, Q2 : 0.0632893443108, Q3 : -0.142137795687, Q4 : 0.393669903278}
2019-04-14 11:16:22.91: SIM {TimeUS : 64934849, Roll : 0.14, Pitch : -17.93, Yaw : 46.93, Alt : 49.3300018311, Lat : 49.2837832, Lng : -123.1146658, Q1 : 0.90600502491, Q2 : 0.0631989911199, Q3 : -0.142506957054, Q4 : 0.393513083458}
2019-04-14 11:16:23.01: SIM {TimeUS : 65034809, Roll : 0.13, Pitch : -17.94, Yaw : 46.91, Alt : 49.3300018311, Lat : 49.2837861, Lng : -123.114661, Q1 : 0.90605032444, Q2 : 0.0631220340729, Q3 : -0.142584726214, Q4 : 0.393393069506}
2019-04-14 11:16:23.11: SIM {TimeUS : 65134769, Roll : 0.13, Pitch : -17.93, Yaw : 46.9, Alt : 49.3300018311, Lat : 49.2837891, Lng : -123.1146561, Q1 : 0.906105577946, Q2 : 0.0631287172437, Q3 : -0.142483726144, Q4 : 0.393301218748}
2019-04-14 11:16:23.21: SIM {TimeUS : 65234729, Roll : 0.16, Pitch : -17.92, Yaw : 46.89, Alt : 49.3300018311, Lat : 49.283792, Lng : -123.1146512, Q1 : 0.906152665615, Q2 : 0.063260667026, Q3 : -0.142340555787, Q4 : 0.39322334528}
2019-04-14 11:16:23.31: SIM {TimeUS : 65334689, Roll : 0.17, Pitch : -17.93, Yaw : 46.87, Alt : 49.3300018311, Lat : 49.2837948, Lng : -123.1146464, Q1 : 0.906182527542, Q2 : 0.0633862540126, Q3 : -0.142379269004, Q4 : 0.393120348454}
2019-04-14 11:16:23.41: SIM {TimeUS : 65434649, Roll : 0.16, Pitch : -17.95, Yaw : 46.86, Alt : 49.3300018311, Lat : 49.2837977, Lng : -123.1146415, Q1 : 0.906208336353, Q2 : 0.0633225589991, Q3 : -0.142602875829, Q4 : 0.392990022898}
2019-04-14 11:16:23.51: SIM {TimeUS : 65534609, Roll : 0.13, Pitch : -17.97, Yaw : 46.85, Alt : 49.3400001526, Lat : 49.2838007, Lng : -123.1146366, Q1 : 0.906233370304, Q2 : 0.0631786361337, Q3 : -0.142896398902, Q4 : 0.392848819494}
2019-04-14 11:16:23.61: SIM {TimeUS : 65634569, Roll : 0.12, Pitch : -17.99, Yaw : 46.84, Alt : 49.3400001526, Lat : 49.2838036, Lng : -123.1146318, Q1 : 0.906251788139, Q2 : 0.0631516054273, Q3 : -0.143112421036, Q4 : 0.392732053995}
2019-04-14 11:16:23.71: SIM {TimeUS : 65734529, Roll : 0.13, Pitch : -18.01, Yaw : 46.82, Alt : 49.3400001526, Lat : 49.2838065, Lng : -123.1146269, Q1 : 0.906266033649, Q2 : 0.0632523298264, Q3 : -0.143235474825, Q4 : 0.392638027668}
2019-04-14 11:16:23.81: SIM {TimeUS : 65835322, Roll : 0.14, Pitch : -18.02, Yaw : 46.81, Alt : 49.3400001526, Lat : 49.2838094, Lng : -123.114622, Q1 : 0.906282007694, Q2 : 0.063390173018, Q3 : -0.143295064569, Q4 : 0.39255720377}
2019-04-14 11:16:23.91: SIM {TimeUS : 65935282, Roll : 0.17, Pitch : -18.03, Yaw : 46.8, Alt : 49.3400001526, Lat : 49.2838123, Lng : -123.1146171, Q1 : 0.906287133694, Q2 : 0.0636227577925, Q3 : -0.143277198076, Q4 : 0.392514199018}
2019-04-14 11:16:24.01: SIM {TimeUS : 66035242, Roll : 0.18, Pitch : -18.04, Yaw : 46.8, Alt : 49.3400001526, Lat : 49.2838153, Lng : -123.1146122, Q1 : 0.906287968159, Q2 : 0.0637696459889, Q3 : -0.143318995833, Q4 : 0.392473340034}
2019-04-14 11:16:24.11: SIM {TimeUS : 66135202, Roll : 0.19, Pitch : -18.06, Yaw : 46.79, Alt : 49.3400001526, Lat : 49.2838183, Lng : -123.1146073, Q1 : 0.906282603741, Q2 : 0.0639204159379, Q3 : -0.143390998244, Q4 : 0.392434775829}
2019-04-14 11:16:24.21: SIM {TimeUS : 66235162, Roll : 0.21, Pitch : -18.07, Yaw : 46.78, Alt : 49.3400001526, Lat : 49.2838212, Lng : -123.1146024, Q1 : 0.906274795532, Q2 : 0.0640837326646, Q3 : -0.143464967608, Q4 : 0.392399162054}
2019-04-14 11:16:24.31: SIM {TimeUS : 66335122, Roll : 0.23, Pitch : -18.09, Yaw : 46.78, Alt : 49.3400001526, Lat : 49.283824, Lng : -123.1145974, Q1 : 0.90626424551, Q2 : 0.0642850771546, Q3 : -0.143512845039, Q4 : 0.392372995615}
2019-04-14 11:16:24.41: SIM {TimeUS : 66435082, Roll : 0.26, Pitch : -18.11, Yaw : 46.77, Alt : 49.3400001526, Lat : 49.283827, Lng : -123.1145926, Q1 : 0.906246125698, Q2 : 0.0645405352116, Q3 : -0.143566176295, Q4 : 0.392353475094}
2019-04-14 11:16:24.51: SIM {TimeUS : 66535042, Roll : 0.25, Pitch : -18.11, Yaw : 46.77, Alt : 49.3400001526, Lat : 49.2838299, Lng : -123.1145877, Q1 : 0.906260192394, Q2 : 0.0645007714629, Q3 : -0.143603771925, Q4 : 0.3923137784}
2019-04-14 11:16:24.61: SIM {TimeUS : 66635002, Roll : 0.22, Pitch : -18.12, Yaw : 46.76, Alt : 49.3400001526, Lat : 49.2838329, Lng : -123.1145828, Q1 : 0.906280696392, Q2 : 0.064293935895, Q3 : -0.143788546324, Q4 : 0.392232626677}
2019-04-14 11:16:24.71: SIM {TimeUS : 66734962, Roll : 0.19, Pitch : -18.14, Yaw : 46.76, Alt : 49.3499984741, Lat : 49.2838359, Lng : -123.1145779, Q1 : 0.906282007694, Q2 : 0.0641564130783, Q3 : -0.144095048308, Q4 : 0.392139673233}
