2019-04-14 11:46:39.90: SIM {TimeUS : 40916127, Roll : 0.0, Pitch : 0.0, Yaw : 0.0, Alt : 30.1000003815, Lat : 49.28357, Lng : -123.11502, Q1 : 1.0, Q2 : 0.0, Q3 : 0.0, Q4 : 0.0}
2019-04-14 11:46:40.01: SIM {TimeUS : 41035246, Roll : 0.0, Pitch : 0.0, Yaw : 0.0, Alt : 30.1000003815, Lat : 49.28357, Lng : -123.11502, Q1 : 1.0, Q2 : 0.0, Q3 : 0.0, Q4 : 0.0}
2019-04-14 11:46:40.11: SIM {TimeUS : 41135206, Roll : 0.0, Pitch : 0.0, Yaw : 0.0, Alt : 30.1000003815, Lat : 49.28357, Lng : -123.11502, Q1 : 1.0, Q2 : 0.0, Q3 : 0.0, Q4 : 0.0}
2019-04-14 11:46:40.21: SIM {TimeUS : 41235166, Roll : 0.0, Pitch : 0.0, Yaw : 0.0, Alt : 30.1000003815, Lat : 49.28357, Lng : -123.11502, Q1 : 1.0, Q2 : 0.0, Q3 : 0.0, Q4 : 0.0}
2019-04-14 11:46:40.31: SIM {TimeUS : 41335126, Roll : 0.0, Pitch : 0.0, Yaw : 0.0, Alt : 30.1000003815, Lat : 49.28357, Lng : -123.11502, Q1 : 1.0, Q2 : 0.0, Q3 : 0.0, Q4 : 0.0}
2019-04-14 11:46:40.41: SIM {TimeUS : 41435086, Roll : 0.0, Pitch : 0.0, Yaw : 0.0, Alt : 30.1000003815, Lat : 49.28357, Lng : -123.11502, Q1 : 1.0, Q2 : 0.0, Q3 : 0.0, Q4 : 0.0}
2019-04-14 11:46:40.51: SIM {TimeUS : 41535046, Roll : 0.0, Pitch : 0.0, Yaw : 0.0, Alt : 30.1000003815, Lat : 49.28357, Lng : -123.11502, Q1 : 1.0, Q2 : 0.0, Q3 : 0.0, Q4 : 0.0}
2019-04-14 11:46:40.61: SIM {TimeUS : 41635006, Roll : 0.0, Pitch : 0.0, Yaw : 0.0, Alt : 30.1000003815, Lat : 49.28357, Lng : -123.11502, Q1 : 1.0, Q2 : 0.0, Q3 : 0.0, Q4 : 0.0}
2019-04-14 11:46:40.71: SIM {TimeUS : 41734966, Roll : 0.0, Pitch : 0.0, Yaw : 0.0, Alt : 30.1000003815, Lat : 49.28357, Lng : -123.11502, Q1 : 1.0, Q2 : 0.0, Q3 : 0.0, Q4 : 0.0}
2019-04-14 11:46:40.81: SIM {TimeUS : 41834926, Roll : 0.0, Pitch : 0.0, Yaw : 0.0, Alt : 30.1000003815, Lat : 49.28357, Lng : -123.11502, Q1 : 1.0, Q2 : 0.0, Q3 : 0.0, Q4 : 0.0}
2019-04-14 11:46:40.91: SIM {TimeUS : 41934886, Roll : 0.0, Pitch : 0.0, Yaw : 0.0, Alt : 30.1000003815, Lat : 49.28357, Lng : -123.11502, Q1 : 1.0, Q2 : 0.0, Q3 : 0.0, Q4 : 0.0}
2019-04-14 11:46:41.01: SIM {TimeUS : 42034846, Roll : 0.0, Pitch : 0.0, Yaw : 0.0, Alt : 30.1000003815, Lat : 49.28357, Lng : -123.11502, Q1 : 1.0, Q2 : 0.0, Q3 : 0.0, Q4 : 0.0}
2019-04-14 11:46:41.11: SIM {TimeUS : 42134806, Roll : 0.0, Pitch : 0.0, Yaw : 0.0, Alt : 30.1000003815, Lat : 49.28357, Lng : -123.11502, Q1 : 1.0, Q2 : 0.0, Q3 : 0.0, Q4 : 0.0}
2019-04-14 11:46:41.21: SIM {TimeUS : 42234766, Roll : 0.0, Pitch : 0.0, Yaw : 0.0, Alt : 30.1000003815, Lat : 49.28357, Lng : -123.11502, Q1 : 1.0, Q2 : 0.0, Q3 : 0.0, Q4 : 0.0}
2019-04-14 11:46:41.31: SIM {TimeUS : 42334726, Roll : 0.0, Pitch : 0.0, Yaw : 0.0, Alt : 30.1000003815, Lat : 49.28357, Lng : -123.11502, Q1 : 1.0, Q2 : 0.0, Q3 : 0.0, Q4 : 0.0}
2019-04-14 11:46:41.41: SIM {TimeUS : 42434686, Roll : 0.0, Pitch : 0.0, Yaw : 0.0, Alt : 30.1000003815, Lat : 49.28357, Lng : -123.11502, Q1 : 1.0, Q2 : 0.0, Q3 : 0.0, Q4 : 0.0}
2019-04-14 11:46:41.51: SIM {TimeUS : 42534646, Roll : 0.0, Pitch : 0.0, Yaw : 0.0, Alt : 30.1000003815, Lat : 49.28357, Lng : -123.11502, Q1 : 1.0, Q2 : 0.0, Q3 : 0.0, Q4 : 0.0}
2019-04-14 11:46:41.61: SIM {TimeUS : 42634606, Roll : 0.0, Pitch : 0.0, Yaw : 0.0, Alt : 30.1000003815, Lat : 49.28357, Lng : -123.11502, Q1 : 1.0, Q2 : 0.0, Q3 : 0.0, Q4 : 0.0}
2019-04-14 11:46:41.71: SIM {TimeUS : 42734566, Roll : 0.0, Pitch : 0.0, Yaw : 0.0, Alt : 30.1000003815, Lat : 49.28357, Lng : -123.11502, Q1 : 1.0, Q2 : 0.0, Q3 : 0.0, Q4 : 0.0}
2019-04-14 11:46:41.81: SIM {TimeUS : 42834526, Roll : 0.0, Pitch : 0.0, Yaw : 0.0, Alt : 30.1000003815, Lat : 49.28357, Lng : -123.11502, Q1 : 1.0, Q2 : 0.0, Q3 : 0.0, Q4 : 0.0}
2019-04-14 11:46:41.91: SIM {TimeUS : 42934486, Roll : 0.0, Pitch : 0.0, Yaw : 0.0, Alt : 30.1000003815, Lat : 49.28357, Lng : -123.11502, Q1 : 1.0, Q2 : 0.0, Q3 : 0.0, Q4 : 0.0}
2019-04-14 11:46:42.02: SIM {TimeUS : 43035279, Roll : 0.0, Pitch : 0.0, Yaw : 0.0, Alt : 30.1000003815, Lat : 49.28357, Lng : -123.11502, Q1 : 1.0, Q2 : 0.0, Q3 : 0.0, Q4 : 0.0}
2019-04-14 11:46:42.11: SIM {TimeUS : 43135239, Roll : 0.0, Pitch : 0.0, Yaw : 0.0, Alt : 30.1000003815, Lat : 49.28357, Lng : -123.11502, Q1 : 1.0, Q2 : 0.0, Q3 : 0.0, Q4 : 0.0}
2019-04-14 11:46:42.21: SIM {TimeUS : 43235199, Roll : 0.0, Pitch : 0.0, Yaw : 0.0, Alt : 30.1000003815, Lat : 49.28357, Lng : -123.11502, Q1 : 1.0, Q2 : 0.0, Q3 : 0.0, Q4 : 3.54646693956e-12}
2019-04-14 11:46:42.31: SIM {TimeUS : 43335159, Roll : 0.0, Pitch : 0.0, Yaw : 360.0, Alt : 30.1000003815, Lat : 49.28357, Lng : -123.11502, Q1 : 1.0, Q2 : 0.0, Q3 : 0.0, Q4 : -2.41191848716e-08}
2019-04-14 11:46:42.41: SIM {TimeUS : 43435119, Roll : 0.0, Pitch : 0.0, Yaw : 359.99, Alt : 30.1000003815, Lat : 49.28357, Lng : -123.11502, Q1 : 1.0, Q2 : 0.0, Q3 : 0.0, Q4 : -1.83676093002e-07}
2019-04-14 11:46:42.51: SIM {TimeUS : 43535079, Roll : 0.0, Pitch : 0.0, Yaw : 359.99, Alt : 30.1000003815, Lat : 49.28357, Lng : -123.11502, Q1 : 1.0, Q2 : 0.0, Q3 : 0.0, Q4 : -3.79652504989e-07}
2019-04-14 11:46:42.61: SIM {TimeUS : 43635039, Roll : 0.0, Pitch : 0.0, Yaw : 359.99, Alt : 30.1000003815, Lat : 49.28357, Lng : -123.11502, Q1 : 1.0, Q2 : 0.0, Q3 : 0.0, Q4 : -5.49403239347e-07}
2019-04-14 11:46:42.71: SIM {TimeUS : 43734999, Roll : 0.0, Pitch : 0.0, Yaw : 359.99, Alt : 30.1000003815, Lat : 49.28357, Lng : -123.11502, Q1 : 1.0, Q2 : 0.0, Q3 : 0.0, Q4 : -7.30715214559e-07}
2019-04-14 11:46:42.81: SIM {TimeUS : 43834959, Roll : 0.0, Pitch : 0.0, Yaw : 359.99, Alt : 30.1000003815, Lat : 49.28357, Lng : -123.11502, Q1 : 1.0, Q2 : 0.0, Q3 : 0.0, Q4 : -8.82782387635e-07}
2019-04-14 11:46:42.91: SIM {TimeUS : 43934919, Roll : 0.0, Pitch : 0.0, Yaw : 359.99, Alt : 30.1000003815, Lat : 49.28357, Lng : -123.11502, Q1 : 1.0, Q2 : 0.0, Q3 : 0.0, Q4 : -1.04385401301e-06}
2019-04-14 11:46:43.01: SIM {TimeUS : 44034879, Roll : 0.0, Pitch : 0.0, Yaw : 359.99, Alt : 30.1000003815, Lat : 49.28357, Lng : -123.11502, Q1 : 1.0, Q2 : 0.0, Q3 : 0.0, Q4 : -1.24327823414e-06}
2019-04-14 11:46:43.11: SIM {TimeUS : 44134839, Roll : 0.0, Pitch : 0.0, Yaw : 359.99, Alt : 30.1200008392, Lat : 49.28357, Lng : -123.11502, Q1 : 1.0, Q2 : 0.0, Q3 : 0.0, Q4 : -1.44161515436e-06}
2019-04-14 11:46:43.21: SIM {TimeUS : 44234799, Roll : 0.0, Pitch : 0.0, Yaw : 359.99, Alt : 30.1399993896, Lat : 49.28357, Lng : -123.11502, Q1 : 1.0, Q2 : 0.0, Q3 : 0.0, Q4 : -1.6361635744e-06}
2019-04-14 11:46:43.31: SIM {TimeUS : 44334759, Roll : 0.0, Pitch : 0.0, Yaw : 359.99, Alt : 30.1800003052, Lat : 49.28357, Lng : -123.11502, Q1 : 1.0, Q2 : 0.0, Q3 : 0.0, Q4 : -1.83211261628e-06}
2019-04-14 11:46:43.41: SIM {TimeUS : 44434719, Roll : 0.0, Pitch : 0.0, Yaw : 359.99, Alt : 30.2099990845, Lat : 49.28357, Lng : -123.11502, Q1 : 1.0, Q2 : -4.03033664043e-06, Q3 : -3.52913343704e-06, Q4 : -2.07639936889e-06}
2019-04-14 11:46:43.51: SIM {TimeUS : 44534679, Roll : -0.17, Pitch : -0.14, Yaw : 359.99, Alt : 30.2700004578, Lat : 49.28357, Lng : -123.11502, Q1 : 0.999998033047, Q2 : -0.00155892642215, Q3 : -0.00123236805666, Q4 : -1.74111282831e-05}
2019-04-14 11:46:43.61: SIM {TimeUS : 44634639, Roll : -0.49, Pitch : -0.39, Yaw : 359.99, Alt : 30.3799991608, Lat : 49.28357, Lng : -123.11502, Q1 : 0.99998486042, Q2 : -0.00427623325959, Q3 : -0.00346062565222, Q4 : -5.89621304243e-05}
2019-04-14 11:46:43.71: SIM {TimeUS : 44734599, Roll : -0.73, Pitch : -0.62, Yaw : 359.99, Alt : 30.5400009155, Lat : 49.28357, Lng : -123.11502, Q1 : 0.999964773655, Q2 : -0.00637941481546, Q3 : -0.00545285409316, Q4 : -0.000118397358165}
2019-04-14 11:46:43.81: SIM {TimeUS : 44834559, Roll : -0.81, Pitch : -0.73, Yaw : 359.98, Alt : 30.7000007629, Lat : 49.28357, Lng : -123.11502, Q1 : 0.999954164028, Q2 : -0.00712902192026, Q3 : -0.00638787588105, Q4 : -0.000191920655197}
2019-04-14 11:46:43.91: SIM {TimeUS : 44934519, Roll : -0.74, Pitch : -0.7, Yaw : 359.97, Alt : 30.8500003815, Lat : 49.28357, Lng : -123.11502, Q1 : 0.999959826469, Q2 : -0.00653715804219, Q3 : -0.00612195115536, Q4 : -0.000268523785053}
2019-04-14 11:46:44.01: SIM {TimeUS : 45034479, Roll : -0.57, Pitch : -0.56, Yaw : 359.96, Alt : 31.0100002289, Lat : 49.28357, Lng : -123.1150201, Q1 : 0.999975204468, Q2 : -0.00499521568418, Q3 : -0.00495265610516, Q4 : -0.000341556878993}
2019-04-14 11:46:44.12: SIM {TimeUS : 45135272, Roll : -0.34, Pitch : -0.37, Yaw : 359.95, Alt : 31.1599998474, Lat : 49.2835701, Lng : -123.1150202, Q1 : 0.999990046024, Q2 : -0.00299637718126, Q3 : -0.00328465225175, Q4 : -0.000403925776482}
2019-04-14 11:46:44.21: SIM {TimeUS : 45235232, Roll : -0.13, Pitch : -0.17, Yaw : 359.94, Alt : 31.3199996948, Lat : 49.2835701, Lng : -123.1150203, Q1 : 0.999998033047, Q2 : -0.00121157802641, Q3 : -0.00152452616021, Q4 : -0.000453089334769}
2019-04-14 11:46:44.31: SIM {TimeUS : 45335192, Roll : 0.0, Pitch : 0.0, Yaw : 359.94, Alt : 31.4899997711, Lat : 49.2835702, Lng : -123.1150203, Q1 : 0.999999880791, Q2 : -4.71167440992e-05, Q3 : -7.90022386354e-05, Q4 : -0.000491541053634}
2019-04-14 11:46:44.41: SIM {TimeUS : 45435152, Roll : 0.05, Pitch : 0.09, Yaw : 359.94, Alt : 31.6700000763, Lat : 49.2835702, Lng : -123.1150204, Q1 : 0.999999463558, Q2 : 0.000440187053755, Q3 : 0.000786241900641, Q4 : -0.000519036024343}
2019-04-14 11:46:44.51: SIM {TimeUS : 45535112, Roll : 0.07, Pitch : 0.13, Yaw : 359.93, Alt : 31.8500003815, Lat : 49.2835703, Lng : -123.1150205, Q1 : 0.999998986721, Q2 : 0.000629985996056, Q3 : 0.00117747718468, Q4 : -0.000530308461748}
2019-04-14 11:46:44.61: SIM {TimeUS : 45635072, Roll : 0.07, Pitch : 0.13, Yaw : 359.93, Alt : 32.0299987793, Lat : 49.2835703, Lng : -123.1150205, Q1 : 0.999998986721, Q2 : 0.000646484841127, Q3 : 0.00114970467985, Q4 : -0.000533001672011}
2019-04-14 11:46:44.71: SIM {TimeUS : 45735032, Roll : 0.07, Pitch : 0.11, Yaw : 359.93, Alt : 32.2200012207, Lat : 49.2835703, Lng : -123.1150206, Q1 : 0.999999165535, Q2 : 0.000613806128968, Q3 : 0.00103211274836, Q4 : -0.000525916402694}
2019-04-14 11:46:44.81: SIM {TimeUS : 45834992, Roll : 0.05, Pitch : 0.1, Yaw : 359.94, Alt : 32.4099998474, Lat : 49.2835703, Lng : -123.1150206, Q1 : 0.999999284744, Q2 : 0.000522493734024, Q3 : 0.000958431512117, Q4 : -0.000511733116582}
2019-04-14 11:46:44.91: SIM {TimeUS : 45934952, Roll : 0.05, Pitch : 0.09, Yaw : 359.94, Alt : 32.5999984741, Lat : 49.2835703, Lng : -123.1150206, Q1 : 0.999999403954, Q2 : 0.000514961779118, Q3 : 0.000825066119432, Q4 : -0.000494778214488}
2019-04-14 11:46:45.01: SIM {TimeUS : 46034912, Roll : 0.06, Pitch : 0.07, Yaw : 359.94, Alt : 32.7900009155, Lat : 49.2835703, Lng : -123.1150207, Q1 : 0.999999463558, Q2 : 0.000581889413297, Q3 : 0.000691394438036, Q4 : -0.000475835200632}
2019-04-14 11:46:45.11: SIM {TimeUS : 46134872, Roll : 0.08, Pitch : 0.08, Yaw : 359.94, Alt : 32.9900016785, Lat : 49.2835704, Lng : -123.1150207, Q1 : 0.999999284744, Q2 : 0.000780696456786, Q3 : 0.00076873449143, Q4 : -0.000454576598713}
2019-04-14 11:46:45.21: SIM {TimeUS : 46234832, Roll : 0.13, Pitch : 0.11, Yaw : 359.94, Alt : 33.1899986267, Lat : 49.2835704, Lng : -123.1150207, Q1 : 0.999998748302, Q2 : 0.00114107900299, Q3 : 0.000986476545222, Q4 : -0.00043943503988}
2019-04-14 11:46:45.31: SIM {TimeUS : 46334792, Roll : 0.16, Pitch : 0.14, Yaw : 359.95, Alt : 33.4000015259, Lat : 49.2835704, Lng : -123.1150208, Q1 : 0.999998033047, Q2 : 0.00146934541408, Q3 : 0.00125567393843, Q4 : -0.000432091212133}
2019-04-14 11:46:45.41: SIM {TimeUS : 46434752, Roll : 0.18, Pitch : 0.15, Yaw : 359.95, Alt : 33.5999984741, Lat : 49.2835704, Lng : -123.1150208, Q1 : 0.999997615814, Q2 : 0.00165855302475, Q3 : 0.00137880630791, Q4 : -0.000432356959209}
2019-04-14 11:46:45.51: SIM {TimeUS : 46534712, Roll : 0.18, Pitch : 0.14, Yaw : 359.94, Alt : 33.8100013733, Lat : 49.2835704, Lng : -123.1150208, Q1 : 0.999997854233, Q2 : 0.00157322490122, Q3 : 0.00128205888905, Q4 : -0.000441975396825}
2019-04-14 11:46:45.61: SIM {TimeUS : 46634672, Roll : 0.15, Pitch : 0.13, Yaw : 359.94, Alt : 34.0200004578, Lat : 49.2835704, Lng : -123.1150208, Q1 : 0.99999833107, Q2 : 0.00133944745176, Q3 : 0.00114512164146, Q4 : -0.000453704153188}
2019-04-14 11:46:45.71: SIM {TimeUS : 46734632, Roll : 0.12, Pitch : 0.12, Yaw : 359.94, Alt : 34.2299995422, Lat : 49.2835704, Lng : -123.1150208, Q1 : 0.999998748302, Q2 : 0.00106889673043, Q3 : 0.00106245384086, Q4 : -0.000473125081044}
2019-04-14 11:46:45.81: SIM {TimeUS : 46834592, Roll : 0.1, Pitch : 0.08, Yaw : 359.94, Alt : 34.4399986267, Lat : 49.2835704, Lng : -123.1150208, Q1 : 0.999999165535, Q2 : 0.000932193070184, Q3 : 0.000756714784075, Q4 : -0.00049389275955}
2019-04-14 11:46:45.91: SIM {TimeUS : 46934552, Roll : 0.09, Pitch : 0.05, Yaw : 359.94, Alt : 34.6599998474, Lat : 49.2835704, Lng : -123.1150208, Q1 : 0.999999403954, Q2 : 0.000829309807159, Q3 : 0.000514873361681, Q4 : -0.000518109067343}
2019-04-14 11:46:46.01: SIM {TimeUS : 47034512, Roll : 0.07, Pitch : 0.04, Yaw : 359.93, Alt : 34.8699989319, Lat : 49.2835704, Lng : -123.1150207, Q1 : 0.999999582767, Q2 : 0.000621337094344, Q3 : 0.000414225505665, Q4 : -0.00054349884158}
2019-04-14 11:46:46.11: SIM {TimeUS : 47134472, Roll : 0.05, Pitch : 0.04, Yaw : 359.93, Alt : 35.0900001526, Lat : 49.2835704, Lng : -123.1150207, Q1 : 0.999999642372, Q2 : 0.00050090107834, Q3 : 0.000397782860091, Q4 : -0.000567162351217}
2019-04-14 11:46:46.22: SIM {TimeUS : 47235265, Roll : 0.05, Pitch : 0.04, Yaw : 359.93, Alt : 35.3100013733, Lat : 49.2835704, Lng : -123.1150207, Q1 : 0.999999642372, Q2 : 0.000479054724565, Q3 : 0.000375471485313, Q4 : -0.00059426901862}
2019-04-14 11:46:46.31: SIM {TimeUS : 47335225, Roll : 0.03, Pitch : 0.01, Yaw : 359.92, Alt : 35.5200004578, Lat : 49.2835704, Lng : -123.1150207, Q1 : 0.999999761581, Q2 : 0.000300004030578, Q3 : 0.000121959354146, Q4 : -0.000627616187558}
2019-04-14 11:46:46.41: SIM {TimeUS : 47435185, Roll : 0.0, Pitch : -0.02, Yaw : 359.92, Alt : 35.7400016785, Lat : 49.2835704, Lng : -123.1150207, Q1 : 0.999999761581, Q2 : -1.49359639181e-05, Q3 : -0.000252121681115, Q4 : -0.000663033686578}
2019-04-14 11:46:46.51: SIM {TimeUS : 47535145, Roll : -0.04, Pitch : -0.05, Yaw : 359.91, Alt : 35.9599990845, Lat : 49.2835704, Lng : -123.1150207, Q1 : 0.999999582767, Q2 : -0.000356136239134, Q3 : -0.000500180933159, Q4 : -0.000702275661752}
2019-04-14 11:46:46.61: SIM {TimeUS : 47635105, Roll : -0.07, Pitch : -0.07, Yaw : 359.91, Alt : 36.1800003052, Lat : 49.2835704, Lng : -123.1150207, Q1 : 0.999999344349, Q2 : -0.000645635242108, Q3 : -0.000644125044346, Q4 : -0.000738971109968}
2019-04-14 11:46:46.71: SIM {TimeUS : 47735065, Roll : -0.08, Pitch : -0.07, Yaw : 359.91, Alt : 36.4000015259, Lat : 49.2835704, Lng : -123.1150206, Q1 : 0.99999922514, Q2 : -0.00070489232894, Q3 : -0.000661829195451, Q4 : -0.000763222808018}
2019-04-14 11:46:46.81: SIM {TimeUS : 47835025, Roll : -0.07, Pitch : -0.07, Yaw : 359.91, Alt : 36.6300010681, Lat : 49.2835704, Lng : -123.1150206, Q1 : 0.999999284744, Q2 : -0.000679731427226, Q3 : -0.000623515807092, Q4 : -0.000783658993896}
2019-04-14 11:46:46.91: SIM {TimeUS : 47934985, Roll : -0.07, Pitch : -0.05, Yaw : 359.9, Alt : 36.8499984741, Lat : 49.2835704, Lng : -123.1150206, Q1 : 0.999999344349, Q2 : -0.000616935023572, Q3 : -0.000480609334772, Q4 : -0.000801165413577}
2019-04-14 11:46:47.01: SIM {TimeUS : 48034945, Roll : -0.06, Pitch : -0.04, Yaw : 359.9, Alt : 37.0699996948, Lat : 49.2835704, Lng : -123.1150206, Q1 : 0.999999463558, Q2 : -0.000543035625014, Q3 : -0.000393092661398, Q4 : -0.00081276713172}
2019-04-14 11:46:47.11: SIM {TimeUS : 48134905, Roll : -0.06, Pitch : -0.04, Yaw : 359.9, Alt : 37.2999992371, Lat : 49.2835704, Lng : -123.1150206, Q1 : 0.999999403954, Q2 : -0.000600611791015, Q3 : -0.000430723739555, Q4 : -0.000820450135507}
2019-04-14 11:46:47.21: SIM {TimeUS : 48234865, Roll : -0.07, Pitch : -0.03, Yaw : 359.9, Alt : 37.5200004578, Lat : 49.2835704, Lng : -123.1150206, Q1 : 0.999999403954, Q2 : -0.000693851092365, Q3 : -0.000301469757687, Q4 : -0.000829069293104}
2019-04-14 11:46:47.31: SIM {TimeUS : 48334825, Roll : -0.1, Pitch : -0.01, Yaw : 359.9, Alt : 37.75, Lat : 49.2835704, Lng : -123.1150206, Q1 : 0.99999922514, Q2 : -0.000897195888683, Q3 : -0.000104537015432, Q4 : -0.000841985398438}
2019-04-14 11:46:47.41: SIM {TimeUS : 48434785, Roll : -0.1, Pitch : 0.0, Yaw : 359.9, Alt : 37.9799995422, Lat : 49.2835704, Lng : -123.1150206, Q1 : 0.99999922514, Q2 : -0.000920570921153, Q3 : 6.27476620139e-05, Q4 : -0.00085274950834}
2019-04-14 11:46:47.51: SIM {TimeUS : 48534745, Roll : -0.08, Pitch : 0.03, Yaw : 359.9, Alt : 38.2000007629, Lat : 49.2835704, Lng : -123.1150206, Q1 : 0.999999284744, Q2 : -0.000723773322534, Q3 : 0.000310235307552, Q4 : -0.000868065981194}
2019-04-14 11:46:47.61: SIM {TimeUS : 48634705, Roll : -0.06, Pitch : 0.03, Yaw : 359.89, Alt : 38.4300003052, Lat : 49.2835704, Lng : -123.1150206, Q1 : 0.999999463558, Q2 : -0.000527605996467, Q3 : 0.00026516665821, Q4 : -0.000879225204699}
2019-04-14 11:46:47.71: SIM {TimeUS : 48734665, Roll : -0.03, Pitch : 0.01, Yaw : 359.89, Alt : 38.6599998474, Lat : 49.2835704, Lng : -123.1150206, Q1 : 0.999999523163, Q2 : -0.000282715220237, Q3 : 0.000149474522914, Q4 : -0.000888464564923}
2019-04-14 11:46:47.81: SIM {TimeUS : 48834625, Roll : 0.0, Pitch : 0.02, Yaw : 359.89, Alt : 38.8899993896, Lat : 49.2835704, Lng : -123.1150206, Q1 : 0.999999582767, Q2 : 9.35280525027e-07, Q3 : 0.000238625114434, Q4 : -0.00089579942869}
2019-04-14 11:46:47.91: SIM {TimeUS : 48934585, Roll : 0.03, Pitch : 0.05, Yaw : 359.89, Alt : 39.1199989319, Lat : 49.2835706, Lng : -123.1150206, Q1 : 0.999999403954, Q2 : 0.000311872630846, Q3 : 0.000447984115453, Q4 : -0.000910156813916}
2019-04-14 11:46:48.01: SIM {TimeUS : 49034545, Roll : 0.06, Pitch : 0.07, Yaw : 359.89, Alt : 39.3499984741, Lat : 49.2835706, Lng : -123.1150206, Q1 : 0.999999165535, Q2 : 0.000590961426497, Q3 : 0.000685723498464, Q4 : -0.000930316455197}
2019-04-14 11:46:48.11: SIM {TimeUS : 49134505, Roll : 0.06, Pitch : 0.1, Yaw : 359.89, Alt : 39.5800018311, Lat : 49.2835706, Lng : -123.1150207, Q1 : 0.999998986721, Q2 : 0.00055610621348, Q3 : 0.000911516253836, Q4 : -0.000943785533309}
2019-04-14 11:46:48.21: SIM {TimeUS : 49234465, Roll : 0.01, Pitch : 0.12, Yaw : 359.88, Alt : 39.8100013733, Lat : 49.2835706, Lng : -123.1150207, Q1 : 0.999998927116, Q2 : 0.000136357033625, Q3 : 0.00106560485438, Q4 : -0.000978774740361}
2019-04-14 11:46:48.32: SIM {TimeUS : 49335258, Roll : -0.02, Pitch : 0.12, Yaw : 359.88, Alt : 40.0400009155, Lat : 49.2835706, Lng : -123.1150207, Q1 : 0.999998867512, Q2 : -0.000250243057963, Q3 : 0.00107189372648, Q4 : -0.00101656629704}
2019-04-14 11:46:48.41: SIM {TimeUS : 49435218, Roll : -0.05, Pitch : 0.09, Yaw : 359.87, Alt : 40.2700004578, Lat : 49.2835706, Lng : -123.1150207, Q1 : 0.999998986721, Q2 : -0.000439056515461, Q3 : 0.000844616384711, Q4 : -0.00105385354254}
2019-04-14 11:46:48.51: SIM {TimeUS : 49535178, Roll : -0.05, Pitch : 0.07, Yaw : 359.87, Alt : 40.5099983215, Lat : 49.2835706, Lng : -123.1150207, Q1 : 0.999999046326, Q2 : -0.000467711826786, Q3 : 0.000695319438819, Q4 : -0.00108692515641}
2019-04-14 11:46:48.61: SIM {TimeUS : 49635138, Roll : -0.03, Pitch : 0.09, Yaw : 359.87, Alt : 40.7400016785, Lat : 49.2835706, Lng : -123.1150207, Q1 : 0.999998986721, Q2 : -0.000315164070344, Q3 : 0.000797489832621, Q4 : -0.0011226143688}
2019-04-14 11:46:48.71: SIM {TimeUS : 49735098, Roll : 0.01, Pitch : 0.12, Yaw : 359.86, Alt : 40.9700012207, Lat : 49.2835706, Lng : -123.1150207, Q1 : 0.999998688698, Q2 : 9.22986146179e-05, Q3 : 0.00109299016185, Q4 : -0.00116284785327}
2019-04-14 11:46:48.81: SIM {TimeUS : 49835058, Roll : 0.06, Pitch : 0.14, Yaw : 359.86, Alt : 41.2000007629, Lat : 49.2835706, Lng : -123.1150207, Q1 : 0.999998271465, Q2 : 0.000563956389669, Q3 : 0.00128094293177, Q4 : -0.00120373093523}
2019-04-14 11:46:48.91: SIM {TimeUS : 49935018, Roll : 0.1, Pitch : 0.12, Yaw : 359.85, Alt : 41.4399986267, Lat : 49.2835706, Lng : -123.1150207, Q1 : 0.999998271465, Q2 : 0.000875619822182, Q3 : 0.00108457473107, Q4 : -0.00124386989046}
2019-04-14 11:46:49.01: SIM {TimeUS : 50034978, Roll : 0.1, Pitch : 0.07, Yaw : 359.85, Alt : 41.6699981689, Lat : 49.2835706, Lng : -123.1150207, Q1 : 0.999998509884, Q2 : 0.000912421150133, Q3 : 0.000686661573127, Q4 : -0.00127751205582}
2019-04-14 11:46:49.11: SIM {TimeUS : 50134938, Roll : 0.07, Pitch : 0.04, Yaw : 359.85, Alt : 41.9099998474, Lat : 49.2835706, Lng : -123.1150207, Q1 : 0.999998867512, Q2 : 0.000626782304607, Q3 : 0.000403649813961, Q4 : -0.00130108639132}
2019-04-14 11:46:49.21: SIM {TimeUS : 50234898, Roll : 0.01, Pitch : 0.03, Yaw : 359.84, Alt : 42.1399993896, Lat : 49.2835706, Lng : -123.1150207, Q1 : 0.999999046326, Q2 : 0.000171745123225, Q3 : 0.000329663016601, Q4 : -0.00131435331423}
2019-04-14 11:46:49.31: SIM {TimeUS : 50334858, Roll : -0.01, Pitch : 0.06, Yaw : 359.84, Alt : 42.3699989319, Lat : 49.2835706, Lng : -123.1150207, Q1 : 0.999998986721, Q2 : -0.000167090329342, Q3 : 0.000550488708541, Q4 : -0.0013165473938}
2019-04-14 11:46:49.41: SIM {TimeUS : 50434818, Roll : -0.04, Pitch : 0.08, Yaw : 359.84, Alt : 42.6100006104, Lat : 49.2835706, Lng : -123.1150207, Q1 : 0.999998807907, Q2 : -0.000351512397174, Q3 : 0.000725266581867, Q4 : -0.00131536449771}
2019-04-14 11:46:49.51: SIM {TimeUS : 50534778, Roll : -0.04, Pitch : 0.07, Yaw : 359.84, Alt : 42.8400001526, Lat : 49.2835704, Lng : -123.1150207, Q1 : 0.999998807907, Q2 : -0.000364955456462, Q3 : 0.000682275625877, Q4 : -0.00131615938153}
2019-04-14 11:46:49.61: SIM {TimeUS : 50634738, Roll : -0.04, Pitch : 0.06, Yaw : 359.84, Alt : 43.0800018311, Lat : 49.2835704, Lng : -123.1150206, Q1 : 0.999998867512, Q2 : -0.000397616095142, Q3 : 0.000595399178565, Q4 : -0.00132642907556}
2019-04-14 11:46:49.71: SIM {TimeUS : 50734698, Roll : -0.03, Pitch : 0.05, Yaw : 359.84, Alt : 43.3100013733, Lat : 49.2835704, Lng : -123.1150206, Q1 : 0.999998927116, Q2 : -0.000346116750734, Q3 : 0.000474408123409, Q4 : -0.00134216621518}
2019-04-14 11:46:49.81: SIM {TimeUS : 50834658, Roll : -0.01, Pitch : 0.04, Yaw : 359.84, Alt : 43.5499992371, Lat : 49.2835704, Lng : -123.1150206, Q1 : 0.999998986721, Q2 : -0.000169763457961, Q3 : 0.0004191743501, Q4 : -0.00136336288415}
2019-04-14 11:46:49.91: SIM {TimeUS : 50934618, Roll : 0.0, Pitch : 0.04, Yaw : 359.84, Alt : 43.7799987793, Lat : 49.2835704, Lng : -123.1150206, Q1 : 0.999998986721, Q2 : -3.68332111975e-05, Q3 : 0.000416018185206, Q4 : -0.00138536607847}
2019-04-14 11:46:50.01: SIM {TimeUS : 51034578, Roll : 0.0, Pitch : 0.03, Yaw : 359.83, Alt : 44.0200004578, Lat : 49.2835704, Lng : -123.1150206, Q1 : 0.999998986721, Q2 : -7.27700389689e-05, Q3 : 0.000280479027424, Q4 : -0.0014067752054}
2019-04-14 11:46:50.11: SIM {TimeUS : 51134538, Roll : -0.02, Pitch : 0.0, Yaw : 359.83, Alt : 44.2599983215, Lat : 49.2835704, Lng : -123.1150206, Q1 : 0.999998986721, Q2 : -0.000177597801667, Q3 : 1.38901104947e-05, Q4 : -0.00142776675057}
2019-04-14 11:46:50.21: SIM {TimeUS : 51234498, Roll : -0.02, Pitch : -0.01, Yaw : 359.83, Alt : 44.4900016785, Lat : 49.2835704, Lng : -123.1150206, Q1 : 0.999998927116, Q2 : -0.000236939304159, Q3 : -0.000156701949891, Q4 : -0.00145318417344}
2019-04-14 11:46:50.31: SIM {TimeUS : 51334458, Roll : -0.01, Pitch : -0.02, Yaw : 359.82, Alt : 44.7299995422, Lat : 49.2835704, Lng : -123.1150206, Q1 : 0.999998867512, Q2 : -0.000152086402522, Q3 : -0.000231939717196, Q4 : -0.0014898814261}
2019-04-14 11:46:50.41: SIM {TimeUS : 51435251, Roll : -0.02, Pitch : -0.03, Yaw : 359.82, Alt : 44.9700012207, Lat : 49.2835704, Lng : -123.1150206, Q1 : 0.999998748302, Q2 : -0.000211908773053, Q3 : -0.000271482451353, Q4 : -0.00153150060214}
2019-04-14 11:46:50.51: SIM {TimeUS : 51535211, Roll : -0.05, Pitch : -0.03, Yaw : 359.81, Alt : 45.2000007629, Lat : 49.2835704, Lng : -123.1150206, Q1 : 0.999998629093, Q2 : -0.000478690111777, Q3 : -0.000275422004052, Q4 : -0.00157370197121}
2019-04-14 11:46:50.61: SIM {TimeUS : 51635171, Roll : -0.09, Pitch : -0.03, Yaw : 359.81, Alt : 45.4399986267, Lat : 49.2835704, Lng : -123.1150206, Q1 : 0.999998271465, Q2 : -0.000832714955322, Q3 : -0.000284604117041, Q4 : -0.00161890452728}
2019-04-14 11:46:50.71: SIM {TimeUS : 51735131, Roll : -0.12, Pitch : -0.03, Yaw : 359.8, Alt : 45.6699981689, Lat : 49.2835704, Lng : -123.1150206, Q1 : 0.999998033047, Q2 : -0.00105829688255, Q3 : -0.000326974899508, Q4 : -0.00166119087953}
2019-04-14 11:46:50.81: SIM {TimeUS : 51835091, Roll : -0.12, Pitch : -0.02, Yaw : 359.8, Alt : 45.9099998474, Lat : 49.2835703, Lng : -123.1150206, Q1 : 0.999997913837, Q2 : -0.00110215879977, Q3 : -0.000223573384574, Q4 : -0.00169685122091}
2019-04-14 11:46:50.91: SIM {TimeUS : 51935051, Roll : -0.1, Pitch : 0.0, Yaw : 359.8, Alt : 46.1399993896, Lat : 49.2835704, Lng : -123.1150206, Q1 : 0.999998033047, Q2 : -0.000955733587034, Q3 : 3.22968880937e-05, Q4 : -0.00172880233731}
2019-04-14 11:46:51.01: SIM {TimeUS : 52035011, Roll : -0.07, Pitch : 0.02, Yaw : 359.79, Alt : 46.3600006104, Lat : 49.2835704, Lng : -123.1150206, Q1 : 0.999998211861, Q2 : -0.000691084365826, Q3 : 0.000229497381952, Q4 : -0.0017558579566}
2019-04-14 11:46:51.11: SIM {TimeUS : 52134971, Roll : -0.05, Pitch : 0.02, Yaw : 359.79, Alt : 46.5800018311, Lat : 49.2835704, Lng : -123.1150206, Q1 : 0.999998271465, Q2 : -0.000477953552036, Q3 : 0.000248785159783, Q4 : -0.00177671574056}
2019-04-14 11:46:51.21: SIM {TimeUS : 52234931, Roll : -0.04, Pitch : 0.01, Yaw : 359.79, Alt : 46.7999992371, Lat : 49.2835704, Lng : -123.1150206, Q1 : 0.99999833107, Q2 : -0.000371674454072, Q3 : 0.000128896252136, Q4 : -0.0017882429529}
2019-04-14 11:46:51.31: SIM {TimeUS : 52334891, Roll : -0.02, Pitch : -0.01, Yaw : 359.79, Alt : 47.0099983215, Lat : 49.2835703, Lng : -123.1150206, Q1 : 0.99999833107, Q2 : -0.000217888169573, Q3 : -0.000137957467814, Q4 : -0.00179693754762}
2019-04-14 11:46:51.41: SIM {TimeUS : 52434851, Roll : 0.0, Pitch : -0.04, Yaw : 359.79, Alt : 47.2099990845, Lat : 49.2835703, Lng : -123.1150206, Q1 : 0.999998271465, Q2 : 5.21236415807e-06, Q3 : -0.000410658307374, Q4 : -0.00180485856254}
2019-04-14 11:46:51.51: SIM {TimeUS : 52534811, Roll : 0.01, Pitch : -0.07, Yaw : 359.79, Alt : 47.4099998474, Lat : 49.2835703, Lng : -123.1150206, Q1 : 0.999998152256, Q2 : 8.94038312254e-05, Q3 : -0.000640507321805, Q4 : -0.00181538320612}
2019-04-14 11:46:51.61: SIM {TimeUS : 52634771, Roll : 0.0, Pitch : -0.09, Yaw : 359.79, Alt : 47.5999984741, Lat : 49.2835703, Lng : -123.1150206, Q1 : 0.999998033047, Q2 : 4.34244975622e-05, Q3 : -0.00080716033699, Q4 : -0.00183090067003}
2019-04-14 11:46:51.71: SIM {TimeUS : 52734731, Roll : 0.01, Pitch : -0.12, Yaw : 359.78, Alt : 47.7700004578, Lat : 49.2835703, Lng : -123.1150206, Q1 : 0.999997675419, Q2 : 0.000160279305419, Q3 : -0.00106224766932, Q4 : -0.0018533684779}
2019-04-14 11:46:51.81: SIM {TimeUS : 52834691, Roll : 0.04, Pitch : -0.13, Yaw : 359.78, Alt : 47.9399986267, Lat : 49.2835703, Lng : -123.1150206, Q1 : 0.999997496605, Q2 : 0.000369910383597, Q3 : -0.00117090938147, Q4 : -0.00187763373833}
2019-04-14 11:46:51.91: SIM {TimeUS : 52934651, Roll : 0.06, Pitch : -0.12, Yaw : 359.78, Alt : 48.0900001526, Lat : 49.2835703, Lng : -123.1150206, Q1 : 0.999997437, Q2 : 0.000608223897871, Q3 : -0.0010734096868, Q4 : -0.0019005186623}
2019-04-14 11:46:52.01: SIM {TimeUS : 53034611, Roll : 0.08, Pitch : -0.09, Yaw : 359.77, Alt : 48.2299995422, Lat : 49.2835704, Lng : -123.1150206, Q1 : 0.99999755621, Q2 : 0.000716715701856, Q3 : -0.000828593212646, Q4 : -0.00192414503545}
2019-04-14 11:46:52.11: SIM {TimeUS : 53134571, Roll : 0.08, Pitch : -0.07, Yaw : 359.77, Alt : 48.3600006104, Lat : 49.2835704, Lng : -123.1150206, Q1 : 0.999997615814, Q2 : 0.000775603752118, Q3 : -0.00061532453401, Q4 : -0.00194769003429}
2019-04-14 11:46:52.21: SIM {TimeUS : 53234531, Roll : 0.08, Pitch : -0.06, Yaw : 359.77, Alt : 48.4799995422, Lat : 49.2835704, Lng : -123.1150206, Q1 : 0.999997615814, Q2 : 0.000708564708475, Q3 : -0.000565029098652, Q4 : -0.00197540945373}
2019-04-14 11:46:52.31: SIM {TimeUS : 53334491, Roll : 0.05, Pitch : -0.05, Yaw : 359.76, Alt : 48.5800018311, Lat : 49.2835704, Lng : -123.1150206, Q1 : 0.999997735023, Q2 : 0.000469036778668, Q3 : -0.000482550414745, Q4 : -0.00200816709548}
2019-04-14 11:46:52.42: SIM {TimeUS : 53435284, Roll : 0.03, Pitch : -0.04, Yaw : 359.76, Alt : 48.6699981689, Lat : 49.2835704, Lng : -123.1150206, Q1 : 0.999997854233, Q2 : 0.000277175568044, Q3 : -0.000362155813491, Q4 : -0.00204236526042}
2019-04-14 11:46:52.51: SIM {TimeUS : 53535244, Roll : 0.01, Pitch : -0.02, Yaw : 359.76, Alt : 48.75, Lat : 49.2835704, Lng : -123.1150206, Q1 : 0.999997794628, Q2 : 0.000109998502012, Q3 : -0.000223787123105, Q4 : -0.00207323720679}
2019-04-14 11:46:52.61: SIM {TimeUS : 53635204, Roll : 0.0, Pitch : 0.0, Yaw : 359.75, Alt : 48.8199996948, Lat : 49.2835704, Lng : -123.1150206, Q1 : 0.999997794628, Q2 : 2.5271650884e-05, Q3 : -1.86998422578e-05, Q4 : -0.00210839277133}
2019-04-14 11:46:52.71: SIM {TimeUS : 53735164, Roll : 0.01, Pitch : 0.03, Yaw : 359.75, Alt : 48.8800010681, Lat : 49.2835704, Lng : -123.1150206, Q1 : 0.999997615814, Q2 : 0.00014058664965, Q3 : 0.000262993911747, Q4 : -0.00214661704376}
2019-04-14 11:46:52.81: SIM {TimeUS : 53835124, Roll : 0.03, Pitch : 0.04, Yaw : 359.75, Alt : 48.9399986267, Lat : 49.2835704, Lng : -123.1150206, Q1 : 0.999997496605, Q2 : 0.000347231922206, Q3 : 0.000421776028816, Q4 : -0.00217929040082}
2019-04-14 11:46:52.91: SIM {TimeUS : 53935084, Roll : 0.06, Pitch : 0.02, Yaw : 359.74, Alt : 48.9799995422, Lat : 49.2835704, Lng : -123.1150206, Q1 : 0.999997437, Q2 : 0.000531955389306, Q3 : 0.000211365710129, Q4 : -0.00220248475671}
2019-04-14 11:46:53.01: SIM {TimeUS : 54035044, Roll : 0.14, Pitch : -0.08, Yaw : 359.74, Alt : 49.0200004578, Lat : 49.2835704, Lng : -123.1150206, Q1 : 0.999996423721, Q2 : 0.00128844147548, Q3 : -0.000711900065653, Q4 : -0.0022253850475}
2019-04-14 11:46:53.11: SIM {TimeUS : 54135004, Roll : 0.39, Pitch : -0.35, Yaw : 359.74, Alt : 49.0499992371, Lat : 49.2835704, Lng : -123.1150206, Q1 : 0.999986767769, Q2 : 0.00342086423188, Q3 : -0.00311953970231, Q4 : -0.00224991235882}
2019-04-14 11:46:53.21: SIM {TimeUS : 54234964, Roll : 0.84, Pitch : -0.81, Yaw : 359.73, Alt : 49.0800018311, Lat : 49.2835704, Lng : -123.1150206, Q1 : 0.999945044518, Q2 : 0.00733782490715, Q3 : -0.00713905924931, Q4 : -0.00226852041669}
2019-04-14 11:46:53.31: SIM {TimeUS : 54334924, Roll : 1.47, Pitch : -1.41, Yaw : 359.72, Alt : 49.0999984741, Lat : 49.2835706, Lng : -123.1150206, Q1 : 0.999838650227, Q2 : 0.0128114959225, Q3 : -0.0123848645017, Q4 : -0.00226596836001}
2019-04-14 11:46:53.41: SIM {TimeUS : 54434884, Roll : 2.21, Pitch : -2.11, Yaw : 359.7, Alt : 49.1199989319, Lat : 49.2835706, Lng : -123.1150205, Q1 : 0.999640762806, Q2 : 0.0192752666771, Q3 : -0.0184890069067, Q4 : -0.00222634640522}
2019-04-14 11:46:53.51: SIM {TimeUS : 54534844, Roll : 2.96, Pitch : -2.8, Yaw : 359.68, Alt : 49.1399993896, Lat : 49.2835707, Lng : -123.1150204, Q1 : 0.999363899231, Q2 : 0.0257572811097, Q3 : -0.0245755631477, Q4 : -0.00212809536606}
2019-04-14 11:46:53.61: SIM {TimeUS : 54634804, Roll : 3.59, Pitch : -3.4, Yaw : 359.66, Alt : 49.1599998474, Lat : 49.2835708, Lng : -123.1150203, Q1 : 0.999066114426, Q2 : 0.0312670096755, Q3 : -0.0297564584762, Q4 : -0.00195962144062}
2019-04-14 11:46:53.71: SIM {TimeUS : 54734764, Roll : 4.06, Pitch : -3.86, Yaw : 359.66, Alt : 49.1699981689, Lat : 49.2835709, Lng : -123.11502, Q1 : 0.998800575733, Q2 : 0.0353877097368, Q3 : -0.0337943509221, Q4 : -0.00173175754026}
2019-04-14 11:46:53.81: SIM {TimeUS : 54834724, Roll : 4.42, Pitch : -4.21, Yaw : 359.67, Alt : 49.1800003052, Lat : 49.283571, Lng : -123.1150198, Q1 : 0.998581051826, Q2 : 0.0384507961571, Q3 : -0.0368154160678, Q4 : -0.00144927122165}
2019-04-14 11:46:53.91: SIM {TimeUS : 54934684, Roll : 4.7, Pitch : -4.47, Yaw : 359.68, Alt : 49.1899986267, Lat : 49.2835714, Lng : -123.1150194, Q1 : 0.998395323753, Q2 : 0.0409282371402, Q3 : -0.0391191504896, Q4 : -0.00114888465032}
2019-04-14 11:46:54.01: SIM {TimeUS : 55034644, Roll : 4.95, Pitch : -4.69, Yaw : 359.69, Alt : 49.2000007629, Lat : 49.2835716, Lng : -123.1150189, Q1 : 0.99822884798, Q2 : 0.0430758744478, Q3 : -0.0410241559148, Q4 : -0.00084563618293}
2019-04-14 11:46:54.11: SIM {TimeUS : 55134604, Roll : 5.2, Pitch : -4.92, Yaw : 359.71, Alt : 49.2099990845, Lat : 49.283572, Lng : -123.1150184, Q1 : 0.998049438, Q2 : 0.0452169701457, Q3 : -0.0430399477482, Q4 : -0.000565374095459}
2019-04-14 11:46:54.21: SIM {TimeUS : 55234564, Roll : 5.45, Pitch : -5.17, Yaw : 359.71, Alt : 49.2200012207, Lat : 49.2835724, Lng : -123.1150177, Q1 : 0.997847080231, Q2 : 0.0474671497941, Q3 : -0.0452546775341, Q4 : -0.000318683451042}
2019-04-14 11:46:54.31: SIM {TimeUS : 55334524, Roll : 5.7, Pitch : -5.39, Yaw : 359.72, Alt : 49.2299995422, Lat : 49.2835728, Lng : -123.115017, Q1 : 0.997654080391, Q2 : 0.0496188215911, Q3 : -0.0471629761159, Q4 : -8.71842348715e-05}
2019-04-14 11:46:54.41: SIM {TimeUS : 55434484, Roll : 5.9, Pitch : -5.55, Yaw : 359.72, Alt : 49.2299995422, Lat : 49.2835733, Lng : -123.1150162, Q1 : 0.997500658035, Q2 : 0.0513431243598, Q3 : -0.0485415495932, Q4 : 0.00012636592146}
2019-04-14 11:46:54.52: SIM {TimeUS : 55535277, Roll : 6.05, Pitch : -5.67, Yaw : 359.73, Alt : 49.2400016785, Lat : 49.2835739, Lng : -123.1150151, Q1 : 0.997383475304, Q2 : 0.052598901093, Q3 : -0.0495942868292, Q4 : 0.000297334365314}
2019-04-14 11:46:54.61: SIM {TimeUS : 55635237, Roll : 6.15, Pitch : -5.77, Yaw : 359.73, Alt : 49.2400016785, Lat : 49.2835745, Lng : -123.1150143, Q1 : 0.997291982174, Q2 : 0.0534929931164, Q3 : -0.0504679568112, Q4 : 0.000411047338275}
2019-04-14 11:46:54.71: SIM {TimeUS : 55735197, Roll : 6.25, Pitch : -5.86, Yaw : 359.73, Alt : 49.25, Lat : 49.2835751, Lng : -123.1150132, Q1 : 0.997205376625, Q2 : 0.0544088035822, Q3 : -0.0511950738728, Q4 : 0.000483800191432}
2019-04-14 11:46:54.81: SIM {TimeUS : 55835157, Roll : 6.42, Pitch : -5.94, Yaw : 359.73, Alt : 49.25, Lat : 49.2835758, Lng : -123.1150121, Q1 : 0.997090101242, Q2 : 0.055859528482, Q3 : -0.051871843636, Q4 : 0.000632357608993}
2019-04-14 11:46:54.91: SIM {TimeUS : 55935117, Roll : 6.8, Pitch : -5.9, Yaw : 359.99, Alt : 49.2599983215, Lat : 49.2835765, Lng : -123.1150109, Q1 : 0.996912658215, Q2 : 0.0592862479389, Q3 : -0.0513949729502, Q4 : 0.00298563134857}
2019-04-14 11:46:55.01: SIM {TimeUS : 56035077, Roll : 7.41, Pitch : -5.77, Yaw : 1.11, Alt : 49.2599983215, Lat : 49.2835774, Lng : -123.1150096, Q1 : 0.996563076973, Q2 : 0.0650403276086, Q3 : -0.0496393106878, Q4 : 0.0129501363263}
2019-04-14 11:46:55.11: SIM {TimeUS : 56135037, Roll : 7.99, Pitch : -5.87, Yaw : 3.69, Alt : 49.2599983215, Lat : 49.2835782, Lng : -123.1150082, Q1 : 0.995621263981, Q2 : 0.0712603926659, Q3 : -0.0488629937172, Q4 : 0.0356744453311}
2019-04-14 11:46:55.21: SIM {TimeUS : 56234997, Roll : 8.27, Pitch : -6.42, Yaw : 7.86, Alt : 49.2599983215, Lat : 49.2835791, Lng : -123.1150067, Q1 : 0.993205368519, Q2 : 0.0757129639387, Q3 : -0.0508352518082, Q4 : 0.0722939893603}
2019-04-14 11:46:55.31: SIM {TimeUS : 56334957, Roll : 8.02, Pitch : -7.42, Yaw : 13.46, Alt : 49.2599983215, Lat : 49.28358, Lng : -123.1150051, Q1 : 0.988062918186, Q2 : 0.0768724605441, Q3 : -0.0559202544391, Q4 : 0.121224030852}
2019-04-14 11:46:55.41: SIM {TimeUS : 56434917, Roll : 7.11, Pitch : -8.72, Yaw : 20.27, Alt : 49.2700004578, Lat : 49.2835808, Lng : -123.1150033, Q1 : 0.978815078735, Q2 : 0.0742899850011, Q3 : -0.0637977570295, Q4 : 0.179810792208}
2019-04-14 11:46:55.51: SIM {TimeUS : 56534877, Roll : 5.57, Pitch : -10.14, Yaw : 28.01, Alt : 49.2700004578, Lat : 49.2835818, Lng : -123.1150015, Q1 : 0.964278817177, Q2 : 0.0683702155948, Q3 : -0.0739181339741, Q4 : 0.245006173849}
2019-04-14 11:46:55.61: SIM {TimeUS : 56634837, Roll : 3.26, Pitch : -11.44, Yaw : 36.33, Alt : 49.2700004578, Lat : 49.2835828, Lng : -123.1149996, Q1 : 0.944141745567, Q2 : 0.0580111257732, Q3 : -0.0858559384942, Q4 : 0.312825530767}
2019-04-14 11:46:55.71: SIM {TimeUS : 56734797, Roll : 0.23, Pitch : -12.37, Yaw : 44.51, Alt : 49.2700004578, Lat : 49.2835837, Lng : -123.1149975, Q1 : 0.92002004385, Q2 : 0.042714253068, Q3 : -0.0989560186863, Q4 : 0.376757711172}
2019-04-14 11:46:55.81: SIM {TimeUS : 56834757, Roll : -2.96, Pitch : -12.79, Yaw : 51.66, Alt : 49.2700004578, Lat : 49.2835848, Lng : -123.1149954, Q1 : 0.895426928997, Q2 : 0.0254101511091, Q3 : -0.111418090761, Q4 : 0.430291682482}
2019-04-14 11:46:55.91: SIM {TimeUS : 56934717, Roll : -5.64, Pitch : -12.77, Yaw : 57.09, Alt : 49.2700004578, Lat : 49.283586, Lng : -123.1149932, Q1 : 0.874526560307, Q2 : 0.0100919799879, Q3 : -0.121025450528, Q4 : 0.469525635242}
2019-04-14 11:46:56.01: SIM {TimeUS : 57034677, Roll : -7.35, Pitch : -12.57, Yaw : 60.5, Alt : 49.2700004578, Lat : 49.2835873, Lng : -123.114991, Q1 : 0.860369622707, Q2 : 1.80317510967e-05, Q3 : -0.126551687717, Q4 : 0.493709236383}
2019-04-14 11:46:56.11: SIM {TimeUS : 57134637, Roll : -7.96, Pitch : -12.44, Yaw : 62.0, Alt : 49.2700004578, Lat : 49.2835886, Lng : -123.1149888, Q1 : 0.853896915913, Q2 : -0.0034776662942, Q3 : -0.128284037113, Q4 : 0.504372060299}
2019-04-14 11:46:56.21: SIM {TimeUS : 57234597, Roll : -7.63, Pitch : -12.55, Yaw : 61.89, Alt : 49.2700004578, Lat : 49.2835901, Lng : -123.1149865, Q1 : 0.854329526424, Q2 : -0.000677152653225, Q3 : -0.12757614255, Q4 : 0.503830313683}
2019-04-14 11:46:56.31: SIM {TimeUS : 57334557, Roll : -6.59, Pitch : -12.92, Yaw : 60.53, Alt : 49.2700004578, Lat : 49.2835916, Lng : -123.1149842, Q1 : 0.860014736652, Q2 : 0.00730176223442, Q3 : -0.12586954236, Q4 : 0.4944473207}
2019-04-14 11:46:56.41: SIM {TimeUS : 57434517, Roll : -5.09, Pitch : -13.53, Yaw : 58.27, Alt : 49.2700004578, Lat : 49.2835934, Lng : -123.1149819, Q1 : 0.869064867496, Q2 : 0.0187847875059, Q3 : -0.124344594777, Q4 : 0.478447318077}
2019-04-14 11:46:56.51: SIM {TimeUS : 57534477, Roll : -3.34, Pitch : -14.25, Yaw : 55.41, Alt : 49.2700004578, Lat : 49.2835951, Lng : -123.1149795, Q1 : 0.879783809185, Q2 : 0.0320078320801, Q3 : -0.123294763267, Q4 : 0.457989394665}
2019-04-14 11:46:56.62: SIM {TimeUS : 57635270, Roll : -1.52, Pitch : -14.93, Yaw : 52.25, Alt : 49.2799987793, Lat : 49.2835969, Lng : -123.114977, Q1 : 0.890871286392, Q2 : 0.0453817918897, Q3 : -0.122528225183, Q4 : 0.43505820632}
2019-04-14 11:46:56.71: SIM {TimeUS : 57735230, Roll : 0.18, Pitch : -15.43, Yaw : 49.16, Alt : 49.2799987793, Lat : 49.2835988, Lng : -123.1149744, Q1 : 0.901038587093, Q2 : 0.0572865344584, Q3 : -0.121484912932, Q4 : 0.412418663502}
2019-04-14 11:46:56.81: SIM {TimeUS : 57835190, Roll : 1.64, Pitch : -15.7, Yaw : 46.43, Alt : 49.2799987793, Lat : 49.2836007, Lng : -123.1149717, Q1 : 0.909522294998, Q2 : 0.0669123157859, Q3 : -0.119969233871, Q4 : 0.39230003953}
2019-04-14 11:46:56.91: SIM {TimeUS : 57935150, Roll : 2.73, Pitch : -15.8, Yaw : 44.32, Alt : 49.2799987793, Lat : 49.2836025, Lng : -123.1149689, Q1 : 0.915834844112, Q2 : 0.0736950263381, Q3 : -0.118351712823, Q4 : 0.37657469511}
2019-04-14 11:46:57.01: SIM {TimeUS : 58035110, Roll : 3.37, Pitch : -15.78, Yaw : 42.95, Alt : 49.2799987793, Lat : 49.2836044, Lng : -123.114966, Q1 : 0.919850885868, Q2 : 0.0773942396045, Q3 : -0.117061197758, Q4 : 0.366307497025}
2019-04-14 11:46:57.11: SIM {TimeUS : 58135070, Roll : 3.54, Pitch : -15.74, Yaw : 42.36, Alt : 49.2799987793, Lat : 49.2836063, Lng : -123.1149629, Q1 : 0.921668827534, Q2 : 0.0780215188861, Q3 : -0.116633571684, Q4 : 0.361712306738}
2019-04-14 11:46:57.21: SIM {TimeUS : 58235030, Roll : 3.29, Pitch : -15.73, Yaw : 42.47, Alt : 49.2799987793, Lat : 49.2836084, Lng : -123.1149597, Q1 : 0.921515822411, Q2 : 0.0760954245925, Q3 : -0.117185823619, Q4 : 0.362333476543}
2019-04-14 11:46:57.31: SIM {TimeUS : 58334990, Roll : 2.74, Pitch : -15.76, Yaw : 43.14, Alt : 49.2799987793, Lat : 49.2836104, Lng : -123.1149564, Q1 : 0.919688940048, Q2 : 0.0724399015307, Q3 : -0.118764542043, Q4 : 0.367178112268}
2019-04-14 11:46:57.41: SIM {TimeUS : 58434950, Roll : 1.96, Pitch : -15.85, Yaw : 44.21, Alt : 49.2799987793, Lat : 49.2836123, Lng : -123.1149531, Q1 : 0.916585147381, Q2 : 0.0676382109523, Q3 : -0.121381096542, Q4 : 0.374917805195}
2019-04-14 11:46:57.51: SIM {TimeUS : 58534910, Roll : 1.1, Pitch : -15.99, Yaw : 45.5, Alt : 49.2799987793, Lat : 49.2836144, Lng : -123.1149496, Q1 : 0.91266053915, Q2 : 0.0626239329576, Q3 : -0.124582089484, Q4 : 0.384198367596}
2019-04-14 11:46:57.61: SIM {TimeUS : 58634870, Roll : 0.29, Pitch : -16.11, Yaw : 46.82, Alt : 49.2799987793, Lat : 49.2836165, Lng : -123.1149461, Q1 : 0.908457100391, Q2 : 0.0580650418997, Q3 : -0.127629935741, Q4 : 0.393757283688}
2019-04-14 11:46:57.71: SIM {TimeUS : 58734830, Roll : -0.4, Pitch : -16.21, Yaw : 48.03, Alt : 49.2799987793, Lat : 49.2836185, Lng : -123.1149425, Q1 : 0.904496431351, Q2 : 0.0541990883648, Q3 : -0.130226001143, Q4 : 0.402479708195}
2019-04-14 11:46:57.81: SIM {TimeUS : 58834790, Roll : -0.95, Pitch : -16.29, Yaw : 49.01, Alt : 49.2799987793, Lat : 49.2836207, Lng : -123.1149389, Q1 : 0.901183545589, Q2 : 0.0512538701296, Q3 : -0.132365301251, Q4 : 0.409537196159}
2019-04-14 11:46:57.91: SIM {TimeUS : 58934750, Roll : -1.31, Pitch : -16.35, Yaw : 49.7, Alt : 49.2799987793, Lat : 49.2836229, Lng : -123.1149352, Q1 : 0.898805379868, Q2 : 0.0494537614286, Q3 : -0.133878186345, Q4 : 0.414463341236}
2019-04-14 11:46:58.01: SIM {TimeUS : 59034710, Roll : -1.48, Pitch : -16.42, Yaw : 50.06, Alt : 49.2900009155, Lat : 49.283625, Lng : -123.1149315, Q1 : 0.897485852242, Q2 : 0.0488353036344, Q3 : -0.134806379676, Q4 : 0.41708701849}
2019-04-14 11:46:58.11: SIM {TimeUS : 59134670, Roll : -1.46, Pitch : -16.45, Yaw : 50.12, Alt : 49.2900009155, Lat : 49.2836273, Lng : -123.1149277, Q1 : 0.897223770618, Q2 : 0.0491826087236, Q3 : -0.135002493858, Q4 : 0.41754630208}
2019-04-14 11:46:58.21: SIM {TimeUS : 59234630, Roll : -1.27, Pitch : -16.49, Yaw : 49.92, Alt : 49.2900009155, Lat : 49.2836296, Lng : -123.1149239, Q1 : 0.897840261459, Q2 : 0.050504039973, Q3 : -0.134665772319, Q4 : 0.416169881821}
2019-04-14 11:46:58.31: SIM {TimeUS : 59334590, Roll : -0.97, Pitch : -16.52, Yaw : 49.52, Alt : 49.2900009155, Lat : 49.2836318, Lng : -123.1149201, Q1 : 0.89909529686, Q2 : 0.0525630265474, Q3 : -0.133997917175, Q4 : 0.413411915302}
2019-04-14 11:46:58.41: SIM {TimeUS : 59434550, Roll : -0.6, Pitch : -16.56, Yaw : 49.01, Alt : 49.2900009155, Lat : 49.2836342, Lng : -123.1149162, Q1 : 0.90072530508, Q2 : 0.0549739263952, Q3 : -0.13321056962, Q4 : 0.409788608551}
2019-04-14 11:46:58.51: SIM {TimeUS : 59534510, Roll : -0.22, Pitch : -16.59, Yaw : 48.45, Alt : 49.2900009155, Lat : 49.2836366, Lng : -123.1149123, Q1 : 0.902473926544, Q2 : 0.0574471578002, Q3 : -0.132440924644, Q4 : 0.405832648277}
2019-04-14 11:46:58.61: SIM {TimeUS : 59634470, Roll : 0.11, Pitch : -16.64, Yaw : 47.92, Alt : 49.2900009155, Lat : 49.283639, Lng : -123.1149084, Q1 : 0.904121279716, Q2 : 0.0597101934254, Q3 : -0.131852030754, Q4 : 0.402013093233}
2019-04-14 11:46:58.72: SIM {TimeUS : 59735263, Roll : 0.38, Pitch : -16.68, Yaw : 47.46, Alt : 49.2900009155, Lat : 49.2836414, Lng : -123.1149043, Q1 : 0.905536234379, Q2 : 0.0614536963403, Q3 : -0.131457969546, Q4 : 0.398680835962}
2019-04-14 11:46:58.81: SIM {TimeUS : 59835223, Roll : 0.56, Pitch : -16.7, Yaw : 47.12, Alt : 49.2900009155, Lat : 49.2836439, Lng : -123.1149002, Q1 : 0.906600475311, Q2 : 0.0625621527433, Q3 : -0.131233170629, Q4 : 0.396155834198}
2019-04-14 11:46:58.91: SIM {TimeUS : 59935183, Roll : 0.65, Pitch : -16.74, Yaw : 46.9, Alt : 49.2900009155, Lat : 49.2836463, Lng : -123.1148962, Q1 : 0.907265365124, Q2 : 0.0630981400609, Q3 : -0.131329253316, Q4 : 0.394513428211}
2019-04-14 11:46:59.01: SIM {TimeUS : 60035143, Roll : 0.64, Pitch : -16.79, Yaw : 46.81, Alt : 49.2900009155, Lat : 49.2836487, Lng : -123.1148921, Q1 : 0.907523095608, Q2 : 0.0631258562207, Q3 : -0.13180090487, Q4 : 0.393758177757}
2019-04-14 11:46:59.11: SIM {TimeUS : 60135103, Roll : 0.55, Pitch : -16.83, Yaw : 46.83, Alt : 49.2900009155, Lat : 49.2836512, Lng : -123.114888, Q1 : 0.907443583012, Q2 : 0.0626007840037, Q3 : -0.132453888655, Q4 : 0.393806099892}
2019-04-14 11:46:59.21: SIM {TimeUS : 60235063, Roll : 0.41, Pitch : -16.87, Yaw : 46.94, Alt : 49.2900009155, Lat : 49.2836537, Lng : -123.1148838, Q1 : 0.907102227211, Q2 : 0.0617324374616, Q3 : -0.133115693927, Q4 : 0.394505888224}
2019-04-14 11:46:59.31: SIM {TimeUS : 60335023, Roll : 0.24, Pitch : -16.89, Yaw : 47.11, Alt : 49.2900009155, Lat : 49.2836562, Lng : -123.1148795, Q1 : 0.906576573849, Q2 : 0.0606866180897, Q3 : -0.133789554238, Q4 : 0.395646810532}
2019-04-14 11:46:59.41: SIM {TimeUS : 60434983, Roll : 0.1, Pitch : -16.93, Yaw : 47.31, Alt : 49.2999992371, Lat : 49.2836588, Lng : -123.1148753, Q1 : 0.905916929245, Q2 : 0.0599113963544, Q3 : -0.134488210082, Q4 : 0.397036671638}
2019-04-14 11:46:59.51: SIM {TimeUS : 60534943, Roll : -0.01, Pitch : -16.97, Yaw : 47.51, Alt : 49.2999992371, Lat : 49.2836613, Lng : -123.114871, Q1 : 0.90523314476, Q2 : 0.0593266859651, Q3 : -0.135151967406, Q4 : 0.398456066847}
2019-04-14 11:46:59.61: SIM {TimeUS : 60634903, Roll : -0.11, Pitch : -17.02, Yaw : 47.69, Alt : 49.2999992371, Lat : 49.2836638, Lng : -123.1148667, Q1 : 0.904610395432, Q2 : 0.0589533932507, Q3 : -0.135759398341, Q4 : 0.399717330933}
2019-04-14 11:46:59.71: SIM {TimeUS : 60734863, Roll : -0.16, Pitch : -17.06, Yaw : 47.82, Alt : 49.2999992371, Lat : 49.2836664, Lng : -123.1148624, Q1 : 0.90411233902, Q2 : 0.0588859170675, Q3 : -0.1362259835, Q4 : 0.400694131851}
2019-04-14 11:46:59.81: SIM {TimeUS : 60834823, Roll : -0.19, Pitch : -17.11, Yaw : 47.91, Alt : 49.2999992371, Lat : 49.2836689, Lng : -123.114858, Q1 : 0.903782367706, Q2 : 0.0588976182044, Q3 : -0.136652171612, Q4 : 0.401291251183}
2019-04-14 11:46:59.91: SIM {TimeUS : 60934783, Roll : -0.21, Pitch : -17.13, Yaw : 47.94, Alt : 49.2999992371, Lat : 49.2836716, Lng : -123.1148537, Q1 : 0.903658747673, Q2 : 0.0588613338768, Q3 : -0.136880919337, Q4 : 0.401496976614}
2019-04-14 11:47:00.01: SIM {TimeUS : 61034743, Roll : -0.21, Pitch : -17.15, Yaw : 47.92, Alt : 49.2999992371, Lat : 49.2836742, Lng : -123.1148493, Q1 : 0.903706371784, Q2 : 0.0588936172426, Q3 : -0.137011110783, Q4 : 0.401340603828}
2019-04-14 11:47:00.11: SIM {TimeUS : 61134703, Roll : -0.17, Pitch : -17.15, Yaw : 47.86, Alt : 49.2999992371, Lat : 49.2836767, Lng : -123.1148449, Q1 : 0.903888165951, Q2 : 0.0591564998031, Q3 : -0.136934638023, Q4 : 0.400918513536}
2019-04-14 11:47:00.21: SIM {TimeUS : 61234663, Roll : -0.1, Pitch : -17.16, Yaw : 47.77, Alt : 49.2999992371, Lat : 49.2836793, Lng : -123.1148405, Q1 : 0.904153823853, Q2 : 0.059585146606, Q3 : -0.136827334762, Q4 : 0.400292158127}
2019-04-14 11:47:00.31: SIM {TimeUS : 61334623, Roll : -0.01, Pitch : -17.19, Yaw : 47.67, Alt : 49.2999992371, Lat : 49.2836821, Lng : -123.114836, Q1 : 0.904433727264, Q2 : 0.0602886080742, Q3 : -0.136836618185, Q4 : 0.399550676346}
2019-04-14 11:47:00.41: SIM {TimeUS : 61434583, Roll : 0.07, Pitch : -17.25, Yaw : 47.56, Alt : 49.3100013733, Lat : 49.2836846, Lng : -123.1148315, Q1 : 0.904691696167, Q2 : 0.0611035376787, Q3 : -0.137032151222, Q4 : 0.398775011301}
2019-04-14 11:47:00.51: SIM {TimeUS : 61534543, Roll : 0.14, Pitch : -17.29, Yaw : 47.46, Alt : 49.3100013733, Lat : 49.2836874, Lng : -123.1148271, Q1 : 0.904960930347, Q2 : 0.0616874285042, Q3 : -0.137152954936, Q4 : 0.398032009602}
2019-04-14 11:47:00.61: SIM {TimeUS : 61634503, Roll : 0.19, Pitch : -17.31, Yaw : 47.37, Alt : 49.3100013733, Lat : 49.2836901, Lng : -123.1148226, Q1 : 0.905222594738, Q2 : 0.0620222687721, Q3 : -0.137130901217, Q4 : 0.397392004728}
2019-04-14 11:47:00.71: SIM {TimeUS : 61734463, Roll : 0.21, Pitch : -17.32, Yaw : 47.3, Alt : 49.3100013733, Lat : 49.2836926, Lng : -123.1148181, Q1 : 0.905431330204, Q2 : 0.0621287226677, Q3 : -0.137172400951, Q4 : 0.396885186434}
2019-04-14 11:47:00.82: SIM {TimeUS : 61835256, Roll : 0.2, Pitch : -17.34, Yaw : 47.26, Alt : 49.3100013733, Lat : 49.2836954, Lng : -123.1148135, Q1 : 0.905565083027, Q2 : 0.0620891191065, Q3 : -0.137411609292, Q4 : 0.396503329277}
2019-04-14 11:47:00.91: SIM {TimeUS : 61935216, Roll : 0.19, Pitch : -17.35, Yaw : 47.23, Alt : 49.3100013733, Lat : 49.283698, Lng : -123.114809, Q1 : 0.905636250973, Q2 : 0.0620034076273, Q3 : -0.137582868338, Q4 : 0.396294742823}
2019-04-14 11:47:01.01: SIM {TimeUS : 62035176, Roll : 0.17, Pitch : -17.38, Yaw : 47.23, Alt : 49.3100013733, Lat : 49.2837009, Lng : -123.1148044, Q1 : 0.905642092228, Q2 : 0.061918374151, Q3 : -0.137842908502, Q4 : 0.396204322577}
2019-04-14 11:47:01.11: SIM {TimeUS : 62135136, Roll : 0.15, Pitch : -17.4, Yaw : 47.23, Alt : 49.3100013733, Lat : 49.2837035, Lng : -123.1147999, Q1 : 0.905605852604, Q2 : 0.0618386864662, Q3 : -0.138118848205, Q4 : 0.396203517914}
2019-04-14 11:47:01.21: SIM {TimeUS : 62235096, Roll : 0.14, Pitch : -17.44, Yaw : 47.24, Alt : 49.3100013733, Lat : 49.2837063, Lng : -123.1147953, Q1 : 0.90552932024, Q2 : 0.0618762001395, Q3 : -0.138432905078, Q4 : 0.396263003349}
2019-04-14 11:47:01.31: SIM {TimeUS : 62335056, Roll : 0.12, Pitch : -17.46, Yaw : 47.26, Alt : 49.3100013733, Lat : 49.2837089, Lng : -123.1147907, Q1 : 0.905458807945, Q2 : 0.0618585087359, Q3 : -0.138662472367, Q4 : 0.396346628666}
2019-04-14 11:47:01.41: SIM {TimeUS : 62435016, Roll : 0.12, Pitch : -17.49, Yaw : 47.27, Alt : 49.3100013733, Lat : 49.2837118, Lng : -123.1147861, Q1 : 0.90538084507, Q2 : 0.0619316734374, Q3 : -0.138878315687, Q4 : 0.396437704563}
2019-04-14 11:47:01.51: SIM {TimeUS : 62534976, Roll : 0.12, Pitch : -17.51, Yaw : 47.28, Alt : 49.3100013733, Lat : 49.2837144, Lng : -123.1147814, Q1 : 0.905312240124, Q2 : 0.062048304826, Q3 : -0.139045134187, Q4 : 0.396517693996}
2019-04-14 11:47:01.61: SIM {TimeUS : 62634936, Roll : 0.11, Pitch : -17.55, Yaw : 47.29, Alt : 49.3100013733, Lat : 49.2837173, Lng : -123.1147768, Q1 : 0.905253648758, Q2 : 0.0621103979647, Q3 : -0.139371901751, Q4 : 0.396527051926}
2019-04-14 11:47:01.71: SIM {TimeUS : 62734896, Roll : 0.08, Pitch : -17.59, Yaw : 47.29, Alt : 49.3199996948, Lat : 49.2837199, Lng : -123.1147721, Q1 : 0.90522480011, Q2 : 0.0620060786605, Q3 : -0.139803439379, Q4 : 0.396457225084}
2019-04-14 11:47:01.81: SIM {TimeUS : 62834856, Roll : 0.06, Pitch : -17.63, Yaw : 47.28, Alt : 49.3199996948, Lat : 49.2837228, Lng : -123.1147675, Q1 : 0.905212640762, Q2 : 0.0619726851583, Q3 : -0.14023861289, Q4 : 0.396336525679}
2019-04-14 11:47:01.91: SIM {TimeUS : 62934816, Roll : 0.07, Pitch : -17.66, Yaw : 47.26, Alt : 49.3199996948, Lat : 49.2837255, Lng : -123.1147628, Q1 : 0.905225455761, Q2 : 0.0621225908399, Q3 : -0.140462681651, Q4 : 0.396204471588}
2019-04-14 11:47:02.01: SIM {TimeUS : 63034776, Roll : 0.1, Pitch : -17.67, Yaw : 47.24, Alt : 49.3199996948, Lat : 49.2837284, Lng : -123.1147581, Q1 : 0.905285894871, Q2 : 0.0623385384679, Q3 : -0.140378266573, Q4 : 0.396062284708}
2019-04-14 11:47:02.11: SIM {TimeUS : 63134736, Roll : 0.13, Pitch : -17.65, Yaw : 47.21, Alt : 49.3199996948, Lat : 49.2837312, Lng : -123.1147534, Q1 : 0.905383765697, Q2 : 0.0624918527901, Q3 : -0.140130847692, Q4 : 0.395901948214}
2019-04-14 11:47:02.21: SIM {TimeUS : 63234696, Roll : 0.14, Pitch : -17.63, Yaw : 47.18, Alt : 49.3199996948, Lat : 49.2837339, Lng : -123.1147487, Q1 : 0.90549069643, Q2 : 0.0625198706985, Q3 : -0.139979586005, Q4 : 0.395706474781}
2019-04-14 11:47:02.31: SIM {TimeUS : 63334656, Roll : 0.14, Pitch : -17.62, Yaw : 47.16, Alt : 49.3199996948, Lat : 49.2837368, Lng : -123.1147439, Q1 : 0.905604541302, Q2 : 0.0624343566597, Q3 : -0.139906436205, Q4 : 0.39548522234}
2019-04-14 11:47:02.41: SIM {TimeUS : 63434616, Roll : 0.14, Pitch : -17.61, Yaw : 47.13, Alt : 49.3199996948, Lat : 49.2837395, Lng : -123.1147393, Q1 : 0.905719995499, Q2 : 0.0623248293996, Q3 : -0.139824539423, Q4 : 0.39526706934}
2019-04-14 11:47:02.51: SIM {TimeUS : 63534576, Roll : 0.14, Pitch : -17.62, Yaw : 47.1, Alt : 49.3199996948, Lat : 49.2837424, Lng : -123.1147345, Q1 : 0.905790448189, Q2 : 0.0623485259712, Q3 : -0.139954119921, Q4 : 0.395055860281}
2019-04-14 11:47:02.61: SIM {TimeUS : 63634536, Roll : 0.14, Pitch : -17.65, Yaw : 47.08, Alt : 49.3199996948, Lat : 49.2837452, Lng : -123.1147298, Q1 : 0.905825912952, Q2 : 0.0624554045498, Q3 : -0.140227720141, Q4 : 0.394860655069}
2019-04-14 11:47:02.71: SIM {TimeUS : 63734496, Roll : 0.13, Pitch : -17.7, Yaw : 47.06, Alt : 49.3199996948, Lat : 49.283748, Lng : -123.114725, Q1 : 0.905833005905, Q2 : 0.0625383257866, Q3 : -0.140658944845, Q4 : 0.394677877426}
2019-04-14 11:47:02.81: SIM {TimeUS : 63834456, Roll : 0.13, Pitch : -17.77, Yaw : 47.05, Alt : 49.3199996948, Lat : 49.2837509, Lng : -123.1147202, Q1 : 0.905801534653, Q2 : 0.0627567991614, Q3 : -0.14118373394, Q4 : 0.39452791214}
2019-04-14 11:47:02.91: SIM {TimeUS : 63935249, Roll : 0.14, Pitch : -17.81, Yaw : 47.03, Alt : 49.3199996948, Lat : 49.2837538, Lng : -123.1147155, Q1 : 0.9057918787, Q2 : 0.062945753336, Q3 : -0.141427055001, Q4 : 0.394432991743}
2019-04-14 11:47:03.01: SIM {TimeUS : 64035209, Roll : 0.14, Pitch : -17.82, Yaw : 47.02, Alt : 49.3300018311, Lat : 49.2837565, Lng : -123.1147107, Q1 : 0.905799210072, Q2 : 0.0630032345653, Q3 : -0.141575872898, Q4 : 0.394353538752}
2019-04-14 11:47:03.11: SIM {TimeUS : 64135169, Roll : 0.14, Pitch : -17.83, Yaw : 47.02, Alt : 49.3300018311, Lat : 49.2837594, Lng : -123.1147059, Q1 : 0.905821859837, Q2 : 0.0629846304655, Q3 : -0.141643717885, Q4 : 0.394280076027}
2019-04-14 11:47:03.21: SIM {TimeUS : 64235129, Roll : 0.15, Pitch : -17.81, Yaw : 47.01, Alt : 49.3300018311, Lat : 49.2837623, Lng : -123.1147011, Q1 : 0.905861616135, Q2 : 0.0629881769419, Q3 : -0.141493320465, Q4 : 0.394242227077}
2019-04-14 11:47:03.31: SIM {TimeUS : 64335089, Roll : 0.17, Pitch : -17.82, Yaw : 47.0, Alt : 49.3300018311, Lat : 49.2837652, Lng : -123.1146963, Q1 : 0.905873656273, Q2 : 0.0631342381239, Q3 : -0.141454607248, Q4 : 0.394205033779}
2019-04-14 11:47:03.41: SIM {TimeUS : 64435049, Roll : 0.17, Pitch : -17.84, Yaw : 46.99, Alt : 49.3300018311, Lat : 49.2837679, Lng : -123.1146915, Q1 : 0.905876755714, Q2 : 0.0632431656122, Q3 : -0.141587749124, Q4 : 0.39413267374}
2019-04-14 11:47:03.51: SIM {TimeUS : 64535009, Roll : 0.18, Pitch : -17.85, Yaw : 46.98, Alt : 49.3300018311, Lat : 49.2837709, Lng : -123.1146867, Q1 : 0.905888915062, Q2 : 0.0633134171367, Q3 : -0.141692683101, Q4 : 0.394055664539}
2019-04-14 11:47:03.61: SIM {TimeUS : 64634969, Roll : 0.18, Pitch : -17.85, Yaw : 46.97, Alt : 49.3300018311, Lat : 49.2837738, Lng : -123.1146819, Q1 : 0.905923306942, Q2 : 0.0633506402373, Q3 : -0.141686275601, Q4 : 0.393972933292}
2019-04-14 11:47:03.71: SIM {TimeUS : 64734929, Roll : 0.18, Pitch : -17.86, Yaw : 46.96, Alt : 49.3300018311, Lat : 49.2837765, Lng : -123.114677, Q1 : 0.905956327915, Q2 : 0.0633524730802, Q3 : -0.141760841012, Q4 : 0.393869847059}
2019-04-14 11:47:03.81: SIM {TimeUS : 64834889, Roll : 0.17, Pitch : -17.89, Yaw : 46.95, Alt : 49.3300018311, Lat : 49.2837794, Lng : -123.1146722, Q1 : 0.905976295471, Q2 : 0.0633074268699, Q3 : -0.142035111785, Q4 : 0.393732398748}
2019-04-14 11:47:03.91: SIM {TimeUS : 64934849, Roll : 0.14, Pitch : -17.93, Yaw : 46.93, Alt : 49.3300018311, Lat : 49.2837824, Lng : -123.1146673, Q1 : 0.90598410368, Q2 : 0.0632478892803, Q3 : -0.142467975616, Q4 : 0.393567562103}
2019-04-14 11:47:04.01: SIM {TimeUS : 65034809, Roll : 0.13, Pitch : -17.94, Yaw : 46.92, Alt : 49.3300018311, Lat : 49.2837853, Lng : -123.1146625, Q1 : 0.906022131443, Q2 : 0.0631918683648, Q3 : -0.142631322145, Q4 : 0.393429845572}
2019-04-14 11:47:04.11: SIM {TimeUS : 65134769, Roll : 0.14, Pitch : -17.94, Yaw : 46.9, Alt : 49.3300018311, Lat : 49.2837881, Lng : -123.1146577, Q1 : 0.906076610088, Q2 : 0.0632152110338, Q3 : -0.142542049289, Q4 : 0.393332928419}
2019-04-14 11:47:04.21: SIM {TimeUS : 65234729, Roll : 0.16, Pitch : -17.93, Yaw : 46.89, Alt : 49.3300018311, Lat : 49.283791, Lng : -123.1146527, Q1 : 0.906124889851, Q2 : 0.0633259341121, Q3 : -0.142397448421, Q4 : 0.393256306648}
2019-04-14 11:47:04.31: SIM {TimeUS : 65334689, Roll : 0.17, Pitch : -17.93, Yaw : 46.88, Alt : 49.3300018311, Lat : 49.283794, Lng : -123.114648, Q1 : 0.906156241894, Q2 : 0.0634321048856, Q3 : -0.142419785261, Q4 : 0.393158882856}
2019-04-14 11:47:04.41: SIM {TimeUS : 65434649, Roll : 0.16, Pitch : -17.95, Yaw : 46.86, Alt : 49.3300018311, Lat : 49.2837969, Lng : -123.1146431, Q1 : 0.90617698431, Q2 : 0.0634119510651, Q3 : -0.142628192902, Q4 : 0.393038749695}
2019-04-14 11:47:04.51: SIM {TimeUS : 65534609, Roll : 0.14, Pitch : -17.97, Yaw : 46.85, Alt : 49.3400001526, Lat : 49.2837998, Lng : -123.1146381, Q1 : 0.906202554703, Q2 : 0.0632989481091, Q3 : -0.142867460847, Q4 : 0.392911046743}
2019-04-14 11:47:04.61: SIM {TimeUS : 65634569, Roll : 0.13, Pitch : -17.99, Yaw : 46.84, Alt : 49.3400001526, Lat : 49.2838026, Lng : -123.1146333, Q1 : 0.906223058701, Q2 : 0.0632777661085, Q3 : -0.143044650555, Q4 : 0.392802625895}
2019-04-14 11:47:04.71: SIM {TimeUS : 65734529, Roll : 0.14, Pitch : -18.01, Yaw : 46.83, Alt : 49.3400001526, Lat : 49.2838056, Lng : -123.1146285, Q1 : 0.906238973141, Q2 : 0.0633911639452, Q3 : -0.143135532737, Q4 : 0.392714589834}
2019-04-14 11:47:04.81: SIM {TimeUS : 65834489, Roll : 0.16, Pitch : -18.02, Yaw : 46.82, Alt : 49.3400001526, Lat : 49.2838085, Lng : -123.1146235, Q1 : 0.906255662441, Q2 : 0.0635240450501, Q3 : -0.143179222941, Q4 : 0.392638593912}
2019-04-14 11:47:04.92: SIM {TimeUS : 65935282, Roll : 0.18, Pitch : -18.03, Yaw : 46.81, Alt : 49.3400001526, Lat : 49.2838115, Lng : -123.1146187, Q1 : 0.906251847744, Q2 : 0.0637484565377, Q3 : -0.143216863275, Q4 : 0.3925973773}
2019-04-14 11:47:05.01: SIM {TimeUS : 66035242, Roll : 0.19, Pitch : -18.05, Yaw : 46.81, Alt : 49.3400001526, Lat : 49.2838144, Lng : -123.1146138, Q1 : 0.906246721745, Q2 : 0.0638543516397, Q3 : -0.143315553665, Q4 : 0.392556011677}
2019-04-14 11:47:05.11: SIM {TimeUS : 66135202, Roll : 0.2, Pitch : -18.06, Yaw : 46.8, Alt : 49.3400001526, Lat : 49.2838172, Lng : -123.1146089, Q1 : 0.906239748001, Q2 : 0.0639544352889, Q3 : -0.143423706293, Q4 : 0.392516195774}
2019-04-14 11:47:05.21: SIM {TimeUS : 66235162, Roll : 0.2, Pitch : -18.08, Yaw : 46.8, Alt : 49.3400001526, Lat : 49.2838202, Lng : -123.114604, Q1 : 0.90623497963, Q2 : 0.0640542060137, Q3 : -0.143505439162, Q4 : 0.392481118441}
2019-04-14 11:47:05.31: SIM {TimeUS : 66335122, Roll : 0.22, Pitch : -18.09, Yaw : 46.79, Alt : 49.3400001526, Lat : 49.2838232, Lng : -123.1145991, Q1 : 0.906231224537, Q2 : 0.0641955584288, Q3 : -0.143521502614, Q4 : 0.392460823059}
2019-04-14 11:47:05.41: SIM {TimeUS : 66435082, Roll : 0.25, Pitch : -18.1, Yaw : 46.79, Alt : 49.3400001526, Lat : 49.2838261, Lng : -123.1145942, Q1 : 0.906213462353, Q2 : 0.0644600838423, Q3 : -0.143520668149, Q4 : 0.392458766699}
2019-04-14 11:47:05.51: SIM {TimeUS : 66535042, Roll : 0.25, Pitch : -18.1, Yaw : 46.78, Alt : 49.3400001526, Lat : 49.2838291, Lng : -123.1145893, Q1 : 0.906226038933, Q2 : 0.0644703805447, Q3 : -0.143517807126, Q4 : 0.392429083586}
2019-04-14 11:47:05.61: SIM {TimeUS : 66635002, Roll : 0.22, Pitch : -18.11, Yaw : 46.78, Alt : 49.3400001526, Lat : 49.2838319, Lng : -123.1145844, Q1 : 0.906242251396, Q2 : 0.0643156096339, Q3 : -0.143694624305, Q4 : 0.392352283001}
2019-04-14 11:47:05.71: SIM {TimeUS : 66734962, Roll : 0.2, Pitch : -18.13, Yaw : 46.77, Alt : 49.3400001526, Lat : 49.2838348, Lng : -123.1145794, Q1 : 0.906250476837, Q2 : 0.0641696378589, Q3 : -0.143979519606, Q4 : 0.392252832651}
2019-04-14 11:47:05.81: SIM {TimeUS : 66834922, Roll : 0.16, Pitch : -18.15, Yaw : 46.76, Alt : 49.3499984741, Lat : 49.2838378, Lng : -123.1145745, Q1 : 0.906271219254, Q2 : 0.063957259059, Q3 : -0.144241049886, Q4 : 0.392143398523}
