2019-04-14 11:26:12.80: SIM {TimeUS : 40416327, Roll : 0.0, Pitch : 0.0, Yaw : 0.0, Alt : 30.1000003815, Lat : 49.28357, Lng : -123.11502, Q1 : 1.0, Q2 : 0.0, Q3 : 0.0, Q4 : 0.0}
2019-04-14 11:26:12.91: SIM {TimeUS : 40535446, Roll : 0.0, Pitch : 0.0, Yaw : 0.0, Alt : 30.1000003815, Lat : 49.28357, Lng : -123.11502, Q1 : 1.0, Q2 : 0.0, Q3 : 0.0, Q4 : 0.0}
2019-04-14 11:26:13.01: SIM {TimeUS : 40635406, Roll : 0.0, Pitch : 0.0, Yaw : 0.0, Alt : 30.1000003815, Lat : 49.28357, Lng : -123.11502, Q1 : 1.0, Q2 : 0.0, Q3 : 0.0, Q4 : 0.0}
2019-04-14 11:26:13.11: SIM {TimeUS : 40735366, Roll : 0.0, Pitch : 0.0, Yaw : 0.0, Alt : 30.1000003815, Lat : 49.28357, Lng : -123.11502, Q1 : 1.0, Q2 : 0.0, Q3 : 0.0, Q4 : 0.0}
2019-04-14 11:26:13.21: SIM {TimeUS : 40835326, Roll : 0.0, Pitch : 0.0, Yaw : 0.0, Alt : 30.1000003815, Lat : 49.28357, Lng : -123.11502, Q1 : 1.0, Q2 : 0.0, Q3 : 0.0, Q4 : 0.0}
2019-04-14 11:26:13.31: SIM {TimeUS : 40935286, Roll : 0.0, Pitch : 0.0, Yaw : 0.0, Alt : 30.1000003815, Lat : 49.28357, Lng : -123.11502, Q1 : 1.0, Q2 : 0.0, Q3 : 0.0, Q4 : 0.0}
2019-04-14 11:26:13.41: SIM {TimeUS : 41035246, Roll : 0.0, Pitch : 0.0, Yaw : 0.0, Alt : 30.1000003815, Lat : 49.28357, Lng : -123.11502, Q1 : 1.0, Q2 : 0.0, Q3 : 0.0, Q4 : 0.0}
2019-04-14 11:26:13.51: SIM {TimeUS : 41135206, Roll : 0.0, Pitch : 0.0, Yaw : 0.0, Alt : 30.1000003815, Lat : 49.28357, Lng : -123.11502, Q1 : 1.0, Q2 : 0.0, Q3 : 0.0, Q4 : 0.0}
2019-04-14 11:26:13.61: SIM {TimeUS : 41235166, Roll : 0.0, Pitch : 0.0, Yaw : 0.0, Alt : 30.1000003815, Lat : 49.28357, Lng : -123.11502, Q1 : 1.0, Q2 : 0.0, Q3 : 0.0, Q4 : 0.0}
2019-04-14 11:26:13.71: SIM {TimeUS : 41335126, Roll : 0.0, Pitch : 0.0, Yaw : 0.0, Alt : 30.1000003815, Lat : 49.28357, Lng : -123.11502, Q1 : 1.0, Q2 : 0.0, Q3 : 0.0, Q4 : 0.0}
2019-04-14 11:26:13.81: SIM {TimeUS : 41435086, Roll : 0.0, Pitch : 0.0, Yaw : 0.0, Alt : 30.1000003815, Lat : 49.28357, Lng : -123.11502, Q1 : 1.0, Q2 : 0.0, Q3 : 0.0, Q4 : 0.0}
2019-04-14 11:26:13.91: SIM {TimeUS : 41535046, Roll : 0.0, Pitch : 0.0, Yaw : 0.0, Alt : 30.1000003815, Lat : 49.28357, Lng : -123.11502, Q1 : 1.0, Q2 : 0.0, Q3 : 0.0, Q4 : 0.0}
2019-04-14 11:26:14.01: SIM {TimeUS : 41635006, Roll : 0.0, Pitch : 0.0, Yaw : 0.0, Alt : 30.1000003815, Lat : 49.28357, Lng : -123.11502, Q1 : 1.0, Q2 : 0.0, Q3 : 0.0, Q4 : 0.0}
2019-04-14 11:26:14.11: SIM {TimeUS : 41734966, Roll : 0.0, Pitch : 0.0, Yaw : 0.0, Alt : 30.1000003815, Lat : 49.28357, Lng : -123.11502, Q1 : 1.0, Q2 : 0.0, Q3 : 0.0, Q4 : 0.0}
2019-04-14 11:26:14.21: SIM {TimeUS : 41834926, Roll : 0.0, Pitch : 0.0, Yaw : 0.0, Alt : 30.1000003815, Lat : 49.28357, Lng : -123.11502, Q1 : 1.0, Q2 : 0.0, Q3 : 0.0, Q4 : 0.0}
2019-04-14 11:26:14.31: SIM {TimeUS : 41934886, Roll : 0.0, Pitch : 0.0, Yaw : 0.0, Alt : 30.1000003815, Lat : 49.28357, Lng : -123.11502, Q1 : 1.0, Q2 : 0.0, Q3 : 0.0, Q4 : 0.0}
2019-04-14 11:26:14.41: SIM {TimeUS : 42034846, Roll : 0.0, Pitch : 0.0, Yaw : 0.0, Alt : 30.1000003815, Lat : 49.28357, Lng : -123.11502, Q1 : 1.0, Q2 : 0.0, Q3 : 0.0, Q4 : 0.0}
2019-04-14 11:26:14.51: SIM {TimeUS : 42134806, Roll : 0.0, Pitch : 0.0, Yaw : 0.0, Alt : 30.1000003815, Lat : 49.28357, Lng : -123.11502, Q1 : 1.0, Q2 : 0.0, Q3 : 0.0, Q4 : 0.0}
2019-04-14 11:26:14.61: SIM {TimeUS : 42234766, Roll : 0.0, Pitch : 0.0, Yaw : 0.0, Alt : 30.1000003815, Lat : 49.28357, Lng : -123.11502, Q1 : 1.0, Q2 : 0.0, Q3 : 0.0, Q4 : 0.0}
2019-04-14 11:26:14.71: SIM {TimeUS : 42334726, Roll : 0.0, Pitch : 0.0, Yaw : 0.0, Alt : 30.1000003815, Lat : 49.28357, Lng : -123.11502, Q1 : 1.0, Q2 : 0.0, Q3 : 0.0, Q4 : 0.0}
2019-04-14 11:26:14.81: SIM {TimeUS : 42434686, Roll : 0.0, Pitch : 0.0, Yaw : 0.0, Alt : 30.1000003815, Lat : 49.28357, Lng : -123.11502, Q1 : 1.0, Q2 : 0.0, Q3 : 0.0, Q4 : 0.0}
2019-04-14 11:26:14.91: SIM {TimeUS : 42535479, Roll : 0.0, Pitch : 0.0, Yaw : 0.0, Alt : 30.1000003815, Lat : 49.28357, Lng : -123.11502, Q1 : 1.0, Q2 : 0.0, Q3 : 0.0, Q4 : 0.0}
2019-04-14 11:26:15.01: SIM {TimeUS : 42635439, Roll : 0.0, Pitch : 0.0, Yaw : 0.0, Alt : 30.1000003815, Lat : 49.28357, Lng : -123.11502, Q1 : 1.0, Q2 : 0.0, Q3 : 0.0, Q4 : 0.0}
2019-04-14 11:26:15.11: SIM {TimeUS : 42735399, Roll : 0.0, Pitch : 0.0, Yaw : 0.0, Alt : 30.1000003815, Lat : 49.28357, Lng : -123.11502, Q1 : 1.0, Q2 : 0.0, Q3 : 0.0, Q4 : 1.50531601073e-10}
2019-04-14 11:26:15.21: SIM {TimeUS : 42835359, Roll : 0.0, Pitch : 0.0, Yaw : 360.0, Alt : 30.1000003815, Lat : 49.28357, Lng : -123.11502, Q1 : 1.0, Q2 : 0.0, Q3 : 0.0, Q4 : -3.19015214245e-08}
2019-04-14 11:26:15.31: SIM {TimeUS : 42935319, Roll : 0.0, Pitch : 0.0, Yaw : 359.99, Alt : 30.1000003815, Lat : 49.28357, Lng : -123.11502, Q1 : 1.0, Q2 : 0.0, Q3 : 0.0, Q4 : -1.85531689567e-07}
2019-04-14 11:26:15.41: SIM {TimeUS : 43035279, Roll : 0.0, Pitch : 0.0, Yaw : 359.99, Alt : 30.1000003815, Lat : 49.28357, Lng : -123.11502, Q1 : 1.0, Q2 : 0.0, Q3 : 0.0, Q4 : -3.89572477388e-07}
2019-04-14 11:26:15.51: SIM {TimeUS : 43135239, Roll : 0.0, Pitch : 0.0, Yaw : 359.99, Alt : 30.1000003815, Lat : 49.28357, Lng : -123.11502, Q1 : 1.0, Q2 : 0.0, Q3 : 0.0, Q4 : -6.07019842391e-07}
2019-04-14 11:26:15.61: SIM {TimeUS : 43235199, Roll : 0.0, Pitch : 0.0, Yaw : 359.99, Alt : 30.1000003815, Lat : 49.28357, Lng : -123.11502, Q1 : 1.0, Q2 : 0.0, Q3 : 0.0, Q4 : -8.00095847353e-07}
2019-04-14 11:26:15.71: SIM {TimeUS : 43335159, Roll : 0.0, Pitch : 0.0, Yaw : 359.99, Alt : 30.1000003815, Lat : 49.28357, Lng : -123.11502, Q1 : 1.0, Q2 : 0.0, Q3 : 0.0, Q4 : -9.68247150013e-07}
2019-04-14 11:26:15.81: SIM {TimeUS : 43435119, Roll : 0.0, Pitch : 0.0, Yaw : 359.99, Alt : 30.1000003815, Lat : 49.28357, Lng : -123.11502, Q1 : 1.0, Q2 : 0.0, Q3 : 0.0, Q4 : -1.13244720978e-06}
2019-04-14 11:26:15.91: SIM {TimeUS : 43535079, Roll : 0.0, Pitch : 0.0, Yaw : 359.99, Alt : 30.1000003815, Lat : 49.28357, Lng : -123.11502, Q1 : 1.0, Q2 : 0.0, Q3 : 0.0, Q4 : -1.34664890084e-06}
2019-04-14 11:26:16.01: SIM {TimeUS : 43635039, Roll : 0.0, Pitch : 0.0, Yaw : 359.99, Alt : 30.1200008392, Lat : 49.28357, Lng : -123.11502, Q1 : 1.0, Q2 : 0.0, Q3 : 0.0, Q4 : -1.58114346505e-06}
2019-04-14 11:26:16.11: SIM {TimeUS : 43734999, Roll : 0.0, Pitch : 0.0, Yaw : 359.99, Alt : 30.1399993896, Lat : 49.28357, Lng : -123.11502, Q1 : 1.0, Q2 : 0.0, Q3 : 0.0, Q4 : -1.85701617283e-06}
2019-04-14 11:26:16.21: SIM {TimeUS : 43834959, Roll : 0.0, Pitch : 0.0, Yaw : 359.99, Alt : 30.1800003052, Lat : 49.28357, Lng : -123.11502, Q1 : 1.0, Q2 : 0.0, Q3 : 0.0, Q4 : -2.08930350709e-06}
2019-04-14 11:26:16.31: SIM {TimeUS : 43934919, Roll : 0.0, Pitch : 0.0, Yaw : 359.99, Alt : 30.2099990845, Lat : 49.28357, Lng : -123.11502, Q1 : 1.0, Q2 : -7.5396592365e-06, Q3 : -6.58930457575e-06, Q4 : -2.36571486312e-06}
2019-04-14 11:26:16.41: SIM {TimeUS : 44034879, Roll : -0.17, Pitch : -0.16, Yaw : 359.99, Alt : 30.2700004578, Lat : 49.28357, Lng : -123.11502, Q1 : 0.999997735023, Q2 : -0.00155455200002, Q3 : -0.00144444196485, Q4 : -1.87074165297e-05}
2019-04-14 11:26:16.51: SIM {TimeUS : 44134839, Roll : -0.49, Pitch : -0.45, Yaw : 359.99, Alt : 30.3899993896, Lat : 49.28357, Lng : -123.11502, Q1 : 0.999982714653, Q2 : -0.0043177632615, Q3 : -0.00400058273226, Q4 : -6.29138521617e-05}
2019-04-14 11:26:16.61: SIM {TimeUS : 44234799, Roll : -0.76, Pitch : -0.69, Yaw : 359.98, Alt : 30.5400009155, Lat : 49.28357, Lng : -123.11502, Q1 : 0.999959051609, Q2 : -0.00669193966314, Q3 : -0.00609884085134, Q4 : -0.000134450325277}
2019-04-14 11:26:16.71: SIM {TimeUS : 44334759, Roll : -0.88, Pitch : -0.79, Yaw : 359.98, Alt : 30.7000007629, Lat : 49.28357, Lng : -123.11502, Q1 : 0.999946475029, Q2 : -0.00770180113614, Q3 : -0.00690708914772, Q4 : -0.000220838817768}
2019-04-14 11:26:16.81: SIM {TimeUS : 44434719, Roll : -0.82, Pitch : -0.74, Yaw : 359.96, Alt : 30.8600006104, Lat : 49.28357, Lng : -123.1150201, Q1 : 0.99995303154, Q2 : -0.00717883836478, Q3 : -0.00650785397738, Q4 : -0.000314210628858}
2019-04-14 11:26:16.91: SIM {TimeUS : 44534679, Roll : -0.63, Pitch : -0.58, Yaw : 359.95, Alt : 31.0100002289, Lat : 49.28357, Lng : -123.1150201, Q1 : 0.999971330166, Q2 : -0.0055610826239, Q3 : -0.00513044651598, Q4 : -0.000396515853936}
2019-04-14 11:26:17.01: SIM {TimeUS : 44635472, Roll : -0.4, Pitch : -0.36, Yaw : 359.94, Alt : 31.1700000763, Lat : 49.2835701, Lng : -123.1150202, Q1 : 0.99998831749, Q2 : -0.0035670872312, Q3 : -0.00322518590838, Q4 : -0.000468812533654}
2019-04-14 11:26:17.11: SIM {TimeUS : 44735432, Roll : -0.19, Pitch : -0.16, Yaw : 359.94, Alt : 31.3299999237, Lat : 49.2835701, Lng : -123.1150203, Q1 : 0.999997317791, Q2 : -0.00170115288347, Q3 : -0.00147167081013, Q4 : -0.000524484785274}
2019-04-14 11:26:17.21: SIM {TimeUS : 44835392, Roll : -0.03, Pitch : -0.02, Yaw : 359.93, Alt : 31.5, Lat : 49.2835702, Lng : -123.1150204, Q1 : 0.999999761581, Q2 : -0.000306962465402, Q3 : -0.000238154199906, Q4 : -0.000561545137316}
2019-04-14 11:26:17.31: SIM {TimeUS : 44935352, Roll : 0.05, Pitch : 0.04, Yaw : 359.93, Alt : 31.6700000763, Lat : 49.2835702, Lng : -123.1150205, Q1 : 0.999999642372, Q2 : 0.000471557141282, Q3 : 0.000387584470445, Q4 : -0.000584378256463}
2019-04-14 11:26:17.41: SIM {TimeUS : 45035312, Roll : 0.09, Pitch : 0.05, Yaw : 359.93, Alt : 31.8500003815, Lat : 49.2835703, Lng : -123.1150205, Q1 : 0.999999344349, Q2 : 0.000799590896349, Q3 : 0.0005186307244, Q4 : -0.000593610457145}
2019-04-14 11:26:17.51: SIM {TimeUS : 45135272, Roll : 0.1, Pitch : 0.04, Yaw : 359.93, Alt : 32.0400009155, Lat : 49.2835703, Lng : -123.1150206, Q1 : 0.999999403954, Q2 : 0.000879060418811, Q3 : 0.000367314962205, Q4 : -0.0005788038834}
2019-04-14 11:26:17.61: SIM {TimeUS : 45235232, Roll : 0.09, Pitch : 0.02, Yaw : 359.93, Alt : 32.2299995422, Lat : 49.2835703, Lng : -123.1150206, Q1 : 0.999999463558, Q2 : 0.000837100669742, Q3 : 0.000257903506281, Q4 : -0.000547730538528}
2019-04-14 11:26:17.71: SIM {TimeUS : 45335192, Roll : 0.08, Pitch : 0.04, Yaw : 359.94, Alt : 32.4199981689, Lat : 49.2835703, Lng : -123.1150207, Q1 : 0.999999582767, Q2 : 0.000725062389392, Q3 : 0.00035993065103, Q4 : -0.000505542033352}
2019-04-14 11:26:17.81: SIM {TimeUS : 45435152, Roll : 0.06, Pitch : 0.07, Yaw : 359.94, Alt : 32.6100006104, Lat : 49.2835703, Lng : -123.1150207, Q1 : 0.999999523163, Q2 : 0.000540897832252, Q3 : 0.000677206320688, Q4 : -0.000478615198517}
2019-04-14 11:26:17.91: SIM {TimeUS : 45535112, Roll : 0.06, Pitch : 0.12, Yaw : 359.94, Alt : 32.8100013733, Lat : 49.2835703, Lng : -123.1150208, Q1 : 0.99999910593, Q2 : 0.000604111526627, Q3 : 0.00112784339581, Q4 : -0.00046405516332}
2019-04-14 11:26:18.01: SIM {TimeUS : 45635072, Roll : 0.1, Pitch : 0.17, Yaw : 359.94, Alt : 33.0099983215, Lat : 49.2835704, Lng : -123.1150208, Q1 : 0.99999833107, Q2 : 0.00091384537518, Q3 : 0.00150283647235, Q4 : -0.000460781797301}
2019-04-14 11:26:18.11: SIM {TimeUS : 45735032, Roll : 0.14, Pitch : 0.19, Yaw : 359.94, Alt : 33.2099990845, Lat : 49.2835704, Lng : -123.1150208, Q1 : 0.999997675419, Q2 : 0.00124818959739, Q3 : 0.00172032299452, Q4 : -0.000465413293568}
2019-04-14 11:26:18.21: SIM {TimeUS : 45834992, Roll : 0.15, Pitch : 0.21, Yaw : 359.94, Alt : 33.4199981689, Lat : 49.2835704, Lng : -123.1150209, Q1 : 0.999997138977, Q2 : 0.00139601179399, Q3 : 0.00189442525152, Q4 : -0.000471042643767}
2019-04-14 11:26:18.31: SIM {TimeUS : 45934952, Roll : 0.16, Pitch : 0.19, Yaw : 359.94, Alt : 33.6199989319, Lat : 49.2835704, Lng : -123.1150209, Q1 : 0.999997377396, Q2 : 0.00147927110083, Q3 : 0.00169513351284, Q4 : -0.000498393550515}
2019-04-14 11:26:18.41: SIM {TimeUS : 46034912, Roll : 0.16, Pitch : 0.15, Yaw : 359.93, Alt : 33.8300018311, Lat : 49.2835704, Lng : -123.1150209, Q1 : 0.999997913837, Q2 : 0.00145437999163, Q3 : 0.00135166151449, Q4 : -0.000529412704054}
2019-04-14 11:26:18.51: SIM {TimeUS : 46134872, Roll : 0.15, Pitch : 0.12, Yaw : 359.93, Alt : 34.0400009155, Lat : 49.2835704, Lng : -123.1150209, Q1 : 0.999998390675, Q2 : 0.0013143265387, Q3 : 0.00108223746065, Q4 : -0.000559673819225}
2019-04-14 11:26:18.61: SIM {TimeUS : 46234832, Roll : 0.13, Pitch : 0.1, Yaw : 359.93, Alt : 34.25, Lat : 49.2835704, Lng : -123.1150209, Q1 : 0.999998688698, Q2 : 0.00121234555263, Q3 : 0.00090832891874, Q4 : -0.000586232112255}
2019-04-14 11:26:18.71: SIM {TimeUS : 46334792, Roll : 0.13, Pitch : 0.1, Yaw : 359.93, Alt : 34.4599990845, Lat : 49.2835704, Lng : -123.1150209, Q1 : 0.999998688698, Q2 : 0.00120462710038, Q3 : 0.000897232093848, Q4 : -0.000611319555901}
2019-04-14 11:26:18.81: SIM {TimeUS : 46434752, Roll : 0.12, Pitch : 0.08, Yaw : 359.92, Alt : 34.6800003052, Lat : 49.2835704, Lng : -123.1150209, Q1 : 0.999998927116, Q2 : 0.00110224471428, Q3 : 0.000747234676965, Q4 : -0.000623008352704}
2019-04-14 11:26:18.91: SIM {TimeUS : 46534712, Roll : 0.1, Pitch : 0.06, Yaw : 359.92, Alt : 34.8899993896, Lat : 49.2835704, Lng : -123.1150209, Q1 : 0.999999165535, Q2 : 0.000934919982683, Q3 : 0.000604781380389, Q4 : -0.000629253976513}
2019-04-14 11:26:19.01: SIM {TimeUS : 46634672, Roll : 0.08, Pitch : 0.05, Yaw : 359.92, Alt : 35.1100006104, Lat : 49.2835704, Lng : -123.1150208, Q1 : 0.999999403954, Q2 : 0.000741437659599, Q3 : 0.000519971188623, Q4 : -0.000635568110738}
2019-04-14 11:26:19.11: SIM {TimeUS : 46735465, Roll : 0.05, Pitch : 0.04, Yaw : 359.92, Alt : 35.3199996948, Lat : 49.2835704, Lng : -123.1150208, Q1 : 0.999999523163, Q2 : 0.00052158778999, Q3 : 0.000426859449362, Q4 : -0.000641432066914}
2019-04-14 11:26:19.21: SIM {TimeUS : 46835425, Roll : 0.04, Pitch : 0.01, Yaw : 359.92, Alt : 35.5400009155, Lat : 49.2835704, Lng : -123.1150208, Q1 : 0.999999701977, Q2 : 0.000396078277845, Q3 : 0.000135427384521, Q4 : -0.000653742987197}
2019-04-14 11:26:19.31: SIM {TimeUS : 46935385, Roll : 0.03, Pitch : 0.0, Yaw : 359.92, Alt : 35.7599983215, Lat : 49.2835704, Lng : -123.1150208, Q1 : 0.999999761581, Q2 : 0.000314479140798, Q3 : -8.28059492051e-05, Q4 : -0.000677904696204}
2019-04-14 11:26:19.41: SIM {TimeUS : 47035345, Roll : 0.01, Pitch : -0.01, Yaw : 359.91, Alt : 35.9799995422, Lat : 49.2835704, Lng : -123.1150208, Q1 : 0.999999761581, Q2 : 0.000118585987366, Q3 : -0.000129895837745, Q4 : -0.000710342021193}
2019-04-14 11:26:19.51: SIM {TimeUS : 47135305, Roll : 0.0, Pitch : -0.01, Yaw : 359.91, Alt : 36.2000007629, Lat : 49.2835704, Lng : -123.1150208, Q1 : 0.999999701977, Q2 : 6.25925240456e-05, Q3 : -8.91916133696e-05, Q4 : -0.000736777903512}
2019-04-14 11:26:19.61: SIM {TimeUS : 47235265, Roll : 0.01, Pitch : 0.0, Yaw : 359.91, Alt : 36.4199981689, Lat : 49.2835704, Lng : -123.1150207, Q1 : 0.999999701977, Q2 : 0.000118010691949, Q3 : -2.9898226785e-05, Q4 : -0.000758640351705}
2019-04-14 11:26:19.71: SIM {TimeUS : 47335225, Roll : 0.0, Pitch : -0.01, Yaw : 359.91, Alt : 36.6500015259, Lat : 49.2835704, Lng : -123.1150207, Q1 : 0.999999701977, Q2 : 4.77396270071e-06, Q3 : -0.000163195567438, Q4 : -0.000779449823312}
2019-04-14 11:26:19.81: SIM {TimeUS : 47435185, Roll : -0.03, Pitch : -0.05, Yaw : 359.9, Alt : 36.8699989319, Lat : 49.2835704, Lng : -123.1150207, Q1 : 0.999999523163, Q2 : -0.000293495715596, Q3 : -0.00047519733198, Q4 : -0.000803368980996}
2019-04-14 11:26:19.91: SIM {TimeUS : 47535145, Roll : -0.07, Pitch : -0.08, Yaw : 359.9, Alt : 37.0900001526, Lat : 49.2835704, Lng : -123.1150207, Q1 : 0.999999165535, Q2 : -0.000659584940877, Q3 : -0.000722104508895, Q4 : -0.000829607248306}
2019-04-14 11:26:20.01: SIM {TimeUS : 47635105, Roll : -0.11, Pitch : -0.1, Yaw : 359.9, Alt : 37.3199996948, Lat : 49.2835704, Lng : -123.1150207, Q1 : 0.999998688698, Q2 : -0.0010021837661, Q3 : -0.000911096634809, Q4 : -0.000857146049384}
2019-04-14 11:26:20.11: SIM {TimeUS : 47735065, Roll : -0.12, Pitch : -0.11, Yaw : 359.89, Alt : 37.5400009155, Lat : 49.2835704, Lng : -123.1150207, Q1 : 0.999998569489, Q2 : -0.00109497027006, Q3 : -0.000964279985055, Q4 : -0.000887203786988}
2019-04-14 11:26:20.21: SIM {TimeUS : 47835025, Roll : -0.11, Pitch : -0.09, Yaw : 359.89, Alt : 37.7700004578, Lat : 49.2835704, Lng : -123.1150207, Q1 : 0.999998688698, Q2 : -0.00103792373557, Q3 : -0.000867457129061, Q4 : -0.000919099489693}
2019-04-14 11:26:20.31: SIM {TimeUS : 47934985, Roll : -0.09, Pitch : -0.06, Yaw : 359.89, Alt : 38.0, Lat : 49.2835704, Lng : -123.1150207, Q1 : 0.999999046326, Q2 : -0.000859605497681, Q3 : -0.00055919442093, Q4 : -0.000941006524954}
2019-04-14 11:26:20.41: SIM {TimeUS : 48034945, Roll : -0.07, Pitch : -0.03, Yaw : 359.88, Alt : 38.2200012207, Lat : 49.2835704, Lng : -123.1150207, Q1 : 0.999999284744, Q2 : -0.000662306789309, Q3 : -0.000304501038045, Q4 : -0.000962596503086}
2019-04-14 11:26:20.51: SIM {TimeUS : 48134905, Roll : -0.06, Pitch : -0.02, Yaw : 359.88, Alt : 38.4500007629, Lat : 49.2835704, Lng : -123.1150206, Q1 : 0.999999344349, Q2 : -0.00060395867331, Q3 : -0.00025917639141, Q4 : -0.000987867824733}
2019-04-14 11:26:20.61: SIM {TimeUS : 48234865, Roll : -0.07, Pitch : -0.01, Yaw : 359.88, Alt : 38.6800003052, Lat : 49.2835704, Lng : -123.1150206, Q1 : 0.999999284744, Q2 : -0.00064333609771, Q3 : -0.000149968182086, Q4 : -0.00100753433071}
2019-04-14 11:26:20.71: SIM {TimeUS : 48334825, Roll : -0.09, Pitch : 0.0, Yaw : 359.88, Alt : 38.9099998474, Lat : 49.2835704, Lng : -123.1150206, Q1 : 0.999999165535, Q2 : -0.000791960686911, Q3 : -2.246895383e-05, Q4 : -0.00102577963844}
2019-04-14 11:26:20.81: SIM {TimeUS : 48434785, Roll : -0.08, Pitch : 0.01, Yaw : 359.88, Alt : 39.1399993896, Lat : 49.2835706, Lng : -123.1150207, Q1 : 0.999999165535, Q2 : -0.000781213806476, Q3 : 0.000116455332318, Q4 : -0.00104036240373}
2019-04-14 11:26:20.91: SIM {TimeUS : 48534745, Roll : -0.06, Pitch : 0.03, Yaw : 359.87, Alt : 39.3699989319, Lat : 49.2835706, Lng : -123.1150207, Q1 : 0.99999922514, Q2 : -0.000584846711718, Q3 : 0.000334301148541, Q4 : -0.00105592526961}
2019-04-14 11:26:21.01: SIM {TimeUS : 48634705, Roll : -0.04, Pitch : 0.03, Yaw : 359.87, Alt : 39.5999984741, Lat : 49.2835706, Lng : -123.1150207, Q1 : 0.999999344349, Q2 : -0.000352239236236, Q3 : 0.000316101970384, Q4 : -0.0010627291631}
2019-04-14 11:26:21.11: SIM {TimeUS : 48734665, Roll : -0.01, Pitch : 0.03, Yaw : 359.87, Alt : 39.8300018311, Lat : 49.2835706, Lng : -123.1150207, Q1 : 0.999999403954, Q2 : -9.12724281079e-05, Q3 : 0.000263578956947, Q4 : -0.00106914807111}
2019-04-14 11:26:21.21: SIM {TimeUS : 48835458, Roll : 0.02, Pitch : 0.05, Yaw : 359.87, Alt : 40.0600013733, Lat : 49.2835706, Lng : -123.1150207, Q1 : 0.999999284744, Q2 : 0.000223915296374, Q3 : 0.000446925434517, Q4 : -0.0010721682338}
2019-04-14 11:26:21.31: SIM {TimeUS : 48935418, Roll : 0.06, Pitch : 0.08, Yaw : 359.87, Alt : 40.2900009155, Lat : 49.2835706, Lng : -123.1150207, Q1 : 0.999998986721, Q2 : 0.000542423746083, Q3 : 0.000769239442889, Q4 : -0.00107875198592}
2019-04-14 11:26:21.41: SIM {TimeUS : 49035378, Roll : 0.08, Pitch : 0.13, Yaw : 359.87, Alt : 40.5200004578, Lat : 49.2835706, Lng : -123.1150207, Q1 : 0.999998450279, Q2 : 0.000778334506322, Q3 : 0.0011479430832, Q4 : -0.00109402195085}
2019-04-14 11:26:21.51: SIM {TimeUS : 49135338, Roll : 0.08, Pitch : 0.17, Yaw : 359.87, Alt : 40.7599983215, Lat : 49.2835706, Lng : -123.1150207, Q1 : 0.999997973442, Q2 : 0.00070562469773, Q3 : 0.00151963531971, Q4 : -0.00110189744737}
2019-04-14 11:26:21.61: SIM {TimeUS : 49235298, Roll : 0.03, Pitch : 0.2, Yaw : 359.87, Alt : 40.9900016785, Lat : 49.2835706, Lng : -123.1150207, Q1 : 0.999997675419, Q2 : 0.000290659198072, Q3 : 0.00179542042315, Q4 : -0.00112881592941}
2019-04-14 11:26:21.71: SIM {TimeUS : 49335258, Roll : 0.0, Pitch : 0.21, Yaw : 359.86, Alt : 41.2200012207, Lat : 49.2835706, Lng : -123.1150207, Q1 : 0.99999755621, Q2 : -7.01428798493e-05, Q3 : 0.00187561323401, Q4 : -0.00115360715427}
2019-04-14 11:26:21.81: SIM {TimeUS : 49435218, Roll : -0.02, Pitch : 0.18, Yaw : 359.86, Alt : 41.4500007629, Lat : 49.2835706, Lng : -123.1150207, Q1 : 0.999997973442, Q2 : -0.000256890431046, Q3 : 0.00160420686007, Q4 : -0.00117530231364}
2019-04-14 11:26:21.91: SIM {TimeUS : 49535178, Roll : -0.03, Pitch : 0.14, Yaw : 359.86, Alt : 41.6899986267, Lat : 49.2835706, Lng : -123.1150207, Q1 : 0.999998450279, Q2 : -0.00030302736559, Q3 : 0.0012344091665, Q4 : -0.00120747694746}
2019-04-14 11:26:22.01: SIM {TimeUS : 49635138, Roll : -0.01, Pitch : 0.12, Yaw : 359.85, Alt : 41.9199981689, Lat : 49.2835706, Lng : -123.1150207, Q1 : 0.999998629093, Q2 : -0.00017273373669, Q3 : 0.00110561016481, Q4 : -0.0012445297325}
2019-04-14 11:26:22.11: SIM {TimeUS : 49735098, Roll : 0.02, Pitch : 0.13, Yaw : 359.85, Alt : 42.1500015259, Lat : 49.2835706, Lng : -123.1150207, Q1 : 0.999998509884, Q2 : 0.000178536705789, Q3 : 0.00116397056263, Q4 : -0.00128373643383}
2019-04-14 11:26:22.21: SIM {TimeUS : 49835058, Roll : 0.06, Pitch : 0.13, Yaw : 359.84, Alt : 42.3899993896, Lat : 49.2835706, Lng : -123.1150207, Q1 : 0.999998211861, Q2 : 0.000602182990406, Q3 : 0.00118203135207, Q4 : -0.00132478086744}
2019-04-14 11:26:22.31: SIM {TimeUS : 49935018, Roll : 0.1, Pitch : 0.11, Yaw : 359.84, Alt : 42.6199989319, Lat : 49.2835706, Lng : -123.1150207, Q1 : 0.999998152256, Q2 : 0.000907213485334, Q3 : 0.000983436126262, Q4 : -0.00137193431146}
2019-04-14 11:26:22.41: SIM {TimeUS : 50034978, Roll : 0.1, Pitch : 0.08, Yaw : 359.83, Alt : 42.8600006104, Lat : 49.2835706, Lng : -123.1150207, Q1 : 0.999998390675, Q2 : 0.000890771567356, Q3 : 0.000709460815415, Q4 : -0.00141716655344}
2019-04-14 11:26:22.51: SIM {TimeUS : 50134938, Roll : 0.05, Pitch : 0.05, Yaw : 359.83, Alt : 43.0900001526, Lat : 49.2835706, Lng : -123.1150207, Q1 : 0.999998688698, Q2 : 0.000517833046615, Q3 : 0.000516633386724, Q4 : -0.00144677888602}
2019-04-14 11:26:22.61: SIM {TimeUS : 50234898, Roll : 0.0, Pitch : 0.05, Yaw : 359.83, Alt : 43.3300018311, Lat : 49.2835706, Lng : -123.1150207, Q1 : 0.999998807907, Q2 : 3.51339476765e-05, Q3 : 0.00047119174269, Q4 : -0.00146629067603}
2019-04-14 11:26:22.71: SIM {TimeUS : 50334858, Roll : -0.03, Pitch : 0.07, Yaw : 359.83, Alt : 43.5600013733, Lat : 49.2835704, Lng : -123.1150207, Q1 : 0.999998629093, Q2 : -0.000293657853035, Q3 : 0.000641415303107, Q4 : -0.00148227566388}
2019-04-14 11:26:22.81: SIM {TimeUS : 50434818, Roll : -0.05, Pitch : 0.08, Yaw : 359.82, Alt : 43.7999992371, Lat : 49.2835704, Lng : -123.1150207, Q1 : 0.999998509884, Q2 : -0.00043702457333, Q3 : 0.000741828698665, Q4 : -0.00149490975309}
2019-04-14 11:26:22.91: SIM {TimeUS : 50534778, Roll : -0.04, Pitch : 0.07, Yaw : 359.82, Alt : 44.0299987793, Lat : 49.2835704, Lng : -123.1150207, Q1 : 0.999998629093, Q2 : -0.000382441328838, Q3 : 0.000638373719994, Q4 : -0.00150137767196}
2019-04-14 11:26:23.01: SIM {TimeUS : 50634738, Roll : -0.04, Pitch : 0.05, Yaw : 359.82, Alt : 44.2700004578, Lat : 49.2835704, Lng : -123.1150207, Q1 : 0.999998688698, Q2 : -0.000413278001361, Q3 : 0.000476613029605, Q4 : -0.0015128426021}
2019-04-14 11:26:23.11: SIM {TimeUS : 50734698, Roll : -0.04, Pitch : 0.03, Yaw : 359.82, Alt : 44.5099983215, Lat : 49.2835704, Lng : -123.1150207, Q1 : 0.999998748302, Q2 : -0.000354901043465, Q3 : 0.000308812101139, Q4 : -0.00152957427781}
2019-04-14 11:26:23.21: SIM {TimeUS : 50834658, Roll : -0.02, Pitch : 0.02, Yaw : 359.82, Alt : 44.7400016785, Lat : 49.2835704, Lng : -123.1150206, Q1 : 0.999998748302, Q2 : -0.000210336205782, Q3 : 0.000240768727963, Q4 : -0.00155610207003}
2019-04-14 11:26:23.31: SIM {TimeUS : 50935451, Roll : -0.01, Pitch : 0.02, Yaw : 359.81, Alt : 44.9799995422, Lat : 49.2835704, Lng : -123.1150206, Q1 : 0.999998688698, Q2 : -0.000151577842189, Q3 : 0.000226884090807, Q4 : -0.00158602232113}
2019-04-14 11:26:23.41: SIM {TimeUS : 51035411, Roll : -0.02, Pitch : 0.01, Yaw : 359.81, Alt : 45.2200012207, Lat : 49.2835704, Lng : -123.1150206, Q1 : 0.999998688698, Q2 : -0.000206447512028, Q3 : 0.000129577412736, Q4 : -0.001616685302}
2019-04-14 11:26:23.51: SIM {TimeUS : 51135371, Roll : -0.03, Pitch : -0.01, Yaw : 359.81, Alt : 45.4500007629, Lat : 49.2835703, Lng : -123.1150206, Q1 : 0.999998569489, Q2 : -0.000262557412498, Q3 : -0.000139159645187, Q4 : -0.00164514197968}
2019-04-14 11:26:23.61: SIM {TimeUS : 51235331, Roll : -0.03, Pitch : -0.04, Yaw : 359.8, Alt : 45.6899986267, Lat : 49.2835703, Lng : -123.1150206, Q1 : 0.999998509884, Q2 : -0.000284435023787, Q3 : -0.000357500859536, Q4 : -0.00167262309697}
2019-04-14 11:26:23.71: SIM {TimeUS : 51335291, Roll : -0.02, Pitch : -0.05, Yaw : 359.8, Alt : 45.9199981689, Lat : 49.2835703, Lng : -123.1150206, Q1 : 0.999998450279, Q2 : -0.000219313340494, Q3 : -0.000453938555438, Q4 : -0.00169817346614}
2019-04-14 11:26:23.81: SIM {TimeUS : 51435251, Roll : -0.02, Pitch : -0.05, Yaw : 359.8, Alt : 46.1500015259, Lat : 49.2835703, Lng : -123.1150206, Q1 : 0.999998390675, Q2 : -0.000227990414714, Q3 : -0.000464635144453, Q4 : -0.0017219686415}
2019-04-14 11:26:23.91: SIM {TimeUS : 51535211, Roll : -0.04, Pitch : -0.04, Yaw : 359.79, Alt : 46.3699989319, Lat : 49.2835703, Lng : -123.1150206, Q1 : 0.99999833107, Q2 : -0.000400078220991, Q3 : -0.000398232281441, Q4 : -0.00174784508999}
2019-04-14 11:26:24.01: SIM {TimeUS : 51635171, Roll : -0.07, Pitch : -0.03, Yaw : 359.79, Alt : 46.5999984741, Lat : 49.2835703, Lng : -123.1150206, Q1 : 0.999998152256, Q2 : -0.000697481678799, Q3 : -0.000333964650054, Q4 : -0.00177209777758}
2019-04-14 11:26:24.11: SIM {TimeUS : 51735131, Roll : -0.1, Pitch : -0.03, Yaw : 359.79, Alt : 46.8100013733, Lat : 49.2835703, Lng : -123.1150206, Q1 : 0.999997913837, Q2 : -0.000930225185584, Q3 : -0.000315056589898, Q4 : -0.00179352518171}
2019-04-14 11:26:24.21: SIM {TimeUS : 51835091, Roll : -0.11, Pitch : -0.02, Yaw : 359.79, Alt : 47.0200004578, Lat : 49.2835703, Lng : -123.1150206, Q1 : 0.999997794628, Q2 : -0.000990850036032, Q3 : -0.000247950403718, Q4 : -0.00181706319563}
2019-04-14 11:26:24.31: SIM {TimeUS : 51935051, Roll : -0.1, Pitch : 0.0, Yaw : 359.78, Alt : 47.2299995422, Lat : 49.2835703, Lng : -123.1150206, Q1 : 0.999997913837, Q2 : -0.000907683453988, Q3 : -5.35143917659e-05, Q4 : -0.00184061273467}
2019-04-14 11:26:24.41: SIM {TimeUS : 52035011, Roll : -0.07, Pitch : 0.0, Yaw : 359.78, Alt : 47.4199981689, Lat : 49.2835703, Lng : -123.1150206, Q1 : 0.999998033047, Q2 : -0.000694684975315, Q3 : 6.40659054625e-05, Q4 : -0.00186329509597}
2019-04-14 11:26:24.51: SIM {TimeUS : 52134971, Roll : -0.05, Pitch : 0.0, Yaw : 359.78, Alt : 47.6100006104, Lat : 49.2835703, Lng : -123.1150206, Q1 : 0.999998092651, Q2 : -0.000499505840708, Q3 : 3.70456727978e-05, Q4 : -0.00188442866784}
2019-04-14 11:26:24.61: SIM {TimeUS : 52234931, Roll : -0.06, Pitch : -0.01, Yaw : 359.78, Alt : 47.7799987793, Lat : 49.2835703, Lng : -123.1150206, Q1 : 0.999998033047, Q2 : -0.000535104190931, Q3 : -0.000157812042744, Q4 : -0.00190253509209}
2019-04-14 11:26:24.71: SIM {TimeUS : 52334891, Roll : -0.06, Pitch : -0.05, Yaw : 359.77, Alt : 47.9399986267, Lat : 49.2835703, Lng : -123.1150206, Q1 : 0.999997913837, Q2 : -0.000551310717128, Q3 : -0.000448333041277, Q4 : -0.00192212616093}
2019-04-14 11:26:24.81: SIM {TimeUS : 52434851, Roll : -0.05, Pitch : -0.07, Yaw : 359.77, Alt : 48.0999984741, Lat : 49.2835703, Lng : -123.1150206, Q1 : 0.999997735023, Q2 : -0.000447091792012, Q3 : -0.000690734479576, Q4 : -0.0019449882675}
2019-04-14 11:26:24.91: SIM {TimeUS : 52534811, Roll : -0.04, Pitch : -0.09, Yaw : 359.77, Alt : 48.2400016785, Lat : 49.2835703, Lng : -123.1150206, Q1 : 0.999997615814, Q2 : -0.000390747038182, Q3 : -0.000867741706315, Q4 : -0.00196962757036}
2019-04-14 11:26:25.01: SIM {TimeUS : 52634771, Roll : -0.04, Pitch : -0.1, Yaw : 359.77, Alt : 48.3699989319, Lat : 49.2835703, Lng : -123.1150206, Q1 : 0.999997437, Q2 : -0.000399566983106, Q3 : -0.000956914678682, Q4 : -0.00199391623028}
2019-04-14 11:26:25.11: SIM {TimeUS : 52734731, Roll : -0.01, Pitch : -0.09, Yaw : 359.76, Alt : 48.4799995422, Lat : 49.2835703, Lng : -123.1150206, Q1 : 0.99999755621, Q2 : -0.000146042977576, Q3 : -0.000871601339895, Q4 : -0.00202095787972}
2019-04-14 11:26:25.21: SIM {TimeUS : 52834691, Roll : 0.02, Pitch : -0.08, Yaw : 359.76, Alt : 48.5900001526, Lat : 49.2835703, Lng : -123.1150206, Q1 : 0.999997615814, Q2 : 0.000181745708687, Q3 : -0.000715549162123, Q4 : -0.0020487185102}
2019-04-14 11:26:25.31: SIM {TimeUS : 52935484, Roll : 0.05, Pitch : -0.05, Yaw : 359.76, Alt : 48.6800003052, Lat : 49.2835703, Lng : -123.1150207, Q1 : 0.999997615814, Q2 : 0.000466321711428, Q3 : -0.000479872658616, Q4 : -0.00207591732033}
2019-04-14 11:26:25.41: SIM {TimeUS : 53035444, Roll : 0.06, Pitch : -0.02, Yaw : 359.75, Alt : 48.7599983215, Lat : 49.2835703, Lng : -123.1150207, Q1 : 0.999997615814, Q2 : 0.000582216540352, Q3 : -0.000261918234173, Q4 : -0.00210407795385}
2019-04-14 11:26:25.51: SIM {TimeUS : 53135404, Roll : 0.07, Pitch : -0.02, Yaw : 359.75, Alt : 48.8300018311, Lat : 49.2835703, Lng : -123.1150207, Q1 : 0.999997496605, Q2 : 0.000633749936242, Q3 : -0.000192026825971, Q4 : -0.00213558715768}
2019-04-14 11:26:25.61: SIM {TimeUS : 53235364, Roll : 0.06, Pitch : -0.03, Yaw : 359.75, Alt : 48.8899993896, Lat : 49.2835703, Lng : -123.1150207, Q1 : 0.999997437, Q2 : 0.000537438783795, Q3 : -0.000310465198709, Q4 : -0.00217321095988}
2019-04-14 11:26:25.71: SIM {TimeUS : 53335324, Roll : 0.03, Pitch : -0.04, Yaw : 359.74, Alt : 48.9399986267, Lat : 49.2835703, Lng : -123.1150207, Q1 : 0.999997437, Q2 : 0.000299272825941, Q3 : -0.000411478598835, Q4 : -0.00221396563575}
2019-04-14 11:26:25.81: SIM {TimeUS : 53435284, Roll : 0.01, Pitch : -0.04, Yaw : 359.74, Alt : 48.9900016785, Lat : 49.2835703, Lng : -123.1150207, Q1 : 0.999997377396, Q2 : 0.00012925984629, Q3 : -0.000350600050297, Q4 : -0.00225370726548}
2019-04-14 11:26:25.91: SIM {TimeUS : 53535244, Roll : 0.0, Pitch : -0.03, Yaw : 359.73, Alt : 49.0200004578, Lat : 49.2835703, Lng : -123.1150207, Q1 : 0.999997317791, Q2 : 4.10883803852e-05, Q3 : -0.000291741889669, Q4 : -0.00228922860697}
2019-04-14 11:26:26.01: SIM {TimeUS : 53635204, Roll : 0.05, Pitch : -0.06, Yaw : 359.73, Alt : 49.0600013733, Lat : 49.2835704, Lng : -123.1150207, Q1 : 0.999997079372, Q2 : 0.000468473270303, Q3 : -0.000560293265153, Q4 : -0.00231656967662}
2019-04-14 11:26:26.11: SIM {TimeUS : 53735164, Roll : 0.27, Pitch : -0.22, Yaw : 359.73, Alt : 49.0800018311, Lat : 49.2835704, Lng : -123.1150207, Q1 : 0.999992609024, Q2 : 0.00236669462174, Q3 : -0.00194075156469, Q4 : -0.00233362498693}
2019-04-14 11:26:26.21: SIM {TimeUS : 53835124, Roll : 0.69, Pitch : -0.57, Yaw : 359.72, Alt : 49.1100006104, Lat : 49.2835704, Lng : -123.1150207, Q1 : 0.999966204166, Q2 : 0.00606605177745, Q3 : -0.00502470508218, Q4 : -0.00234638992697}
2019-04-14 11:26:26.31: SIM {TimeUS : 53935084, Roll : 1.29, Pitch : -1.12, Yaw : 359.71, Alt : 49.1300010681, Lat : 49.2835704, Lng : -123.1150207, Q1 : 0.999884903431, Q2 : 0.0112794917077, Q3 : -0.00987365283072, Q4 : -0.00234255031683}
2019-04-14 11:26:26.41: SIM {TimeUS : 54035044, Roll : 2.0, Pitch : -1.81, Yaw : 359.7, Alt : 49.1500015259, Lat : 49.2835704, Lng : -123.1150206, Q1 : 0.999718666077, Q2 : 0.0174728240818, Q3 : -0.0158711243421, Q4 : -0.00231564533897}
2019-04-14 11:26:26.51: SIM {TimeUS : 54135004, Roll : 2.75, Pitch : -2.55, Yaw : 359.68, Alt : 49.1599998474, Lat : 49.2835706, Lng : -123.1150206, Q1 : 0.99946051836, Q2 : 0.0239651743323, Q3 : -0.0223490577191, Q4 : -0.0022348521743}
2019-04-14 11:26:26.61: SIM {TimeUS : 54234964, Roll : 3.42, Pitch : -3.22, Yaw : 359.66, Alt : 49.1800003052, Lat : 49.2835707, Lng : -123.1150204, Q1 : 0.999154806137, Q2 : 0.0298294331878, Q3 : -0.0282055642456, Q4 : -0.00208045076579}
2019-04-14 11:26:26.71: SIM {TimeUS : 54334924, Roll : 3.95, Pitch : -3.72, Yaw : 359.65, Alt : 49.1899986267, Lat : 49.2835708, Lng : -123.1150202, Q1 : 0.998873770237, Q2 : 0.0344014242291, Q3 : -0.0326233841479, Q4 : -0.00186007784214}
2019-04-14 11:26:26.81: SIM {TimeUS : 54434884, Roll : 4.34, Pitch : -4.09, Yaw : 359.66, Alt : 49.2000007629, Lat : 49.2835709, Lng : -123.11502, Q1 : 0.998644649982, Q2 : 0.0377731136978, Q3 : -0.0357704907656, Q4 : -0.00159223959781}
2019-04-14 11:26:26.91: SIM {TimeUS : 54534844, Roll : 4.64, Pitch : -4.35, Yaw : 359.67, Alt : 49.2099990845, Lat : 49.2835712, Lng : -123.1150196, Q1 : 0.9984588027, Q2 : 0.0403847098351, Q3 : -0.0380452424288, Q4 : -0.00129936367739}
2019-04-14 11:26:27.01: SIM {TimeUS : 54634804, Roll : 4.89, Pitch : -4.58, Yaw : 359.68, Alt : 49.2200012207, Lat : 49.2835715, Lng : -123.1150192, Q1 : 0.998291373253, Q2 : 0.0425485149026, Q3 : -0.0400377139449, Q4 : -0.00101132469717}
2019-04-14 11:26:27.11: SIM {TimeUS : 54734764, Roll : 5.13, Pitch : -4.83, Yaw : 359.69, Alt : 49.2200012207, Lat : 49.2835718, Lng : -123.1150187, Q1 : 0.998109221458, Q2 : 0.0446512214839, Q3 : -0.0422351025045, Q4 : -0.00074917380698}
2019-04-14 11:26:27.21: SIM {TimeUS : 54834724, Roll : 5.4, Pitch : -5.11, Yaw : 359.7, Alt : 49.2299995422, Lat : 49.2835721, Lng : -123.115018, Q1 : 0.997894465923, Q2 : 0.0470109172165, Q3 : -0.0446807406843, Q4 : -0.000499736692291}
2019-04-14 11:26:27.31: SIM {TimeUS : 54934684, Roll : 5.67, Pitch : -5.37, Yaw : 359.7, Alt : 49.2299995422, Lat : 49.2835726, Lng : -123.1150173, Q1 : 0.997677028179, Q2 : 0.049366068095, Q3 : -0.0469409413636, Q4 : -0.000260413886281}
2019-04-14 11:26:27.41: SIM {TimeUS : 55035477, Roll : 5.89, Pitch : -5.56, Yaw : 359.71, Alt : 49.2400016785, Lat : 49.2835731, Lng : -123.1150165, Q1 : 0.997505128384, Q2 : 0.0512041077018, Q3 : -0.0485970824957, Q4 : -2.71861936199e-05}
2019-04-14 11:26:27.51: SIM {TimeUS : 55135437, Roll : 6.03, Pitch : -5.68, Yaw : 359.71, Alt : 49.2400016785, Lat : 49.2835737, Lng : -123.1150157, Q1 : 0.99738830328, Q2 : 0.0524155460298, Q3 : -0.0496906302869, Q4 : 0.000170170518686}
2019-04-14 11:26:27.61: SIM {TimeUS : 55235397, Roll : 6.11, Pitch : -5.78, Yaw : 359.72, Alt : 49.25, Lat : 49.2835743, Lng : -123.1150147, Q1 : 0.997308254242, Q2 : 0.0531646162271, Q3 : -0.0504945479333, Q4 : 0.000310784787871}
2019-04-14 11:26:27.71: SIM {TimeUS : 55335357, Roll : 6.2, Pitch : -5.85, Yaw : 359.72, Alt : 49.25, Lat : 49.2835749, Lng : -123.1150137, Q1 : 0.997234761715, Q2 : 0.0539319775999, Q3 : -0.0511270798743, Q4 : 0.000410646694945}
2019-04-14 11:26:27.81: SIM {TimeUS : 55435317, Roll : 6.32, Pitch : -5.92, Yaw : 359.72, Alt : 49.2599983215, Lat : 49.2835756, Lng : -123.1150125, Q1 : 0.997146546841, Q2 : 0.0549798347056, Q3 : -0.0517281442881, Q4 : 0.000499891466461}
2019-04-14 11:26:27.91: SIM {TimeUS : 55535277, Roll : 6.62, Pitch : -5.92, Yaw : 359.85, Alt : 49.2599983215, Lat : 49.2835763, Lng : -123.1150113, Q1 : 0.996996700764, Q2 : 0.0576645359397, Q3 : -0.0516659729183, Q4 : 0.00175192393363}
2019-04-14 11:26:28.01: SIM {TimeUS : 55635237, Roll : 7.19, Pitch : -5.82, Yaw : 0.64, Alt : 49.2599983215, Lat : 49.283577, Lng : -123.1150101, Q1 : 0.996709823608, Q2 : 0.0629218220711, Q3 : -0.0503330007195, Q4 : 0.00877017062157}
2019-04-14 11:26:28.11: SIM {TimeUS : 55735197, Roll : 7.84, Pitch : -5.83, Yaw : 2.74, Alt : 49.2700004578, Lat : 49.2835779, Lng : -123.1150087, Q1 : 0.995993793011, Q2 : 0.0695345178246, Q3 : -0.0491172336042, Q4 : 0.0273636821657}
2019-04-14 11:26:28.21: SIM {TimeUS : 55835157, Roll : 8.26, Pitch : -6.22, Yaw : 6.44, Alt : 49.2700004578, Lat : 49.2835787, Lng : -123.1150072, Q1 : 0.994130373001, Q2 : 0.0749068334699, Q3 : -0.050035674125, Q4 : 0.0599178187549}
2019-04-14 11:26:28.31: SIM {TimeUS : 55935117, Roll : 8.19, Pitch : -7.06, Yaw : 11.64, Alt : 49.2700004578, Lat : 49.2835795, Lng : -123.1150057, Q1 : 0.989967525005, Q2 : 0.0771467089653, Q3 : -0.0538627132773, Q4 : 0.105411015451}
2019-04-14 11:26:28.41: SIM {TimeUS : 56035077, Roll : 7.47, Pitch : -8.24, Yaw : 18.12, Alt : 49.2700004578, Lat : 49.2835805, Lng : -123.115004, Q1 : 0.982126712799, Q2 : 0.0755384340882, Q3 : -0.0606314577162, Q4 : 0.1613843292}
2019-04-14 11:26:28.51: SIM {TimeUS : 56135037, Roll : 6.1, Pitch : -9.63, Yaw : 25.6, Alt : 49.2700004578, Lat : 49.2835813, Lng : -123.1150022, Q1 : 0.969322860241, Q2 : 0.0703433305025, Q3 : -0.0700145661831, Q4 : 0.224862337112}
2019-04-14 11:26:28.61: SIM {TimeUS : 56234997, Roll : 4.02, Pitch : -11.0, Yaw : 33.79, Alt : 49.2700004578, Lat : 49.2835824, Lng : -123.1150003, Q1 : 0.950843453407, Q2 : 0.0612954571843, Q3 : -0.0815339684486, Q4 : 0.292389810085}
2019-04-14 11:26:28.71: SIM {TimeUS : 56334957, Roll : 1.13, Pitch : -12.09, Yaw : 42.1, Alt : 49.2700004578, Lat : 49.2835834, Lng : -123.1149983, Q1 : 0.92765212059, Q2 : 0.0470457486808, Q3 : -0.0947427526116, Q4 : 0.35815089941}
2019-04-14 11:26:28.81: SIM {TimeUS : 56434917, Roll : -2.09, Pitch : -12.67, Yaw : 49.64, Alt : 49.2700004578, Lat : 49.2835843, Lng : -123.1149962, Q1 : 0.902783691883, Q2 : 0.0297897513956, Q3 : -0.107798747718, Q4 : 0.415299504995}
2019-04-14 11:26:28.91: SIM {TimeUS : 56534877, Roll : -4.98, Pitch : -12.79, Yaw : 55.63, Alt : 49.2700004578, Lat : 49.2835855, Lng : -123.114994, Q1 : 0.880358278751, Q2 : 0.0137204257771, Q3 : -0.118624821305, Q4 : 0.459030717611}
2019-04-14 11:26:29.01: SIM {TimeUS : 56634837, Roll : -6.98, Pitch : -12.66, Yaw : 59.65, Alt : 49.2700004578, Lat : 49.2835867, Lng : -123.1149918, Q1 : 0.863955795765, Q2 : 0.00226702843793, Q3 : -0.125623062253, Q4 : 0.487641304731}
2019-04-14 11:26:29.11: SIM {TimeUS : 56734797, Roll : -7.88, Pitch : -12.53, Yaw : 61.7, Alt : 49.2700004578, Lat : 49.283588, Lng : -123.1149896, Q1 : 0.855177283287, Q2 : -0.00279386993498, Q3 : -0.128565147519, Q4 : 0.502130508423}
2019-04-14 11:26:29.21: SIM {TimeUS : 56834757, Roll : -7.78, Pitch : -12.59, Yaw : 62.04, Alt : 49.2700004578, Lat : 49.2835896, Lng : -123.1149874, Q1 : 0.853670716286, Q2 : -0.00143956404645, Q3 : -0.128562524915, Q4 : 0.504693925381}
2019-04-14 11:26:29.31: SIM {TimeUS : 56934717, Roll : -6.92, Pitch : -12.9, Yaw : 61.02, Alt : 49.2700004578, Lat : 49.283591, Lng : -123.1149851, Q1 : 0.857965707779, Q2 : 0.00522123975679, Q3 : -0.127081289887, Q4 : 0.497712701559}
2019-04-14 11:26:29.41: SIM {TimeUS : 57034677, Roll : -5.53, Pitch : -13.42, Yaw : 58.98, Alt : 49.2700004578, Lat : 49.2835928, Lng : -123.1149828, Q1 : 0.866204082966, Q2 : 0.0157861728221, Q3 : -0.125228747725, Q4 : 0.483486354351}
2019-04-14 11:26:29.51: SIM {TimeUS : 57135470, Roll : -3.81, Pitch : -14.09, Yaw : 56.25, Alt : 49.2799987793, Lat : 49.2835945, Lng : -123.1149804, Q1 : 0.876686990261, Q2 : 0.0286886449903, Q3 : -0.123675234616, Q4 : 0.464005768299}
2019-04-14 11:26:29.61: SIM {TimeUS : 57235430, Roll : -1.99, Pitch : -14.74, Yaw : 53.17, Alt : 49.2799987793, Lat : 49.2835963, Lng : -123.1149779, Q1 : 0.88774484396, Q2 : 0.0419603772461, Q3 : -0.122454501688, Q4 : 0.44176158309}
2019-04-14 11:26:29.71: SIM {TimeUS : 57335390, Roll : -0.24, Pitch : -15.26, Yaw : 50.03, Alt : 49.2799987793, Lat : 49.2835981, Lng : -123.1149753, Q1 : 0.89825463295, Q2 : 0.0542548261583, Q3 : -0.121288865805, Q4 : 0.418908208609}
2019-04-14 11:26:29.81: SIM {TimeUS : 57435350, Roll : 1.27, Pitch : -15.6, Yaw : 47.18, Alt : 49.2799987793, Lat : 49.2836, Lng : -123.1149727, Q1 : 0.907272398472, Q2 : 0.0644242763519, Q3 : -0.120032958686, Q4 : 0.397867321968}
2019-04-14 11:26:29.91: SIM {TimeUS : 57535310, Roll : 2.43, Pitch : -15.75, Yaw : 44.88, Alt : 49.2799987793, Lat : 49.2836019, Lng : -123.1149699, Q1 : 0.914233863354, Q2 : 0.0717941075563, Q3 : -0.118604332209, Q4 : 0.380729585886}
2019-04-14 11:26:30.01: SIM {TimeUS : 57635270, Roll : 3.17, Pitch : -15.76, Yaw : 43.29, Alt : 49.2799987793, Lat : 49.2836037, Lng : -123.114967, Q1 : 0.918928682804, Q2 : 0.0760706812143, Q3 : -0.117291428149, Q4 : 0.368817090988}
2019-04-14 11:26:30.11: SIM {TimeUS : 57735230, Roll : 3.45, Pitch : -15.71, Yaw : 42.48, Alt : 49.2799987793, Lat : 49.2836056, Lng : -123.114964, Q1 : 0.921386301517, Q2 : 0.0773404762149, Q3 : -0.116572149098, Q4 : 0.362597078085}
2019-04-14 11:26:30.21: SIM {TimeUS : 57835190, Roll : 3.33, Pitch : -15.68, Yaw : 42.4, Alt : 49.2799987793, Lat : 49.2836077, Lng : -123.1149608, Q1 : 0.921768963337, Q2 : 0.0762030929327, Q3 : -0.116781577468, Q4 : 0.361797064543}
2019-04-14 11:26:30.31: SIM {TimeUS : 57935150, Roll : 2.87, Pitch : -15.73, Yaw : 42.92, Alt : 49.2799987793, Lat : 49.2836097, Lng : -123.1149576, Q1 : 0.920350968838, Q2 : 0.0732191801071, Q3 : -0.118254572153, Q4 : 0.365525573492}
2019-04-14 11:26:30.41: SIM {TimeUS : 58035110, Roll : 2.18, Pitch : -15.84, Yaw : 43.89, Alt : 49.2799987793, Lat : 49.2836116, Lng : -123.1149542, Q1 : 0.917526125908, Q2 : 0.0689954981208, Q3 : -0.120803929865, Q4 : 0.372547864914}
2019-04-14 11:26:30.51: SIM {TimeUS : 58135070, Roll : 1.34, Pitch : -16.0, Yaw : 45.13, Alt : 49.2799987793, Lat : 49.2836136, Lng : -123.1149508, Q1 : 0.913765788078, Q2 : 0.0641102194786, Q3 : -0.12409131974, Q4 : 0.381475239992}
2019-04-14 11:26:30.61: SIM {TimeUS : 58235030, Roll : 0.48, Pitch : -16.14, Yaw : 46.45, Alt : 49.2799987793, Lat : 49.2836157, Lng : -123.1149473, Q1 : 0.909609854221, Q2 : 0.0592220053077, Q3 : -0.127365335822, Q4 : 0.390999674797}
2019-04-14 11:26:30.71: SIM {TimeUS : 58334990, Roll : -0.26, Pitch : -16.24, Yaw : 47.7, Alt : 49.2799987793, Lat : 49.2836177, Lng : -123.1149437, Q1 : 0.90555948019, Q2 : 0.0550350360572, Q3 : -0.130159810185, Q4 : 0.399989545345}
2019-04-14 11:26:30.81: SIM {TimeUS : 58434950, Roll : -0.86, Pitch : -16.31, Yaw : 48.74, Alt : 49.2799987793, Lat : 49.2836199, Lng : -123.1149401, Q1 : 0.902065873146, Q2 : 0.0517197214067, Q3 : -0.132357746363, Q4 : 0.407533705235}
2019-04-14 11:26:30.91: SIM {TimeUS : 58534910, Roll : -1.26, Pitch : -16.35, Yaw : 49.51, Alt : 49.2900009155, Lat : 49.283622, Lng : -123.1149364, Q1 : 0.89943921566, Q2 : 0.049680236727, Q3 : -0.133758127689, Q4 : 0.413097709417}
2019-04-14 11:26:31.01: SIM {TimeUS : 58634870, Roll : -1.42, Pitch : -16.36, Yaw : 49.97, Alt : 49.2900009155, Lat : 49.2836243, Lng : -123.1149327, Q1 : 0.897864341736, Q2 : 0.0489837527275, Q3 : -0.134181812406, Q4 : 0.416455954313}
2019-04-14 11:26:31.11: SIM {TimeUS : 58734830, Roll : -1.39, Pitch : -16.36, Yaw : 50.11, Alt : 49.2900009155, Lat : 49.2836266, Lng : -123.114929, Q1 : 0.897333025932, Q2 : 0.0493813864887, Q3 : -0.134052395821, Q4 : 0.417594254017}
2019-04-14 11:26:31.21: SIM {TimeUS : 58834790, Roll : -1.23, Pitch : -16.39, Yaw : 49.98, Alt : 49.2900009155, Lat : 49.2836287, Lng : -123.1149251, Q1 : 0.897700786591, Q2 : 0.0505820326507, Q3 : -0.133772805333, Q4 : 0.416748911142}
2019-04-14 11:26:31.31: SIM {TimeUS : 58934750, Roll : -0.98, Pitch : -16.45, Yaw : 49.64, Alt : 49.2900009155, Lat : 49.2836311, Lng : -123.1149214, Q1 : 0.898763120174, Q2 : 0.0523603782058, Q3 : -0.133450046182, Q4 : 0.414336025715}
2019-04-14 11:26:31.41: SIM {TimeUS : 59034710, Roll : -0.67, Pitch : -16.53, Yaw : 49.16, Alt : 49.2900009155, Lat : 49.2836335, Lng : -123.1149175, Q1 : 0.900258362293, Q2 : 0.0545198656619, Q3 : -0.133189573884, Q4 : 0.410880804062}
2019-04-14 11:26:31.51: SIM {TimeUS : 59134670, Roll : -0.34, Pitch : -16.6, Yaw : 48.61, Alt : 49.2900009155, Lat : 49.2836359, Lng : -123.1149136, Q1 : 0.901967048645, Q2 : 0.0566895827651, Q3 : -0.132834225893, Q4 : 0.406935870647}
2019-04-14 11:26:31.61: SIM {TimeUS : 59235463, Roll : -0.03, Pitch : -16.65, Yaw : 48.07, Alt : 49.2900009155, Lat : 49.2836383, Lng : -123.1149097, Q1 : 0.903669178486, Q2 : 0.058766297996, Q3 : -0.132410317659, Q4 : 0.402984023094}
2019-04-14 11:26:31.71: SIM {TimeUS : 59335423, Roll : 0.24, Pitch : -16.69, Yaw : 47.59, Alt : 49.2900009155, Lat : 49.2836407, Lng : -123.1149057, Q1 : 0.905155718327, Q2 : 0.0605120584369, Q3 : -0.132017433643, Q4 : 0.399503260851}
2019-04-14 11:26:31.81: SIM {TimeUS : 59435383, Roll : 0.45, Pitch : -16.72, Yaw : 47.21, Alt : 49.2900009155, Lat : 49.2836431, Lng : -123.1149017, Q1 : 0.906318724155, Q2 : 0.0618424266577, Q3 : -0.131696730852, Q4 : 0.396759271622}
2019-04-14 11:26:31.91: SIM {TimeUS : 59535343, Roll : 0.59, Pitch : -16.75, Yaw : 46.96, Alt : 49.2900009155, Lat : 49.2836455, Lng : -123.1148976, Q1 : 0.907079041004, Q2 : 0.062770113349, Q3 : -0.131533011794, Q4 : 0.394926100969}
2019-04-14 11:26:32.01: SIM {TimeUS : 59635303, Roll : 0.65, Pitch : -16.77, Yaw : 46.84, Alt : 49.2900009155, Lat : 49.283648, Lng : -123.1148935, Q1 : 0.907436192036, Q2 : 0.0631567016244, Q3 : -0.131610706449, Q4 : 0.394016981125}
2019-04-14 11:26:32.11: SIM {TimeUS : 59735263, Roll : 0.62, Pitch : -16.8, Yaw : 46.84, Alt : 49.2900009155, Lat : 49.2836505, Lng : -123.1148894, Q1 : 0.907431840897, Q2 : 0.063007183373, Q3 : -0.131931632757, Q4 : 0.393943637609}
2019-04-14 11:26:32.21: SIM {TimeUS : 59835223, Roll : 0.52, Pitch : -16.83, Yaw : 46.93, Alt : 49.2900009155, Lat : 49.2836529, Lng : -123.1148852, Q1 : 0.907135426998, Q2 : 0.0624340996146, Q3 : -0.132443904877, Q4 : 0.394545286894}
2019-04-14 11:26:32.31: SIM {TimeUS : 59935183, Roll : 0.39, Pitch : -16.87, Yaw : 47.09, Alt : 49.2900009155, Lat : 49.2836554, Lng : -123.114881, Q1 : 0.906606197357, Q2 : 0.0617238171399, Q3 : -0.13318157196, Q4 : 0.395623654127}
2019-04-14 11:26:32.41: SIM {TimeUS : 60035143, Roll : 0.23, Pitch : -16.93, Yaw : 47.28, Alt : 49.2999992371, Lat : 49.2836578, Lng : -123.1148767, Q1 : 0.905943989754, Q2 : 0.0609548427165, Q3 : -0.134083509445, Q4 : 0.396952986717}
2019-04-14 11:26:32.51: SIM {TimeUS : 60135103, Roll : 0.07, Pitch : -16.98, Yaw : 47.48, Alt : 49.2999992371, Lat : 49.2836604, Lng : -123.1148725, Q1 : 0.905280947685, Q2 : 0.0600263997912, Q3 : -0.134950354695, Q4 : 0.398311018944}
2019-04-14 11:26:32.61: SIM {TimeUS : 60235063, Roll : -0.08, Pitch : -17.02, Yaw : 47.66, Alt : 49.2999992371, Lat : 49.283663, Lng : -123.1148682, Q1 : 0.904693126678, Q2 : 0.0591220892966, Q3 : -0.135661661625, Q4 : 0.399538367987}
2019-04-14 11:26:32.71: SIM {TimeUS : 60335023, Roll : -0.2, Pitch : -17.04, Yaw : 47.81, Alt : 49.2999992371, Lat : 49.2836655, Lng : -123.1148638, Q1 : 0.904229283333, Q2 : 0.0584192536771, Q3 : -0.136178225279, Q4 : 0.400514692068}
2019-04-14 11:26:32.81: SIM {TimeUS : 60434983, Roll : -0.26, Pitch : -17.07, Yaw : 47.9, Alt : 49.2999992371, Lat : 49.2836681, Lng : -123.1148595, Q1 : 0.903898358345, Q2 : 0.0581371895969, Q3 : -0.136588603258, Q4 : 0.401162564754}
2019-04-14 11:26:32.91: SIM {TimeUS : 60534943, Roll : -0.28, Pitch : -17.1, Yaw : 47.94, Alt : 49.2999992371, Lat : 49.2836706, Lng : -123.1148551, Q1 : 0.903721749783, Q2 : 0.058184992522, Q3 : -0.136903226376, Q4 : 0.401446163654}
2019-04-14 11:26:33.01: SIM {TimeUS : 60634903, Roll : -0.25, Pitch : -17.14, Yaw : 47.93, Alt : 49.2999992371, Lat : 49.2836732, Lng : -123.1148508, Q1 : 0.903698384762, Q2 : 0.0585703626275, Q3 : -0.137062072754, Q4 : 0.401388525963}
2019-04-14 11:26:33.11: SIM {TimeUS : 60734863, Roll : -0.17, Pitch : -17.18, Yaw : 47.88, Alt : 49.2999992371, Lat : 49.2836759, Lng : -123.1148464, Q1 : 0.903802037239, Q2 : 0.0592010356486, Q3 : -0.137145280838, Q4 : 0.40103405714}
2019-04-14 11:26:33.21: SIM {TimeUS : 60834823, Roll : -0.1, Pitch : -17.21, Yaw : 47.79, Alt : 49.2999992371, Lat : 49.2836785, Lng : -123.1148418, Q1 : 0.9040158391, Q2 : 0.0598354004323, Q3 : -0.137181729078, Q4 : 0.400445073843}
2019-04-14 11:26:33.31: SIM {TimeUS : 60934783, Roll : -0.03, Pitch : -17.24, Yaw : 47.69, Alt : 49.2999992371, Lat : 49.2836811, Lng : -123.1148375, Q1 : 0.904310584068, Q2 : 0.0603020936251, Q3 : -0.137216284871, Q4 : 0.399697035551}
2019-04-14 11:26:33.41: SIM {TimeUS : 61034743, Roll : 0.0, Pitch : -17.25, Yaw : 47.58, Alt : 49.3100013733, Lat : 49.2836838, Lng : -123.1148331, Q1 : 0.90465259552, Q2 : 0.0605633705854, Q3 : -0.137259498239, Q4 : 0.398868024349}
2019-04-14 11:26:33.51: SIM {TimeUS : 61134703, Roll : 0.05, Pitch : -17.26, Yaw : 47.48, Alt : 49.3100013733, Lat : 49.2836864, Lng : -123.1148286, Q1 : 0.904988050461, Q2 : 0.0608295165002, Q3 : -0.137181505561, Q4 : 0.398092567921}
2019-04-14 11:26:33.61: SIM {TimeUS : 61234663, Roll : 0.09, Pitch : -17.26, Yaw : 47.38, Alt : 49.3100013733, Lat : 49.2836892, Lng : -123.1148241, Q1 : 0.905276834965, Q2 : 0.0611035786569, Q3 : -0.137104034424, Q4 : 0.397420078516}
2019-04-14 11:26:33.71: SIM {TimeUS : 61335456, Roll : 0.16, Pitch : -17.29, Yaw : 47.31, Alt : 49.3100013733, Lat : 49.2836919, Lng : -123.1148195, Q1 : 0.905458211899, Q2 : 0.0616130717099, Q3 : -0.137199610472, Q4 : 0.396894872189}
2019-04-14 11:26:33.81: SIM {TimeUS : 61435416, Roll : 0.21, Pitch : -17.35, Yaw : 47.26, Alt : 49.3100013733, Lat : 49.2836944, Lng : -123.114815, Q1 : 0.905546665192, Q2 : 0.0621361508965, Q3 : -0.137449175119, Q4 : 0.396525025368}
2019-04-14 11:26:33.91: SIM {TimeUS : 61535376, Roll : 0.23, Pitch : -17.37, Yaw : 47.23, Alt : 49.3100013733, Lat : 49.2836972, Lng : -123.1148105, Q1 : 0.905606627464, Q2 : 0.0623522661626, Q3 : -0.137616217136, Q4 : 0.396296203136}
2019-04-14 11:26:34.01: SIM {TimeUS : 61635336, Roll : 0.22, Pitch : -17.37, Yaw : 47.22, Alt : 49.3100013733, Lat : 49.2836999, Lng : -123.1148059, Q1 : 0.905641853809, Q2 : 0.0623262710869, Q3 : -0.137635678053, Q4 : 0.39621296525}
2019-04-14 11:26:34.11: SIM {TimeUS : 61735296, Roll : 0.2, Pitch : -17.39, Yaw : 47.22, Alt : 49.3100013733, Lat : 49.2837027, Lng : -123.1148014, Q1 : 0.905618071556, Q2 : 0.0622196346521, Q3 : -0.137808918953, Q4 : 0.396223962307}
2019-04-14 11:26:34.21: SIM {TimeUS : 61835256, Roll : 0.16, Pitch : -17.42, Yaw : 47.24, Alt : 49.3100013733, Lat : 49.2837053, Lng : -123.1147968, Q1 : 0.905547201633, Q2 : 0.0620002709329, Q3 : -0.13821208477, Q4 : 0.396279722452}
2019-04-14 11:26:34.31: SIM {TimeUS : 61935216, Roll : 0.12, Pitch : -17.45, Yaw : 47.26, Alt : 49.3100013733, Lat : 49.2837081, Lng : -123.1147922, Q1 : 0.90545630455, Q2 : 0.0618236549199, Q3 : -0.138570666313, Q4 : 0.396389871836}
2019-04-14 11:26:34.41: SIM {TimeUS : 62035176, Roll : 0.09, Pitch : -17.48, Yaw : 47.28, Alt : 49.3100013733, Lat : 49.2837108, Lng : -123.1147876, Q1 : 0.905358374119, Q2 : 0.061727412045, Q3 : -0.13892993331, Q4 : 0.396502733231}
2019-04-14 11:26:34.51: SIM {TimeUS : 62135136, Roll : 0.07, Pitch : -17.5, Yaw : 47.3, Alt : 49.3199996948, Lat : 49.2837136, Lng : -123.114783, Q1 : 0.905286967754, Q2 : 0.0616733394563, Q3 : -0.139150202274, Q4 : 0.396596968174}
2019-04-14 11:26:34.61: SIM {TimeUS : 62235096, Roll : 0.07, Pitch : -17.52, Yaw : 47.31, Alt : 49.3199996948, Lat : 49.2837163, Lng : -123.1147783, Q1 : 0.905235648155, Q2 : 0.0617263913155, Q3 : -0.139291644096, Q4 : 0.396656185389}
2019-04-14 11:26:34.71: SIM {TimeUS : 62335056, Roll : 0.08, Pitch : -17.53, Yaw : 47.31, Alt : 49.3199996948, Lat : 49.2837191, Lng : -123.1147737, Q1 : 0.905219078064, Q2 : 0.0618375763297, Q3 : -0.139285504818, Q4 : 0.396678924561}
2019-04-14 11:26:34.81: SIM {TimeUS : 62435016, Roll : 0.1, Pitch : -17.54, Yaw : 47.3, Alt : 49.3199996948, Lat : 49.2837218, Lng : -123.114769, Q1 : 0.905212461948, Q2 : 0.0620351918042, Q3 : -0.139343112707, Q4 : 0.39664286375}
2019-04-14 11:26:34.91: SIM {TimeUS : 62534976, Roll : 0.12, Pitch : -17.56, Yaw : 47.29, Alt : 49.3199996948, Lat : 49.2837247, Lng : -123.1147643, Q1 : 0.905223846436, Q2 : 0.0622662566602, Q3 : -0.139456346631, Q4 : 0.396540850401}
2019-04-14 11:26:35.01: SIM {TimeUS : 62634936, Roll : 0.13, Pitch : -17.6, Yaw : 47.27, Alt : 49.3199996948, Lat : 49.2837275, Lng : -123.1147597, Q1 : 0.905250430107, Q2 : 0.062439262867, Q3 : -0.139738708735, Q4 : 0.396353542805}
2019-04-14 11:26:35.11: SIM {TimeUS : 62734896, Roll : 0.11, Pitch : -17.65, Yaw : 47.24, Alt : 49.3199996948, Lat : 49.2837302, Lng : -123.114755, Q1 : 0.90529692173, Q2 : 0.0624182745814, Q3 : -0.140174642205, Q4 : 0.396096557379}
2019-04-14 11:26:35.21: SIM {TimeUS : 62834856, Roll : 0.1, Pitch : -17.69, Yaw : 47.21, Alt : 49.3199996948, Lat : 49.283733, Lng : -123.1147503, Q1 : 0.905349433422, Q2 : 0.0624461658299, Q3 : -0.140580609441, Q4 : 0.395828306675}
2019-04-14 11:26:35.31: SIM {TimeUS : 62934816, Roll : 0.12, Pitch : -17.72, Yaw : 47.18, Alt : 49.3199996948, Lat : 49.2837357, Lng : -123.1147456, Q1 : 0.905408024788, Q2 : 0.0626473799348, Q3 : -0.140772327781, Q4 : 0.395594239235}
2019-04-14 11:26:35.41: SIM {TimeUS : 63034776, Roll : 0.14, Pitch : -17.72, Yaw : 47.15, Alt : 49.3199996948, Lat : 49.2837386, Lng : -123.1147409, Q1 : 0.905491232872, Q2 : 0.0627915859222, Q3 : -0.140736684203, Q4 : 0.395393580198}
2019-04-14 11:26:35.51: SIM {TimeUS : 63134736, Roll : 0.16, Pitch : -17.71, Yaw : 47.12, Alt : 49.3199996948, Lat : 49.2837415, Lng : -123.114736, Q1 : 0.905592799187, Q2 : 0.0628484636545, Q3 : -0.140549182892, Q4 : 0.395218521357}
2019-04-14 11:26:35.61: SIM {TimeUS : 63234696, Roll : 0.16, Pitch : -17.69, Yaw : 47.1, Alt : 49.3199996948, Lat : 49.2837442, Lng : -123.1147314, Q1 : 0.905689954758, Q2 : 0.0627473443747, Q3 : -0.140444025397, Q4 : 0.39504930377}
2019-04-14 11:26:35.71: SIM {TimeUS : 63334656, Roll : 0.16, Pitch : -17.68, Yaw : 47.08, Alt : 49.3199996948, Lat : 49.2837471, Lng : -123.1147266, Q1 : 0.905776500702, Q2 : 0.062665052712, Q3 : -0.140345439315, Q4 : 0.394898951054}
2019-04-14 11:26:35.81: SIM {TimeUS : 63435449, Roll : 0.16, Pitch : -17.67, Yaw : 47.07, Alt : 49.3199996948, Lat : 49.28375, Lng : -123.1147218, Q1 : 0.905844569206, Q2 : 0.0626083984971, Q3 : -0.140261471272, Q4 : 0.394781589508}
2019-04-14 11:26:35.91: SIM {TimeUS : 63535409, Roll : 0.15, Pitch : -17.67, Yaw : 47.05, Alt : 49.3199996948, Lat : 49.2837527, Lng : -123.1147171, Q1 : 0.905882000923, Q2 : 0.0625770688057, Q3 : -0.140344008803, Q4 : 0.394671410322}
2019-04-14 11:26:36.01: SIM {TimeUS : 63635369, Roll : 0.15, Pitch : -17.69, Yaw : 47.04, Alt : 49.3300018311, Lat : 49.2837556, Lng : -123.1147123, Q1 : 0.905894219875, Q2 : 0.0626209154725, Q3 : -0.140523403883, Q4 : 0.394572556019}
2019-04-14 11:26:36.11: SIM {TimeUS : 63735329, Roll : 0.14, Pitch : -17.75, Yaw : 47.03, Alt : 49.3300018311, Lat : 49.2837585, Lng : -123.1147075, Q1 : 0.905866026878, Q2 : 0.0626951158047, Q3 : -0.140982404351, Q4 : 0.394461661577}
2019-04-14 11:26:36.21: SIM {TimeUS : 63835289, Roll : 0.13, Pitch : -17.8, Yaw : 47.03, Alt : 49.3300018311, Lat : 49.2837612, Lng : -123.1147027, Q1 : 0.905825853348, Q2 : 0.0628426671028, Q3 : -0.141457900405, Q4 : 0.394360274076}
2019-04-14 11:26:36.31: SIM {TimeUS : 63935249, Roll : 0.14, Pitch : -17.84, Yaw : 47.02, Alt : 49.3300018311, Lat : 49.2837642, Lng : -123.1146979, Q1 : 0.905801653862, Q2 : 0.0630220770836, Q3 : -0.14171256125, Q4 : 0.394295722246}
2019-04-14 11:26:36.41: SIM {TimeUS : 64035209, Roll : 0.14, Pitch : -17.87, Yaw : 47.01, Alt : 49.3300018311, Lat : 49.283767, Lng : -123.1146931, Q1 : 0.905788779259, Q2 : 0.0631170347333, Q3 : -0.141948401928, Q4 : 0.394225329161}
2019-04-14 11:26:36.51: SIM {TimeUS : 64135169, Roll : 0.13, Pitch : -17.89, Yaw : 47.0, Alt : 49.3300018311, Lat : 49.2837698, Lng : -123.1146883, Q1 : 0.905794858932, Q2 : 0.0631141513586, Q3 : -0.142140448093, Q4 : 0.394142568111}
2019-04-14 11:26:36.61: SIM {TimeUS : 64235129, Roll : 0.14, Pitch : -17.88, Yaw : 47.0, Alt : 49.3300018311, Lat : 49.2837728, Lng : -123.1146835, Q1 : 0.905828297138, Q2 : 0.0631422400475, Q3 : -0.142085328698, Q4 : 0.394081115723}
2019-04-14 11:26:36.71: SIM {TimeUS : 64335089, Roll : 0.16, Pitch : -17.89, Yaw : 46.98, Alt : 49.3300018311, Lat : 49.2837757, Lng : -123.1146787, Q1 : 0.905847012997, Q2 : 0.0633032992482, Q3 : -0.142091527581, Q4 : 0.394009977579}
2019-04-14 11:26:36.81: SIM {TimeUS : 64435049, Roll : 0.17, Pitch : -17.91, Yaw : 46.97, Alt : 49.3300018311, Lat : 49.2837784, Lng : -123.1146738, Q1 : 0.905859708786, Q2 : 0.0634476467967, Q3 : -0.142196491361, Q4 : 0.393919736147}
2019-04-14 11:26:36.91: SIM {TimeUS : 64535009, Roll : 0.18, Pitch : -17.92, Yaw : 46.96, Alt : 49.3300018311, Lat : 49.2837813, Lng : -123.114669, Q1 : 0.905882239342, Q2 : 0.063567571342, Q3 : -0.142243474722, Q4 : 0.393831580877}
2019-04-14 11:26:37.01: SIM {TimeUS : 64634969, Roll : 0.2, Pitch : -17.92, Yaw : 46.95, Alt : 49.3300018311, Lat : 49.2837843, Lng : -123.1146642, Q1 : 0.905925393105, Q2 : 0.0636348873377, Q3 : -0.142187699676, Q4 : 0.393741637468}
2019-04-14 11:26:37.11: SIM {TimeUS : 64734929, Roll : 0.2, Pitch : -17.92, Yaw : 46.93, Alt : 49.3300018311, Lat : 49.2837872, Lng : -123.1146593, Q1 : 0.905974626541, Q2 : 0.0636224448681, Q3 : -0.142187833786, Q4 : 0.393630295992}
2019-04-14 11:26:37.21: SIM {TimeUS : 64834889, Roll : 0.17, Pitch : -17.93, Yaw : 46.92, Alt : 49.3300018311, Lat : 49.2837901, Lng : -123.1146545, Q1 : 0.906014800072, Q2 : 0.0634934008121, Q3 : -0.142401009798, Q4 : 0.393481582403}
2019-04-14 11:26:37.31: SIM {TimeUS : 64934849, Roll : 0.14, Pitch : -17.97, Yaw : 46.9, Alt : 49.3300018311, Lat : 49.2837929, Lng : -123.1146496, Q1 : 0.906037449837, Q2 : 0.0633144453168, Q3 : -0.142825737596, Q4 : 0.39330419898}
2019-04-14 11:26:37.41: SIM {TimeUS : 65034809, Roll : 0.12, Pitch : -17.98, Yaw : 46.89, Alt : 49.3300018311, Lat : 49.2837959, Lng : -123.1146447, Q1 : 0.906083464622, Q2 : 0.063189432025, Q3 : -0.142940923572, Q4 : 0.393176466227}
2019-04-14 11:26:37.51: SIM {TimeUS : 65134769, Roll : 0.13, Pitch : -17.97, Yaw : 46.88, Alt : 49.3300018311, Lat : 49.2837988, Lng : -123.1146399, Q1 : 0.906137883663, Q2 : 0.0631923303008, Q3 : -0.142830595374, Q4 : 0.393090754747}
2019-04-14 11:26:37.61: SIM {TimeUS : 65234729, Roll : 0.15, Pitch : -17.96, Yaw : 46.86, Alt : 49.3400001526, Lat : 49.2838017, Lng : -123.114635, Q1 : 0.906181871891, Q2 : 0.0632907450199, Q3 : -0.142706051469, Q4 : 0.393018811941}
2019-04-14 11:26:37.71: SIM {TimeUS : 65334689, Roll : 0.16, Pitch : -17.96, Yaw : 46.85, Alt : 49.3400001526, Lat : 49.2838045, Lng : -123.1146301, Q1 : 0.906207799911, Q2 : 0.0634013861418, Q3 : -0.142718881369, Q4 : 0.392936468124}
2019-04-14 11:26:37.81: SIM {TimeUS : 65435482, Roll : 0.15, Pitch : -17.98, Yaw : 46.84, Alt : 49.3400001526, Lat : 49.2838075, Lng : -123.1146252, Q1 : 0.906225919724, Q2 : 0.0633903294802, Q3 : -0.142913922668, Q4 : 0.39282554388}
2019-04-14 11:26:37.91: SIM {TimeUS : 65535442, Roll : 0.13, Pitch : -18.01, Yaw : 46.83, Alt : 49.3400001526, Lat : 49.2838105, Lng : -123.1146203, Q1 : 0.906245350838, Q2 : 0.0632903650403, Q3 : -0.14316855371, Q4 : 0.392704069614}
2019-04-14 11:26:38.01: SIM {TimeUS : 65635402, Roll : 0.12, Pitch : -18.02, Yaw : 46.82, Alt : 49.3400001526, Lat : 49.2838134, Lng : -123.1146154, Q1 : 0.906271576881, Q2 : 0.0632388144732, Q3 : -0.143329039216, Q4 : 0.392593324184}
2019-04-14 11:26:38.11: SIM {TimeUS : 65735362, Roll : 0.13, Pitch : -18.04, Yaw : 46.81, Alt : 49.3400001526, Lat : 49.2838163, Lng : -123.1146105, Q1 : 0.906290531158, Q2 : 0.0633466243744, Q3 : -0.1434250772, Q4 : 0.392497092485}
2019-04-14 11:26:38.21: SIM {TimeUS : 65835322, Roll : 0.15, Pitch : -18.05, Yaw : 46.79, Alt : 49.3400001526, Lat : 49.2838193, Lng : -123.1146056, Q1 : 0.906304836273, Q2 : 0.063504755497, Q3 : -0.143494307995, Q4 : 0.392413198948}
2019-04-14 11:26:38.31: SIM {TimeUS : 65935282, Roll : 0.17, Pitch : -18.07, Yaw : 46.78, Alt : 49.3400001526, Lat : 49.2838221, Lng : -123.1146007, Q1 : 0.906304776669, Q2 : 0.0637603402138, Q3 : -0.143525600433, Q4 : 0.392360448837}
2019-04-14 11:26:38.41: SIM {TimeUS : 66035242, Roll : 0.19, Pitch : -18.08, Yaw : 46.78, Alt : 49.3400001526, Lat : 49.283825, Lng : -123.1145958, Q1 : 0.906300842762, Q2 : 0.0639165937901, Q3 : -0.143630966544, Q4 : 0.39230543375}
2019-04-14 11:26:38.51: SIM {TimeUS : 66135202, Roll : 0.2, Pitch : -18.1, Yaw : 46.77, Alt : 49.3400001526, Lat : 49.2838281, Lng : -123.1145909, Q1 : 0.906294345856, Q2 : 0.064073421061, Q3 : -0.143746122718, Q4 : 0.392252802849}
2019-04-14 11:26:38.61: SIM {TimeUS : 66235162, Roll : 0.22, Pitch : -18.12, Yaw : 46.76, Alt : 49.3400001526, Lat : 49.283831, Lng : -123.114586, Q1 : 0.906287610531, Q2 : 0.0642621144652, Q3 : -0.143815219402, Q4 : 0.392212122679}
2019-04-14 11:26:38.71: SIM {TimeUS : 66335122, Roll : 0.24, Pitch : -18.13, Yaw : 46.76, Alt : 49.3400001526, Lat : 49.283834, Lng : -123.1145811, Q1 : 0.906279087067, Q2 : 0.0645064339042, Q3 : -0.143804132938, Q4 : 0.392195850611}
