2019-04-14 12:30:02.80: SIM {TimeUS : 40816167, Roll : 0.0, Pitch : 0.0, Yaw : 0.0, Alt : 30.1000003815, Lat : 49.28357, Lng : -123.11502, Q1 : 1.0, Q2 : 0.0, Q3 : 0.0, Q4 : 0.0}
2019-04-14 12:30:02.91: SIM {TimeUS : 40935286, Roll : 0.0, Pitch : 0.0, Yaw : 0.0, Alt : 30.1000003815, Lat : 49.28357, Lng : -123.11502, Q1 : 1.0, Q2 : 0.0, Q3 : 0.0, Q4 : 0.0}
2019-04-14 12:30:03.01: SIM {TimeUS : 41035246, Roll : 0.0, Pitch : 0.0, Yaw : 0.0, Alt : 30.1000003815, Lat : 49.28357, Lng : -123.11502, Q1 : 1.0, Q2 : 0.0, Q3 : 0.0, Q4 : 0.0}
2019-04-14 12:30:03.11: SIM {TimeUS : 41135206, Roll : 0.0, Pitch : 0.0, Yaw : 0.0, Alt : 30.1000003815, Lat : 49.28357, Lng : -123.11502, Q1 : 1.0, Q2 : 0.0, Q3 : 0.0, Q4 : 0.0}
2019-04-14 12:30:03.21: SIM {TimeUS : 41235166, Roll : 0.0, Pitch : 0.0, Yaw : 0.0, Alt : 30.1000003815, Lat : 49.28357, Lng : -123.11502, Q1 : 1.0, Q2 : 0.0, Q3 : 0.0, Q4 : 0.0}
2019-04-14 12:30:03.31: SIM {TimeUS : 41335126, Roll : 0.0, Pitch : 0.0, Yaw : 0.0, Alt : 30.1000003815, Lat : 49.28357, Lng : -123.11502, Q1 : 1.0, Q2 : 0.0, Q3 : 0.0, Q4 : 0.0}
2019-04-14 12:30:03.41: SIM {TimeUS : 41435086, Roll : 0.0, Pitch : 0.0, Yaw : 0.0, Alt : 30.1000003815, Lat : 49.28357, Lng : -123.11502, Q1 : 1.0, Q2 : 0.0, Q3 : 0.0, Q4 : 0.0}
2019-04-14 12:30:03.51: SIM {TimeUS : 41535046, Roll : 0.0, Pitch : 0.0, Yaw : 0.0, Alt : 30.1000003815, Lat : 49.28357, Lng : -123.11502, Q1 : 1.0, Q2 : 0.0, Q3 : 0.0, Q4 : 0.0}
2019-04-14 12:30:03.61: SIM {TimeUS : 41635006, Roll : 0.0, Pitch : 0.0, Yaw : 0.0, Alt : 30.1000003815, Lat : 49.28357, Lng : -123.11502, Q1 : 1.0, Q2 : 0.0, Q3 : 0.0, Q4 : 0.0}
2019-04-14 12:30:03.71: SIM {TimeUS : 41734966, Roll : 0.0, Pitch : 0.0, Yaw : 0.0, Alt : 30.1000003815, Lat : 49.28357, Lng : -123.11502, Q1 : 1.0, Q2 : 0.0, Q3 : 0.0, Q4 : 0.0}
2019-04-14 12:30:03.81: SIM {TimeUS : 41834926, Roll : 0.0, Pitch : 0.0, Yaw : 0.0, Alt : 30.1000003815, Lat : 49.28357, Lng : -123.11502, Q1 : 1.0, Q2 : 0.0, Q3 : 0.0, Q4 : 0.0}
2019-04-14 12:30:03.91: SIM {TimeUS : 41934886, Roll : 0.0, Pitch : 0.0, Yaw : 0.0, Alt : 30.1000003815, Lat : 49.28357, Lng : -123.11502, Q1 : 1.0, Q2 : 0.0, Q3 : 0.0, Q4 : 0.0}
2019-04-14 12:30:04.01: SIM {TimeUS : 42034846, Roll : 0.0, Pitch : 0.0, Yaw : 0.0, Alt : 30.1000003815, Lat : 49.28357, Lng : -123.11502, Q1 : 1.0, Q2 : 0.0, Q3 : 0.0, Q4 : 0.0}
2019-04-14 12:30:04.11: SIM {TimeUS : 42134806, Roll : 0.0, Pitch : 0.0, Yaw : 0.0, Alt : 30.1000003815, Lat : 49.28357, Lng : -123.11502, Q1 : 1.0, Q2 : 0.0, Q3 : 0.0, Q4 : 0.0}
2019-04-14 12:30:04.21: SIM {TimeUS : 42234766, Roll : 0.0, Pitch : 0.0, Yaw : 0.0, Alt : 30.1000003815, Lat : 49.28357, Lng : -123.11502, Q1 : 1.0, Q2 : 0.0, Q3 : 0.0, Q4 : 0.0}
2019-04-14 12:30:04.31: SIM {TimeUS : 42334726, Roll : 0.0, Pitch : 0.0, Yaw : 0.0, Alt : 30.1000003815, Lat : 49.28357, Lng : -123.11502, Q1 : 1.0, Q2 : 0.0, Q3 : 0.0, Q4 : 0.0}
2019-04-14 12:30:04.41: SIM {TimeUS : 42434686, Roll : 0.0, Pitch : 0.0, Yaw : 0.0, Alt : 30.1000003815, Lat : 49.28357, Lng : -123.11502, Q1 : 1.0, Q2 : 0.0, Q3 : 0.0, Q4 : 0.0}
2019-04-14 12:30:04.51: SIM {TimeUS : 42534646, Roll : 0.0, Pitch : 0.0, Yaw : 0.0, Alt : 30.1000003815, Lat : 49.28357, Lng : -123.11502, Q1 : 1.0, Q2 : 0.0, Q3 : 0.0, Q4 : 0.0}
2019-04-14 12:30:04.61: SIM {TimeUS : 42634606, Roll : 0.0, Pitch : 0.0, Yaw : 0.0, Alt : 30.1000003815, Lat : 49.28357, Lng : -123.11502, Q1 : 1.0, Q2 : 0.0, Q3 : 0.0, Q4 : 0.0}
2019-04-14 12:30:04.71: SIM {TimeUS : 42734566, Roll : 0.0, Pitch : 0.0, Yaw : 0.0, Alt : 30.1000003815, Lat : 49.28357, Lng : -123.11502, Q1 : 1.0, Q2 : 0.0, Q3 : 0.0, Q4 : 0.0}
2019-04-14 12:30:04.81: SIM {TimeUS : 42834526, Roll : 0.0, Pitch : 0.0, Yaw : 0.0, Alt : 30.1000003815, Lat : 49.28357, Lng : -123.11502, Q1 : 1.0, Q2 : 0.0, Q3 : 0.0, Q4 : 0.0}
2019-04-14 12:30:04.91: SIM {TimeUS : 42935319, Roll : 0.0, Pitch : 0.0, Yaw : 0.0, Alt : 30.1000003815, Lat : 49.28357, Lng : -123.11502, Q1 : 1.0, Q2 : 0.0, Q3 : 0.0, Q4 : 0.0}
2019-04-14 12:30:05.01: SIM {TimeUS : 43035279, Roll : 0.0, Pitch : 0.0, Yaw : 0.0, Alt : 30.1000003815, Lat : 49.28357, Lng : -123.11502, Q1 : 1.0, Q2 : 0.0, Q3 : 0.0, Q4 : 0.0}
2019-04-14 12:30:05.11: SIM {TimeUS : 43135239, Roll : 0.0, Pitch : 0.0, Yaw : 360.0, Alt : 30.1000003815, Lat : 49.28357, Lng : -123.11502, Q1 : 1.0, Q2 : 0.0, Q3 : 0.0, Q4 : -1.17322046175e-11}
2019-04-14 12:30:05.21: SIM {TimeUS : 43235199, Roll : 0.0, Pitch : 0.0, Yaw : 0.0, Alt : 30.1000003815, Lat : 49.28357, Lng : -123.11502, Q1 : 1.0, Q2 : 0.0, Q3 : 0.0, Q4 : 2.90170977524e-11}
2019-04-14 12:30:05.31: SIM {TimeUS : 43335159, Roll : 0.0, Pitch : 0.0, Yaw : 360.0, Alt : 30.1000003815, Lat : 49.28357, Lng : -123.11502, Q1 : 1.0, Q2 : 0.0, Q3 : 0.0, Q4 : -1.45012350572e-07}
2019-04-14 12:30:05.41: SIM {TimeUS : 43435119, Roll : 0.0, Pitch : 0.0, Yaw : 359.99, Alt : 30.1000003815, Lat : 49.28357, Lng : -123.11502, Q1 : 1.0, Q2 : 0.0, Q3 : 0.0, Q4 : -2.87542519573e-07}
2019-04-14 12:30:05.51: SIM {TimeUS : 43535079, Roll : 0.0, Pitch : 0.0, Yaw : 359.99, Alt : 30.1000003815, Lat : 49.28357, Lng : -123.11502, Q1 : 1.0, Q2 : 0.0, Q3 : 0.0, Q4 : -5.08034474933e-07}
2019-04-14 12:30:05.61: SIM {TimeUS : 43635039, Roll : 0.0, Pitch : 0.0, Yaw : 359.99, Alt : 30.1000003815, Lat : 49.28357, Lng : -123.11502, Q1 : 1.0, Q2 : 0.0, Q3 : 0.0, Q4 : -6.69727228342e-07}
2019-04-14 12:30:05.71: SIM {TimeUS : 43734999, Roll : 0.0, Pitch : 0.0, Yaw : 359.99, Alt : 30.1000003815, Lat : 49.28357, Lng : -123.11502, Q1 : 1.0, Q2 : 0.0, Q3 : 0.0, Q4 : -9.07138939965e-07}
2019-04-14 12:30:05.81: SIM {TimeUS : 43834959, Roll : 0.0, Pitch : 0.0, Yaw : 359.99, Alt : 30.1000003815, Lat : 49.28357, Lng : -123.11502, Q1 : 1.0, Q2 : 0.0, Q3 : 0.0, Q4 : -1.05910646653e-06}
2019-04-14 12:30:05.91: SIM {TimeUS : 43934919, Roll : 0.0, Pitch : 0.0, Yaw : 359.99, Alt : 30.1000003815, Lat : 49.28357, Lng : -123.11502, Q1 : 1.0, Q2 : 0.0, Q3 : 0.0, Q4 : -1.21973164369e-06}
2019-04-14 12:30:06.01: SIM {TimeUS : 44034879, Roll : 0.0, Pitch : 0.0, Yaw : 359.99, Alt : 30.1100006104, Lat : 49.28357, Lng : -123.11502, Q1 : 1.0, Q2 : 0.0, Q3 : 0.0, Q4 : -1.41939676723e-06}
2019-04-14 12:30:06.11: SIM {TimeUS : 44134839, Roll : 0.0, Pitch : 0.0, Yaw : 359.99, Alt : 30.1399993896, Lat : 49.28357, Lng : -123.11502, Q1 : 1.0, Q2 : 0.0, Q3 : 0.0, Q4 : -1.58528962402e-06}
2019-04-14 12:30:06.21: SIM {TimeUS : 44234799, Roll : 0.0, Pitch : 0.0, Yaw : 359.99, Alt : 30.1599998474, Lat : 49.28357, Lng : -123.11502, Q1 : 1.0, Q2 : 0.0, Q3 : 0.0, Q4 : -1.80408801498e-06}
2019-04-14 12:30:06.31: SIM {TimeUS : 44334759, Roll : 0.0, Pitch : 0.0, Yaw : 359.99, Alt : 30.2000007629, Lat : 49.28357, Lng : -123.11502, Q1 : 1.0, Q2 : 0.0, Q3 : 0.0, Q4 : -1.95168081518e-06}
2019-04-14 12:30:06.41: SIM {TimeUS : 44434719, Roll : -0.08, Pitch : -0.08, Yaw : 359.99, Alt : 30.25, Lat : 49.28357, Lng : -123.11502, Q1 : 0.999999403954, Q2 : -0.000768076162785, Q3 : -0.000740190502256, Q4 : -1.07140931505e-05}
2019-04-14 12:30:06.51: SIM {TimeUS : 44534679, Roll : -0.38, Pitch : -0.32, Yaw : 359.99, Alt : 30.3400001526, Lat : 49.28357, Lng : -123.11502, Q1 : 0.999990522861, Q2 : -0.00332622439601, Q3 : -0.0028095736634, Q4 : -4.84469928779e-05}
2019-04-14 12:30:06.61: SIM {TimeUS : 44634639, Roll : -0.69, Pitch : -0.55, Yaw : 359.99, Alt : 30.4899997711, Lat : 49.28357, Lng : -123.11502, Q1 : 0.99996984005, Q2 : -0.00610435614362, Q3 : -0.00480204448104, Q4 : -0.00011308183457}
2019-04-14 12:30:06.71: SIM {TimeUS : 44734599, Roll : -0.87, Pitch : -0.68, Yaw : 359.98, Alt : 30.6499996185, Lat : 49.28357, Lng : -123.11502, Q1 : 0.999952971935, Q2 : -0.00762123381719, Q3 : -0.00599256996065, Q4 : -0.000193805230083}
2019-04-14 12:30:06.81: SIM {TimeUS : 44834559, Roll : -0.85, Pitch : -0.7, Yaw : 359.97, Alt : 30.7999992371, Lat : 49.28357, Lng : -123.11502, Q1 : 0.999953210354, Q2 : -0.00747149763629, Q3 : -0.00613912614062, Q4 : -0.00027572500403}
2019-04-14 12:30:06.91: SIM {TimeUS : 44934519, Roll : -0.69, Pitch : -0.6, Yaw : 359.96, Alt : 30.9599990845, Lat : 49.28357, Lng : -123.1150201, Q1 : 0.999967694283, Q2 : -0.00604265322909, Q3 : -0.00528577156365, Q4 : -0.000348839123035}
2019-04-14 12:30:07.01: SIM {TimeUS : 45035312, Roll : -0.44, Pitch : -0.43, Yaw : 359.95, Alt : 31.1100006104, Lat : 49.2835701, Lng : -123.1150201, Q1 : 0.999985039234, Q2 : -0.00392712187022, Q3 : -0.00378702883609, Q4 : -0.000409105967265}
2019-04-14 12:30:07.11: SIM {TimeUS : 45135272, Roll : -0.2, Pitch : -0.24, Yaw : 359.94, Alt : 31.2700004578, Lat : 49.2835701, Lng : -123.1150202, Q1 : 0.999996125698, Q2 : -0.00177503190935, Q3 : -0.00210057082586, Q4 : -0.000455646746559}
2019-04-14 12:30:07.21: SIM {TimeUS : 45235232, Roll : -0.02, Pitch : -0.06, Yaw : 359.94, Alt : 31.4400005341, Lat : 49.2835702, Lng : -123.1150203, Q1 : 0.999999701977, Q2 : -0.000195070169866, Q3 : -0.00060448597651, Q4 : -0.000488202291308}
2019-04-14 12:30:07.31: SIM {TimeUS : 45335192, Roll : 0.06, Pitch : 0.05, Yaw : 359.94, Alt : 31.6100006104, Lat : 49.2835702, Lng : -123.1150204, Q1 : 0.999999582767, Q2 : 0.000590650888626, Q3 : 0.00045974587556, Q4 : -0.000508824596182}
2019-04-14 12:30:07.41: SIM {TimeUS : 45435152, Roll : 0.07, Pitch : 0.11, Yaw : 359.94, Alt : 31.7900009155, Lat : 49.2835703, Lng : -123.1150204, Q1 : 0.99999910593, Q2 : 0.000653132796288, Q3 : 0.00103567808401, Q4 : -0.000511932303198}
2019-04-14 12:30:07.51: SIM {TimeUS : 45535112, Roll : 0.06, Pitch : 0.14, Yaw : 359.94, Alt : 31.9799995422, Lat : 49.2835703, Lng : -123.1150205, Q1 : 0.999998867512, Q2 : 0.000538660213351, Q3 : 0.00128652458079, Q4 : -0.000519380089827}
2019-04-14 12:30:07.61: SIM {TimeUS : 45635072, Roll : 0.05, Pitch : 0.14, Yaw : 359.94, Alt : 32.1599998474, Lat : 49.2835703, Lng : -123.1150206, Q1 : 0.999998986721, Q2 : 0.000442793680122, Q3 : 0.00126755132806, Q4 : -0.000517836713698}
2019-04-14 12:30:07.71: SIM {TimeUS : 45735032, Roll : 0.04, Pitch : 0.14, Yaw : 359.94, Alt : 32.3499984741, Lat : 49.2835703, Lng : -123.1150206, Q1 : 0.999999046326, Q2 : 0.000389769120375, Q3 : 0.0012339168461, Q4 : -0.000512637197971}
2019-04-14 12:30:07.81: SIM {TimeUS : 45834992, Roll : 0.05, Pitch : 0.14, Yaw : 359.94, Alt : 32.5499992371, Lat : 49.2835703, Lng : -123.1150206, Q1 : 0.999999046326, Q2 : 0.00048702332424, Q3 : 0.00123042822815, Q4 : -0.000500338850543}
2019-04-14 12:30:07.91: SIM {TimeUS : 45934952, Roll : 0.08, Pitch : 0.12, Yaw : 359.94, Alt : 32.7400016785, Lat : 49.2835703, Lng : -123.1150207, Q1 : 0.999999046326, Q2 : 0.000743396405596, Q3 : 0.00105739012361, Q4 : -0.000483918003738}
2019-04-14 12:30:08.01: SIM {TimeUS : 46034912, Roll : 0.11, Pitch : 0.09, Yaw : 359.94, Alt : 32.9399986267, Lat : 49.2835703, Lng : -123.1150207, Q1 : 0.999999046326, Q2 : 0.00101037533022, Q3 : 0.000845867674798, Q4 : -0.000458866794361}
2019-04-14 12:30:08.11: SIM {TimeUS : 46134872, Roll : 0.13, Pitch : 0.09, Yaw : 359.94, Alt : 33.1399993896, Lat : 49.2835704, Lng : -123.1150207, Q1 : 0.999998807907, Q2 : 0.0012195839081, Q3 : 0.000841267989017, Q4 : -0.000442250311607}
2019-04-14 12:30:08.21: SIM {TimeUS : 46234832, Roll : 0.15, Pitch : 0.09, Yaw : 359.95, Alt : 33.3499984741, Lat : 49.2835704, Lng : -123.1150208, Q1 : 0.999998569489, Q2 : 0.00137399579398, Q3 : 0.00087082904065, Q4 : -0.00043025292689}
2019-04-14 12:30:08.31: SIM {TimeUS : 46334792, Roll : 0.17, Pitch : 0.11, Yaw : 359.95, Alt : 33.5499992371, Lat : 49.2835704, Lng : -123.1150208, Q1 : 0.999998271465, Q2 : 0.00149383838288, Q3 : 0.00101529189851, Q4 : -0.000417414761614}
2019-04-14 12:30:08.41: SIM {TimeUS : 46434752, Roll : 0.17, Pitch : 0.12, Yaw : 359.95, Alt : 33.7599983215, Lat : 49.2835704, Lng : -123.1150208, Q1 : 0.999998211861, Q2 : 0.00148460909259, Q3 : 0.00109511462506, Q4 : -0.000411390181398}
2019-04-14 12:30:08.51: SIM {TimeUS : 46534712, Roll : 0.15, Pitch : 0.12, Yaw : 359.95, Alt : 33.9700012207, Lat : 49.2835704, Lng : -123.1150208, Q1 : 0.999998450279, Q2 : 0.0013377640862, Q3 : 0.00108308449853, Q4 : -0.000414670619648}
2019-04-14 12:30:08.61: SIM {TimeUS : 46634672, Roll : 0.13, Pitch : 0.12, Yaw : 359.95, Alt : 34.1800003052, Lat : 49.2835704, Lng : -123.1150208, Q1 : 0.999998629093, Q2 : 0.0011558518745, Q3 : 0.00106131122448, Q4 : -0.000425522448495}
2019-04-14 12:30:08.71: SIM {TimeUS : 46734632, Roll : 0.1, Pitch : 0.11, Yaw : 359.94, Alt : 34.3899993896, Lat : 49.2835704, Lng : -123.1150208, Q1 : 0.999998927116, Q2 : 0.000956683885306, Q3 : 0.0010325810872, Q4 : -0.000446560385171}
2019-04-14 12:30:08.81: SIM {TimeUS : 46834592, Roll : 0.09, Pitch : 0.08, Yaw : 359.94, Alt : 34.5999984741, Lat : 49.2835704, Lng : -123.1150208, Q1 : 0.999999284744, Q2 : 0.000850642449223, Q3 : 0.000730649568141, Q4 : -0.000484789430629}
2019-04-14 12:30:08.91: SIM {TimeUS : 46934552, Roll : 0.08, Pitch : 0.05, Yaw : 359.93, Alt : 34.8199996948, Lat : 49.2835704, Lng : -123.1150208, Q1 : 0.999999463558, Q2 : 0.000776532513555, Q3 : 0.000448103412054, Q4 : -0.000528511358425}
2019-04-14 12:30:09.01: SIM {TimeUS : 47034512, Roll : 0.06, Pitch : 0.03, Yaw : 359.93, Alt : 35.0299987793, Lat : 49.2835704, Lng : -123.1150207, Q1 : 0.999999582767, Q2 : 0.000610010582022, Q3 : 0.000289579067612, Q4 : -0.000570236705244}
2019-04-14 12:30:09.11: SIM {TimeUS : 47135305, Roll : 0.05, Pitch : 0.02, Yaw : 359.93, Alt : 35.25, Lat : 49.2835704, Lng : -123.1150207, Q1 : 0.999999642372, Q2 : 0.000511708261911, Q3 : 0.000254590820987, Q4 : -0.000604150001891}
2019-04-14 12:30:09.21: SIM {TimeUS : 47235265, Roll : 0.05, Pitch : 0.02, Yaw : 359.92, Alt : 35.4700012207, Lat : 49.2835704, Lng : -123.1150207, Q1 : 0.999999642372, Q2 : 0.000502715818584, Q3 : 0.000249767879723, Q4 : -0.000627539353445}
2019-04-14 12:30:09.31: SIM {TimeUS : 47335225, Roll : 0.03, Pitch : 0.0, Yaw : 359.92, Alt : 35.6899986267, Lat : 49.2835704, Lng : -123.1150207, Q1 : 0.999999701977, Q2 : 0.000309602095513, Q3 : 5.18545130035e-05, Q4 : -0.000649310706649}
2019-04-14 12:30:09.41: SIM {TimeUS : 47435185, Roll : 0.0, Pitch : -0.03, Yaw : 359.92, Alt : 35.9099998474, Lat : 49.2835704, Lng : -123.1150207, Q1 : 0.999999761581, Q2 : 9.55420455284e-06, Q3 : -0.000269110372756, Q4 : -0.000670203880873}
2019-04-14 12:30:09.51: SIM {TimeUS : 47535145, Roll : -0.03, Pitch : -0.05, Yaw : 359.92, Alt : 36.1300010681, Lat : 49.2835704, Lng : -123.1150207, Q1 : 0.999999582767, Q2 : -0.000309718336212, Q3 : -0.000514988438226, Q4 : -0.000694677059073}
2019-04-14 12:30:09.61: SIM {TimeUS : 47635105, Roll : -0.06, Pitch : -0.07, Yaw : 359.91, Alt : 36.3499984741, Lat : 49.2835704, Lng : -123.1150207, Q1 : 0.999999403954, Q2 : -0.000577178434469, Q3 : -0.000645146006718, Q4 : -0.000716528913472}
2019-04-14 12:30:09.71: SIM {TimeUS : 47735065, Roll : -0.07, Pitch : -0.07, Yaw : 359.91, Alt : 36.5699996948, Lat : 49.2835704, Lng : -123.1150206, Q1 : 0.999999284744, Q2 : -0.000680022058077, Q3 : -0.000638178898953, Q4 : -0.00073521892773}
2019-04-14 12:30:09.81: SIM {TimeUS : 47835025, Roll : -0.08, Pitch : -0.06, Yaw : 359.91, Alt : 36.7999992371, Lat : 49.2835704, Lng : -123.1150206, Q1 : 0.999999284744, Q2 : -0.000701317097992, Q3 : -0.000602968386374, Q4 : -0.000753419706598}
2019-04-14 12:30:09.91: SIM {TimeUS : 47934985, Roll : -0.07, Pitch : -0.05, Yaw : 359.91, Alt : 37.0200004578, Lat : 49.2835704, Lng : -123.1150206, Q1 : 0.999999403954, Q2 : -0.000636793498415, Q3 : -0.000472020212328, Q4 : -0.000773697800469}
2019-04-14 12:30:10.01: SIM {TimeUS : 48034945, Roll : -0.06, Pitch : -0.04, Yaw : 359.9, Alt : 37.2400016785, Lat : 49.2835704, Lng : -123.1150206, Q1 : 0.999999463558, Q2 : -0.000524811388459, Q3 : -0.000403287267545, Q4 : -0.000792453123722}
2019-04-14 12:30:10.11: SIM {TimeUS : 48134905, Roll : -0.06, Pitch : -0.04, Yaw : 359.9, Alt : 37.4700012207, Lat : 49.2835704, Lng : -123.1150206, Q1 : 0.999999403954, Q2 : -0.000552670098841, Q3 : -0.000434946239693, Q4 : -0.000811479403637}
2019-04-14 12:30:10.21: SIM {TimeUS : 48234865, Roll : -0.07, Pitch : -0.03, Yaw : 359.9, Alt : 37.6899986267, Lat : 49.2835704, Lng : -123.1150206, Q1 : 0.999999403954, Q2 : -0.000627874862403, Q3 : -0.000298674043734, Q4 : -0.000833329337183}
2019-04-14 12:30:10.31: SIM {TimeUS : 48334825, Roll : -0.09, Pitch : -0.01, Yaw : 359.9, Alt : 37.9199981689, Lat : 49.2835704, Lng : -123.1150206, Q1 : 0.999999284744, Q2 : -0.0008304315852, Q3 : -9.93034627754e-05, Q4 : -0.000854006037116}
2019-04-14 12:30:10.41: SIM {TimeUS : 48434785, Roll : -0.09, Pitch : 0.0, Yaw : 359.9, Alt : 38.1500015259, Lat : 49.2835704, Lng : -123.1150206, Q1 : 0.999999284744, Q2 : -0.000862252025399, Q3 : 5.63131179661e-05, Q4 : -0.000866529066116}
2019-04-14 12:30:10.51: SIM {TimeUS : 48534745, Roll : -0.07, Pitch : 0.03, Yaw : 359.89, Alt : 38.3800010681, Lat : 49.2835704, Lng : -123.1150206, Q1 : 0.999999284744, Q2 : -0.000690708286129, Q3 : 0.000342961051501, Q4 : -0.000875880126841}
2019-04-14 12:30:10.61: SIM {TimeUS : 48634705, Roll : -0.05, Pitch : 0.03, Yaw : 359.89, Alt : 38.5999984741, Lat : 49.2835704, Lng : -123.1150206, Q1 : 0.999999403954, Q2 : -0.000494562147651, Q3 : 0.000302439031657, Q4 : -0.000893110816833}
2019-04-14 12:30:10.71: SIM {TimeUS : 48734665, Roll : -0.02, Pitch : 0.01, Yaw : 359.89, Alt : 38.8300018311, Lat : 49.2835704, Lng : -123.1150206, Q1 : 0.999999523163, Q2 : -0.0002505024313, Q3 : 0.000163824282936, Q4 : -0.000910446338821}
2019-04-14 12:30:10.81: SIM {TimeUS : 48834625, Roll : 0.0, Pitch : 0.02, Yaw : 359.89, Alt : 39.0600013733, Lat : 49.2835704, Lng : -123.1150206, Q1 : 0.999999523163, Q2 : 7.67063684179e-05, Q3 : 0.000242881767917, Q4 : -0.000926473061554}
2019-04-14 12:30:10.91: SIM {TimeUS : 48934585, Roll : 0.04, Pitch : 0.05, Yaw : 359.89, Alt : 39.2900009155, Lat : 49.2835706, Lng : -123.1150206, Q1 : 0.999999344349, Q2 : 0.000411306304159, Q3 : 0.000460568291601, Q4 : -0.000947558495682}
2019-04-14 12:30:11.01: SIM {TimeUS : 49034545, Roll : 0.07, Pitch : 0.08, Yaw : 359.88, Alt : 39.5200004578, Lat : 49.2835706, Lng : -123.1150206, Q1 : 0.999999046326, Q2 : 0.000660696125124, Q3 : 0.000701493525412, Q4 : -0.000975067261606}
2019-04-14 12:30:11.11: SIM {TimeUS : 49134505, Roll : 0.06, Pitch : 0.1, Yaw : 359.88, Alt : 39.75, Lat : 49.2835706, Lng : -123.1150206, Q1 : 0.999998867512, Q2 : 0.000595987658016, Q3 : 0.000940689467825, Q4 : -0.000998830422759}
2019-04-14 12:30:11.21: SIM {TimeUS : 49235298, Roll : 0.02, Pitch : 0.13, Yaw : 359.88, Alt : 39.9799995422, Lat : 49.2835706, Lng : -123.1150206, Q1 : 0.999998807907, Q2 : 0.00018465485482, Q3 : 0.00115065905266, Q4 : -0.00103975087404}
2019-04-14 12:30:11.31: SIM {TimeUS : 49335258, Roll : -0.01, Pitch : 0.12, Yaw : 359.87, Alt : 40.2200012207, Lat : 49.2835706, Lng : -123.1150206, Q1 : 0.999998807907, Q2 : -0.000143948607729, Q3 : 0.00110241665971, Q4 : -0.00106865505222}
2019-04-14 12:30:11.41: SIM {TimeUS : 49435218, Roll : -0.04, Pitch : 0.1, Yaw : 359.87, Alt : 40.4500007629, Lat : 49.2835706, Lng : -123.1150206, Q1 : 0.999998927116, Q2 : -0.000379195669666, Q3 : 0.000881375977769, Q4 : -0.00109046557918}
2019-04-14 12:30:11.51: SIM {TimeUS : 49535178, Roll : -0.05, Pitch : 0.08, Yaw : 359.87, Alt : 40.6800003052, Lat : 49.2835706, Lng : -123.1150206, Q1 : 0.999998986721, Q2 : -0.000471315550385, Q3 : 0.000739484385122, Q4 : -0.00111203978304}
2019-04-14 12:30:11.61: SIM {TimeUS : 49635138, Roll : -0.04, Pitch : 0.1, Yaw : 359.86, Alt : 40.9099998474, Lat : 49.2835706, Lng : -123.1150206, Q1 : 0.999998927116, Q2 : -0.000370535184629, Q3 : 0.000881076208316, Q4 : -0.00114141684026}
2019-04-14 12:30:11.71: SIM {TimeUS : 49735098, Roll : 0.0, Pitch : 0.13, Yaw : 359.86, Alt : 41.1399993896, Lat : 49.2835706, Lng : -123.1150206, Q1 : 0.999998629093, Q2 : 4.32703791375e-06, Q3 : 0.00116740050726, Q4 : -0.00117684272118}
2019-04-14 12:30:11.81: SIM {TimeUS : 49835058, Roll : 0.05, Pitch : 0.15, Yaw : 359.86, Alt : 41.3800010681, Lat : 49.2835706, Lng : -123.1150207, Q1 : 0.999998211861, Q2 : 0.00047463743249, Q3 : 0.00134182511829, Q4 : -0.00121606292669}
2019-04-14 12:30:11.91: SIM {TimeUS : 49935018, Roll : 0.08, Pitch : 0.13, Yaw : 359.85, Alt : 41.6100006104, Lat : 49.2835706, Lng : -123.1150207, Q1 : 0.999998271465, Q2 : 0.000773144885898, Q3 : 0.00113431864884, Q4 : -0.0012595889857}
2019-04-14 12:30:12.01: SIM {TimeUS : 50034978, Roll : 0.08, Pitch : 0.08, Yaw : 359.85, Alt : 41.8400001526, Lat : 49.2835706, Lng : -123.1150207, Q1 : 0.999998569489, Q2 : 0.000784412084613, Q3 : 0.000749847909901, Q4 : -0.00130050745793}
2019-04-14 12:30:12.11: SIM {TimeUS : 50134938, Roll : 0.05, Pitch : 0.04, Yaw : 359.84, Alt : 42.0800018311, Lat : 49.2835706, Lng : -123.1150207, Q1 : 0.999998927116, Q2 : 0.000462413445348, Q3 : 0.000427219900303, Q4 : -0.00132821407169}
2019-04-14 12:30:12.21: SIM {TimeUS : 50234898, Roll : 0.0, Pitch : 0.03, Yaw : 359.84, Alt : 42.3100013733, Lat : 49.2835706, Lng : -123.1150207, Q1 : 0.999999046326, Q2 : -1.15852872113e-05, Q3 : 0.000326486042468, Q4 : -0.00134524703026}
2019-04-14 12:30:12.31: SIM {TimeUS : 50334858, Roll : -0.03, Pitch : 0.06, Yaw : 359.84, Alt : 42.5499992371, Lat : 49.2835706, Lng : -123.1150206, Q1 : 0.999998867512, Q2 : -0.000331526360242, Q3 : 0.000538603286259, Q4 : -0.00135303416755}
2019-04-14 12:30:12.41: SIM {TimeUS : 50434818, Roll : -0.05, Pitch : 0.08, Yaw : 359.84, Alt : 42.7799987793, Lat : 49.2835704, Lng : -123.1150206, Q1 : 0.999998688698, Q2 : -0.000495880667586, Q3 : 0.000708579958882, Q4 : -0.00135465490166}
2019-04-14 12:30:12.51: SIM {TimeUS : 50534778, Roll : -0.05, Pitch : 0.07, Yaw : 359.84, Alt : 43.0200004578, Lat : 49.2835704, Lng : -123.1150206, Q1 : 0.999998748302, Q2 : -0.000473473482998, Q3 : 0.00066700449679, Q4 : -0.00135608308483}
2019-04-14 12:30:12.61: SIM {TimeUS : 50634738, Roll : -0.05, Pitch : 0.06, Yaw : 359.84, Alt : 43.25, Lat : 49.2835704, Lng : -123.1150206, Q1 : 0.999998748302, Q2 : -0.000498972425703, Q3 : 0.000600780593231, Q4 : -0.00136344565544}
2019-04-14 12:30:12.71: SIM {TimeUS : 50734698, Roll : -0.04, Pitch : 0.05, Yaw : 359.84, Alt : 43.4900016785, Lat : 49.2835704, Lng : -123.1150206, Q1 : 0.999998867512, Q2 : -0.000413164059864, Q3 : 0.000482991861645, Q4 : -0.00137552665547}
2019-04-14 12:30:12.81: SIM {TimeUS : 50834658, Roll : -0.02, Pitch : 0.04, Yaw : 359.84, Alt : 43.7200012207, Lat : 49.2835704, Lng : -123.1150206, Q1 : 0.999998927116, Q2 : -0.000216765824007, Q3 : 0.000399987126002, Q4 : -0.00139215483796}
2019-04-14 12:30:12.91: SIM {TimeUS : 50934618, Roll : 0.0, Pitch : 0.04, Yaw : 359.83, Alt : 43.9599990845, Lat : 49.2835704, Lng : -123.1150206, Q1 : 0.999998927116, Q2 : -7.59030153858e-05, Q3 : 0.000375327712391, Q4 : -0.00141188350972}
2019-04-14 12:30:13.01: SIM {TimeUS : 51034578, Roll : 0.0, Pitch : 0.02, Yaw : 359.83, Alt : 44.1899986267, Lat : 49.2835704, Lng : -123.1150206, Q1 : 0.999998927116, Q2 : -7.06366117811e-05, Q3 : 0.00018950770027, Q4 : -0.00143474701326}
2019-04-14 12:30:13.11: SIM {TimeUS : 51134538, Roll : -0.02, Pitch : -0.01, Yaw : 359.83, Alt : 44.4300003052, Lat : 49.2835704, Lng : -123.1150206, Q1 : 0.999998927116, Q2 : -0.000176649264176, Q3 : -0.000133692636155, Q4 : -0.00145988550503}
2019-04-14 12:30:13.21: SIM {TimeUS : 51234498, Roll : -0.02, Pitch : -0.03, Yaw : 359.82, Alt : 44.6599998474, Lat : 49.2835704, Lng : -123.1150206, Q1 : 0.999998807907, Q2 : -0.000252390658716, Q3 : -0.000332066847477, Q4 : -0.00149357446935}
2019-04-14 12:30:13.31: SIM {TimeUS : 51335291, Roll : -0.02, Pitch : -0.04, Yaw : 359.82, Alt : 44.9000015259, Lat : 49.2835704, Lng : -123.1150206, Q1 : 0.999998688698, Q2 : -0.000206435084692, Q3 : -0.000430356216384, Q4 : -0.00152416923083}
2019-04-14 12:30:13.41: SIM {TimeUS : 51435251, Roll : -0.02, Pitch : -0.05, Yaw : 359.82, Alt : 45.1399993896, Lat : 49.2835704, Lng : -123.1150206, Q1 : 0.999998629093, Q2 : -0.00024896429386, Q3 : -0.000477239431348, Q4 : -0.00155865168199}
2019-04-14 12:30:13.51: SIM {TimeUS : 51535211, Roll : -0.04, Pitch : -0.04, Yaw : 359.81, Alt : 45.3699989319, Lat : 49.2835703, Lng : -123.1150206, Q1 : 0.999998509884, Q2 : -0.000426637911005, Q3 : -0.00043016532436, Q4 : -0.00159636163153}
2019-04-14 12:30:13.61: SIM {TimeUS : 51635171, Roll : -0.08, Pitch : -0.04, Yaw : 359.81, Alt : 45.6100006104, Lat : 49.2835703, Lng : -123.1150206, Q1 : 0.99999833107, Q2 : -0.000708439387381, Q3 : -0.000353270414053, Q4 : -0.00163519231137}
2019-04-14 12:30:13.71: SIM {TimeUS : 51735131, Roll : -0.1, Pitch : -0.03, Yaw : 359.8, Alt : 45.8400001526, Lat : 49.2835703, Lng : -123.1150206, Q1 : 0.999998152256, Q2 : -0.000884561566636, Q3 : -0.000277125684079, Q4 : -0.00167136848904}
2019-04-14 12:30:13.81: SIM {TimeUS : 51835091, Roll : -0.1, Pitch : -0.01, Yaw : 359.8, Alt : 46.0699996948, Lat : 49.2835703, Lng : -123.1150206, Q1 : 0.999998092651, Q2 : -0.000905871158466, Q3 : -0.000138894363772, Q4 : -0.00170406489633}
2019-04-14 12:30:13.91: SIM {TimeUS : 51935051, Roll : -0.09, Pitch : 0.01, Yaw : 359.8, Alt : 46.2999992371, Lat : 49.2835703, Lng : -123.1150206, Q1 : 0.999998211861, Q2 : -0.000785641255789, Q3 : 0.00010554765322, Q4 : -0.00172939442564}
2019-04-14 12:30:14.01: SIM {TimeUS : 52035011, Roll : -0.06, Pitch : 0.02, Yaw : 359.79, Alt : 46.5200004578, Lat : 49.2835703, Lng : -123.1150206, Q1 : 0.999998271465, Q2 : -0.000576320977416, Q3 : 0.000242671914748, Q4 : -0.00174954812974}
2019-04-14 12:30:14.11: SIM {TimeUS : 52134971, Roll : -0.04, Pitch : 0.02, Yaw : 359.79, Alt : 46.7400016785, Lat : 49.2835703, Lng : -123.1150206, Q1 : 0.99999833107, Q2 : -0.000407358835218, Q3 : 0.000214954357943, Q4 : -0.00176731951069}
2019-04-14 12:30:14.21: SIM {TimeUS : 52234931, Roll : -0.03, Pitch : 0.0, Yaw : 359.79, Alt : 46.9500007629, Lat : 49.2835703, Lng : -123.1150206, Q1 : 0.999998390675, Q2 : -0.000332527473802, Q3 : 5.16950785823e-05, Q4 : -0.00178972270805}
2019-04-14 12:30:14.31: SIM {TimeUS : 52334891, Roll : -0.02, Pitch : -0.02, Yaw : 359.79, Alt : 47.1599998474, Lat : 49.2835703, Lng : -123.1150206, Q1 : 0.99999833107, Q2 : -0.000182344927453, Q3 : -0.000218812914682, Q4 : -0.00181157421321}
2019-04-14 12:30:14.41: SIM {TimeUS : 52434851, Roll : 0.0, Pitch : -0.05, Yaw : 359.79, Alt : 47.3600006104, Lat : 49.2835703, Lng : -123.1150206, Q1 : 0.999998211861, Q2 : 1.60650361067e-05, Q3 : -0.000485910277348, Q4 : -0.00183248799294}
2019-04-14 12:30:14.51: SIM {TimeUS : 52534811, Roll : 0.01, Pitch : -0.08, Yaw : 359.78, Alt : 47.5499992371, Lat : 49.2835703, Lng : -123.1150206, Q1 : 0.999998033047, Q2 : 9.55065697781e-05, Q3 : -0.000718256807886, Q4 : -0.00185094482731}
2019-04-14 12:30:14.61: SIM {TimeUS : 52634771, Roll : 0.01, Pitch : -0.12, Yaw : 359.78, Alt : 47.7200012207, Lat : 49.2835703, Lng : -123.1150206, Q1 : 0.999997675419, Q2 : 8.86545822141e-05, Q3 : -0.00105806521606, Q4 : -0.00186869525351}
2019-04-14 12:30:14.71: SIM {TimeUS : 52734731, Roll : 0.03, Pitch : -0.14, Yaw : 359.78, Alt : 47.8899993896, Lat : 49.2835703, Lng : -123.1150206, Q1 : 0.999997377396, Q2 : 0.000259973370703, Q3 : -0.00129943783395, Q4 : -0.00188572716434}
2019-04-14 12:30:14.81: SIM {TimeUS : 52834691, Roll : 0.05, Pitch : -0.15, Yaw : 359.78, Alt : 48.0499992371, Lat : 49.2835703, Lng : -123.1150206, Q1 : 0.999997198582, Q2 : 0.000503213843331, Q3 : -0.00133140105754, Q4 : -0.00190498726442}
2019-04-14 12:30:14.91: SIM {TimeUS : 52934651, Roll : 0.08, Pitch : -0.13, Yaw : 359.77, Alt : 48.1899986267, Lat : 49.2835704, Lng : -123.1150206, Q1 : 0.999997258186, Q2 : 0.000706498045474, Q3 : -0.00115910696331, Q4 : -0.00192361336667}
2019-04-14 12:30:15.01: SIM {TimeUS : 53034611, Roll : 0.08, Pitch : -0.1, Yaw : 359.77, Alt : 48.3300018311, Lat : 49.2835704, Lng : -123.1150206, Q1 : 0.999997437, Q2 : 0.000753582338803, Q3 : -0.000880595995113, Q4 : -0.00194629852194}
2019-04-14 12:30:15.11: SIM {TimeUS : 53134571, Roll : 0.08, Pitch : -0.07, Yaw : 359.77, Alt : 48.4500007629, Lat : 49.2835704, Lng : -123.1150206, Q1 : 0.99999755621, Q2 : 0.000761407311074, Q3 : -0.000651628419291, Q4 : -0.00197318405844}
2019-04-14 12:30:15.21: SIM {TimeUS : 53234531, Roll : 0.07, Pitch : -0.06, Yaw : 359.77, Alt : 48.5499992371, Lat : 49.2835704, Lng : -123.1150206, Q1 : 0.99999755621, Q2 : 0.000653272203635, Q3 : -0.000600805040449, Q4 : -0.00200608302839}
2019-04-14 12:30:15.31: SIM {TimeUS : 53335324, Roll : 0.04, Pitch : -0.05, Yaw : 359.76, Alt : 48.6500015259, Lat : 49.2835704, Lng : -123.1150206, Q1 : 0.999997735023, Q2 : 0.000419487711042, Q3 : -0.00050871365238, Q4 : -0.00203486951068}
2019-04-14 12:30:15.41: SIM {TimeUS : 53435284, Roll : 0.02, Pitch : -0.04, Yaw : 359.76, Alt : 48.7299995422, Lat : 49.2835704, Lng : -123.1150206, Q1 : 0.999997794628, Q2 : 0.000208077253774, Q3 : -0.000357236393029, Q4 : -0.0020603351295}
2019-04-14 12:30:15.51: SIM {TimeUS : 53535244, Roll : 0.0, Pitch : -0.02, Yaw : 359.76, Alt : 48.8100013733, Lat : 49.2835704, Lng : -123.1150206, Q1 : 0.999997794628, Q2 : 2.81722896034e-05, Q3 : -0.00021680748614, Q4 : -0.00208643777296}
2019-04-14 12:30:15.61: SIM {TimeUS : 53635204, Roll : 0.0, Pitch : 0.0, Yaw : 359.75, Alt : 48.8699989319, Lat : 49.2835704, Lng : -123.1150206, Q1 : 0.999997735023, Q2 : -6.05342975177e-05, Q3 : -1.40623421885e-06, Q4 : -0.00211614137515}
2019-04-14 12:30:15.71: SIM {TimeUS : 53735164, Roll : 0.0, Pitch : 0.03, Yaw : 359.75, Alt : 48.9199981689, Lat : 49.2835704, Lng : -123.1150206, Q1 : 0.999997675419, Q2 : 8.77333368408e-05, Q3 : 0.000287588190986, Q4 : -0.00214162492193}
2019-04-14 12:30:15.81: SIM {TimeUS : 53835124, Roll : 0.03, Pitch : 0.05, Yaw : 359.75, Alt : 48.9700012207, Lat : 49.2835704, Lng : -123.1150206, Q1 : 0.999997437, Q2 : 0.000330922513967, Q3 : 0.000498054316267, Q4 : -0.00217034853995}
2019-04-14 12:30:15.91: SIM {TimeUS : 53935084, Roll : 0.1, Pitch : 0.0, Yaw : 359.74, Alt : 49.0099983215, Lat : 49.2835704, Lng : -123.1150206, Q1 : 0.999997138977, Q2 : 0.000943302409723, Q3 : -2.70150103461e-05, Q4 : -0.00220469734631}
2019-04-14 12:30:16.01: SIM {TimeUS : 54035044, Roll : 0.3, Pitch : -0.2, Yaw : 359.74, Alt : 49.0499992371, Lat : 49.2835704, Lng : -123.1150206, Q1 : 0.999992251396, Q2 : 0.0026820471976, Q3 : -0.00183350010775, Q4 : -0.00223697721958}
2019-04-14 12:30:16.11: SIM {TimeUS : 54135004, Roll : 0.68, Pitch : -0.61, Yaw : 359.73, Alt : 49.0699996948, Lat : 49.2835706, Lng : -123.1150206, Q1 : 0.999964892864, Q2 : 0.00599584309384, Q3 : -0.0053996280767, Q4 : -0.00225970032625}
2019-04-14 12:30:16.21: SIM {TimeUS : 54234964, Roll : 1.26, Pitch : -1.19, Yaw : 359.72, Alt : 49.0999984741, Lat : 49.2835706, Lng : -123.1150206, Q1 : 0.999882042408, Q2 : 0.0109837614, Q3 : -0.0104926126078, Q4 : -0.00226466380991}
2019-04-14 12:30:16.31: SIM {TimeUS : 54334924, Roll : 1.97, Pitch : -1.87, Yaw : 359.71, Alt : 49.1199989319, Lat : 49.2835706, Lng : -123.1150205, Q1 : 0.999714672565, Q2 : 0.0171825047582, Q3 : -0.0164432637393, Q4 : -0.00223505683243}
2019-04-14 12:30:16.41: SIM {TimeUS : 54434884, Roll : 2.73, Pitch : -2.59, Yaw : 359.68, Alt : 49.1399993896, Lat : 49.2835707, Lng : -123.1150204, Q1 : 0.999456226826, Q2 : 0.0237924940884, Q3 : -0.022726342082, Q4 : -0.00216460949741}
2019-04-14 12:30:16.51: SIM {TimeUS : 54534844, Roll : 3.42, Pitch : -3.23, Yaw : 359.67, Alt : 49.1599998474, Lat : 49.2835708, Lng : -123.1150203, Q1 : 0.999152421951, Q2 : 0.0298074465245, Q3 : -0.0283169914037, Q4 : -0.00202607363462}
2019-04-14 12:30:16.61: SIM {TimeUS : 54634804, Roll : 3.95, Pitch : -3.71, Yaw : 359.66, Alt : 49.1699981689, Lat : 49.2835709, Lng : -123.1150201, Q1 : 0.998877227306, Q2 : 0.0343900322914, Q3 : -0.0325316488743, Q4 : -0.00181716494262}
2019-04-14 12:30:16.71: SIM {TimeUS : 54734764, Roll : 4.32, Pitch : -4.07, Yaw : 359.66, Alt : 49.1800003052, Lat : 49.283571, Lng : -123.1150199, Q1 : 0.998655200005, Q2 : 0.037638541311, Q3 : -0.0356189459562, Q4 : -0.00155502010603}
2019-04-14 12:30:16.81: SIM {TimeUS : 54834724, Roll : 4.61, Pitch : -4.34, Yaw : 359.67, Alt : 49.1899986267, Lat : 49.2835713, Lng : -123.1150195, Q1 : 0.998468279839, Q2 : 0.0401644222438, Q3 : -0.0380305983126, Q4 : -0.00126844423357}
2019-04-14 12:30:16.91: SIM {TimeUS : 54934684, Roll : 4.88, Pitch : -4.59, Yaw : 359.69, Alt : 49.2000007629, Lat : 49.2835715, Lng : -123.1150191, Q1 : 0.99828928709, Q2 : 0.0424626544118, Q3 : -0.0401812568307, Q4 : -0.000977793708444}
2019-04-14 12:30:17.01: SIM {TimeUS : 55034644, Roll : 5.13, Pitch : -4.83, Yaw : 359.7, Alt : 49.2099990845, Lat : 49.2835719, Lng : -123.1150185, Q1 : 0.998107492924, Q2 : 0.0446847863495, Q3 : -0.0422409102321, Q4 : -0.000698368996382}
2019-04-14 12:30:17.11: SIM {TimeUS : 55134604, Roll : 5.4, Pitch : -5.09, Yaw : 359.7, Alt : 49.2200012207, Lat : 49.2835722, Lng : -123.1150179, Q1 : 0.997900307178, Q2 : 0.0470270179212, Q3 : -0.0445343255997, Q4 : -0.000446299498435}
2019-04-14 12:30:17.21: SIM {TimeUS : 55234564, Roll : 5.65, Pitch : -5.34, Yaw : 359.71, Alt : 49.2299995422, Lat : 49.2835727, Lng : -123.1150172, Q1 : 0.997698605061, Q2 : 0.0491506978869, Q3 : -0.0467087328434, Q4 : -0.000217252163566}
2019-04-14 12:30:17.31: SIM {TimeUS : 55334524, Roll : 5.85, Pitch : -5.53, Yaw : 359.71, Alt : 49.2299995422, Lat : 49.2835732, Lng : -123.1150163, Q1 : 0.997534573078, Q2 : 0.0508865602314, Q3 : -0.0483250021935, Q4 : 1.11988242679e-06}
2019-04-14 12:30:17.41: SIM {TimeUS : 55435317, Roll : 5.99, Pitch : -5.65, Yaw : 359.72, Alt : 49.2400016785, Lat : 49.2835738, Lng : -123.1150155, Q1 : 0.997418284416, Q2 : 0.0521506145597, Q3 : -0.0493670664728, Q4 : 0.000200741080334}
2019-04-14 12:30:17.51: SIM {TimeUS : 55535277, Roll : 6.09, Pitch : -5.74, Yaw : 359.73, Alt : 49.2400016785, Lat : 49.2835743, Lng : -123.1150146, Q1 : 0.997334182262, Q2 : 0.0529780760407, Q3 : -0.0501768775284, Q4 : 0.000346267741406}
2019-04-14 12:30:17.61: SIM {TimeUS : 55635237, Roll : 6.19, Pitch : -5.82, Yaw : 359.73, Alt : 49.25, Lat : 49.283575, Lng : -123.1150135, Q1 : 0.997255265713, Q2 : 0.0538133867085, Q3 : -0.0508512966335, Q4 : 0.000457589223515}
2019-04-14 12:30:17.71: SIM {TimeUS : 55735197, Roll : 6.33, Pitch : -5.91, Yaw : 359.73, Alt : 49.25, Lat : 49.2835757, Lng : -123.1150124, Q1 : 0.997147738934, Q2 : 0.0550382435322, Q3 : -0.0516416840255, Q4 : 0.000559725973289}
2019-04-14 12:30:17.81: SIM {TimeUS : 55835157, Roll : 6.64, Pitch : -5.92, Yaw : 359.85, Alt : 49.2599983215, Lat : 49.2835764, Lng : -123.1150112, Q1 : 0.996984302998, Q2 : 0.0578530319035, Q3 : -0.051696550101, Q4 : 0.00170092564076}
2019-04-14 12:30:17.91: SIM {TimeUS : 55935117, Roll : 7.2, Pitch : -5.81, Yaw : 0.58, Alt : 49.2599983215, Lat : 49.2835771, Lng : -123.1150099, Q1 : 0.996706664562, Q2 : 0.0630542114377, Q3 : -0.0503080822527, Q4 : 0.00831340160221}
2019-04-14 12:30:18.01: SIM {TimeUS : 56035077, Roll : 7.84, Pitch : -5.79, Yaw : 2.62, Alt : 49.2599983215, Lat : 49.283578, Lng : -123.1150086, Q1 : 0.996041417122, Q2 : 0.0694723054767, Q3 : -0.0488490350544, Q4 : 0.0262467637658}
2019-04-14 12:30:18.11: SIM {TimeUS : 56135037, Roll : 8.25, Pitch : -6.17, Yaw : 6.24, Alt : 49.2599983215, Lat : 49.2835788, Lng : -123.1150071, Q1 : 0.994269609451, Q2 : 0.0747153162956, Q3 : -0.0497164130211, Q4 : 0.0580853559077}
2019-04-14 12:30:18.21: SIM {TimeUS : 56234997, Roll : 8.2, Pitch : -7.02, Yaw : 11.36, Alt : 49.2599983215, Lat : 49.2835797, Lng : -123.1150056, Q1 : 0.990234494209, Q2 : 0.0771200656891, Q3 : -0.0537598356605, Q4 : 0.102946922183}
2019-04-14 12:30:18.31: SIM {TimeUS : 56334957, Roll : 7.52, Pitch : -8.25, Yaw : 17.77, Alt : 49.2700004578, Lat : 49.2835806, Lng : -123.1150039, Q1 : 0.982573330402, Q2 : 0.0757905170321, Q3 : -0.0608292892575, Q4 : 0.158446282148}
2019-04-14 12:30:18.41: SIM {TimeUS : 56434917, Roll : 6.19, Pitch : -9.65, Yaw : 25.21, Alt : 49.2700004578, Lat : 49.2835814, Lng : -123.1150021, Q1 : 0.970005989075, Q2 : 0.0708720311522, Q3 : -0.0702778995037, Q4 : 0.2216450423}
2019-04-14 12:30:18.51: SIM {TimeUS : 56534877, Roll : 4.15, Pitch : -11.03, Yaw : 33.39, Alt : 49.2700004578, Lat : 49.2835824, Lng : -123.1150002, Q1 : 0.951770722866, Q2 : 0.0621816031635, Q3 : -0.0816568359733, Q4 : 0.289133399725}
2019-04-14 12:30:18.61: SIM {TimeUS : 56634837, Roll : 1.32, Pitch : -12.11, Yaw : 41.72, Alt : 49.2700004578, Lat : 49.2835834, Lng : -123.1149981, Q1 : 0.928730070591, Q2 : 0.0482998006046, Q3 : -0.0945566520095, Q4 : 0.355227559805}
2019-04-14 12:30:18.71: SIM {TimeUS : 56734797, Roll : -1.89, Pitch : -12.71, Yaw : 49.32, Alt : 49.2700004578, Lat : 49.2835844, Lng : -123.114996, Q1 : 0.903828918934, Q2 : 0.0312225390226, Q3 : -0.107479356229, Q4 : 0.412997156382}
2019-04-14 12:30:18.81: SIM {TimeUS : 56834757, Roll : -4.82, Pitch : -12.83, Yaw : 55.41, Alt : 49.2700004578, Lat : 49.2835855, Lng : -123.1149938, Q1 : 0.881188690662, Q2 : 0.0148900290951, Q3 : -0.118350826204, Q4 : 0.457468956709}
2019-04-14 12:30:18.91: SIM {TimeUS : 56934717, Roll : -6.9, Pitch : -12.68, Yaw : 59.53, Alt : 49.2700004578, Lat : 49.2835868, Lng : -123.1149917, Q1 : 0.864450097084, Q2 : 0.00284254970029, Q3 : -0.125459432602, Q4 : 0.486803799868}
2019-04-14 12:30:19.01: SIM {TimeUS : 57034677, Roll : -7.88, Pitch : -12.51, Yaw : 61.68, Alt : 49.2700004578, Lat : 49.2835881, Lng : -123.1149895, Q1 : 0.855305969715, Q2 : -0.0029493549373, Q3 : -0.128432169557, Q4 : 0.501944422722}
2019-04-14 12:30:19.11: SIM {TimeUS : 57134637, Roll : -7.85, Pitch : -12.52, Yaw : 62.09, Alt : 49.2700004578, Lat : 49.2835897, Lng : -123.1149871, Q1 : 0.853486895561, Q2 : -0.00221051694825, Q3 : -0.128342524171, Q4 : 0.505057811737}
2019-04-14 12:30:19.21: SIM {TimeUS : 57234597, Roll : -7.02, Pitch : -12.79, Yaw : 61.13, Alt : 49.2700004578, Lat : 49.2835911, Lng : -123.1149849, Q1 : 0.857552826405, Q2 : 0.00412312755361, Q3 : -0.126760959625, Q4 : 0.498515605927}
2019-04-14 12:30:19.31: SIM {TimeUS : 57334557, Roll : -5.64, Pitch : -13.32, Yaw : 59.14, Alt : 49.2700004578, Lat : 49.2835928, Lng : -123.1149826, Q1 : 0.865648210049, Q2 : 0.0145973498002, Q3 : -0.124909542501, Q4 : 0.484600573778}
2019-04-14 12:30:19.41: SIM {TimeUS : 57434517, Roll : -3.95, Pitch : -14.0, Yaw : 56.45, Alt : 49.2700004578, Lat : 49.2835946, Lng : -123.1149802, Q1 : 0.875968337059, Q2 : 0.0274082515389, Q3 : -0.123557202518, Q4 : 0.465469568968}
2019-04-14 12:30:19.51: SIM {TimeUS : 57535310, Roll : -2.13, Pitch : -14.7, Yaw : 53.35, Alt : 49.2799987793, Lat : 49.2835964, Lng : -123.1149777, Q1 : 0.887101948261, Q2 : 0.0409071333706, Q3 : -0.122654482722, Q4 : 0.443094432354}
2019-04-14 12:30:19.61: SIM {TimeUS : 57635270, Roll : -0.38, Pitch : -15.27, Yaw : 50.21, Alt : 49.2799987793, Lat : 49.2835982, Lng : -123.1149752, Q1 : 0.897665739059, Q2 : 0.0533797964454, Q3 : -0.121749676764, Q4 : 0.420147448778}
2019-04-14 12:30:19.71: SIM {TimeUS : 57735230, Roll : 1.16, Pitch : -15.62, Yaw : 47.33, Alt : 49.2799987793, Lat : 49.2836, Lng : -123.1149725, Q1 : 0.906805634499, Q2 : 0.0637795999646, Q3 : -0.120447434485, Q4 : 0.398908704519}
2019-04-14 12:30:19.81: SIM {TimeUS : 57835190, Roll : 2.38, Pitch : -15.76, Yaw : 44.98, Alt : 49.2799987793, Lat : 49.2836019, Lng : -123.1149697, Q1 : 0.91390645504, Q2 : 0.0715288594365, Q3 : -0.118802636862, Q4 : 0.381502956152}
2019-04-14 12:30:19.91: SIM {TimeUS : 57935150, Roll : 3.18, Pitch : -15.78, Yaw : 43.35, Alt : 49.2799987793, Lat : 49.2836038, Lng : -123.1149669, Q1 : 0.918710768223, Q2 : 0.0763153806329, Q3 : -0.11737126857, Q4 : 0.369283825159}
2019-04-14 12:30:20.01: SIM {TimeUS : 58035110, Roll : 3.53, Pitch : -15.75, Yaw : 42.49, Alt : 49.2799987793, Lat : 49.2836057, Lng : -123.1149638, Q1 : 0.921251535416, Q2 : 0.0780916064978, Q3 : -0.116633579135, Q4 : 0.362758934498}
2019-04-14 12:30:20.11: SIM {TimeUS : 58135070, Roll : 3.42, Pitch : -15.75, Yaw : 42.37, Alt : 49.2799987793, Lat : 49.2836077, Lng : -123.1149607, Q1 : 0.921723663807, Q2 : 0.0771129950881, Q3 : -0.116997852921, Q4 : 0.361649811268}
2019-04-14 12:30:20.21: SIM {TimeUS : 58235030, Roll : 2.95, Pitch : -15.77, Yaw : 42.86, Alt : 49.2799987793, Lat : 49.2836097, Lng : -123.1149574, Q1 : 0.920433819294, Q2 : 0.0739313140512, Q3 : -0.118362672627, Q4 : 0.36513838172}
2019-04-14 12:30:20.31: SIM {TimeUS : 58334990, Roll : 2.25, Pitch : -15.84, Yaw : 43.81, Alt : 49.2799987793, Lat : 49.2836116, Lng : -123.1149541, Q1 : 0.917730212212, Q2 : 0.069474875927, Q3 : -0.120585247874, Q4 : 0.372026532888}
2019-04-14 12:30:20.41: SIM {TimeUS : 58434950, Roll : 1.4, Pitch : -15.94, Yaw : 45.04, Alt : 49.2799987793, Lat : 49.2836136, Lng : -123.1149507, Q1 : 0.91406661272, Q2 : 0.0643251985312, Q3 : -0.123503088951, Q4 : 0.380908817053}
2019-04-14 12:30:20.51: SIM {TimeUS : 58534910, Roll : 0.54, Pitch : -16.07, Yaw : 46.37, Alt : 49.2799987793, Lat : 49.2836158, Lng : -123.1149471, Q1 : 0.909918010235, Q2 : 0.0594246536493, Q3 : -0.126691222191, Q4 : 0.390470564365}
2019-04-14 12:30:20.61: SIM {TimeUS : 58634870, Roll : -0.19, Pitch : -16.18, Yaw : 47.63, Alt : 49.2799987793, Lat : 49.2836178, Lng : -123.1149436, Q1 : 0.905824005604, Q2 : 0.0553032495081, Q3 : -0.129487320781, Q4 : 0.399571567774}
2019-04-14 12:30:20.71: SIM {TimeUS : 58734830, Roll : -0.79, Pitch : -16.26, Yaw : 48.7, Alt : 49.2799987793, Lat : 49.28362, Lng : -123.11494, Q1 : 0.902258098125, Q2 : 0.0520958453417, Q3 : -0.131672903895, Q4 : 0.40728199482}
2019-04-14 12:30:20.81: SIM {TimeUS : 58834790, Roll : -1.2, Pitch : -16.32, Yaw : 49.49, Alt : 49.2799987793, Lat : 49.2836221, Lng : -123.1149363, Q1 : 0.899541914463, Q2 : 0.0499407276511, Q3 : -0.133310586214, Q4 : 0.412987440825}
2019-04-14 12:30:20.91: SIM {TimeUS : 58934750, Roll : -1.43, Pitch : -16.37, Yaw : 49.97, Alt : 49.2799987793, Lat : 49.2836244, Lng : -123.1149326, Q1 : 0.897856831551, Q2 : 0.0489308200777, Q3 : -0.134349629283, Q4 : 0.416424155235}
2019-04-14 12:30:21.01: SIM {TimeUS : 59034710, Roll : -1.47, Pitch : -16.43, Yaw : 50.13, Alt : 49.2900009155, Lat : 49.2836266, Lng : -123.1149288, Q1 : 0.897218704224, Q2 : 0.0490454770625, Q3 : -0.134884372354, Q4 : 0.417611449957}
2019-04-14 12:30:21.11: SIM {TimeUS : 59134670, Roll : -1.34, Pitch : -16.48, Yaw : 50.01, Alt : 49.2900009155, Lat : 49.2836288, Lng : -123.1149251, Q1 : 0.897539794445, Q2 : 0.0500567108393, Q3 : -0.134856328368, Q4 : 0.416809856892}
2019-04-14 12:30:21.21: SIM {TimeUS : 59234630, Roll : -1.08, Pitch : -16.52, Yaw : 49.67, Alt : 49.2900009155, Lat : 49.2836311, Lng : -123.1149212, Q1 : 0.898598492146, Q2 : 0.0518432110548, Q3 : -0.134397670627, Q4 : 0.414451777935}
2019-04-14 12:30:21.31: SIM {TimeUS : 59334590, Roll : -0.74, Pitch : -16.57, Yaw : 49.19, Alt : 49.2900009155, Lat : 49.2836335, Lng : -123.1149174, Q1 : 0.900131046772, Q2 : 0.0541119687259, Q3 : -0.133706718683, Q4 : 0.411045730114}
2019-04-14 12:30:21.41: SIM {TimeUS : 59434550, Roll : -0.37, Pitch : -16.6, Yaw : 48.64, Alt : 49.2900009155, Lat : 49.2836359, Lng : -123.1149135, Q1 : 0.901877045631, Q2 : 0.0565060861409, Q3 : -0.132958963513, Q4 : 0.407120138407}
2019-04-14 12:30:21.51: SIM {TimeUS : 59534510, Roll : -0.02, Pitch : -16.64, Yaw : 48.09, Alt : 49.2900009155, Lat : 49.2836383, Lng : -123.1149096, Q1 : 0.903601288795, Q2 : 0.0588084682822, Q3 : -0.132241293788, Q4 : 0.403185456991}
2019-04-14 12:30:21.61: SIM {TimeUS : 59635303, Roll : 0.28, Pitch : -16.67, Yaw : 47.6, Alt : 49.2900009155, Lat : 49.2836407, Lng : -123.1149056, Q1 : 0.90512752533, Q2 : 0.0608052201569, Q3 : -0.131706684828, Q4 : 0.399625182152}
2019-04-14 12:30:21.71: SIM {TimeUS : 59735263, Roll : 0.5, Pitch : -16.7, Yaw : 47.21, Alt : 49.2900009155, Lat : 49.2836431, Lng : -123.1149014, Q1 : 0.90632557869, Q2 : 0.0622055642307, Q3 : -0.131368353963, Q4 : 0.396795719862}
2019-04-14 12:30:21.81: SIM {TimeUS : 59835223, Roll : 0.63, Pitch : -16.74, Yaw : 46.95, Alt : 49.2900009155, Lat : 49.2836456, Lng : -123.1148975, Q1 : 0.907122612, Q2 : 0.0630514547229, Q3 : -0.131325110793, Q4 : 0.394850343466}
2019-04-14 12:30:21.91: SIM {TimeUS : 59935183, Roll : 0.67, Pitch : -16.78, Yaw : 46.81, Alt : 49.2900009155, Lat : 49.283648, Lng : -123.1148934, Q1 : 0.907507538795, Q2 : 0.0633551031351, Q3 : -0.131579294801, Q4 : 0.393831372261}
2019-04-14 12:30:22.01: SIM {TimeUS : 60035143, Roll : 0.63, Pitch : -16.82, Yaw : 46.8, Alt : 49.2900009155, Lat : 49.2836505, Lng : -123.1148892, Q1 : 0.907525360584, Q2 : 0.063126988709, Q3 : -0.132093682885, Q4 : 0.393654584885}
2019-04-14 12:30:22.11: SIM {TimeUS : 60135103, Roll : 0.51, Pitch : -16.86, Yaw : 46.89, Alt : 49.2900009155, Lat : 49.283653, Lng : -123.1148851, Q1 : 0.907253146172, Q2 : 0.062397506088, Q3 : -0.132775187492, Q4 : 0.39416885376}
2019-04-14 12:30:22.21: SIM {TimeUS : 60235063, Roll : 0.34, Pitch : -16.89, Yaw : 47.04, Alt : 49.2900009155, Lat : 49.2836554, Lng : -123.1148808, Q1 : 0.906769871712, Q2 : 0.0613800026476, Q3 : -0.133492484689, Q4 : 0.395196914673}
2019-04-14 12:30:22.31: SIM {TimeUS : 60335023, Roll : 0.16, Pitch : -16.92, Yaw : 47.24, Alt : 49.2900009155, Lat : 49.2836579, Lng : -123.1148766, Q1 : 0.906158983707, Q2 : 0.0602442622185, Q3 : -0.134242191911, Q4 : 0.396516799927}
2019-04-14 12:30:22.41: SIM {TimeUS : 60434983, Roll : 0.01, Pitch : -16.96, Yaw : 47.44, Alt : 49.2999992371, Lat : 49.2836604, Lng : -123.1148722, Q1 : 0.905476927757, Q2 : 0.0594258606434, Q3 : -0.134994700551, Q4 : 0.39794036746}
2019-04-14 12:30:22.51: SIM {TimeUS : 60534943, Roll : -0.1, Pitch : -17.01, Yaw : 47.63, Alt : 49.2999992371, Lat : 49.283663, Lng : -123.114868, Q1 : 0.904823839664, Q2 : 0.0588926188648, Q3 : -0.135673061013, Q4 : 0.399272292852}
2019-04-14 12:30:22.61: SIM {TimeUS : 60634903, Roll : -0.17, Pitch : -17.06, Yaw : 47.78, Alt : 49.2999992371, Lat : 49.2836656, Lng : -123.1148637, Q1 : 0.904271543026, Q2 : 0.0586806386709, Q3 : -0.136246740818, Q4 : 0.400357872248}
2019-04-14 12:30:22.71: SIM {TimeUS : 60734863, Roll : -0.2, Pitch : -17.1, Yaw : 47.89, Alt : 49.2999992371, Lat : 49.2836682, Lng : -123.1148594, Q1 : 0.903870940208, Q2 : 0.0587768442929, Q3 : -0.136640772223, Q4 : 0.40111336112}
2019-04-14 12:30:22.81: SIM {TimeUS : 60834823, Roll : -0.21, Pitch : -17.14, Yaw : 47.94, Alt : 49.2999992371, Lat : 49.2836706, Lng : -123.114855, Q1 : 0.903660953045, Q2 : 0.0588883124292, Q3 : -0.136918395758, Q4 : 0.40147536993}
2019-04-14 12:30:22.91: SIM {TimeUS : 60934783, Roll : -0.2, Pitch : -17.15, Yaw : 47.93, Alt : 49.2999992371, Lat : 49.2836732, Lng : -123.1148506, Q1 : 0.903651297092, Q2 : 0.0589512959123, Q3 : -0.137036085129, Q4 : 0.401447713375}
2019-04-14 12:30:23.01: SIM {TimeUS : 61034743, Roll : -0.19, Pitch : -17.17, Yaw : 47.88, Alt : 49.2999992371, Lat : 49.283676, Lng : -123.1148462, Q1 : 0.903794765472, Q2 : 0.0590850077569, Q3 : -0.137146770954, Q4 : 0.401067078114}
2019-04-14 12:30:23.11: SIM {TimeUS : 61134703, Roll : -0.14, Pitch : -17.18, Yaw : 47.8, Alt : 49.2999992371, Lat : 49.2836785, Lng : -123.1148418, Q1 : 0.904048144817, Q2 : 0.0593969151378, Q3 : -0.137118503451, Q4 : 0.400459110737}
2019-04-14 12:30:23.21: SIM {TimeUS : 61234663, Roll : -0.07, Pitch : -17.19, Yaw : 47.69, Alt : 49.2999992371, Lat : 49.2836811, Lng : -123.1148374, Q1 : 0.904369652271, Q2 : 0.059825334698, Q3 : -0.137029901147, Q4 : 0.3996989429}
2019-04-14 12:30:23.31: SIM {TimeUS : 61334623, Roll : 0.0, Pitch : -17.22, Yaw : 47.58, Alt : 49.3100013733, Lat : 49.2836839, Lng : -123.1148329, Q1 : 0.904679834843, Q2 : 0.0605047941208, Q3 : -0.137022554874, Q4 : 0.398896455765}
2019-04-14 12:30:23.41: SIM {TimeUS : 61434583, Roll : 0.1, Pitch : -17.27, Yaw : 47.47, Alt : 49.3100013733, Lat : 49.2836864, Lng : -123.1148284, Q1 : 0.90495288372, Q2 : 0.0612654387951, Q3 : -0.137167558074, Q4 : 0.398110508919}
2019-04-14 12:30:23.51: SIM {TimeUS : 61534543, Roll : 0.16, Pitch : -17.31, Yaw : 47.38, Alt : 49.3100013733, Lat : 49.2836892, Lng : -123.114824, Q1 : 0.905213594437, Q2 : 0.0617741793394, Q3 : -0.137243375182, Q4 : 0.397412359715}
2019-04-14 12:30:23.61: SIM {TimeUS : 61634503, Roll : 0.2, Pitch : -17.31, Yaw : 47.3, Alt : 49.3100013733, Lat : 49.2836919, Lng : -123.1148195, Q1 : 0.905447542667, Q2 : 0.0620412677526, Q3 : -0.137162223458, Q4 : 0.396865308285}
2019-04-14 12:30:23.71: SIM {TimeUS : 61735296, Roll : 0.22, Pitch : -17.32, Yaw : 47.25, Alt : 49.3100013733, Lat : 49.2836945, Lng : -123.1148149, Q1 : 0.905617058277, Q2 : 0.0621135011315, Q3 : -0.13720394671, Q4 : 0.396452724934}
2019-04-14 12:30:23.81: SIM {TimeUS : 61835256, Roll : 0.21, Pitch : -17.34, Yaw : 47.21, Alt : 49.3100013733, Lat : 49.2836973, Lng : -123.1148104, Q1 : 0.905697643757, Q2 : 0.0621062032878, Q3 : -0.137461066246, Q4 : 0.39618062973}
2019-04-14 12:30:23.91: SIM {TimeUS : 61935216, Roll : 0.2, Pitch : -17.37, Yaw : 47.21, Alt : 49.3100013733, Lat : 49.2836999, Lng : -123.1148058, Q1 : 0.905701160431, Q2 : 0.0621113441885, Q3 : -0.137724041939, Q4 : 0.39608040452}
2019-04-14 12:30:24.01: SIM {TimeUS : 62035176, Roll : 0.18, Pitch : -17.41, Yaw : 47.21, Alt : 49.3100013733, Lat : 49.2837027, Lng : -123.1148011, Q1 : 0.905645191669, Q2 : 0.0621024593711, Q3 : -0.138065055013, Q4 : 0.396091133356}
2019-04-14 12:30:24.11: SIM {TimeUS : 62135136, Roll : 0.16, Pitch : -17.44, Yaw : 47.23, Alt : 49.3100013733, Lat : 49.2837054, Lng : -123.1147967, Q1 : 0.905568003654, Q2 : 0.0620323158801, Q3 : -0.138354599476, Q4 : 0.396177500486}
2019-04-14 12:30:24.21: SIM {TimeUS : 62235096, Roll : 0.14, Pitch : -17.47, Yaw : 47.25, Alt : 49.3100013733, Lat : 49.2837082, Lng : -123.1147921, Q1 : 0.905474901199, Q2 : 0.0620005205274, Q3 : -0.138646930456, Q4 : 0.396293073893}
2019-04-14 12:30:24.31: SIM {TimeUS : 62335056, Roll : 0.12, Pitch : -17.48, Yaw : 47.27, Alt : 49.3100013733, Lat : 49.2837108, Lng : -123.1147874, Q1 : 0.905393540859, Q2 : 0.0619659274817, Q3 : -0.13882099092, Q4 : 0.396423429251}
2019-04-14 12:30:24.41: SIM {TimeUS : 62435016, Roll : 0.12, Pitch : -17.5, Yaw : 47.28, Alt : 49.3100013733, Lat : 49.2837137, Lng : -123.1147828, Q1 : 0.905322611332, Q2 : 0.0620143525302, Q3 : -0.138953208923, Q4 : 0.396531522274}
2019-04-14 12:30:24.51: SIM {TimeUS : 62534976, Roll : 0.12, Pitch : -17.52, Yaw : 47.29, Alt : 49.3100013733, Lat : 49.2837163, Lng : -123.1147782, Q1 : 0.905265152454, Q2 : 0.0621212460101, Q3 : -0.139081761241, Q4 : 0.396600931883}
2019-04-14 12:30:24.61: SIM {TimeUS : 62634936, Roll : 0.12, Pitch : -17.55, Yaw : 47.29, Alt : 49.3199996948, Lat : 49.2837192, Lng : -123.1147735, Q1 : 0.905218660831, Q2 : 0.0621834397316, Q3 : -0.139388158917, Q4 : 0.396589607}
2019-04-14 12:30:24.71: SIM {TimeUS : 62734896, Roll : 0.08, Pitch : -17.6, Yaw : 47.29, Alt : 49.3199996948, Lat : 49.283722, Lng : -123.1147689, Q1 : 0.90519952774, Q2 : 0.0620727054775, Q3 : -0.139836415648, Q4 : 0.39649283886}
2019-04-14 12:30:24.81: SIM {TimeUS : 62834856, Roll : 0.06, Pitch : -17.64, Yaw : 47.28, Alt : 49.3199996948, Lat : 49.2837247, Lng : -123.1147642, Q1 : 0.905197381973, Q2 : 0.0620159208775, Q3 : -0.140301272273, Q4 : 0.396342396736}
2019-04-14 12:30:24.91: SIM {TimeUS : 62934816, Roll : 0.06, Pitch : -17.68, Yaw : 47.26, Alt : 49.3199996948, Lat : 49.2837275, Lng : -123.1147595, Q1 : 0.905216276646, Q2 : 0.062162399292, Q3 : -0.14056789875, Q4 : 0.396181881428}
2019-04-14 12:30:25.01: SIM {TimeUS : 63034776, Roll : 0.1, Pitch : -17.68, Yaw : 47.23, Alt : 49.3199996948, Lat : 49.2837302, Lng : -123.1147548, Q1 : 0.90528345108, Q2 : 0.0623822547495, Q3 : -0.14050231874, Q4 : 0.396016985178}
2019-04-14 12:30:25.11: SIM {TimeUS : 63134736, Roll : 0.13, Pitch : -17.66, Yaw : 47.2, Alt : 49.3199996948, Lat : 49.2837331, Lng : -123.1147501, Q1 : 0.905394494534, Q2 : 0.0625287517905, Q3 : -0.140211299062, Q4 : 0.395843148232}
2019-04-14 12:30:25.21: SIM {TimeUS : 63234696, Roll : 0.15, Pitch : -17.64, Yaw : 47.18, Alt : 49.3199996948, Lat : 49.2837358, Lng : -123.1147454, Q1 : 0.905512750149, Q2 : 0.0625505521894, Q3 : -0.140000984073, Q4 : 0.395643532276}
2019-04-14 12:30:25.31: SIM {TimeUS : 63334656, Roll : 0.15, Pitch : -17.62, Yaw : 47.15, Alt : 49.3199996948, Lat : 49.2837387, Lng : -123.1147407, Q1 : 0.905630230904, Q2 : 0.0625070333481, Q3 : -0.139850214124, Q4 : 0.395434826612}
2019-04-14 12:30:25.41: SIM {TimeUS : 63434616, Roll : 0.16, Pitch : -17.6, Yaw : 47.12, Alt : 49.3199996948, Lat : 49.2837415, Lng : -123.114736, Q1 : 0.905744791031, Q2 : 0.0624387152493, Q3 : -0.139717936516, Q4 : 0.395229965448}
2019-04-14 12:30:25.51: SIM {TimeUS : 63534576, Roll : 0.15, Pitch : -17.61, Yaw : 47.09, Alt : 49.3199996948, Lat : 49.2837443, Lng : -123.1147312, Q1 : 0.905816197395, Q2 : 0.0624289177358, Q3 : -0.139860913157, Q4 : 0.395017266273}
2019-04-14 12:30:25.61: SIM {TimeUS : 63634536, Roll : 0.15, Pitch : -17.65, Yaw : 47.07, Alt : 49.3199996948, Lat : 49.2837472, Lng : -123.1147265, Q1 : 0.905845999718, Q2 : 0.0625104755163, Q3 : -0.140173390508, Q4 : 0.394825160503}
2019-04-14 12:30:25.71: SIM {TimeUS : 63734496, Roll : 0.14, Pitch : -17.7, Yaw : 47.06, Alt : 49.3199996948, Lat : 49.28375, Lng : -123.1147217, Q1 : 0.905845522881, Q2 : 0.0625829696655, Q3 : -0.140615046024, Q4 : 0.394657641649}
2019-04-14 12:30:25.81: SIM {TimeUS : 63835289, Roll : 0.14, Pitch : -17.76, Yaw : 47.04, Alt : 49.3199996948, Lat : 49.2837528, Lng : -123.1147169, Q1 : 0.905810415745, Q2 : 0.0627644062042, Q3 : -0.141115173697, Q4 : 0.394530922174}
2019-04-14 12:30:25.91: SIM {TimeUS : 63935249, Roll : 0.14, Pitch : -17.79, Yaw : 47.04, Alt : 49.3199996948, Lat : 49.2837557, Lng : -123.1147121, Q1 : 0.905797183514, Q2 : 0.0629167035222, Q3 : -0.141332805157, Q4 : 0.394459158182}
2019-04-14 12:30:26.01: SIM {TimeUS : 64035209, Roll : 0.14, Pitch : -17.82, Yaw : 47.03, Alt : 49.3300018311, Lat : 49.2837586, Lng : -123.1147073, Q1 : 0.905791640282, Q2 : 0.0629957318306, Q3 : -0.141528606415, Q4 : 0.394388973713}
2019-04-14 12:30:26.11: SIM {TimeUS : 64135169, Roll : 0.14, Pitch : -17.83, Yaw : 47.02, Alt : 49.3300018311, Lat : 49.2837613, Lng : -123.1147025, Q1 : 0.905799746513, Q2 : 0.0629915222526, Q3 : -0.14167124033, Q4 : 0.394319921732}
2019-04-14 12:30:26.21: SIM {TimeUS : 64235129, Roll : 0.15, Pitch : -17.83, Yaw : 47.01, Alt : 49.3300018311, Lat : 49.2837642, Lng : -123.1146977, Q1 : 0.905828535557, Q2 : 0.0630172044039, Q3 : -0.141607254744, Q4 : 0.394272625446}
2019-04-14 12:30:26.31: SIM {TimeUS : 64335089, Roll : 0.16, Pitch : -17.84, Yaw : 47.01, Alt : 49.3300018311, Lat : 49.2837671, Lng : -123.1146929, Q1 : 0.905836820602, Q2 : 0.0631598085165, Q3 : -0.141632527113, Q4 : 0.394221782684}
2019-04-14 12:30:26.41: SIM {TimeUS : 64435049, Roll : 0.17, Pitch : -17.86, Yaw : 47.0, Alt : 49.3300018311, Lat : 49.2837699, Lng : -123.1146881, Q1 : 0.905832052231, Q2 : 0.0633096769452, Q3 : -0.141790911555, Q4 : 0.394151598215}
2019-04-14 12:30:26.51: SIM {TimeUS : 64535009, Roll : 0.18, Pitch : -17.88, Yaw : 46.99, Alt : 49.3300018311, Lat : 49.2837728, Lng : -123.1146833, Q1 : 0.905838131905, Q2 : 0.0634001046419, Q3 : -0.141922473907, Q4 : 0.394075900316}
2019-04-14 12:30:26.61: SIM {TimeUS : 64634969, Roll : 0.19, Pitch : -17.88, Yaw : 46.98, Alt : 49.3300018311, Lat : 49.2837757, Lng : -123.1146785, Q1 : 0.905869960785, Q2 : 0.0634776502848, Q3 : -0.141901418567, Q4 : 0.393997728825}
2019-04-14 12:30:26.71: SIM {TimeUS : 64734929, Roll : 0.19, Pitch : -17.88, Yaw : 46.96, Alt : 49.3300018311, Lat : 49.2837786, Lng : -123.1146737, Q1 : 0.905910670757, Q2 : 0.0634764283895, Q3 : -0.141906887293, Q4 : 0.393902361393}
2019-04-14 12:30:26.81: SIM {TimeUS : 64834889, Roll : 0.17, Pitch : -17.9, Yaw : 46.95, Alt : 49.3300018311, Lat : 49.2837814, Lng : -123.1146688, Q1 : 0.905945003033, Q2 : 0.0633696913719, Q3 : -0.142106860876, Q4 : 0.393768429756}
2019-04-14 12:30:26.91: SIM {TimeUS : 64934849, Roll : 0.14, Pitch : -17.93, Yaw : 46.94, Alt : 49.3300018311, Lat : 49.2837843, Lng : -123.114664, Q1 : 0.905966222286, Q2 : 0.0632248967886, Q3 : -0.142501592636, Q4 : 0.393600195646}
2019-04-14 12:30:27.01: SIM {TimeUS : 65034809, Roll : 0.12, Pitch : -17.94, Yaw : 46.92, Alt : 49.3300018311, Lat : 49.2837873, Lng : -123.1146591, Q1 : 0.906013786793, Q2 : 0.0631153434515, Q3 : -0.142632380128, Q4 : 0.393460929394}
2019-04-14 12:30:27.11: SIM {TimeUS : 65134769, Roll : 0.13, Pitch : -17.93, Yaw : 46.91, Alt : 49.3300018311, Lat : 49.2837902, Lng : -123.1146543, Q1 : 0.906070232391, Q2 : 0.0631113871932, Q3 : -0.142555087805, Q4 : 0.393359571695}
2019-04-14 12:30:27.21: SIM {TimeUS : 65234729, Roll : 0.15, Pitch : -17.92, Yaw : 46.89, Alt : 49.3300018311, Lat : 49.283793, Lng : -123.1146494, Q1 : 0.906120359898, Q2 : 0.0632452666759, Q3 : -0.142391815782, Q4 : 0.393281638622}
2019-04-14 12:30:27.31: SIM {TimeUS : 65334689, Roll : 0.17, Pitch : -17.93, Yaw : 46.88, Alt : 49.3300018311, Lat : 49.2837959, Lng : -123.1146446, Q1 : 0.90615350008, Q2 : 0.0633675530553, Q3 : -0.142409697175, Q4 : 0.39317920804}
2019-04-14 12:30:27.41: SIM {TimeUS : 65434649, Roll : 0.16, Pitch : -17.95, Yaw : 46.87, Alt : 49.3300018311, Lat : 49.2837989, Lng : -123.1146397, Q1 : 0.906174182892, Q2 : 0.0633696690202, Q3 : -0.142637193203, Q4 : 0.39304882288}
2019-04-14 12:30:27.51: SIM {TimeUS : 65534609, Roll : 0.14, Pitch : -17.98, Yaw : 46.85, Alt : 49.3400001526, Lat : 49.2838018, Lng : -123.1146348, Q1 : 0.906199753284, Q2 : 0.0632699280977, Q3 : -0.142902836204, Q4 : 0.392909228802}
2019-04-14 12:30:27.61: SIM {TimeUS : 65634569, Roll : 0.13, Pitch : -18.0, Yaw : 46.84, Alt : 49.3400001526, Lat : 49.2838047, Lng : -123.11463, Q1 : 0.906225562096, Q2 : 0.0632270425558, Q3 : -0.143116563559, Q4 : 0.392778873444}
2019-04-14 12:30:27.71: SIM {TimeUS : 65734529, Roll : 0.13, Pitch : -18.02, Yaw : 46.83, Alt : 49.3400001526, Lat : 49.2838075, Lng : -123.1146251, Q1 : 0.906247019768, Q2 : 0.0633153319359, Q3 : -0.143253311515, Q4 : 0.392665237188}
2019-04-14 12:30:27.81: SIM {TimeUS : 65835322, Roll : 0.15, Pitch : -18.03, Yaw : 46.81, Alt : 49.3400001526, Lat : 49.2838105, Lng : -123.1146201, Q1 : 0.90626591444, Q2 : 0.0634578838944, Q3 : -0.143323585391, Q4 : 0.392572969198}
2019-04-14 12:30:27.91: SIM {TimeUS : 65935282, Roll : 0.17, Pitch : -18.04, Yaw : 46.8, Alt : 49.3400001526, Lat : 49.2838135, Lng : -123.1146153, Q1 : 0.906270205975, Q2 : 0.0636866316199, Q3 : -0.143314599991, Q4 : 0.392529398203}
2019-04-14 12:30:28.01: SIM {TimeUS : 66035242, Roll : 0.18, Pitch : -18.05, Yaw : 46.8, Alt : 49.3400001526, Lat : 49.2838164, Lng : -123.1146104, Q1 : 0.906265616417, Q2 : 0.0638252869248, Q3 : -0.143395677209, Q4 : 0.392487794161}
2019-04-14 12:30:28.11: SIM {TimeUS : 66135202, Roll : 0.19, Pitch : -18.07, Yaw : 46.79, Alt : 49.3400001526, Lat : 49.2838193, Lng : -123.1146055, Q1 : 0.906254708767, Q2 : 0.0639645084739, Q3 : -0.143516167998, Q4 : 0.392446190119}
2019-04-14 12:30:28.21: SIM {TimeUS : 66235162, Roll : 0.21, Pitch : -18.09, Yaw : 46.79, Alt : 49.3400001526, Lat : 49.2838223, Lng : -123.1146006, Q1 : 0.906245946884, Q2 : 0.0641082152724, Q3 : -0.143611431122, Q4 : 0.392408281565}
2019-04-14 12:30:28.31: SIM {TimeUS : 66335122, Roll : 0.22, Pitch : -18.1, Yaw : 46.78, Alt : 49.3400001526, Lat : 49.2838251, Lng : -123.1145957, Q1 : 0.906242191792, Q2 : 0.0642794966698, Q3 : -0.14362475276, Q4 : 0.392383933067}
2019-04-14 12:30:28.41: SIM {TimeUS : 66435082, Roll : 0.25, Pitch : -18.11, Yaw : 46.78, Alt : 49.3400001526, Lat : 49.2838281, Lng : -123.1145907, Q1 : 0.906231820583, Q2 : 0.0645222067833, Q3 : -0.143605992198, Q4 : 0.392374932766}
2019-04-14 12:30:28.51: SIM {TimeUS : 66535042, Roll : 0.25, Pitch : -18.1, Yaw : 46.77, Alt : 49.3400001526, Lat : 49.2838311, Lng : -123.1145858, Q1 : 0.906257748604, Q2 : 0.0644628927112, Q3 : -0.143568903208, Q4 : 0.392338395119}
2019-04-14 12:30:28.61: SIM {TimeUS : 66635002, Roll : 0.22, Pitch : -18.11, Yaw : 46.77, Alt : 49.3400001526, Lat : 49.283834, Lng : -123.1145809, Q1 : 0.906284689903, Q2 : 0.0642617940903, Q3 : -0.143705606461, Q4 : 0.392259091139}
2019-04-14 12:30:28.71: SIM {TimeUS : 66734962, Roll : 0.19, Pitch : -18.13, Yaw : 46.76, Alt : 49.3499984741, Lat : 49.283837, Lng : -123.114576, Q1 : 0.906286418438, Q2 : 0.0641350150108, Q3 : -0.144004270434, Q4 : 0.392166286707}
