2019-04-14 11:08:18.10: SIM {TimeUS : 39915694, Roll : 0.0, Pitch : 0.0, Yaw : 0.0, Alt : 30.1000003815, Lat : 49.28357, Lng : -123.11502, Q1 : 1.0, Q2 : 0.0, Q3 : 0.0, Q4 : 0.0}
2019-04-14 11:08:18.21: SIM {TimeUS : 40034813, Roll : 0.0, Pitch : 0.0, Yaw : 0.0, Alt : 30.1000003815, Lat : 49.28357, Lng : -123.11502, Q1 : 1.0, Q2 : 0.0, Q3 : 0.0, Q4 : 0.0}
2019-04-14 11:08:18.31: SIM {TimeUS : 40134773, Roll : 0.0, Pitch : 0.0, Yaw : 0.0, Alt : 30.1000003815, Lat : 49.28357, Lng : -123.11502, Q1 : 1.0, Q2 : 0.0, Q3 : 0.0, Q4 : 0.0}
2019-04-14 11:08:18.41: SIM {TimeUS : 40234733, Roll : 0.0, Pitch : 0.0, Yaw : 0.0, Alt : 30.1000003815, Lat : 49.28357, Lng : -123.11502, Q1 : 1.0, Q2 : 0.0, Q3 : 0.0, Q4 : 0.0}
2019-04-14 11:08:18.51: SIM {TimeUS : 40334693, Roll : 0.0, Pitch : 0.0, Yaw : 0.0, Alt : 30.1000003815, Lat : 49.28357, Lng : -123.11502, Q1 : 1.0, Q2 : 0.0, Q3 : 0.0, Q4 : 0.0}
2019-04-14 11:08:18.61: SIM {TimeUS : 40434653, Roll : 0.0, Pitch : 0.0, Yaw : 0.0, Alt : 30.1000003815, Lat : 49.28357, Lng : -123.11502, Q1 : 1.0, Q2 : 0.0, Q3 : 0.0, Q4 : 0.0}
2019-04-14 11:08:18.71: SIM {TimeUS : 40534613, Roll : 0.0, Pitch : 0.0, Yaw : 0.0, Alt : 30.1000003815, Lat : 49.28357, Lng : -123.11502, Q1 : 1.0, Q2 : 0.0, Q3 : 0.0, Q4 : 0.0}
2019-04-14 11:08:18.81: SIM {TimeUS : 40634573, Roll : 0.0, Pitch : 0.0, Yaw : 0.0, Alt : 30.1000003815, Lat : 49.28357, Lng : -123.11502, Q1 : 1.0, Q2 : 0.0, Q3 : 0.0, Q4 : 0.0}
2019-04-14 11:08:18.91: SIM {TimeUS : 40734533, Roll : 0.0, Pitch : 0.0, Yaw : 0.0, Alt : 30.1000003815, Lat : 49.28357, Lng : -123.11502, Q1 : 1.0, Q2 : 0.0, Q3 : 0.0, Q4 : 0.0}
2019-04-14 11:08:19.01: SIM {TimeUS : 40834493, Roll : 0.0, Pitch : 0.0, Yaw : 0.0, Alt : 30.1000003815, Lat : 49.28357, Lng : -123.11502, Q1 : 1.0, Q2 : 0.0, Q3 : 0.0, Q4 : 0.0}
2019-04-14 11:08:19.11: SIM {TimeUS : 40934453, Roll : 0.0, Pitch : 0.0, Yaw : 0.0, Alt : 30.1000003815, Lat : 49.28357, Lng : -123.11502, Q1 : 1.0, Q2 : 0.0, Q3 : 0.0, Q4 : 0.0}
2019-04-14 11:08:19.21: SIM {TimeUS : 41034413, Roll : 0.0, Pitch : 0.0, Yaw : 0.0, Alt : 30.1000003815, Lat : 49.28357, Lng : -123.11502, Q1 : 1.0, Q2 : 0.0, Q3 : 0.0, Q4 : 0.0}
2019-04-14 11:08:19.31: SIM {TimeUS : 41134373, Roll : 0.0, Pitch : 0.0, Yaw : 0.0, Alt : 30.1000003815, Lat : 49.28357, Lng : -123.11502, Q1 : 1.0, Q2 : 0.0, Q3 : 0.0, Q4 : 0.0}
2019-04-14 11:08:19.41: SIM {TimeUS : 41234333, Roll : 0.0, Pitch : 0.0, Yaw : 0.0, Alt : 30.1000003815, Lat : 49.28357, Lng : -123.11502, Q1 : 1.0, Q2 : 0.0, Q3 : 0.0, Q4 : 0.0}
2019-04-14 11:08:19.51: SIM {TimeUS : 41334293, Roll : 0.0, Pitch : 0.0, Yaw : 0.0, Alt : 30.1000003815, Lat : 49.28357, Lng : -123.11502, Q1 : 1.0, Q2 : 0.0, Q3 : 0.0, Q4 : 0.0}
2019-04-14 11:08:19.61: SIM {TimeUS : 41434253, Roll : 0.0, Pitch : 0.0, Yaw : 0.0, Alt : 30.1000003815, Lat : 49.28357, Lng : -123.11502, Q1 : 1.0, Q2 : 0.0, Q3 : 0.0, Q4 : 0.0}
2019-04-14 11:08:19.71: SIM {TimeUS : 41534213, Roll : 0.0, Pitch : 0.0, Yaw : 0.0, Alt : 30.1000003815, Lat : 49.28357, Lng : -123.11502, Q1 : 1.0, Q2 : 0.0, Q3 : 0.0, Q4 : 0.0}
2019-04-14 11:08:19.81: SIM {TimeUS : 41634173, Roll : 0.0, Pitch : 0.0, Yaw : 0.0, Alt : 30.1000003815, Lat : 49.28357, Lng : -123.11502, Q1 : 1.0, Q2 : 0.0, Q3 : 0.0, Q4 : 0.0}
2019-04-14 11:08:19.91: SIM {TimeUS : 41734133, Roll : 0.0, Pitch : 0.0, Yaw : 0.0, Alt : 30.1000003815, Lat : 49.28357, Lng : -123.11502, Q1 : 1.0, Q2 : 0.0, Q3 : 0.0, Q4 : 0.0}
2019-04-14 11:08:20.01: SIM {TimeUS : 41834093, Roll : 0.0, Pitch : 0.0, Yaw : 0.0, Alt : 30.1000003815, Lat : 49.28357, Lng : -123.11502, Q1 : 1.0, Q2 : 0.0, Q3 : 0.0, Q4 : 0.0}
2019-04-14 11:08:20.11: SIM {TimeUS : 41934053, Roll : 0.0, Pitch : 0.0, Yaw : 0.0, Alt : 30.1000003815, Lat : 49.28357, Lng : -123.11502, Q1 : 1.0, Q2 : 0.0, Q3 : 0.0, Q4 : 0.0}
2019-04-14 11:08:20.22: SIM {TimeUS : 42034846, Roll : 0.0, Pitch : 0.0, Yaw : 0.0, Alt : 30.1000003815, Lat : 49.28357, Lng : -123.11502, Q1 : 1.0, Q2 : 0.0, Q3 : 0.0, Q4 : 0.0}
2019-04-14 11:08:20.31: SIM {TimeUS : 42134806, Roll : 0.0, Pitch : 0.0, Yaw : 0.0, Alt : 30.1000003815, Lat : 49.28357, Lng : -123.11502, Q1 : 1.0, Q2 : 0.0, Q3 : 0.0, Q4 : 0.0}
2019-04-14 11:08:20.41: SIM {TimeUS : 42234766, Roll : 0.0, Pitch : 0.0, Yaw : 0.0, Alt : 30.1000003815, Lat : 49.28357, Lng : -123.11502, Q1 : 1.0, Q2 : 0.0, Q3 : 0.0, Q4 : 2.32067349278e-13}
2019-04-14 11:08:20.51: SIM {TimeUS : 42334726, Roll : 0.0, Pitch : 0.0, Yaw : 0.0, Alt : 30.1000003815, Lat : 49.28357, Lng : -123.11502, Q1 : 1.0, Q2 : 0.0, Q3 : 0.0, Q4 : 2.44555417583e-12}
2019-04-14 11:08:20.61: SIM {TimeUS : 42434686, Roll : 0.0, Pitch : 0.0, Yaw : 360.0, Alt : 30.1000003815, Lat : 49.28357, Lng : -123.11502, Q1 : 1.0, Q2 : 0.0, Q3 : 0.0, Q4 : -8.00653268129e-08}
2019-04-14 11:08:20.71: SIM {TimeUS : 42534646, Roll : 0.0, Pitch : 0.0, Yaw : 359.99, Alt : 30.1000003815, Lat : 49.28357, Lng : -123.11502, Q1 : 1.0, Q2 : 0.0, Q3 : 0.0, Q4 : -2.40034864873e-07}
2019-04-14 11:08:20.81: SIM {TimeUS : 42634606, Roll : 0.0, Pitch : 0.0, Yaw : 359.99, Alt : 30.1000003815, Lat : 49.28357, Lng : -123.11502, Q1 : 1.0, Q2 : 0.0, Q3 : 0.0, Q4 : -4.33550269463e-07}
2019-04-14 11:08:20.91: SIM {TimeUS : 42734566, Roll : 0.0, Pitch : 0.0, Yaw : 359.99, Alt : 30.1000003815, Lat : 49.28357, Lng : -123.11502, Q1 : 1.0, Q2 : 0.0, Q3 : 0.0, Q4 : -6.33540992112e-07}
2019-04-14 11:08:21.01: SIM {TimeUS : 42834526, Roll : 0.0, Pitch : 0.0, Yaw : 359.99, Alt : 30.1000003815, Lat : 49.28357, Lng : -123.11502, Q1 : 1.0, Q2 : 0.0, Q3 : 0.0, Q4 : -8.16057365682e-07}
2019-04-14 11:08:21.11: SIM {TimeUS : 42934486, Roll : 0.0, Pitch : 0.0, Yaw : 359.99, Alt : 30.1000003815, Lat : 49.28357, Lng : -123.11502, Q1 : 1.0, Q2 : 0.0, Q3 : 0.0, Q4 : -1.00345710052e-06}
2019-04-14 11:08:21.21: SIM {TimeUS : 43034446, Roll : 0.0, Pitch : 0.0, Yaw : 359.99, Alt : 30.1000003815, Lat : 49.28357, Lng : -123.11502, Q1 : 1.0, Q2 : 0.0, Q3 : 0.0, Q4 : -1.15317686777e-06}
2019-04-14 11:08:21.31: SIM {TimeUS : 43134406, Roll : 0.0, Pitch : 0.0, Yaw : 359.99, Alt : 30.1100006104, Lat : 49.28357, Lng : -123.11502, Q1 : 1.0, Q2 : 0.0, Q3 : 0.0, Q4 : -1.36957294217e-06}
2019-04-14 11:08:21.41: SIM {TimeUS : 43234366, Roll : 0.0, Pitch : 0.0, Yaw : 359.99, Alt : 30.1299991608, Lat : 49.28357, Lng : -123.11502, Q1 : 1.0, Q2 : 0.0, Q3 : 0.0, Q4 : -1.6025445575e-06}
2019-04-14 11:08:21.51: SIM {TimeUS : 43334326, Roll : 0.0, Pitch : 0.0, Yaw : 359.99, Alt : 30.1499996185, Lat : 49.28357, Lng : -123.11502, Q1 : 1.0, Q2 : 0.0, Q3 : 0.0, Q4 : -1.83590259439e-06}
2019-04-14 11:08:21.61: SIM {TimeUS : 43434286, Roll : 0.0, Pitch : 0.0, Yaw : 359.99, Alt : 30.1900005341, Lat : 49.28357, Lng : -123.11502, Q1 : 1.0, Q2 : 0.0, Q3 : 0.0, Q4 : -2.07073799174e-06}
2019-04-14 11:08:21.71: SIM {TimeUS : 43534246, Roll : -0.02, Pitch : -0.02, Yaw : 359.99, Alt : 30.2299995422, Lat : 49.28357, Lng : -123.11502, Q1 : 0.999999940395, Q2 : -0.000243899281486, Q3 : -0.000243227972533, Q4 : -3.48543085238e-06}
2019-04-14 11:08:21.81: SIM {TimeUS : 43634206, Roll : -0.25, Pitch : -0.25, Yaw : 359.99, Alt : 30.2999992371, Lat : 49.28357, Lng : -123.11502, Q1 : 0.99999499321, Q2 : -0.00222808192484, Q3 : -0.00225342693739, Q4 : -2.48287105933e-05}
2019-04-14 11:08:21.91: SIM {TimeUS : 43734166, Roll : -0.55, Pitch : -0.56, Yaw : 359.99, Alt : 30.4300003052, Lat : 49.28357, Lng : -123.11502, Q1 : 0.999976277351, Q2 : -0.0048021832481, Q3 : -0.00494208931923, Q4 : -7.54991633585e-05}
2019-04-14 11:08:22.01: SIM {TimeUS : 43834126, Roll : -0.76, Pitch : -0.76, Yaw : 359.98, Alt : 30.5900001526, Lat : 49.28357, Lng : -123.11502, Q1 : 0.999955534935, Q2 : -0.00667338399217, Q3 : -0.00666234875098, Q4 : -0.000150964435306}
2019-04-14 11:08:22.11: SIM {TimeUS : 43934086, Roll : -0.82, Pitch : -0.77, Yaw : 359.97, Alt : 30.75, Lat : 49.28357, Lng : -123.11502, Q1 : 0.999951243401, Q2 : -0.00722060818225, Q3 : -0.00673328945413, Q4 : -0.000238437685766}
2019-04-14 11:08:22.21: SIM {TimeUS : 44034046, Roll : -0.73, Pitch : -0.63, Yaw : 359.96, Alt : 30.8999996185, Lat : 49.28357, Lng : -123.1150201, Q1 : 0.999963581562, Q2 : -0.0064508500509, Q3 : -0.00558165740222, Q4 : -0.000322645675624}
2019-04-14 11:08:22.32: SIM {TimeUS : 44134839, Roll : -0.55, Pitch : -0.43, Yaw : 359.95, Alt : 31.0599994659, Lat : 49.2835701, Lng : -123.1150202, Q1 : 0.999980866909, Q2 : -0.00484869722277, Q3 : -0.00382730248384, Q4 : -0.000398814503569}
2019-04-14 11:08:22.41: SIM {TimeUS : 44234799, Roll : -0.35, Pitch : -0.23, Yaw : 359.94, Alt : 31.2199993134, Lat : 49.2835701, Lng : -123.1150202, Q1 : 0.999993085861, Q2 : -0.00306040956639, Q3 : -0.00205901218578, Q4 : -0.000461946765427}
2019-04-14 11:08:22.51: SIM {TimeUS : 44334759, Roll : -0.16, Pitch : -0.07, Yaw : 359.94, Alt : 31.3799991608, Lat : 49.2835702, Lng : -123.1150203, Q1 : 0.999998569489, Q2 : -0.00145229045302, Q3 : -0.000697292096447, Q4 : -0.000503283517901}
2019-04-14 11:08:22.61: SIM {TimeUS : 44434719, Roll : -0.01, Pitch : 0.0, Yaw : 359.93, Alt : 31.5499992371, Lat : 49.2835702, Lng : -123.1150204, Q1 : 0.999999880791, Q2 : -0.000132860863232, Q3 : -4.12840709032e-05, Q4 : -0.000529282202478}
2019-04-14 11:08:22.71: SIM {TimeUS : 44534679, Roll : 0.06, Pitch : 0.02, Yaw : 359.93, Alt : 31.7299995422, Lat : 49.2835703, Lng : -123.1150205, Q1 : 0.999999642372, Q2 : 0.000573995406739, Q3 : 0.00022540151258, Q4 : -0.000539475178812}
2019-04-14 11:08:22.81: SIM {TimeUS : 44634639, Roll : 0.07, Pitch : 0.02, Yaw : 359.93, Alt : 31.9099998474, Lat : 49.2835703, Lng : -123.1150206, Q1 : 0.999999582767, Q2 : 0.000674799957778, Q3 : 0.000255363062024, Q4 : -0.000537956715561}
2019-04-14 11:08:22.91: SIM {TimeUS : 44734599, Roll : 0.06, Pitch : 0.01, Yaw : 359.93, Alt : 32.0900001526, Lat : 49.2835703, Lng : -123.1150206, Q1 : 0.999999701977, Q2 : 0.000548213429283, Q3 : 0.000143027005834, Q4 : -0.000526808958966}
2019-04-14 11:08:23.01: SIM {TimeUS : 44834559, Roll : 0.05, Pitch : 0.01, Yaw : 359.94, Alt : 32.2799987793, Lat : 49.2835703, Lng : -123.1150207, Q1 : 0.999999761581, Q2 : 0.000523079070263, Q3 : 0.000129415013362, Q4 : -0.000521742913406}
2019-04-14 11:08:23.11: SIM {TimeUS : 44934519, Roll : 0.07, Pitch : 0.02, Yaw : 359.94, Alt : 32.4700012207, Lat : 49.2835703, Lng : -123.1150207, Q1 : 0.999999642372, Q2 : 0.000614954042248, Q3 : 0.000218029643293, Q4 : -0.000517807377037}
2019-04-14 11:08:23.21: SIM {TimeUS : 45034479, Roll : 0.09, Pitch : 0.04, Yaw : 359.94, Alt : 32.6699981689, Lat : 49.2835703, Lng : -123.1150208, Q1 : 0.999999463558, Q2 : 0.00086232565809, Q3 : 0.000349907699274, Q4 : -0.000512173224706}
2019-04-14 11:08:23.31: SIM {TimeUS : 45134439, Roll : 0.13, Pitch : 0.05, Yaw : 359.94, Alt : 32.8699989319, Lat : 49.2835703, Lng : -123.1150208, Q1 : 0.999999046326, Q2 : 0.00117317412514, Q3 : 0.000515959458426, Q4 : -0.000508591998369}
2019-04-14 11:08:23.41: SIM {TimeUS : 45234399, Roll : 0.16, Pitch : 0.09, Yaw : 359.94, Alt : 33.0699996948, Lat : 49.2835704, Lng : -123.1150208, Q1 : 0.999998569489, Q2 : 0.00140749977436, Q3 : 0.000795186788309, Q4 : -0.000512186146807}
2019-04-14 11:08:23.51: SIM {TimeUS : 45334359, Roll : 0.16, Pitch : 0.12, Yaw : 359.94, Alt : 33.2700004578, Lat : 49.2835704, Lng : -123.1150209, Q1 : 0.999998152256, Q2 : 0.00146697449964, Q3 : 0.00112872105092, Q4 : -0.000522005953826}
2019-04-14 11:08:23.61: SIM {TimeUS : 45434319, Roll : 0.16, Pitch : 0.15, Yaw : 359.93, Alt : 33.4799995422, Lat : 49.2835704, Lng : -123.1150209, Q1 : 0.999997913837, Q2 : 0.0014054327039, Q3 : 0.00138771627098, Q4 : -0.000530753226485}
2019-04-14 11:08:23.71: SIM {TimeUS : 45534279, Roll : 0.15, Pitch : 0.18, Yaw : 359.93, Alt : 33.6800003052, Lat : 49.2835704, Lng : -123.1150209, Q1 : 0.999997675419, Q2 : 0.00136449804995, Q3 : 0.00158841325901, Q4 : -0.00054151104996}
2019-04-14 11:08:23.81: SIM {TimeUS : 45634239, Roll : 0.16, Pitch : 0.17, Yaw : 359.93, Alt : 33.8899993896, Lat : 49.2835704, Lng : -123.1150209, Q1 : 0.999997615814, Q2 : 0.001405568677, Q3 : 0.00156343681738, Q4 : -0.000549314892851}
2019-04-14 11:08:23.91: SIM {TimeUS : 45734199, Roll : 0.15, Pitch : 0.16, Yaw : 359.93, Alt : 34.0999984741, Lat : 49.2835704, Lng : -123.1150209, Q1 : 0.999997794628, Q2 : 0.00138139852788, Q3 : 0.00146187329665, Q4 : -0.000565338239539}
2019-04-14 11:08:24.01: SIM {TimeUS : 45834159, Roll : 0.13, Pitch : 0.15, Yaw : 359.93, Alt : 34.3100013733, Lat : 49.2835706, Lng : -123.1150209, Q1 : 0.999998211861, Q2 : 0.00117087573744, Q3 : 0.00138741836417, Q4 : -0.00058459705906}
2019-04-14 11:08:24.11: SIM {TimeUS : 45934119, Roll : 0.1, Pitch : 0.11, Yaw : 359.93, Alt : 34.5200004578, Lat : 49.2835706, Lng : -123.1150209, Q1 : 0.999998867512, Q2 : 0.000946192536503, Q3 : 0.00101772591006, Q4 : -0.000595241785049}
2019-04-14 11:08:24.21: SIM {TimeUS : 46034079, Roll : 0.08, Pitch : 0.05, Yaw : 359.93, Alt : 34.7400016785, Lat : 49.2835706, Lng : -123.1150209, Q1 : 0.999999403954, Q2 : 0.000777904002462, Q3 : 0.000501887290739, Q4 : -0.000607521680649}
2019-04-14 11:08:24.31: SIM {TimeUS : 46134039, Roll : 0.07, Pitch : 0.01, Yaw : 359.92, Alt : 34.9500007629, Lat : 49.2835706, Lng : -123.1150209, Q1 : 0.999999582767, Q2 : 0.000612639705651, Q3 : 0.000160148163559, Q4 : -0.000632328388747}
2019-04-14 11:08:24.42: SIM {TimeUS : 46234832, Roll : 0.05, Pitch : 0.0, Yaw : 359.92, Alt : 35.1699981689, Lat : 49.2835706, Lng : -123.1150208, Q1 : 0.999999642372, Q2 : 0.000482228409965, Q3 : 2.84481484414e-05, Q4 : -0.000670878449455}
2019-04-14 11:08:24.51: SIM {TimeUS : 46334792, Roll : 0.05, Pitch : 0.01, Yaw : 359.91, Alt : 35.3899993896, Lat : 49.2835706, Lng : -123.1150208, Q1 : 0.999999642372, Q2 : 0.000473694351967, Q3 : 9.94751680992e-05, Q4 : -0.000715832517017}
2019-04-14 11:08:24.61: SIM {TimeUS : 46434752, Roll : 0.05, Pitch : 0.01, Yaw : 359.91, Alt : 35.5999984741, Lat : 49.2835706, Lng : -123.1150208, Q1 : 0.999999582767, Q2 : 0.000450447201729, Q3 : 0.000144102436025, Q4 : -0.000756308378186}
2019-04-14 11:08:24.71: SIM {TimeUS : 46534712, Roll : 0.03, Pitch : 0.02, Yaw : 359.9, Alt : 35.8199996948, Lat : 49.2835706, Lng : -123.1150208, Q1 : 0.999999642372, Q2 : 0.000297204096569, Q3 : 0.000202545939828, Q4 : -0.00078645395115}
2019-04-14 11:08:24.81: SIM {TimeUS : 46634672, Roll : 0.01, Pitch : 0.03, Yaw : 359.9, Alt : 36.0400009155, Lat : 49.2835706, Lng : -123.1150208, Q1 : 0.999999582767, Q2 : 0.000132150773425, Q3 : 0.000310111616272, Q4 : -0.000811888079625}
2019-04-14 11:08:24.91: SIM {TimeUS : 46734632, Roll : 0.0, Pitch : 0.05, Yaw : 359.9, Alt : 36.2599983215, Lat : 49.2835706, Lng : -123.1150208, Q1 : 0.999999523163, Q2 : 3.17845406244e-05, Q3 : 0.00051525834715, Q4 : -0.000834560254589}
2019-04-14 11:08:25.01: SIM {TimeUS : 46834592, Roll : 0.0, Pitch : 0.06, Yaw : 359.9, Alt : 36.4900016785, Lat : 49.2835704, Lng : -123.1150207, Q1 : 0.999999523163, Q2 : -6.57673954265e-05, Q3 : 0.000551956240088, Q4 : -0.000848233583383}
2019-04-14 11:08:25.11: SIM {TimeUS : 46934552, Roll : -0.01, Pitch : 0.05, Yaw : 359.9, Alt : 36.7099990845, Lat : 49.2835704, Lng : -123.1150207, Q1 : 0.999999523163, Q2 : -0.000153526343638, Q3 : 0.00050856557209, Q4 : -0.000859754742123}
2019-04-14 11:08:25.21: SIM {TimeUS : 47034512, Roll : -0.02, Pitch : 0.04, Yaw : 359.9, Alt : 36.9300003052, Lat : 49.2835704, Lng : -123.1150207, Q1 : 0.999999523163, Q2 : -0.000215154563193, Q3 : 0.000400867167627, Q4 : -0.000871417170856}
2019-04-14 11:08:25.31: SIM {TimeUS : 47134472, Roll : -0.02, Pitch : 0.03, Yaw : 359.89, Alt : 37.1599998474, Lat : 49.2835704, Lng : -123.1150207, Q1 : 0.999999523163, Q2 : -0.000201753355213, Q3 : 0.000277857907349, Q4 : -0.000886093359441}
2019-04-14 11:08:25.41: SIM {TimeUS : 47234432, Roll : 0.0, Pitch : 0.01, Yaw : 359.89, Alt : 37.3800010681, Lat : 49.2835704, Lng : -123.1150207, Q1 : 0.999999582767, Q2 : -2.46124873229e-05, Q3 : 0.000126957587781, Q4 : -0.000893424032256}
2019-04-14 11:08:25.51: SIM {TimeUS : 47334392, Roll : 0.0, Pitch : -0.01, Yaw : 359.89, Alt : 37.6100006104, Lat : 49.2835704, Lng : -123.1150207, Q1 : 0.999999582767, Q2 : -1.73731518771e-06, Q3 : -0.000112539593829, Q4 : -0.000898975529708}
2019-04-14 11:08:25.61: SIM {TimeUS : 47434352, Roll : -0.01, Pitch : -0.05, Yaw : 359.89, Alt : 37.8300018311, Lat : 49.2835704, Lng : -123.1150207, Q1 : 0.999999463558, Q2 : -0.000167237827554, Q3 : -0.000450879102573, Q4 : -0.000898832280654}
2019-04-14 11:08:25.71: SIM {TimeUS : 47534312, Roll : -0.05, Pitch : -0.07, Yaw : 359.89, Alt : 38.0600013733, Lat : 49.2835704, Lng : -123.1150207, Q1 : 0.99999922514, Q2 : -0.000483976997202, Q3 : -0.000690470507834, Q4 : -0.000907145498786}
2019-04-14 11:08:25.81: SIM {TimeUS : 47634272, Roll : -0.09, Pitch : -0.08, Yaw : 359.89, Alt : 38.2900009155, Lat : 49.2835704, Lng : -123.1150207, Q1 : 0.999998986721, Q2 : -0.000827844021842, Q3 : -0.000716606329661, Q4 : -0.000930744339712}
2019-04-14 11:08:25.91: SIM {TimeUS : 47734232, Roll : -0.12, Pitch : -0.07, Yaw : 359.89, Alt : 38.5200004578, Lat : 49.2835704, Lng : -123.1150206, Q1 : 0.999998748302, Q2 : -0.0010520167416, Q3 : -0.000687251391355, Q4 : -0.000955113850068}
2019-04-14 11:08:26.01: SIM {TimeUS : 47834192, Roll : -0.12, Pitch : -0.06, Yaw : 359.88, Alt : 38.7400016785, Lat : 49.2835704, Lng : -123.1150206, Q1 : 0.999998748302, Q2 : -0.00111983588431, Q3 : -0.000603046675678, Q4 : -0.000981618533842}
2019-04-14 11:08:26.11: SIM {TimeUS : 47934152, Roll : -0.11, Pitch : -0.04, Yaw : 359.88, Alt : 38.9700012207, Lat : 49.2835704, Lng : -123.1150206, Q1 : 0.999998927116, Q2 : -0.000985081074759, Q3 : -0.000423399411375, Q4 : -0.00101467350032}
2019-04-14 11:08:26.21: SIM {TimeUS : 48034112, Roll : -0.08, Pitch : -0.04, Yaw : 359.87, Alt : 39.2000007629, Lat : 49.2835704, Lng : -123.1150206, Q1 : 0.999999046326, Q2 : -0.000760754803196, Q3 : -0.000384325830964, Q4 : -0.0010519331554}
2019-04-14 11:08:26.31: SIM {TimeUS : 48134072, Roll : -0.06, Pitch : -0.05, Yaw : 359.87, Alt : 39.4300003052, Lat : 49.2835704, Lng : -123.1150206, Q1 : 0.999999165535, Q2 : -0.000563919194974, Q3 : -0.000436313566752, Q4 : -0.00109625852201}
2019-04-14 11:08:26.41: SIM {TimeUS : 48234032, Roll : -0.05, Pitch : -0.03, Yaw : 359.87, Alt : 39.6599998474, Lat : 49.2835704, Lng : -123.1150206, Q1 : 0.99999922514, Q2 : -0.00045041544945, Q3 : -0.000314175733365, Q4 : -0.00113361421973}
2019-04-14 11:08:26.52: SIM {TimeUS : 48334825, Roll : -0.06, Pitch : 0.0, Yaw : 359.86, Alt : 39.9000015259, Lat : 49.2835704, Lng : -123.1150206, Q1 : 0.999999165535, Q2 : -0.000544523471035, Q3 : -8.36392646306e-05, Q4 : -0.00116687593982}
2019-04-14 11:08:26.61: SIM {TimeUS : 48434785, Roll : -0.06, Pitch : 0.01, Yaw : 359.86, Alt : 40.1300010681, Lat : 49.2835704, Lng : -123.1150206, Q1 : 0.99999910593, Q2 : -0.000542168447282, Q3 : 0.000166755140526, Q4 : -0.00119461573195}
2019-04-14 11:08:26.71: SIM {TimeUS : 48534745, Roll : -0.04, Pitch : 0.05, Yaw : 359.86, Alt : 40.3600006104, Lat : 49.2835704, Lng : -123.1150206, Q1 : 0.999999046326, Q2 : -0.000411588232964, Q3 : 0.000486032280605, Q4 : -0.00121833069716}
2019-04-14 11:08:26.81: SIM {TimeUS : 48634705, Roll : -0.02, Pitch : 0.06, Yaw : 359.85, Alt : 40.5900001526, Lat : 49.2835706, Lng : -123.1150207, Q1 : 0.999999046326, Q2 : -0.000246030336712, Q3 : 0.000585122324992, Q4 : -0.00122820248362}
2019-04-14 11:08:26.91: SIM {TimeUS : 48734665, Roll : 0.0, Pitch : 0.06, Yaw : 359.85, Alt : 40.8199996948, Lat : 49.2835706, Lng : -123.1150207, Q1 : 0.999999046326, Q2 : 1.2199887351e-05, Q3 : 0.000594968500081, Q4 : -0.00123679509852}
2019-04-14 11:08:27.01: SIM {TimeUS : 48834625, Roll : 0.04, Pitch : 0.08, Yaw : 359.85, Alt : 41.0499992371, Lat : 49.2835706, Lng : -123.1150207, Q1 : 0.999998927116, Q2 : 0.00035797568853, Q3 : 0.000712366949301, Q4 : -0.00124742730986}
2019-04-14 11:08:27.11: SIM {TimeUS : 48934585, Roll : 0.08, Pitch : 0.1, Yaw : 359.85, Alt : 41.2900009155, Lat : 49.2835706, Lng : -123.1150207, Q1 : 0.999998450279, Q2 : 0.000768056837842, Q3 : 0.000915066571906, Q4 : -0.00126570800785}
2019-04-14 11:08:27.21: SIM {TimeUS : 49034545, Roll : 0.11, Pitch : 0.12, Yaw : 359.85, Alt : 41.5200004578, Lat : 49.2835706, Lng : -123.1150207, Q1 : 0.999998033047, Q2 : 0.000990687985905, Q3 : 0.00112969637848, Q4 : -0.00128659524489}
2019-04-14 11:08:27.31: SIM {TimeUS : 49134505, Roll : 0.09, Pitch : 0.14, Yaw : 359.85, Alt : 41.75, Lat : 49.2835706, Lng : -123.1150207, Q1 : 0.999998033047, Q2 : 0.000849261356052, Q3 : 0.00127281306777, Q4 : -0.00129328318872}
2019-04-14 11:08:27.41: SIM {TimeUS : 49234465, Roll : 0.04, Pitch : 0.15, Yaw : 359.85, Alt : 41.9900016785, Lat : 49.2835706, Lng : -123.1150207, Q1 : 0.999998092651, Q2 : 0.000428808387369, Q3 : 0.00138151959982, Q4 : -0.00130226451438}
2019-04-14 11:08:27.51: SIM {TimeUS : 49334425, Roll : 0.0, Pitch : 0.16, Yaw : 359.84, Alt : 42.2200012207, Lat : 49.2835706, Lng : -123.1150207, Q1 : 0.999998033047, Q2 : 3.48991015926e-05, Q3 : 0.00146033370402, Q4 : -0.00131952424999}
2019-04-14 11:08:27.61: SIM {TimeUS : 49434385, Roll : -0.01, Pitch : 0.15, Yaw : 359.84, Alt : 42.4599990845, Lat : 49.2835706, Lng : -123.1150207, Q1 : 0.999998211861, Q2 : -0.000132035696879, Q3 : 0.0013416063739, Q4 : -0.00134011881892}
2019-04-14 11:08:27.71: SIM {TimeUS : 49534345, Roll : -0.01, Pitch : 0.12, Yaw : 359.84, Alt : 42.6899986267, Lat : 49.2835706, Lng : -123.1150207, Q1 : 0.999998450279, Q2 : -0.000150978012243, Q3 : 0.00107759400271, Q4 : -0.00136580783874}
2019-04-14 11:08:27.81: SIM {TimeUS : 49634305, Roll : 0.0, Pitch : 0.12, Yaw : 359.83, Alt : 42.9300003052, Lat : 49.2835706, Lng : -123.1150207, Q1 : 0.999998450279, Q2 : -6.55222465866e-05, Q3 : 0.0010657471139, Q4 : -0.00140168680809}
2019-04-14 11:08:27.91: SIM {TimeUS : 49734265, Roll : 0.02, Pitch : 0.13, Yaw : 359.83, Alt : 43.1599998474, Lat : 49.2835706, Lng : -123.1150207, Q1 : 0.999998211861, Q2 : 0.000234039747738, Q3 : 0.00120239402167, Q4 : -0.0014464603737}
2019-04-14 11:08:28.01: SIM {TimeUS : 49834225, Roll : 0.08, Pitch : 0.15, Yaw : 359.83, Alt : 43.4000015259, Lat : 49.2835706, Lng : -123.1150207, Q1 : 0.999997794628, Q2 : 0.000714832742233, Q3 : 0.00131949968636, Q4 : -0.00148121640086}
2019-04-14 11:08:28.11: SIM {TimeUS : 49934185, Roll : 0.12, Pitch : 0.13, Yaw : 359.82, Alt : 43.6300010681, Lat : 49.2835704, Lng : -123.1150207, Q1 : 0.99999755621, Q2 : 0.00108892761637, Q3 : 0.00121661275625, Q4 : -0.0015120562166}
2019-04-14 11:08:28.21: SIM {TimeUS : 50034145, Roll : 0.12, Pitch : 0.11, Yaw : 359.82, Alt : 43.8699989319, Lat : 49.2835704, Lng : -123.1150207, Q1 : 0.999997675419, Q2 : 0.00112781429198, Q3 : 0.00100259366445, Q4 : -0.00154155760538}
2019-04-14 11:08:28.31: SIM {TimeUS : 50134105, Roll : 0.08, Pitch : 0.09, Yaw : 359.82, Alt : 44.0999984741, Lat : 49.2835704, Lng : -123.1150207, Q1 : 0.999998152256, Q2 : 0.000761988630984, Q3 : 0.000811828649603, Q4 : -0.00155700778123}
2019-04-14 11:08:28.41: SIM {TimeUS : 50234065, Roll : 0.02, Pitch : 0.08, Yaw : 359.82, Alt : 44.3400001526, Lat : 49.2835704, Lng : -123.1150206, Q1 : 0.999998509884, Q2 : 0.000233614468016, Q3 : 0.000703013734892, Q4 : -0.00156447198242}
2019-04-14 11:08:28.51: SIM {TimeUS : 50334025, Roll : -0.01, Pitch : 0.08, Yaw : 359.81, Alt : 44.5699996948, Lat : 49.2835704, Lng : -123.1150206, Q1 : 0.999998450279, Q2 : -0.000148850434925, Q3 : 0.000748791382648, Q4 : -0.00157415575814}
2019-04-14 11:08:28.61: SIM {TimeUS : 50434818, Roll : -0.04, Pitch : 0.08, Yaw : 359.81, Alt : 44.8100013733, Lat : 49.2835704, Lng : -123.1150206, Q1 : 0.999998390675, Q2 : -0.000370862049749, Q3 : 0.000740825489629, Q4 : -0.0015840891283}
2019-04-14 11:08:28.71: SIM {TimeUS : 50534778, Roll : -0.04, Pitch : 0.06, Yaw : 359.81, Alt : 45.0499992371, Lat : 49.2835704, Lng : -123.1150206, Q1 : 0.999998509884, Q2 : -0.000349639944034, Q3 : 0.000542685156688, Q4 : -0.00160084338859}
2019-04-14 11:08:28.81: SIM {TimeUS : 50634738, Roll : -0.04, Pitch : 0.03, Yaw : 359.81, Alt : 45.2799987793, Lat : 49.2835704, Lng : -123.1150206, Q1 : 0.999998569489, Q2 : -0.000387142325053, Q3 : 0.000312018994009, Q4 : -0.00163049297407}
2019-04-14 11:08:28.91: SIM {TimeUS : 50734698, Roll : -0.03, Pitch : 0.01, Yaw : 359.8, Alt : 45.5200004578, Lat : 49.2835703, Lng : -123.1150206, Q1 : 0.999998509884, Q2 : -0.000341503327945, Q3 : 0.000106674488052, Q4 : -0.00167035928462}
2019-04-14 11:08:29.01: SIM {TimeUS : 50834658, Roll : -0.02, Pitch : 0.0, Yaw : 359.8, Alt : 45.75, Lat : 49.2835703, Lng : -123.1150206, Q1 : 0.999998509884, Q2 : -0.000226187155931, Q3 : 9.17650709198e-07, Q4 : -0.00171596300788}
2019-04-14 11:08:29.11: SIM {TimeUS : 50934618, Roll : -0.02, Pitch : 0.0, Yaw : 359.79, Alt : 45.9799995422, Lat : 49.2835703, Lng : -123.1150205, Q1 : 0.999998450279, Q2 : -0.00020524446154, Q3 : -2.27283690037e-05, Q4 : -0.00175836135168}
2019-04-14 11:08:29.21: SIM {TimeUS : 51034578, Roll : -0.03, Pitch : -0.01, Yaw : 359.79, Alt : 46.2099990845, Lat : 49.2835703, Lng : -123.1150205, Q1 : 0.99999833107, Q2 : -0.000265792332357, Q3 : -0.000109705702926, Q4 : -0.00180013733916}
2019-04-14 11:08:29.31: SIM {TimeUS : 51134538, Roll : -0.03, Pitch : -0.03, Yaw : 359.78, Alt : 46.4399986267, Lat : 49.2835703, Lng : -123.1150205, Q1 : 0.999998211861, Q2 : -0.000320589751936, Q3 : -0.000291889387881, Q4 : -0.00184149877168}
2019-04-14 11:08:29.41: SIM {TimeUS : 51234498, Roll : -0.03, Pitch : -0.04, Yaw : 359.78, Alt : 46.6599998474, Lat : 49.2835703, Lng : -123.1150205, Q1 : 0.999998092651, Q2 : -0.000320699618896, Q3 : -0.000392992107663, Q4 : -0.00187846506014}
2019-04-14 11:08:29.51: SIM {TimeUS : 51334458, Roll : -0.02, Pitch : -0.04, Yaw : 359.78, Alt : 46.8699989319, Lat : 49.2835703, Lng : -123.1150205, Q1 : 0.999998033047, Q2 : -0.000255754537648, Q3 : -0.000424420315539, Q4 : -0.00190951279365}
2019-04-14 11:08:29.61: SIM {TimeUS : 51434418, Roll : -0.03, Pitch : -0.04, Yaw : 359.77, Alt : 47.0800018311, Lat : 49.2835703, Lng : -123.1150205, Q1 : 0.999997973442, Q2 : -0.000292505137622, Q3 : -0.000408591993619, Q4 : -0.00193712161854}
2019-04-14 11:08:29.71: SIM {TimeUS : 51534378, Roll : -0.05, Pitch : -0.03, Yaw : 359.77, Alt : 47.2799987793, Lat : 49.2835703, Lng : -123.1150205, Q1 : 0.999997913837, Q2 : -0.000491224462166, Q3 : -0.000346045097103, Q4 : -0.00196208618581}
2019-04-14 11:08:29.81: SIM {TimeUS : 51634338, Roll : -0.09, Pitch : -0.03, Yaw : 359.77, Alt : 47.4700012207, Lat : 49.2835703, Lng : -123.1150205, Q1 : 0.999997675419, Q2 : -0.000793576589786, Q3 : -0.000291732692858, Q4 : -0.00198729103431}
2019-04-14 11:08:29.91: SIM {TimeUS : 51734298, Roll : -0.12, Pitch : -0.04, Yaw : 359.76, Alt : 47.6599998474, Lat : 49.2835703, Lng : -123.1150205, Q1 : 0.999997317791, Q2 : -0.00107623811346, Q3 : -0.000366235763067, Q4 : -0.00201016222127}
2019-04-14 11:08:30.01: SIM {TimeUS : 51834258, Roll : -0.16, Pitch : -0.06, Yaw : 359.76, Alt : 47.8300018311, Lat : 49.2835703, Lng : -123.1150205, Q1 : 0.999996781349, Q2 : -0.00140765623655, Q3 : -0.000550727883819, Q4 : -0.00202899449505}
2019-04-14 11:08:30.11: SIM {TimeUS : 51934218, Roll : -0.17, Pitch : -0.06, Yaw : 359.76, Alt : 47.9900016785, Lat : 49.2835703, Lng : -123.1150205, Q1 : 0.999996602535, Q2 : -0.0015412211651, Q3 : -0.000546041759662, Q4 : -0.00204599276185}
2019-04-14 11:08:30.21: SIM {TimeUS : 52034178, Roll : -0.16, Pitch : -0.05, Yaw : 359.76, Alt : 48.1399993896, Lat : 49.2835703, Lng : -123.1150205, Q1 : 0.999996721745, Q2 : -0.00146198924631, Q3 : -0.000464604236186, Q4 : -0.00206251884811}
2019-04-14 11:08:30.31: SIM {TimeUS : 52134138, Roll : -0.14, Pitch : -0.04, Yaw : 359.76, Alt : 48.2700004578, Lat : 49.2835703, Lng : -123.1150205, Q1 : 0.999996960163, Q2 : -0.00123991887085, Q3 : -0.000378621567506, Q4 : -0.00208360888064}
2019-04-14 11:08:30.41: SIM {TimeUS : 52234098, Roll : -0.11, Pitch : -0.03, Yaw : 359.75, Alt : 48.4000015259, Lat : 49.2835703, Lng : -123.1150205, Q1 : 0.999997198582, Q2 : -0.00101721286774, Q3 : -0.000324074731907, Q4 : -0.00211009965278}
2019-04-14 11:08:30.51: SIM {TimeUS : 52334058, Roll : -0.08, Pitch : -0.04, Yaw : 359.75, Alt : 48.5099983215, Lat : 49.2835703, Lng : -123.1150205, Q1 : 0.999997377396, Q2 : -0.000754719483666, Q3 : -0.000381284975447, Q4 : -0.00213524745777}
2019-04-14 11:08:30.62: SIM {TimeUS : 52434851, Roll : -0.05, Pitch : -0.05, Yaw : 359.75, Alt : 48.6100006104, Lat : 49.2835703, Lng : -123.1150205, Q1 : 0.999997437, Q2 : -0.000455096480437, Q3 : -0.00047460134374, Q4 : -0.00216136150993}
2019-04-14 11:08:30.71: SIM {TimeUS : 52534811, Roll : -0.03, Pitch : -0.06, Yaw : 359.74, Alt : 48.7000007629, Lat : 49.2835703, Lng : -123.1150205, Q1 : 0.999997377396, Q2 : -0.000278553809039, Q3 : -0.000575688260142, Q4 : -0.00219399272464}
2019-04-14 11:08:30.81: SIM {TimeUS : 52634771, Roll : -0.03, Pitch : -0.07, Yaw : 359.74, Alt : 48.7799987793, Lat : 49.2835703, Lng : -123.1150205, Q1 : 0.999997258186, Q2 : -0.000301656546071, Q3 : -0.00067888625199, Q4 : -0.00222494453192}
2019-04-14 11:08:30.91: SIM {TimeUS : 52734731, Roll : -0.01, Pitch : -0.07, Yaw : 359.74, Alt : 48.8400001526, Lat : 49.2835703, Lng : -123.1150206, Q1 : 0.999997258186, Q2 : -0.000101893740066, Q3 : -0.000634547090158, Q4 : -0.00225184811279}
2019-04-14 11:08:31.01: SIM {TimeUS : 52834691, Roll : 0.01, Pitch : -0.05, Yaw : 359.73, Alt : 48.9000015259, Lat : 49.2835703, Lng : -123.1150206, Q1 : 0.999997258186, Q2 : 0.000151663945871, Q3 : -0.000449832994491, Q4 : -0.0022811149247}
2019-04-14 11:08:31.11: SIM {TimeUS : 52934651, Roll : 0.04, Pitch : -0.02, Yaw : 359.73, Alt : 48.9500007629, Lat : 49.2835703, Lng : -123.1150206, Q1 : 0.999997258186, Q2 : 0.000382565427572, Q3 : -0.000248587195529, Q4 : -0.00230785366148}
2019-04-14 11:08:31.21: SIM {TimeUS : 53034611, Roll : 0.1, Pitch : -0.04, Yaw : 359.73, Alt : 49.0, Lat : 49.2835703, Lng : -123.1150206, Q1 : 0.999996781349, Q2 : 0.000889526039828, Q3 : -0.000432706030551, Q4 : -0.00233605736867}
2019-04-14 11:08:31.31: SIM {TimeUS : 53134571, Roll : 0.29, Pitch : -0.21, Yaw : 359.72, Alt : 49.0299987793, Lat : 49.2835703, Lng : -123.1150206, Q1 : 0.999992012978, Q2 : 0.00259970757179, Q3 : -0.00189822225366, Q4 : -0.00236280518584}
2019-04-14 11:08:31.41: SIM {TimeUS : 53234531, Roll : 0.68, Pitch : -0.59, Yaw : 359.72, Alt : 49.0600013733, Lat : 49.2835703, Lng : -123.1150206, Q1 : 0.999965965748, Q2 : 0.00594309903681, Q3 : -0.00520900078118, Q4 : -0.00238259136677}
2019-04-14 11:08:31.51: SIM {TimeUS : 53334491, Roll : 1.23, Pitch : -1.14, Yaw : 359.71, Alt : 49.0900001526, Lat : 49.2835703, Lng : -123.1150206, Q1 : 0.999889194965, Q2 : 0.010764461942, Q3 : -0.0100013036281, Q4 : -0.00238888361491}
2019-04-14 11:08:31.61: SIM {TimeUS : 53434451, Roll : 1.93, Pitch : -1.8, Yaw : 359.69, Alt : 49.1100006104, Lat : 49.2835704, Lng : -123.1150206, Q1 : 0.99973076582, Q2 : 0.0168525800109, Q3 : -0.0157713033259, Q4 : -0.00236695702188}
2019-04-14 11:08:31.71: SIM {TimeUS : 53534411, Roll : 2.69, Pitch : -2.5, Yaw : 359.67, Alt : 49.1300010681, Lat : 49.2835704, Lng : -123.1150205, Q1 : 0.999481201172, Q2 : 0.0234783682972, Q3 : -0.0219301842153, Q4 : -0.00229140860029}
2019-04-14 11:08:31.81: SIM {TimeUS : 53634371, Roll : 3.39, Pitch : -3.13, Yaw : 359.66, Alt : 49.1500015259, Lat : 49.2835706, Lng : -123.1150203, Q1 : 0.999184668064, Q2 : 0.0295328702778, Q3 : -0.027445057407, Q4 : -0.00214896956459}
2019-04-14 11:08:31.91: SIM {TimeUS : 53734331, Roll : 3.96, Pitch : -3.61, Yaw : 359.65, Alt : 49.1699981689, Lat : 49.2835707, Lng : -123.1150201, Q1 : 0.998903155327, Q2 : 0.0344708450139, Q3 : -0.031629730016, Q4 : -0.00194198999088}
2019-04-14 11:08:32.01: SIM {TimeUS : 53834291, Roll : 4.39, Pitch : -3.96, Yaw : 359.65, Alt : 49.1800003052, Lat : 49.2835709, Lng : -123.11502, Q1 : 0.998666644096, Q2 : 0.0381859838963, Q3 : -0.0346971191466, Q4 : -0.00168998073786}
2019-04-14 11:08:32.11: SIM {TimeUS : 53934251, Roll : 4.69, Pitch : -4.25, Yaw : 359.66, Alt : 49.1899986267, Lat : 49.283571, Lng : -123.1150196, Q1 : 0.998471319675, Q2 : 0.0408608354628, Q3 : -0.0371941253543, Q4 : -0.00141947949305}
2019-04-14 11:08:32.21: SIM {TimeUS : 54034211, Roll : 4.94, Pitch : -4.51, Yaw : 359.67, Alt : 49.2000007629, Lat : 49.2835714, Lng : -123.1150192, Q1 : 0.998296737671, Q2 : 0.0429671034217, Q3 : -0.0394485406578, Q4 : -0.0011447200086}
2019-04-14 11:08:32.31: SIM {TimeUS : 54134171, Roll : 5.17, Pitch : -4.79, Yaw : 359.68, Alt : 49.2099990845, Lat : 49.2835716, Lng : -123.1150186, Q1 : 0.998108863831, Q2 : 0.044988963753, Q3 : -0.041879940778, Q4 : -0.00088540132856}
2019-04-14 11:08:32.41: SIM {TimeUS : 54234131, Roll : 5.43, Pitch : -5.08, Yaw : 359.68, Alt : 49.2200012207, Lat : 49.2835721, Lng : -123.115018, Q1 : 0.997895956039, Q2 : 0.0472405441105, Q3 : -0.04440260306, Q4 : -0.000613351876382}
2019-04-14 11:08:32.51: SIM {TimeUS : 54334091, Roll : 5.68, Pitch : -5.32, Yaw : 359.69, Alt : 49.2200012207, Lat : 49.2835725, Lng : -123.1150173, Q1 : 0.99769449234, Q2 : 0.0493994764984, Q3 : -0.0465334504843, Q4 : -0.000322189851431}
2019-04-14 11:08:32.61: SIM {TimeUS : 54434051, Roll : 5.88, Pitch : -5.52, Yaw : 359.7, Alt : 49.2299995422, Lat : 49.2835729, Lng : -123.1150166, Q1 : 0.997524499893, Q2 : 0.0511477701366, Q3 : -0.0482584014535, Q4 : -5.4228836234e-05}
2019-04-14 11:08:32.72: SIM {TimeUS : 54534844, Roll : 6.04, Pitch : -5.67, Yaw : 359.72, Alt : 49.2400016785, Lat : 49.2835735, Lng : -123.1150157, Q1 : 0.997386097908, Q2 : 0.0525507032871, Q3 : -0.0495922677219, Q4 : 0.000190861464944}
2019-04-14 11:08:32.81: SIM {TimeUS : 54634804, Roll : 6.15, Pitch : -5.78, Yaw : 359.73, Alt : 49.2400016785, Lat : 49.283574, Lng : -123.1150147, Q1 : 0.997289657593, Q2 : 0.0534867942333, Q3 : -0.0505213886499, Q4 : 0.000383015867556}
2019-04-14 11:08:32.91: SIM {TimeUS : 54734764, Roll : 6.24, Pitch : -5.88, Yaw : 359.73, Alt : 49.25, Lat : 49.2835747, Lng : -123.1150137, Q1 : 0.997206270695, Q2 : 0.0542414411902, Q3 : -0.0513548851013, Q4 : 0.000502898648847}
2019-04-14 11:08:33.01: SIM {TimeUS : 54834724, Roll : 6.35, Pitch : -5.98, Yaw : 359.73, Alt : 49.25, Lat : 49.2835753, Lng : -123.1150126, Q1 : 0.997103869915, Q2 : 0.055214997381, Q3 : -0.0522960796952, Q4 : 0.000577907660045}
2019-04-14 11:08:33.11: SIM {TimeUS : 54934684, Roll : 6.65, Pitch : -6.01, Yaw : 359.84, Alt : 49.25, Lat : 49.2835762, Lng : -123.1150114, Q1 : 0.996943891048, Q2 : 0.0578910335898, Q3 : -0.0524280443788, Q4 : 0.00169192161411}
2019-04-14 11:08:33.21: SIM {TimeUS : 55034644, Roll : 7.19, Pitch : -5.88, Yaw : 0.58, Alt : 49.2599983215, Lat : 49.2835769, Lng : -123.1150101, Q1 : 0.996682465076, Q2 : 0.0629464387894, Q3 : -0.0509229339659, Q4 : 0.00828800257295}
2019-04-14 11:08:33.31: SIM {TimeUS : 55134604, Roll : 7.82, Pitch : -5.85, Yaw : 2.61, Alt : 49.2599983215, Lat : 49.2835776, Lng : -123.1150088, Q1 : 0.996028840542, Q2 : 0.0692892894149, Q3 : -0.0493908971548, Q4 : 0.0261945053935}
2019-04-14 11:08:33.41: SIM {TimeUS : 55234564, Roll : 8.21, Pitch : -6.21, Yaw : 6.23, Alt : 49.2599983215, Lat : 49.2835786, Lng : -123.1150072, Q1 : 0.994281351566, Q2 : 0.0743770003319, Q3 : -0.0500806570053, Q4 : 0.0580051280558}
2019-04-14 11:08:33.51: SIM {TimeUS : 55334524, Roll : 8.15, Pitch : -7.02, Yaw : 11.35, Alt : 49.2599983215, Lat : 49.2835794, Lng : -123.1150058, Q1 : 0.990282714367, Q2 : 0.0766552984715, Q3 : -0.0537598691881, Q4 : 0.10282985121}
2019-04-14 11:08:33.61: SIM {TimeUS : 55434484, Roll : 7.47, Pitch : -8.19, Yaw : 17.76, Alt : 49.2599983215, Lat : 49.2835802, Lng : -123.1150041, Q1 : 0.982667922974, Q2 : 0.0752521827817, Q3 : -0.0604255013168, Q4 : 0.158270940185}
2019-04-14 11:08:33.71: SIM {TimeUS : 55534444, Roll : 6.14, Pitch : -9.57, Yaw : 25.19, Alt : 49.2599983215, Lat : 49.2835812, Lng : -123.1150023, Q1 : 0.970152378082, Q2 : 0.0702787712216, Q3 : -0.0696577653289, Q4 : 0.22138890624}
2019-04-14 11:08:33.81: SIM {TimeUS : 55634404, Roll : 4.11, Pitch : -10.91, Yaw : 33.36, Alt : 49.2700004578, Lat : 49.2835822, Lng : -123.1150004, Q1 : 0.951979458332, Q2 : 0.0615373551846, Q3 : -0.080818131566, Q4 : 0.288819402456}
2019-04-14 11:08:33.91: SIM {TimeUS : 55734364, Roll : 1.3, Pitch : -11.99, Yaw : 41.67, Alt : 49.2700004578, Lat : 49.2835831, Lng : -123.1149984, Q1 : 0.928988456726, Q2 : 0.0477509610355, Q3 : -0.0936141908169, Q4 : 0.354875504971}
2019-04-14 11:08:34.01: SIM {TimeUS : 55834324, Roll : -1.89, Pitch : -12.58, Yaw : 49.27, Alt : 49.2700004578, Lat : 49.2835842, Lng : -123.1149963, Q1 : 0.904134571552, Q2 : 0.0307547133416, Q3 : -0.106446772814, Q4 : 0.412630528212}
2019-04-14 11:08:34.11: SIM {TimeUS : 55934284, Roll : -4.8, Pitch : -12.7, Yaw : 55.35, Alt : 49.2700004578, Lat : 49.2835854, Lng : -123.1149941, Q1 : 0.8815305233, Q2 : 0.0144423888996, Q3 : -0.11722818017, Q4 : 0.457113653421}
2019-04-14 11:08:34.21: SIM {TimeUS : 56034244, Roll : -6.86, Pitch : -12.55, Yaw : 59.47, Alt : 49.2700004578, Lat : 49.2835866, Lng : -123.1149919, Q1 : 0.864813387394, Q2 : 0.00244523095898, Q3 : -0.124294899404, Q4 : 0.486459285021}
2019-04-14 11:08:34.31: SIM {TimeUS : 56134204, Roll : -7.84, Pitch : -12.41, Yaw : 61.61, Alt : 49.2700004578, Lat : 49.2835879, Lng : -123.1149897, Q1 : 0.855664432049, Q2 : -0.00318364263512, Q3 : -0.127449005842, Q4 : 0.501582503319}
2019-04-14 11:08:34.41: SIM {TimeUS : 56234164, Roll : -7.8, Pitch : -12.46, Yaw : 62.02, Alt : 49.2700004578, Lat : 49.2835893, Lng : -123.1149875, Q1 : 0.853813707829, Q2 : -0.00219306908548, Q3 : -0.127686470747, Q4 : 0.504671692848}
2019-04-14 11:08:34.51: SIM {TimeUS : 56334124, Roll : -6.98, Pitch : -12.79, Yaw : 61.06, Alt : 49.2700004578, Lat : 49.2835909, Lng : -123.1149852, Q1 : 0.85782623291, Q2 : 0.00435768347234, Q3 : -0.126575320959, Q4 : 0.498090237379}
2019-04-14 11:08:34.61: SIM {TimeUS : 56434084, Roll : -5.62, Pitch : -13.36, Yaw : 59.07, Alt : 49.2700004578, Lat : 49.2835926, Lng : -123.1149829, Q1 : 0.865876555443, Q2 : 0.0149093046784, Q3 : -0.125145465136, Q4 : 0.484121978283}
2019-04-14 11:08:34.71: SIM {TimeUS : 56534044, Roll : -3.92, Pitch : -14.07, Yaw : 56.39, Alt : 49.2799987793, Lat : 49.2835943, Lng : -123.1149805, Q1 : 0.876162052155, Q2 : 0.0278710853308, Q3 : -0.123958021402, Q4 : 0.464970707893}
2019-04-14 11:08:34.82: SIM {TimeUS : 56634837, Roll : -2.07, Pitch : -14.77, Yaw : 53.29, Alt : 49.2799987793, Lat : 49.283596, Lng : -123.114978, Q1 : 0.88726580143, Q2 : 0.0415756292641, Q3 : -0.122965283692, Q4 : 0.4426176548}
2019-04-14 11:08:34.91: SIM {TimeUS : 56734797, Roll : -0.28, Pitch : -15.33, Yaw : 50.15, Alt : 49.2799987793, Lat : 49.2835978, Lng : -123.1149755, Q1 : 0.897791087627, Q2 : 0.0542610958219, Q3 : -0.121874593198, Q4 : 0.419730275869}
2019-04-14 11:08:35.01: SIM {TimeUS : 56834757, Roll : 1.28, Pitch : -15.68, Yaw : 47.27, Alt : 49.2799987793, Lat : 49.2835996, Lng : -123.1149729, Q1 : 0.906872451305, Q2 : 0.0648530498147, Q3 : -0.120512910187, Q4 : 0.39856377244}
2019-04-14 11:08:35.11: SIM {TimeUS : 56934717, Roll : 2.49, Pitch : -15.81, Yaw : 44.93, Alt : 49.2799987793, Lat : 49.2836016, Lng : -123.1149701, Q1 : 0.913943350315, Q2 : 0.0724686384201, Q3 : -0.118822753429, Q4 : 0.381230980158}
2019-04-14 11:08:35.21: SIM {TimeUS : 57034677, Roll : 3.26, Pitch : -15.79, Yaw : 43.32, Alt : 49.2799987793, Lat : 49.2836035, Lng : -123.1149672, Q1 : 0.918760359287, Q2 : 0.0768938139081, Q3 : -0.117199033499, Q4 : 0.369095116854}
2019-04-14 11:08:35.31: SIM {TimeUS : 57134637, Roll : 3.55, Pitch : -15.72, Yaw : 42.47, Alt : 49.2799987793, Lat : 49.2836055, Lng : -123.1149642, Q1 : 0.921333372593, Q2 : 0.0781839415431, Q3 : -0.116283170879, Q4 : 0.362643510103}
2019-04-14 11:08:35.41: SIM {TimeUS : 57234597, Roll : 3.4, Pitch : -15.67, Yaw : 42.36, Alt : 49.2799987793, Lat : 49.2836074, Lng : -123.114961, Q1 : 0.92183893919, Q2 : 0.0767325684428, Q3 : -0.116475701332, Q4 : 0.361605495214}
2019-04-14 11:08:35.51: SIM {TimeUS : 57334557, Roll : 2.9, Pitch : -15.69, Yaw : 42.87, Alt : 49.2799987793, Lat : 49.2836093, Lng : -123.1149578, Q1 : 0.920547842979, Q2 : 0.0732618868351, Q3 : -0.117870785296, Q4 : 0.365144938231}
2019-04-14 11:08:35.61: SIM {TimeUS : 57434517, Roll : 2.15, Pitch : -15.78, Yaw : 43.82, Alt : 49.2900009155, Lat : 49.2836114, Lng : -123.1149545, Q1 : 0.917819499969, Q2 : 0.0685482770205, Q3 : -0.120440468192, Q4 : 0.37202501297}
2019-04-14 11:08:35.71: SIM {TimeUS : 57534477, Roll : 1.29, Pitch : -15.93, Yaw : 45.06, Alt : 49.2900009155, Lat : 49.2836134, Lng : -123.114951, Q1 : 0.914105892181, Q2 : 0.06344332546, Q3 : -0.123714357615, Q4 : 0.380893915892}
2019-04-14 11:08:35.81: SIM {TimeUS : 57634437, Roll : 0.43, Pitch : -16.08, Yaw : 46.38, Alt : 49.2900009155, Lat : 49.2836153, Lng : -123.1149475, Q1 : 0.909931063652, Q2 : 0.0585813187063, Q3 : -0.12712995708, Q4 : 0.390424966812}
2019-04-14 11:08:35.91: SIM {TimeUS : 57734397, Roll : -0.32, Pitch : -16.21, Yaw : 47.63, Alt : 49.2900009155, Lat : 49.2836175, Lng : -123.114944, Q1 : 0.905834257603, Q2 : 0.0544216185808, Q3 : -0.130126461387, Q4 : 0.39946180582}
2019-04-14 11:08:36.01: SIM {TimeUS : 57834357, Roll : -0.9, Pitch : -16.3, Yaw : 48.7, Alt : 49.2900009155, Lat : 49.2836195, Lng : -123.1149404, Q1 : 0.902271330357, Q2 : 0.0513600409031, Q3 : -0.13237798214, Q4 : 0.407117486}
2019-04-14 11:08:36.11: SIM {TimeUS : 57934317, Roll : -1.27, Pitch : -16.36, Yaw : 49.48, Alt : 49.2900009155, Lat : 49.2836218, Lng : -123.1149367, Q1 : 0.899567186832, Q2 : 0.0495427027345, Q3 : -0.133912667632, Q4 : 0.412785440683}
2019-04-14 11:08:36.21: SIM {TimeUS : 58034277, Roll : -1.45, Pitch : -16.42, Yaw : 49.94, Alt : 49.2900009155, Lat : 49.2836239, Lng : -123.114933, Q1 : 0.897901713848, Q2 : 0.0488902330399, Q3 : -0.134783342481, Q4 : 0.416191995144}
2019-04-14 11:08:36.31: SIM {TimeUS : 58134237, Roll : -1.46, Pitch : -16.47, Yaw : 50.1, Alt : 49.2900009155, Lat : 49.2836262, Lng : -123.1149293, Q1 : 0.897296965122, Q2 : 0.0491750389338, Q3 : -0.135129123926, Q4 : 0.417348921299}
2019-04-14 11:08:36.41: SIM {TimeUS : 58234197, Roll : -1.32, Pitch : -16.5, Yaw : 49.97, Alt : 49.2900009155, Lat : 49.2836285, Lng : -123.1149255, Q1 : 0.897655785084, Q2 : 0.0502614639699, Q3 : -0.134878948331, Q4 : 0.416527986526}
2019-04-14 11:08:36.51: SIM {TimeUS : 58334157, Roll : -1.04, Pitch : -16.51, Yaw : 49.63, Alt : 49.2900009155, Lat : 49.2836308, Lng : -123.1149217, Q1 : 0.898751199245, Q2 : 0.0520921461284, Q3 : -0.134127169847, Q4 : 0.414177030325}
2019-04-14 11:08:36.61: SIM {TimeUS : 58434117, Roll : -0.7, Pitch : -16.52, Yaw : 49.15, Alt : 49.2900009155, Lat : 49.2836332, Lng : -123.1149179, Q1 : 0.900317192078, Q2 : 0.0542123690248, Q3 : -0.133249849081, Q4 : 0.410773038864}
2019-04-14 11:08:36.71: SIM {TimeUS : 58534077, Roll : -0.34, Pitch : -16.55, Yaw : 48.6, Alt : 49.2900009155, Lat : 49.2836354, Lng : -123.114914, Q1 : 0.902065873146, Q2 : 0.0565517321229, Q3 : -0.132430449128, Q4 : 0.406867742538}
2019-04-14 11:08:36.81: SIM {TimeUS : 58634037, Roll : 0.02, Pitch : -16.58, Yaw : 48.05, Alt : 49.2900009155, Lat : 49.2836378, Lng : -123.11491, Q1 : 0.903777480125, Q2 : 0.0589162111282, Q3 : -0.131614565849, Q4 : 0.402979850769}
2019-04-14 11:08:36.92: SIM {TimeUS : 58734830, Roll : 0.33, Pitch : -16.6, Yaw : 47.57, Alt : 49.2900009155, Lat : 49.2836403, Lng : -123.114906, Q1 : 0.90529602766, Q2 : 0.0608834698796, Q3 : -0.131000563502, Q4 : 0.39946359396}
2019-04-14 11:08:37.01: SIM {TimeUS : 58834790, Roll : 0.53, Pitch : -16.64, Yaw : 47.18, Alt : 49.2900009155, Lat : 49.2836427, Lng : -123.114902, Q1 : 0.906463623047, Q2 : 0.0621877163649, Q3 : -0.130822703242, Q4 : 0.396663427353}
2019-04-14 11:08:37.11: SIM {TimeUS : 58934750, Roll : 0.63, Pitch : -16.7, Yaw : 46.93, Alt : 49.2900009155, Lat : 49.2836451, Lng : -123.114898, Q1 : 0.907230615616, Q2 : 0.0628757402301, Q3 : -0.131047204137, Q4 : 0.39472258091}
2019-04-14 11:08:37.21: SIM {TimeUS : 59034710, Roll : 0.64, Pitch : -16.77, Yaw : 46.8, Alt : 49.2900009155, Lat : 49.2836476, Lng : -123.1148939, Q1 : 0.907578229904, Q2 : 0.0630740821362, Q3 : -0.131636768579, Q4 : 0.393694370985}
2019-04-14 11:08:37.31: SIM {TimeUS : 59134670, Roll : 0.58, Pitch : -16.83, Yaw : 46.79, Alt : 49.2900009155, Lat : 49.28365, Lng : -123.1148897, Q1 : 0.907576918602, Q2 : 0.0627478584647, Q3 : -0.132311299443, Q4 : 0.393523335457}
2019-04-14 11:08:37.41: SIM {TimeUS : 59234630, Roll : 0.47, Pitch : -16.87, Yaw : 46.88, Alt : 49.2900009155, Lat : 49.2836525, Lng : -123.1148855, Q1 : 0.907276928425, Q2 : 0.0621417686343, Q3 : -0.133002638817, Q4 : 0.394077777863}
2019-04-14 11:08:37.51: SIM {TimeUS : 59334590, Roll : 0.34, Pitch : -16.91, Yaw : 47.04, Alt : 49.2900009155, Lat : 49.2836551, Lng : -123.1148813, Q1 : 0.90674996376, Q2 : 0.0614539794624, Q3 : -0.133693039417, Q4 : 0.395163327456}
2019-04-14 11:08:37.61: SIM {TimeUS : 59434550, Roll : 0.21, Pitch : -16.95, Yaw : 47.24, Alt : 49.2900009155, Lat : 49.2836576, Lng : -123.1148771, Q1 : 0.906099498272, Q2 : 0.0607567504048, Q3 : -0.134295895696, Q4 : 0.396556437016}
2019-04-14 11:08:37.71: SIM {TimeUS : 59534510, Roll : 0.09, Pitch : -16.97, Yaw : 47.44, Alt : 49.2900009155, Lat : 49.2836601, Lng : -123.1148728, Q1 : 0.905415952206, Q2 : 0.0601422190666, Q3 : -0.134798392653, Q4 : 0.398038029671}
2019-04-14 11:08:37.81: SIM {TimeUS : 59634470, Roll : 0.0, Pitch : -16.99, Yaw : 47.63, Alt : 49.2999992371, Lat : 49.2836627, Lng : -123.1148685, Q1 : 0.90477925539, Q2 : 0.0596620887518, Q3 : -0.135228931904, Q4 : 0.399409681559}
2019-04-14 11:08:37.91: SIM {TimeUS : 59734430, Roll : -0.08, Pitch : -17.01, Yaw : 47.79, Alt : 49.2999992371, Lat : 49.2836651, Lng : -123.1148642, Q1 : 0.904266476631, Q2 : 0.0592405050993, Q3 : -0.13558536768, Q4 : 0.400511324406}
2019-04-14 11:08:38.01: SIM {TimeUS : 59834390, Roll : -0.14, Pitch : -17.03, Yaw : 47.89, Alt : 49.2999992371, Lat : 49.2836677, Lng : -123.1148599, Q1 : 0.90390509367, Q2 : 0.0589840337634, Q3 : -0.135892063379, Q4 : 0.401260316372}
2019-04-14 11:08:38.11: SIM {TimeUS : 59934350, Roll : -0.17, Pitch : -17.06, Yaw : 47.94, Alt : 49.2999992371, Lat : 49.2836704, Lng : -123.1148555, Q1 : 0.90370798111, Q2 : 0.0589140243828, Q3 : -0.136209592223, Q4 : 0.401606738567}
2019-04-14 11:08:38.21: SIM {TimeUS : 60034310, Roll : -0.18, Pitch : -17.11, Yaw : 47.94, Alt : 49.2999992371, Lat : 49.283673, Lng : -123.1148512, Q1 : 0.903661966324, Q2 : 0.059012927115, Q3 : -0.136604219675, Q4 : 0.401561796665}
2019-04-14 11:08:38.31: SIM {TimeUS : 60134270, Roll : -0.17, Pitch : -17.15, Yaw : 47.89, Alt : 49.2999992371, Lat : 49.2836755, Lng : -123.1148468, Q1 : 0.903768122196, Q2 : 0.0591410845518, Q3 : -0.136968225241, Q4 : 0.401179820299}
2019-04-14 11:08:38.41: SIM {TimeUS : 60234230, Roll : -0.15, Pitch : -17.18, Yaw : 47.82, Alt : 49.2999992371, Lat : 49.2836782, Lng : -123.1148423, Q1 : 0.904007434845, Q2 : 0.0592984482646, Q3 : -0.137114480138, Q4 : 0.400567024946}
2019-04-14 11:08:38.51: SIM {TimeUS : 60334190, Roll : -0.12, Pitch : -17.19, Yaw : 47.72, Alt : 49.2999992371, Lat : 49.2836808, Lng : -123.1148379, Q1 : 0.904315292835, Q2 : 0.0595106557012, Q3 : -0.137182548642, Q4 : 0.399816542864}
2019-04-14 11:08:38.61: SIM {TimeUS : 60434150, Roll : -0.06, Pitch : -17.22, Yaw : 47.61, Alt : 49.2999992371, Lat : 49.2836834, Lng : -123.1148334, Q1 : 0.904631435871, Q2 : 0.0599336586893, Q3 : -0.137241497636, Q4 : 0.399017214775}
2019-04-14 11:08:38.71: SIM {TimeUS : 60534110, Roll : 0.0, Pitch : -17.25, Yaw : 47.5, Alt : 49.2999992371, Lat : 49.2836862, Lng : -123.114829, Q1 : 0.904927551746, Q2 : 0.0604753419757, Q3 : -0.137315481901, Q4 : 0.398237794638}
2019-04-14 11:08:38.81: SIM {TimeUS : 60634070, Roll : 0.07, Pitch : -17.29, Yaw : 47.4, Alt : 49.3100013733, Lat : 49.2836888, Lng : -123.1148245, Q1 : 0.905175864697, Q2 : 0.0610786043108, Q3 : -0.137432828546, Q4 : 0.397540330887}
2019-04-14 11:08:38.91: SIM {TimeUS : 60734030, Roll : 0.15, Pitch : -17.34, Yaw : 47.32, Alt : 49.3100013733, Lat : 49.2836914, Lng : -123.11482, Q1 : 0.905363380909, Q2 : 0.0617316402495, Q3 : -0.137551605701, Q4 : 0.396971017122}
2019-04-14 11:08:39.02: SIM {TimeUS : 60834823, Roll : 0.2, Pitch : -17.38, Yaw : 47.26, Alt : 49.3100013733, Lat : 49.2836942, Lng : -123.1148154, Q1 : 0.905497312546, Q2 : 0.0621655359864, Q3 : -0.137722894549, Q4 : 0.39653813839}
2019-04-14 11:08:39.11: SIM {TimeUS : 60934783, Roll : 0.19, Pitch : -17.39, Yaw : 47.23, Alt : 49.3100013733, Lat : 49.2836968, Lng : -123.1148109, Q1 : 0.905609190464, Q2 : 0.0621366463602, Q3 : -0.137855812907, Q4 : 0.396240919828}
2019-04-14 11:08:39.21: SIM {TimeUS : 61034743, Roll : 0.16, Pitch : -17.39, Yaw : 47.21, Alt : 49.3100013733, Lat : 49.2836996, Lng : -123.1148063, Q1 : 0.905686020851, Q2 : 0.0618377514184, Q3 : -0.137973830104, Q4 : 0.396070927382}
2019-04-14 11:08:39.31: SIM {TimeUS : 61134703, Roll : 0.14, Pitch : -17.39, Yaw : 47.21, Alt : 49.3100013733, Lat : 49.2837022, Lng : -123.1148017, Q1 : 0.905702829361, Q2 : 0.0616899430752, Q3 : -0.138025030494, Q4 : 0.396037757397}
2019-04-14 11:08:39.41: SIM {TimeUS : 61234663, Roll : 0.12, Pitch : -17.4, Yaw : 47.22, Alt : 49.3100013733, Lat : 49.283705, Lng : -123.1147972, Q1 : 0.905662596226, Q2 : 0.0616117268801, Q3 : -0.138186082244, Q4 : 0.396085649729}
2019-04-14 11:08:39.51: SIM {TimeUS : 61334623, Roll : 0.12, Pitch : -17.44, Yaw : 47.24, Alt : 49.3100013733, Lat : 49.2837077, Lng : -123.1147926, Q1 : 0.905559897423, Q2 : 0.0617199540138, Q3 : -0.138531133533, Q4 : 0.396183103323}
2019-04-14 11:08:39.61: SIM {TimeUS : 61434583, Roll : 0.12, Pitch : -17.51, Yaw : 47.25, Alt : 49.3100013733, Lat : 49.2837105, Lng : -123.114788, Q1 : 0.905413866043, Q2 : 0.0619884878397, Q3 : -0.139026328921, Q4 : 0.396301478148}
2019-04-14 11:08:39.71: SIM {TimeUS : 61534543, Roll : 0.12, Pitch : -17.54, Yaw : 47.27, Alt : 49.3100013733, Lat : 49.2837132, Lng : -123.1147833, Q1 : 0.905319035053, Q2 : 0.0621015429497, Q3 : -0.139296174049, Q4 : 0.396405637264}
2019-04-14 11:08:39.81: SIM {TimeUS : 61634503, Roll : 0.11, Pitch : -17.54, Yaw : 47.28, Alt : 49.3199996948, Lat : 49.283716, Lng : -123.1147786, Q1 : 0.905289947987, Q2 : 0.0620561763644, Q3 : -0.139282941818, Q4 : 0.396483838558}
2019-04-14 11:08:39.91: SIM {TimeUS : 61734463, Roll : 0.09, Pitch : -17.53, Yaw : 47.28, Alt : 49.3199996948, Lat : 49.2837187, Lng : -123.1147741, Q1 : 0.90528857708, Q2 : 0.0619288086891, Q3 : -0.139323219657, Q4 : 0.396492749453}
2019-04-14 11:08:40.01: SIM {TimeUS : 61834423, Roll : 0.07, Pitch : -17.55, Yaw : 47.28, Alt : 49.3199996948, Lat : 49.2837215, Lng : -123.1147694, Q1 : 0.905294060707, Q2 : 0.061824940145, Q3 : -0.139547944069, Q4 : 0.396417349577}
2019-04-14 11:08:40.11: SIM {TimeUS : 61934383, Roll : 0.07, Pitch : -17.58, Yaw : 47.27, Alt : 49.3199996948, Lat : 49.2837242, Lng : -123.1147647, Q1 : 0.905310332775, Q2 : 0.0618747882545, Q3 : -0.139753773808, Q4 : 0.396299988031}
2019-04-14 11:08:40.21: SIM {TimeUS : 62034343, Roll : 0.07, Pitch : -17.61, Yaw : 47.25, Alt : 49.3199996948, Lat : 49.2837271, Lng : -123.1147601, Q1 : 0.905345737934, Q2 : 0.061939522624, Q3 : -0.139982581139, Q4 : 0.396128177643}
2019-04-14 11:08:40.31: SIM {TimeUS : 62134303, Roll : 0.08, Pitch : -17.62, Yaw : 47.22, Alt : 49.3199996948, Lat : 49.2837299, Lng : -123.1147554, Q1 : 0.905401408672, Q2 : 0.0620281398296, Q3 : -0.140125751495, Q4 : 0.395936429501}
2019-04-14 11:08:40.41: SIM {TimeUS : 62234263, Roll : 0.09, Pitch : -17.64, Yaw : 47.19, Alt : 49.3199996948, Lat : 49.2837326, Lng : -123.1147506, Q1 : 0.905471026897, Q2 : 0.0621951855719, Q3 : -0.140235558152, Q4 : 0.395711988211}
2019-04-14 11:08:40.51: SIM {TimeUS : 62334223, Roll : 0.11, Pitch : -17.65, Yaw : 47.16, Alt : 49.3199996948, Lat : 49.2837355, Lng : -123.114746, Q1 : 0.905558764935, Q2 : 0.0623477883637, Q3 : -0.140267938375, Q4 : 0.395475745201}
2019-04-14 11:08:40.61: SIM {TimeUS : 62434183, Roll : 0.14, Pitch : -17.66, Yaw : 47.13, Alt : 49.3199996948, Lat : 49.2837382, Lng : -123.1147413, Q1 : 0.905639648438, Q2 : 0.0625407993793, Q3 : -0.140281692147, Q4 : 0.395255059004}
2019-04-14 11:08:40.71: SIM {TimeUS : 62534143, Roll : 0.17, Pitch : -17.68, Yaw : 47.1, Alt : 49.3199996948, Lat : 49.2837411, Lng : -123.1147365, Q1 : 0.90570127964, Q2 : 0.0627981722355, Q3 : -0.14032278955, Q4 : 0.395058333874}
2019-04-14 11:08:40.81: SIM {TimeUS : 62634103, Roll : 0.18, Pitch : -17.72, Yaw : 47.08, Alt : 49.3199996948, Lat : 49.2837439, Lng : -123.1147318, Q1 : 0.905740737915, Q2 : 0.0629680603743, Q3 : -0.140570089221, Q4 : 0.394852846861}
2019-04-14 11:08:40.91: SIM {TimeUS : 62734063, Roll : 0.16, Pitch : -17.75, Yaw : 47.05, Alt : 49.3199996948, Lat : 49.2837467, Lng : -123.1147271, Q1 : 0.905774593353, Q2 : 0.0629381537437, Q3 : -0.14095133543, Q4 : 0.394644021988}
2019-04-14 11:08:41.01: SIM {TimeUS : 62834023, Roll : 0.14, Pitch : -17.8, Yaw : 47.04, Alt : 49.3199996948, Lat : 49.2837496, Lng : -123.1147223, Q1 : 0.905791461468, Q2 : 0.0629282221198, Q3 : -0.141350194812, Q4 : 0.394464194775}
2019-04-14 11:08:41.11: SIM {TimeUS : 62934816, Roll : 0.15, Pitch : -17.82, Yaw : 47.02, Alt : 49.3199996948, Lat : 49.2837524, Lng : -123.1147175, Q1 : 0.905796051025, Q2 : 0.0630776956677, Q3 : -0.141555160284, Q4 : 0.394356220961}
2019-04-14 11:08:41.21: SIM {TimeUS : 63034776, Roll : 0.18, Pitch : -17.83, Yaw : 47.01, Alt : 49.3199996948, Lat : 49.2837552, Lng : -123.1147127, Q1 : 0.905812442303, Q2 : 0.0632742717862, Q3 : -0.141510754824, Q4 : 0.39430308342}
2019-04-14 11:08:41.31: SIM {TimeUS : 63134736, Roll : 0.2, Pitch : -17.8, Yaw : 47.01, Alt : 49.3300018311, Lat : 49.2837581, Lng : -123.114708, Q1 : 0.905858278275, Q2 : 0.0633260533214, Q3 : -0.141248270869, Q4 : 0.394283652306}
2019-04-14 11:08:41.41: SIM {TimeUS : 63234696, Roll : 0.19, Pitch : -17.78, Yaw : 47.0, Alt : 49.3300018311, Lat : 49.283761, Lng : -123.1147032, Q1 : 0.905897378922, Q2 : 0.0632141381502, Q3 : -0.141112089157, Q4 : 0.394260495901}
2019-04-14 11:08:41.51: SIM {TimeUS : 63334656, Roll : 0.17, Pitch : -17.77, Yaw : 47.0, Alt : 49.3300018311, Lat : 49.2837638, Lng : -123.1146984, Q1 : 0.905933558941, Q2 : 0.0630314573646, Q3 : -0.141070857644, Q4 : 0.394221335649}
2019-04-14 11:08:41.61: SIM {TimeUS : 63434616, Roll : 0.16, Pitch : -17.76, Yaw : 47.0, Alt : 49.3300018311, Lat : 49.2837667, Lng : -123.1146936, Q1 : 0.90596306324, Q2 : 0.0629116147757, Q3 : -0.141051232815, Q4 : 0.394179731607}
2019-04-14 11:08:41.71: SIM {TimeUS : 63534576, Roll : 0.15, Pitch : -17.77, Yaw : 46.99, Alt : 49.3300018311, Lat : 49.2837696, Lng : -123.1146888, Q1 : 0.905974447727, Q2 : 0.0628734752536, Q3 : -0.141162633896, Q4 : 0.39411970973}
2019-04-14 11:08:41.81: SIM {TimeUS : 63634536, Roll : 0.15, Pitch : -17.8, Yaw : 46.98, Alt : 49.3300018311, Lat : 49.2837725, Lng : -123.1146839, Q1 : 0.905972182751, Q2 : 0.0629316046834, Q3 : -0.1413397789, Q4 : 0.394052118063}
2019-04-14 11:08:41.91: SIM {TimeUS : 63734496, Roll : 0.14, Pitch : -17.84, Yaw : 46.97, Alt : 49.3300018311, Lat : 49.2837752, Lng : -123.1146791, Q1 : 0.905952751637, Q2 : 0.0629978552461, Q3 : -0.141712993383, Q4 : 0.393952190876}
2019-04-14 11:08:42.01: SIM {TimeUS : 63834456, Roll : 0.14, Pitch : -17.89, Yaw : 46.97, Alt : 49.3300018311, Lat : 49.2837782, Lng : -123.1146743, Q1 : 0.905927062035, Q2 : 0.0631201788783, Q3 : -0.142113104463, Q4 : 0.393847584724}
2019-04-14 11:08:42.11: SIM {TimeUS : 63934416, Roll : 0.15, Pitch : -17.92, Yaw : 46.96, Alt : 49.3300018311, Lat : 49.2837811, Lng : -123.1146695, Q1 : 0.905913174152, Q2 : 0.0632745921612, Q3 : -0.142399400473, Q4 : 0.393751263618}
2019-04-14 11:08:42.21: SIM {TimeUS : 64034376, Roll : 0.14, Pitch : -17.96, Yaw : 46.94, Alt : 49.3300018311, Lat : 49.283784, Lng : -123.1146646, Q1 : 0.905915260315, Q2 : 0.0633349791169, Q3 : -0.142670497298, Q4 : 0.393638640642}
2019-04-14 11:08:42.31: SIM {TimeUS : 64134336, Roll : 0.14, Pitch : -17.97, Yaw : 46.93, Alt : 49.3300018311, Lat : 49.2837868, Lng : -123.1146598, Q1 : 0.905935943127, Q2 : 0.0633680596948, Q3 : -0.142840236425, Q4 : 0.393524199724}
2019-04-14 11:08:42.41: SIM {TimeUS : 64234296, Roll : 0.16, Pitch : -17.97, Yaw : 46.92, Alt : 49.3300018311, Lat : 49.2837898, Lng : -123.1146549, Q1 : 0.905982971191, Q2 : 0.0634584724903, Q3 : -0.142745584249, Q4 : 0.393435537815}
2019-04-14 11:08:42.51: SIM {TimeUS : 64334256, Roll : 0.18, Pitch : -17.97, Yaw : 46.9, Alt : 49.3300018311, Lat : 49.2837927, Lng : -123.1146501, Q1 : 0.906023204327, Q2 : 0.0636333823204, Q3 : -0.142675846815, Q4 : 0.393340051174}
2019-04-14 11:08:42.61: SIM {TimeUS : 64434216, Roll : 0.19, Pitch : -17.98, Yaw : 46.88, Alt : 49.3300018311, Lat : 49.2837956, Lng : -123.1146452, Q1 : 0.906057476997, Q2 : 0.0637286454439, Q3 : -0.142749860883, Q4 : 0.39321872592}
2019-04-14 11:08:42.71: SIM {TimeUS : 64534176, Roll : 0.2, Pitch : -17.99, Yaw : 46.87, Alt : 49.3300018311, Lat : 49.2837984, Lng : -123.1146403, Q1 : 0.906099438667, Q2 : 0.0637872666121, Q3 : -0.142768085003, Q4 : 0.393105924129}
2019-04-14 11:08:42.81: SIM {TimeUS : 64634136, Roll : 0.21, Pitch : -17.98, Yaw : 46.86, Alt : 49.3400001526, Lat : 49.2838013, Lng : -123.1146355, Q1 : 0.906149983406, Q2 : 0.0638215169311, Q3 : -0.142677530646, Q4 : 0.393016785383}
2019-04-14 11:08:42.91: SIM {TimeUS : 64734096, Roll : 0.22, Pitch : -17.97, Yaw : 46.84, Alt : 49.3400001526, Lat : 49.2838043, Lng : -123.1146306, Q1 : 0.906193852425, Q2 : 0.0638546422124, Q3 : -0.142588660121, Q4 : 0.392942547798}
2019-04-14 11:08:43.01: SIM {TimeUS : 64834056, Roll : 0.2, Pitch : -17.98, Yaw : 46.84, Alt : 49.3400001526, Lat : 49.2838072, Lng : -123.1146257, Q1 : 0.906215846539, Q2 : 0.0637949928641, Q3 : -0.142736881971, Q4 : 0.392847657204}
2019-04-14 11:08:43.12: SIM {TimeUS : 64934849, Roll : 0.18, Pitch : -18.02, Yaw : 46.83, Alt : 49.3400001526, Lat : 49.2838102, Lng : -123.1146208, Q1 : 0.906211912632, Q2 : 0.0637100189924, Q3 : -0.143091931939, Q4 : 0.392741322517}
2019-04-14 11:08:43.21: SIM {TimeUS : 65034809, Roll : 0.16, Pitch : -18.02, Yaw : 46.82, Alt : 49.3400001526, Lat : 49.283813, Lng : -123.1146159, Q1 : 0.906235992908, Q2 : 0.0635632127523, Q3 : -0.143203049898, Q4 : 0.392669051886}
2019-04-14 11:08:43.31: SIM {TimeUS : 65134769, Roll : 0.17, Pitch : -18.01, Yaw : 46.82, Alt : 49.3400001526, Lat : 49.2838159, Lng : -123.114611, Q1 : 0.906267762184, Q2 : 0.0635653138161, Q3 : -0.143074780703, Q4 : 0.392642110586}
2019-04-14 11:08:43.41: SIM {TimeUS : 65234729, Roll : 0.18, Pitch : -18.0, Yaw : 46.81, Alt : 49.3400001526, Lat : 49.2838189, Lng : -123.1146061, Q1 : 0.906288385391, Q2 : 0.0636535063386, Q3 : -0.142954096198, Q4 : 0.392624169588}
2019-04-14 11:08:43.51: SIM {TimeUS : 65334689, Roll : 0.19, Pitch : -18.01, Yaw : 46.81, Alt : 49.3400001526, Lat : 49.2838219, Lng : -123.1146012, Q1 : 0.906295955181, Q2 : 0.063726529479, Q3 : -0.143013671041, Q4 : 0.392573088408}
2019-04-14 11:08:43.61: SIM {TimeUS : 65434649, Roll : 0.18, Pitch : -18.03, Yaw : 46.8, Alt : 49.3400001526, Lat : 49.2838248, Lng : -123.1145963, Q1 : 0.906297683716, Q2 : 0.0636986494064, Q3 : -0.143230721354, Q4 : 0.392494499683}
2019-04-14 11:08:43.71: SIM {TimeUS : 65534609, Roll : 0.15, Pitch : -18.06, Yaw : 46.79, Alt : 49.3400001526, Lat : 49.2838276, Lng : -123.1145914, Q1 : 0.906299471855, Q2 : 0.0635674074292, Q3 : -0.143554612994, Q4 : 0.392393410206}
2019-04-14 11:08:43.81: SIM {TimeUS : 65634569, Roll : 0.13, Pitch : -18.08, Yaw : 46.78, Alt : 49.3400001526, Lat : 49.2838306, Lng : -123.1145865, Q1 : 0.90631043911, Q2 : 0.0634814724326, Q3 : -0.143788993359, Q4 : 0.392296046019}
2019-04-14 11:08:43.91: SIM {TimeUS : 65734529, Roll : 0.13, Pitch : -18.1, Yaw : 46.77, Alt : 49.3400001526, Lat : 49.2838336, Lng : -123.1145815, Q1 : 0.906316399574, Q2 : 0.0635402351618, Q3 : -0.143954545259, Q4 : 0.392212003469}
2019-04-14 11:08:44.01: SIM {TimeUS : 65834489, Roll : 0.14, Pitch : -18.11, Yaw : 46.77, Alt : 49.3400001526, Lat : 49.2838365, Lng : -123.1145766, Q1 : 0.906328618526, Q2 : 0.063649199903, Q3 : -0.144013389945, Q4 : 0.392144680023}
