2019-04-14 11:03:12.60: SIM {TimeUS : 40016487, Roll : 0.0, Pitch : 0.0, Yaw : 0.0, Alt : 30.1000003815, Lat : 49.28357, Lng : -123.11502, Q1 : 1.0, Q2 : 0.0, Q3 : 0.0, Q4 : 0.0}
2019-04-14 11:03:12.71: SIM {TimeUS : 40135606, Roll : 0.0, Pitch : 0.0, Yaw : 0.0, Alt : 30.1000003815, Lat : 49.28357, Lng : -123.11502, Q1 : 1.0, Q2 : 0.0, Q3 : 0.0, Q4 : 0.0}
2019-04-14 11:03:12.81: SIM {TimeUS : 40235566, Roll : 0.0, Pitch : 0.0, Yaw : 0.0, Alt : 30.1000003815, Lat : 49.28357, Lng : -123.11502, Q1 : 1.0, Q2 : 0.0, Q3 : 0.0, Q4 : 0.0}
2019-04-14 11:03:12.91: SIM {TimeUS : 40335526, Roll : 0.0, Pitch : 0.0, Yaw : 0.0, Alt : 30.1000003815, Lat : 49.28357, Lng : -123.11502, Q1 : 1.0, Q2 : 0.0, Q3 : 0.0, Q4 : 0.0}
2019-04-14 11:03:13.01: SIM {TimeUS : 40435486, Roll : 0.0, Pitch : 0.0, Yaw : 0.0, Alt : 30.1000003815, Lat : 49.28357, Lng : -123.11502, Q1 : 1.0, Q2 : 0.0, Q3 : 0.0, Q4 : 0.0}
2019-04-14 11:03:13.11: SIM {TimeUS : 40535446, Roll : 0.0, Pitch : 0.0, Yaw : 0.0, Alt : 30.1000003815, Lat : 49.28357, Lng : -123.11502, Q1 : 1.0, Q2 : 0.0, Q3 : 0.0, Q4 : 0.0}
2019-04-14 11:03:13.21: SIM {TimeUS : 40635406, Roll : 0.0, Pitch : 0.0, Yaw : 0.0, Alt : 30.1000003815, Lat : 49.28357, Lng : -123.11502, Q1 : 1.0, Q2 : 0.0, Q3 : 0.0, Q4 : 0.0}
2019-04-14 11:03:13.31: SIM {TimeUS : 40735366, Roll : 0.0, Pitch : 0.0, Yaw : 0.0, Alt : 30.1000003815, Lat : 49.28357, Lng : -123.11502, Q1 : 1.0, Q2 : 0.0, Q3 : 0.0, Q4 : 0.0}
2019-04-14 11:03:13.41: SIM {TimeUS : 40835326, Roll : 0.0, Pitch : 0.0, Yaw : 0.0, Alt : 30.1000003815, Lat : 49.28357, Lng : -123.11502, Q1 : 1.0, Q2 : 0.0, Q3 : 0.0, Q4 : 0.0}
2019-04-14 11:03:13.51: SIM {TimeUS : 40935286, Roll : 0.0, Pitch : 0.0, Yaw : 0.0, Alt : 30.1000003815, Lat : 49.28357, Lng : -123.11502, Q1 : 1.0, Q2 : 0.0, Q3 : 0.0, Q4 : 0.0}
2019-04-14 11:03:13.61: SIM {TimeUS : 41035246, Roll : 0.0, Pitch : 0.0, Yaw : 0.0, Alt : 30.1000003815, Lat : 49.28357, Lng : -123.11502, Q1 : 1.0, Q2 : 0.0, Q3 : 0.0, Q4 : 0.0}
2019-04-14 11:03:13.71: SIM {TimeUS : 41135206, Roll : 0.0, Pitch : 0.0, Yaw : 0.0, Alt : 30.1000003815, Lat : 49.28357, Lng : -123.11502, Q1 : 1.0, Q2 : 0.0, Q3 : 0.0, Q4 : 0.0}
2019-04-14 11:03:13.81: SIM {TimeUS : 41235166, Roll : 0.0, Pitch : 0.0, Yaw : 0.0, Alt : 30.1000003815, Lat : 49.28357, Lng : -123.11502, Q1 : 1.0, Q2 : 0.0, Q3 : 0.0, Q4 : 0.0}
2019-04-14 11:03:13.91: SIM {TimeUS : 41335126, Roll : 0.0, Pitch : 0.0, Yaw : 0.0, Alt : 30.1000003815, Lat : 49.28357, Lng : -123.11502, Q1 : 1.0, Q2 : 0.0, Q3 : 0.0, Q4 : 0.0}
2019-04-14 11:03:14.01: SIM {TimeUS : 41435086, Roll : 0.0, Pitch : 0.0, Yaw : 0.0, Alt : 30.1000003815, Lat : 49.28357, Lng : -123.11502, Q1 : 1.0, Q2 : 0.0, Q3 : 0.0, Q4 : 0.0}
2019-04-14 11:03:14.11: SIM {TimeUS : 41535046, Roll : 0.0, Pitch : 0.0, Yaw : 0.0, Alt : 30.1000003815, Lat : 49.28357, Lng : -123.11502, Q1 : 1.0, Q2 : 0.0, Q3 : 0.0, Q4 : 0.0}
2019-04-14 11:03:14.21: SIM {TimeUS : 41635006, Roll : 0.0, Pitch : 0.0, Yaw : 0.0, Alt : 30.1000003815, Lat : 49.28357, Lng : -123.11502, Q1 : 1.0, Q2 : 0.0, Q3 : 0.0, Q4 : 0.0}
2019-04-14 11:03:14.31: SIM {TimeUS : 41734966, Roll : 0.0, Pitch : 0.0, Yaw : 0.0, Alt : 30.1000003815, Lat : 49.28357, Lng : -123.11502, Q1 : 1.0, Q2 : 0.0, Q3 : 0.0, Q4 : 0.0}
2019-04-14 11:03:14.41: SIM {TimeUS : 41834926, Roll : 0.0, Pitch : 0.0, Yaw : 0.0, Alt : 30.1000003815, Lat : 49.28357, Lng : -123.11502, Q1 : 1.0, Q2 : 0.0, Q3 : 0.0, Q4 : 0.0}
2019-04-14 11:03:14.51: SIM {TimeUS : 41934886, Roll : 0.0, Pitch : 0.0, Yaw : 0.0, Alt : 30.1000003815, Lat : 49.28357, Lng : -123.11502, Q1 : 1.0, Q2 : 0.0, Q3 : 0.0, Q4 : 0.0}
2019-04-14 11:03:14.61: SIM {TimeUS : 42034846, Roll : 0.0, Pitch : 0.0, Yaw : 0.0, Alt : 30.1000003815, Lat : 49.28357, Lng : -123.11502, Q1 : 1.0, Q2 : 0.0, Q3 : 0.0, Q4 : 0.0}
2019-04-14 11:03:14.71: SIM {TimeUS : 42135639, Roll : 0.0, Pitch : 0.0, Yaw : 0.0, Alt : 30.1000003815, Lat : 49.28357, Lng : -123.11502, Q1 : 1.0, Q2 : 0.0, Q3 : 0.0, Q4 : 0.0}
2019-04-14 11:03:14.81: SIM {TimeUS : 42235599, Roll : 0.0, Pitch : 0.0, Yaw : 0.0, Alt : 30.1000003815, Lat : 49.28357, Lng : -123.11502, Q1 : 1.0, Q2 : 0.0, Q3 : 0.0, Q4 : 0.0}
2019-04-14 11:03:14.91: SIM {TimeUS : 42335559, Roll : 0.0, Pitch : 0.0, Yaw : 360.0, Alt : 30.1000003815, Lat : 49.28357, Lng : -123.11502, Q1 : 1.0, Q2 : 0.0, Q3 : 0.0, Q4 : -7.07429687746e-12}
2019-04-14 11:03:15.01: SIM {TimeUS : 42435519, Roll : 0.0, Pitch : 0.0, Yaw : 0.0, Alt : 30.1000003815, Lat : 49.28357, Lng : -123.11502, Q1 : 1.0, Q2 : 0.0, Q3 : 0.0, Q4 : 1.12069374614e-10}
2019-04-14 11:03:15.11: SIM {TimeUS : 42535479, Roll : 0.0, Pitch : 0.0, Yaw : 360.0, Alt : 30.1000003815, Lat : 49.28357, Lng : -123.11502, Q1 : 1.0, Q2 : 0.0, Q3 : 0.0, Q4 : -1.04528304234e-07}
2019-04-14 11:03:15.21: SIM {TimeUS : 42635439, Roll : 0.0, Pitch : 0.0, Yaw : 359.99, Alt : 30.1000003815, Lat : 49.28357, Lng : -123.11502, Q1 : 1.0, Q2 : 0.0, Q3 : 0.0, Q4 : -2.74021118685e-07}
2019-04-14 11:03:15.31: SIM {TimeUS : 42735399, Roll : 0.0, Pitch : 0.0, Yaw : 359.99, Alt : 30.1000003815, Lat : 49.28357, Lng : -123.11502, Q1 : 1.0, Q2 : 0.0, Q3 : 0.0, Q4 : -4.5793669301e-07}
2019-04-14 11:03:15.41: SIM {TimeUS : 42835359, Roll : 0.0, Pitch : 0.0, Yaw : 359.99, Alt : 30.1000003815, Lat : 49.28357, Lng : -123.11502, Q1 : 1.0, Q2 : 0.0, Q3 : 0.0, Q4 : -6.41150165848e-07}
2019-04-14 11:03:15.51: SIM {TimeUS : 42935319, Roll : 0.0, Pitch : 0.0, Yaw : 359.99, Alt : 30.1000003815, Lat : 49.28357, Lng : -123.11502, Q1 : 1.0, Q2 : 0.0, Q3 : 0.0, Q4 : -8.36135200188e-07}
2019-04-14 11:03:15.61: SIM {TimeUS : 43035279, Roll : 0.0, Pitch : 0.0, Yaw : 359.99, Alt : 30.1000003815, Lat : 49.28357, Lng : -123.11502, Q1 : 1.0, Q2 : 0.0, Q3 : 0.0, Q4 : -1.03357081116e-06}
2019-04-14 11:03:15.71: SIM {TimeUS : 43135239, Roll : 0.0, Pitch : 0.0, Yaw : 359.99, Alt : 30.1000003815, Lat : 49.28357, Lng : -123.11502, Q1 : 1.0, Q2 : 0.0, Q3 : 0.0, Q4 : -1.2264548559e-06}
2019-04-14 11:03:15.81: SIM {TimeUS : 43235199, Roll : 0.0, Pitch : 0.0, Yaw : 359.99, Alt : 30.1100006104, Lat : 49.28357, Lng : -123.11502, Q1 : 1.0, Q2 : 0.0, Q3 : 0.0, Q4 : -1.48382480347e-06}
2019-04-14 11:03:15.91: SIM {TimeUS : 43335159, Roll : 0.0, Pitch : 0.0, Yaw : 359.99, Alt : 30.1299991608, Lat : 49.28357, Lng : -123.11502, Q1 : 1.0, Q2 : 0.0, Q3 : 0.0, Q4 : -1.70802513821e-06}
2019-04-14 11:03:16.01: SIM {TimeUS : 43435119, Roll : 0.0, Pitch : 0.0, Yaw : 359.99, Alt : 30.1499996185, Lat : 49.28357, Lng : -123.11502, Q1 : 1.0, Q2 : 0.0, Q3 : 0.0, Q4 : -1.95164193428e-06}
2019-04-14 11:03:16.11: SIM {TimeUS : 43535079, Roll : 0.0, Pitch : 0.0, Yaw : 359.99, Alt : 30.1900005341, Lat : 49.28357, Lng : -123.11502, Q1 : 1.0, Q2 : 0.0, Q3 : 0.0, Q4 : -2.19103094423e-06}
2019-04-14 11:03:16.21: SIM {TimeUS : 43635039, Roll : -0.02, Pitch : -0.02, Yaw : 359.99, Alt : 30.2299995422, Lat : 49.28357, Lng : -123.11502, Q1 : 0.999999940395, Q2 : -0.000244466820732, Q3 : -0.000250868994044, Q4 : -3.50019377038e-06}
2019-04-14 11:03:16.31: SIM {TimeUS : 43734999, Roll : -0.27, Pitch : -0.27, Yaw : 359.99, Alt : 30.2999992371, Lat : 49.28357, Lng : -123.11502, Q1 : 0.999994397163, Q2 : -0.002358001424, Q3 : -0.0023679214064, Q4 : -3.23075764754e-05}
2019-04-14 11:03:16.41: SIM {TimeUS : 43834959, Roll : -0.59, Pitch : -0.54, Yaw : 359.99, Alt : 30.4300003052, Lat : 49.28357, Lng : -123.11502, Q1 : 0.999975204468, Q2 : -0.00520046195015, Q3 : -0.00475108157843, Q4 : -9.16928911465e-05}
2019-04-14 11:03:16.51: SIM {TimeUS : 43934919, Roll : -0.82, Pitch : -0.68, Yaw : 359.98, Alt : 30.5900001526, Lat : 49.28357, Lng : -123.11502, Q1 : 0.999956071377, Q2 : -0.00720974383876, Q3 : -0.00598368607461, Q4 : -0.000169469625689}
2019-04-14 11:03:16.61: SIM {TimeUS : 44034879, Roll : -0.87, Pitch : -0.68, Yaw : 359.97, Alt : 30.75, Lat : 49.28357, Lng : -123.11502, Q1 : 0.999952554703, Q2 : -0.00766844814643, Q3 : -0.00600160611793, Q4 : -0.000250301789492}
2019-04-14 11:03:16.71: SIM {TimeUS : 44134839, Roll : -0.77, Pitch : -0.59, Yaw : 359.96, Alt : 30.8999996185, Lat : 49.28357, Lng : -123.1150201, Q1 : 0.999963760376, Q2 : -0.00675824005157, Q3 : -0.00516335107386, Q4 : -0.000321193656418}
2019-04-14 11:03:16.81: SIM {TimeUS : 44235632, Roll : -0.58, Pitch : -0.44, Yaw : 359.95, Alt : 31.0599994659, Lat : 49.2835701, Lng : -123.1150202, Q1 : 0.999979734421, Q2 : -0.00507021835074, Q3 : -0.00384067557752, Q4 : -0.000385619903682}
2019-04-14 11:03:16.91: SIM {TimeUS : 44335592, Roll : -0.35, Pitch : -0.27, Yaw : 359.95, Alt : 31.2099990845, Lat : 49.2835701, Lng : -123.1150202, Q1 : 0.999992311001, Q2 : -0.00308820139617, Q3 : -0.00238504470326, Q4 : -0.000443439552328}
2019-04-14 11:03:17.01: SIM {TimeUS : 44435552, Roll : -0.13, Pitch : -0.14, Yaw : 359.94, Alt : 31.3799991608, Lat : 49.2835702, Lng : -123.1150203, Q1 : 0.999998450279, Q2 : -0.00114694668446, Q3 : -0.00127101771068, Q4 : -0.000487758923555}
2019-04-14 11:03:17.11: SIM {TimeUS : 44535512, Roll : 0.02, Pitch : -0.04, Yaw : 359.94, Alt : 31.5499992371, Lat : 49.2835702, Lng : -123.1150204, Q1 : 0.999999761581, Q2 : 0.000195594926481, Q3 : -0.000414206559071, Q4 : -0.000520268455148}
2019-04-14 11:03:17.21: SIM {TimeUS : 44635472, Roll : 0.08, Pitch : 0.01, Yaw : 359.93, Alt : 31.7299995422, Lat : 49.2835703, Lng : -123.1150205, Q1 : 0.999999582767, Q2 : 0.000714803056326, Q3 : 0.000131201988552, Q4 : -0.000541207380593}
2019-04-14 11:03:17.31: SIM {TimeUS : 44735432, Roll : 0.08, Pitch : 0.03, Yaw : 359.93, Alt : 31.9099998474, Lat : 49.2835703, Lng : -123.1150206, Q1 : 0.999999523163, Q2 : 0.000716890615877, Q3 : 0.000342843413819, Q4 : -0.000547587522306}
2019-04-14 11:03:17.41: SIM {TimeUS : 44835392, Roll : 0.05, Pitch : 0.04, Yaw : 359.93, Alt : 32.0900001526, Lat : 49.2835703, Lng : -123.1150206, Q1 : 0.999999642372, Q2 : 0.000513417588081, Q3 : 0.000389612017898, Q4 : -0.000545747752767}
2019-04-14 11:03:17.51: SIM {TimeUS : 44935352, Roll : 0.04, Pitch : 0.04, Yaw : 359.93, Alt : 32.2799987793, Lat : 49.2835703, Lng : -123.1150207, Q1 : 0.999999701977, Q2 : 0.000402308942284, Q3 : 0.000400200893637, Q4 : -0.000543446629308}
2019-04-14 11:03:17.61: SIM {TimeUS : 45035312, Roll : 0.05, Pitch : 0.04, Yaw : 359.93, Alt : 32.4700012207, Lat : 49.2835703, Lng : -123.1150207, Q1 : 0.999999642372, Q2 : 0.000510947487783, Q3 : 0.000417431845563, Q4 : -0.000528138829395}
2019-04-14 11:03:17.71: SIM {TimeUS : 45135272, Roll : 0.09, Pitch : 0.05, Yaw : 359.94, Alt : 32.6699981689, Lat : 49.2835703, Lng : -123.1150208, Q1 : 0.999999403954, Q2 : 0.000846768496558, Q3 : 0.000494952662848, Q4 : -0.000501955626532}
2019-04-14 11:03:17.81: SIM {TimeUS : 45235232, Roll : 0.13, Pitch : 0.08, Yaw : 359.94, Alt : 32.8699989319, Lat : 49.2835704, Lng : -123.1150208, Q1 : 0.999998986721, Q2 : 0.00117204594426, Q3 : 0.000702546560206, Q4 : -0.000479464273667}
2019-04-14 11:03:17.91: SIM {TimeUS : 45335192, Roll : 0.15, Pitch : 0.1, Yaw : 359.94, Alt : 33.0699996948, Lat : 49.2835704, Lng : -123.1150208, Q1 : 0.999998509884, Q2 : 0.00137438531965, Q3 : 0.000945822277572, Q4 : -0.000461654824903}
2019-04-14 11:03:18.01: SIM {TimeUS : 45435152, Roll : 0.15, Pitch : 0.14, Yaw : 359.94, Alt : 33.2700004578, Lat : 49.2835704, Lng : -123.1150209, Q1 : 0.999998211861, Q2 : 0.00133464403916, Q3 : 0.0012398007093, Q4 : -0.000461259100121}
2019-04-14 11:03:18.11: SIM {TimeUS : 45535112, Roll : 0.15, Pitch : 0.17, Yaw : 359.94, Alt : 33.4700012207, Lat : 49.2835704, Lng : -123.1150209, Q1 : 0.999997735023, Q2 : 0.0013961775694, Q3 : 0.0015366502339, Q4 : -0.000475406443002}
2019-04-14 11:03:18.21: SIM {TimeUS : 45635072, Roll : 0.17, Pitch : 0.19, Yaw : 359.94, Alt : 33.6800003052, Lat : 49.2835704, Lng : -123.1150209, Q1 : 0.999997317791, Q2 : 0.00151658558752, Q3 : 0.00168116402347, Q4 : -0.000487865734613}
2019-04-14 11:03:18.31: SIM {TimeUS : 45735032, Roll : 0.18, Pitch : 0.19, Yaw : 359.94, Alt : 33.8899993896, Lat : 49.2835704, Lng : -123.1150209, Q1 : 0.999997138977, Q2 : 0.0015934095718, Q3 : 0.00170736550353, Q4 : -0.000500184076373}
2019-04-14 11:03:18.41: SIM {TimeUS : 45834992, Roll : 0.16, Pitch : 0.18, Yaw : 359.94, Alt : 34.0999984741, Lat : 49.2835706, Lng : -123.1150209, Q1 : 0.999997496605, Q2 : 0.00143233092967, Q3 : 0.00163739407435, Q4 : -0.000523905211594}
2019-04-14 11:03:18.51: SIM {TimeUS : 45934952, Roll : 0.13, Pitch : 0.14, Yaw : 359.93, Alt : 34.3100013733, Lat : 49.2835706, Lng : -123.1150209, Q1 : 0.999998271465, Q2 : 0.00121131760534, Q3 : 0.00127593323123, Q4 : -0.000548516516574}
2019-04-14 11:03:18.61: SIM {TimeUS : 46034912, Roll : 0.11, Pitch : 0.08, Yaw : 359.93, Alt : 34.5200004578, Lat : 49.2835706, Lng : -123.1150209, Q1 : 0.99999910593, Q2 : 0.000973877904471, Q3 : 0.000741200346965, Q4 : -0.00056173565099}
2019-04-14 11:03:18.71: SIM {TimeUS : 46134872, Roll : 0.08, Pitch : 0.04, Yaw : 359.93, Alt : 34.7299995422, Lat : 49.2835706, Lng : -123.1150209, Q1 : 0.999999463558, Q2 : 0.000767664168961, Q3 : 0.000393159891246, Q4 : -0.00058629718842}
2019-04-14 11:03:18.81: SIM {TimeUS : 46234832, Roll : 0.07, Pitch : 0.02, Yaw : 359.92, Alt : 34.9500007629, Lat : 49.2835706, Lng : -123.1150209, Q1 : 0.999999582767, Q2 : 0.000657043536194, Q3 : 0.000259851163719, Q4 : -0.000620105187409}
2019-04-14 11:03:18.91: SIM {TimeUS : 46335625, Roll : 0.08, Pitch : 0.04, Yaw : 359.92, Alt : 35.1699981689, Lat : 49.2835706, Lng : -123.1150209, Q1 : 0.999999463558, Q2 : 0.000716252019629, Q3 : 0.000356701319106, Q4 : -0.000661144265905}
2019-04-14 11:03:19.01: SIM {TimeUS : 46435585, Roll : 0.07, Pitch : 0.04, Yaw : 359.91, Alt : 35.3800010681, Lat : 49.2835706, Lng : -123.1150208, Q1 : 0.999999463558, Q2 : 0.00068877171725, Q3 : 0.000389668421121, Q4 : -0.000702735036612}
2019-04-14 11:03:19.11: SIM {TimeUS : 46535545, Roll : 0.05, Pitch : 0.04, Yaw : 359.91, Alt : 35.5999984741, Lat : 49.2835706, Lng : -123.1150208, Q1 : 0.999999523163, Q2 : 0.000521044188645, Q3 : 0.000407994259149, Q4 : -0.00073646788951}
2019-04-14 11:03:19.21: SIM {TimeUS : 46635505, Roll : 0.03, Pitch : 0.05, Yaw : 359.91, Alt : 35.8199996948, Lat : 49.2835704, Lng : -123.1150208, Q1 : 0.999999523163, Q2 : 0.000333385163685, Q3 : 0.000472001149319, Q4 : -0.000767274585087}
2019-04-14 11:03:19.31: SIM {TimeUS : 46735465, Roll : 0.02, Pitch : 0.07, Yaw : 359.9, Alt : 36.0400009155, Lat : 49.2835704, Lng : -123.1150208, Q1 : 0.999999463558, Q2 : 0.000191223240108, Q3 : 0.000631004106253, Q4 : -0.000796582025941}
2019-04-14 11:03:19.41: SIM {TimeUS : 46835425, Roll : 0.0, Pitch : 0.06, Yaw : 359.9, Alt : 36.2599983215, Lat : 49.2835704, Lng : -123.1150208, Q1 : 0.999999463558, Q2 : 5.34100690857e-05, Q3 : 0.000606935238466, Q4 : -0.00082089251373}
2019-04-14 11:03:19.51: SIM {TimeUS : 46935385, Roll : 0.0, Pitch : 0.05, Yaw : 359.9, Alt : 36.4799995422, Lat : 49.2835704, Lng : -123.1150207, Q1 : 0.999999523163, Q2 : -3.88591324736e-05, Q3 : 0.000471753126476, Q4 : -0.000850140640978}
2019-04-14 11:03:19.61: SIM {TimeUS : 47035345, Roll : -0.01, Pitch : 0.03, Yaw : 359.89, Alt : 36.7099990845, Lat : 49.2835704, Lng : -123.1150207, Q1 : 0.999999523163, Q2 : -0.000117149225844, Q3 : 0.000347119872458, Q4 : -0.000878333579749}
2019-04-14 11:03:19.71: SIM {TimeUS : 47135305, Roll : -0.01, Pitch : 0.02, Yaw : 359.89, Alt : 36.9300003052, Lat : 49.2835704, Lng : -123.1150207, Q1 : 0.999999523163, Q2 : -0.000162873548106, Q3 : 0.00022753450321, Q4 : -0.000900935439859}
2019-04-14 11:03:19.81: SIM {TimeUS : 47235265, Roll : 0.0, Pitch : 0.0, Yaw : 359.89, Alt : 37.1500015259, Lat : 49.2835704, Lng : -123.1150207, Q1 : 0.999999582767, Q2 : -7.76895540184e-05, Q3 : 8.2591723185e-05, Q4 : -0.000919122423511}
2019-04-14 11:03:19.91: SIM {TimeUS : 47335225, Roll : -0.01, Pitch : -0.01, Yaw : 359.89, Alt : 37.3800010681, Lat : 49.2835704, Lng : -123.1150207, Q1 : 0.999999582767, Q2 : -8.9389817731e-05, Q3 : -0.000118327508972, Q4 : -0.000933675270062}
2019-04-14 11:03:20.01: SIM {TimeUS : 47435185, Roll : -0.03, Pitch : -0.04, Yaw : 359.89, Alt : 37.5999984741, Lat : 49.2835704, Lng : -123.1150207, Q1 : 0.999999403954, Q2 : -0.00026656218688, Q3 : -0.000407027662732, Q4 : -0.000945742009208}
2019-04-14 11:03:20.11: SIM {TimeUS : 47535145, Roll : -0.06, Pitch : -0.07, Yaw : 359.89, Alt : 37.8300018311, Lat : 49.2835704, Lng : -123.1150207, Q1 : 0.999999165535, Q2 : -0.000550584925804, Q3 : -0.000638400844764, Q4 : -0.000959825934842}
2019-04-14 11:03:20.21: SIM {TimeUS : 47635105, Roll : -0.09, Pitch : -0.08, Yaw : 359.88, Alt : 38.0600013733, Lat : 49.2835704, Lng : -123.1150207, Q1 : 0.999998867512, Q2 : -0.000852817844134, Q3 : -0.000751829880755, Q4 : -0.000972527253907}
2019-04-14 11:03:20.31: SIM {TimeUS : 47735065, Roll : -0.11, Pitch : -0.09, Yaw : 359.88, Alt : 38.2799987793, Lat : 49.2835704, Lng : -123.1150206, Q1 : 0.999998629093, Q2 : -0.00104591716081, Q3 : -0.000801197544206, Q4 : -0.000982132973149}
2019-04-14 11:03:20.41: SIM {TimeUS : 47835025, Roll : -0.12, Pitch : -0.08, Yaw : 359.88, Alt : 38.5099983215, Lat : 49.2835704, Lng : -123.1150206, Q1 : 0.999998569489, Q2 : -0.00111706322059, Q3 : -0.000759411195759, Q4 : -0.000993514549918}
2019-04-14 11:03:20.51: SIM {TimeUS : 47934985, Roll : -0.11, Pitch : -0.06, Yaw : 359.88, Alt : 38.7400016785, Lat : 49.2835704, Lng : -123.1150206, Q1 : 0.999998867512, Q2 : -0.000987537088804, Q3 : -0.000565011578146, Q4 : -0.00101066450588}
2019-04-14 11:03:20.61: SIM {TimeUS : 48034945, Roll : -0.08, Pitch : -0.05, Yaw : 359.88, Alt : 38.9700012207, Lat : 49.2835704, Lng : -123.1150206, Q1 : 0.99999910593, Q2 : -0.000744201417547, Q3 : -0.000516578264069, Q4 : -0.00103045860305}
2019-04-14 11:03:20.71: SIM {TimeUS : 48134905, Roll : -0.06, Pitch : -0.05, Yaw : 359.87, Alt : 39.2000007629, Lat : 49.2835704, Lng : -123.1150206, Q1 : 0.99999910593, Q2 : -0.000601952546276, Q3 : -0.000513861887157, Q4 : -0.00106102589052}
2019-04-14 11:03:20.81: SIM {TimeUS : 48234865, Roll : -0.05, Pitch : -0.04, Yaw : 359.87, Alt : 39.4300003052, Lat : 49.2835704, Lng : -123.1150206, Q1 : 0.99999922514, Q2 : -0.000511942605954, Q3 : -0.000354579155101, Q4 : -0.00108555913903}
2019-04-14 11:03:20.91: SIM {TimeUS : 48334825, Roll : -0.07, Pitch : 0.0, Yaw : 359.87, Alt : 39.6599998474, Lat : 49.2835704, Lng : -123.1150206, Q1 : 0.99999922514, Q2 : -0.000618184101768, Q3 : -8.48107520142e-05, Q4 : -0.00111037015449}
2019-04-14 11:03:21.01: SIM {TimeUS : 48435618, Roll : -0.06, Pitch : 0.02, Yaw : 359.86, Alt : 39.8899993896, Lat : 49.2835704, Lng : -123.1150206, Q1 : 0.999999165535, Q2 : -0.000586956273764, Q3 : 0.000202767085284, Q4 : -0.00114076561294}
2019-04-14 11:03:21.11: SIM {TimeUS : 48535578, Roll : -0.04, Pitch : 0.06, Yaw : 359.86, Alt : 40.1199989319, Lat : 49.2835704, Lng : -123.1150206, Q1 : 0.999999046326, Q2 : -0.000422725192038, Q3 : 0.000528977543581, Q4 : -0.0011724755168}
2019-04-14 11:03:21.21: SIM {TimeUS : 48635538, Roll : -0.03, Pitch : 0.06, Yaw : 359.86, Alt : 40.3600006104, Lat : 49.2835704, Lng : -123.1150206, Q1 : 0.99999910593, Q2 : -0.000277533690678, Q3 : 0.000549737480469, Q4 : -0.00119052722584}
2019-04-14 11:03:21.31: SIM {TimeUS : 48735498, Roll : 0.0, Pitch : 0.05, Yaw : 359.86, Alt : 40.5900001526, Lat : 49.2835704, Lng : -123.1150207, Q1 : 0.999999165535, Q2 : -6.94377085892e-05, Q3 : 0.000511603779159, Q4 : -0.00120349123608}
2019-04-14 11:03:21.41: SIM {TimeUS : 48835458, Roll : 0.02, Pitch : 0.06, Yaw : 359.86, Alt : 40.8199996948, Lat : 49.2835704, Lng : -123.1150207, Q1 : 0.999999046326, Q2 : 0.0002432535548, Q3 : 0.000598087033723, Q4 : -0.00121419574134}
2019-04-14 11:03:21.51: SIM {TimeUS : 48935418, Roll : 0.07, Pitch : 0.09, Yaw : 359.85, Alt : 41.0499992371, Lat : 49.2835704, Lng : -123.1150207, Q1 : 0.999998688698, Q2 : 0.000659031618852, Q3 : 0.000836395018268, Q4 : -0.0012300509261}
2019-04-14 11:03:21.61: SIM {TimeUS : 49035378, Roll : 0.1, Pitch : 0.12, Yaw : 359.85, Alt : 41.2900009155, Lat : 49.2835706, Lng : -123.1150207, Q1 : 0.999998271465, Q2 : 0.000880105071701, Q3 : 0.00108433293644, Q4 : -0.00125327135902}
2019-04-14 11:03:21.71: SIM {TimeUS : 49135338, Roll : 0.08, Pitch : 0.14, Yaw : 359.85, Alt : 41.5200004578, Lat : 49.2835706, Lng : -123.1150207, Q1 : 0.999998152256, Q2 : 0.000745359517168, Q3 : 0.00124311633408, Q4 : -0.00127020687796}
2019-04-14 11:03:21.81: SIM {TimeUS : 49235298, Roll : 0.03, Pitch : 0.15, Yaw : 359.85, Alt : 41.75, Lat : 49.2835706, Lng : -123.1150207, Q1 : 0.999998271465, Q2 : 0.000333232339472, Q3 : 0.00133204436861, Q4 : -0.00128355342895}
2019-04-14 11:03:21.91: SIM {TimeUS : 49335258, Roll : -0.01, Pitch : 0.15, Yaw : 359.85, Alt : 41.9900016785, Lat : 49.2835706, Lng : -123.1150207, Q1 : 0.999998211861, Q2 : -8.64057728904e-05, Q3 : 0.00135370425414, Q4 : -0.0013033032883}
2019-04-14 11:03:22.01: SIM {TimeUS : 49435218, Roll : -0.02, Pitch : 0.12, Yaw : 359.84, Alt : 42.2200012207, Lat : 49.2835706, Lng : -123.1150207, Q1 : 0.999998450279, Q2 : -0.000232847349253, Q3 : 0.00112415419426, Q4 : -0.0013221190311}
2019-04-14 11:03:22.11: SIM {TimeUS : 49535178, Roll : -0.02, Pitch : 0.09, Yaw : 359.84, Alt : 42.4500007629, Lat : 49.2835706, Lng : -123.1150207, Q1 : 0.999998748302, Q2 : -0.000224385250476, Q3 : 0.000804336450528, Q4 : -0.00134024955332}
2019-04-14 11:03:22.21: SIM {TimeUS : 49635138, Roll : -0.01, Pitch : 0.09, Yaw : 359.84, Alt : 42.6899986267, Lat : 49.2835706, Lng : -123.1150207, Q1 : 0.999998748302, Q2 : -0.000102999139926, Q3 : 0.00080803578021, Q4 : -0.00136163714342}
2019-04-14 11:03:22.31: SIM {TimeUS : 49735098, Roll : 0.02, Pitch : 0.11, Yaw : 359.83, Alt : 42.9199981689, Lat : 49.2835706, Lng : -123.1150207, Q1 : 0.999998509884, Q2 : 0.000213720428292, Q3 : 0.00100012857001, Q4 : -0.00139728630893}
2019-04-14 11:03:22.41: SIM {TimeUS : 49835058, Roll : 0.07, Pitch : 0.13, Yaw : 359.83, Alt : 43.1599998474, Lat : 49.2835704, Lng : -123.1150207, Q1 : 0.999997973442, Q2 : 0.000696274451911, Q3 : 0.00121036532801, Q4 : -0.00142831553239}
2019-04-14 11:03:22.51: SIM {TimeUS : 49935018, Roll : 0.12, Pitch : 0.13, Yaw : 359.83, Alt : 43.3899993896, Lat : 49.2835704, Lng : -123.1150207, Q1 : 0.999997675419, Q2 : 0.00106043252163, Q3 : 0.00118426885456, Q4 : -0.00146128365304}
2019-04-14 11:03:22.61: SIM {TimeUS : 50034978, Roll : 0.12, Pitch : 0.12, Yaw : 359.82, Alt : 43.6300010681, Lat : 49.2835704, Lng : -123.1150207, Q1 : 0.999997735023, Q2 : 0.00107874476817, Q3 : 0.00104688084684, Q4 : -0.00148855906446}
2019-04-14 11:03:22.71: SIM {TimeUS : 50134938, Roll : 0.07, Pitch : 0.1, Yaw : 359.82, Alt : 43.8600006104, Lat : 49.2835704, Lng : -123.1150207, Q1 : 0.999998271465, Q2 : 0.000695825263392, Q3 : 0.000883661909029, Q4 : -0.00149653013796}
2019-04-14 11:03:22.81: SIM {TimeUS : 50234898, Roll : 0.01, Pitch : 0.08, Yaw : 359.82, Alt : 44.0999984741, Lat : 49.2835704, Lng : -123.1150207, Q1 : 0.999998569489, Q2 : 0.000156604743097, Q3 : 0.000759459740948, Q4 : -0.00150390411727}
2019-04-14 11:03:22.91: SIM {TimeUS : 50334858, Roll : -0.02, Pitch : 0.08, Yaw : 359.82, Alt : 44.3400001526, Lat : 49.2835704, Lng : -123.1150207, Q1 : 0.999998509884, Q2 : -0.000249410659308, Q3 : 0.000776533852331, Q4 : -0.00151923450176}
2019-04-14 11:03:23.01: SIM {TimeUS : 50434818, Roll : -0.05, Pitch : 0.08, Yaw : 359.82, Alt : 44.5699996948, Lat : 49.2835704, Lng : -123.1150206, Q1 : 0.999998450279, Q2 : -0.000446580408607, Q3 : 0.000716758484486, Q4 : -0.001539664343}
2019-04-14 11:03:23.11: SIM {TimeUS : 50535611, Roll : -0.04, Pitch : 0.05, Yaw : 359.82, Alt : 44.8100013733, Lat : 49.2835704, Lng : -123.1150206, Q1 : 0.999998569489, Q2 : -0.000398511852836, Q3 : 0.000516611209605, Q4 : -0.00156622310169}
2019-04-14 11:03:23.21: SIM {TimeUS : 50635571, Roll : -0.04, Pitch : 0.03, Yaw : 359.81, Alt : 45.0499992371, Lat : 49.2835704, Lng : -123.1150206, Q1 : 0.999998569489, Q2 : -0.000393055554014, Q3 : 0.000273614743492, Q4 : -0.00159794837236}
2019-04-14 11:03:23.31: SIM {TimeUS : 50735531, Roll : -0.03, Pitch : 0.01, Yaw : 359.81, Alt : 45.2799987793, Lat : 49.2835703, Lng : -123.1150206, Q1 : 0.999998629093, Q2 : -0.000304517976474, Q3 : 9.63841739576e-05, Q4 : -0.00163389684167}
2019-04-14 11:03:23.41: SIM {TimeUS : 50835491, Roll : -0.01, Pitch : 0.0, Yaw : 359.8, Alt : 45.5200004578, Lat : 49.2835703, Lng : -123.1150206, Q1 : 0.999998629093, Q2 : -0.000165546385688, Q3 : -5.80005576012e-07, Q4 : -0.00166963681113}
2019-04-14 11:03:23.51: SIM {TimeUS : 50935451, Roll : -0.01, Pitch : 0.0, Yaw : 359.8, Alt : 45.75, Lat : 49.2835703, Lng : -123.1150206, Q1 : 0.999998509884, Q2 : -0.000149540530401, Q3 : 9.93116191239e-06, Q4 : -0.00170720741153}
2019-04-14 11:03:23.61: SIM {TimeUS : 51035411, Roll : -0.02, Pitch : 0.0, Yaw : 359.79, Alt : 45.9799995422, Lat : 49.2835703, Lng : -123.1150206, Q1 : 0.999998450279, Q2 : -0.000229118100833, Q3 : -1.75373661477e-05, Q4 : -0.00174807303119}
2019-04-14 11:03:23.71: SIM {TimeUS : 51135371, Roll : -0.03, Pitch : -0.01, Yaw : 359.79, Alt : 46.2099990845, Lat : 49.2835703, Lng : -123.1150206, Q1 : 0.99999833107, Q2 : -0.000287259812467, Q3 : -0.000161711810506, Q4 : -0.00179225916509}
2019-04-14 11:03:23.81: SIM {TimeUS : 51235331, Roll : -0.03, Pitch : -0.03, Yaw : 359.78, Alt : 46.4399986267, Lat : 49.2835703, Lng : -123.1150206, Q1 : 0.999998211861, Q2 : -0.00029657932464, Q3 : -0.000293591001537, Q4 : -0.00183494621888}
2019-04-14 11:03:23.91: SIM {TimeUS : 51335291, Roll : -0.02, Pitch : -0.04, Yaw : 359.78, Alt : 46.6599998474, Lat : 49.2835703, Lng : -123.1150205, Q1 : 0.999998152256, Q2 : -0.000235235696891, Q3 : -0.000387892941944, Q4 : -0.0018735777121}
2019-04-14 11:03:24.01: SIM {TimeUS : 51435251, Roll : -0.03, Pitch : -0.05, Yaw : 359.78, Alt : 46.8699989319, Lat : 49.2835703, Lng : -123.1150205, Q1 : 0.999998033047, Q2 : -0.000275734142633, Q3 : -0.000453742453828, Q4 : -0.00190781918354}
2019-04-14 11:03:24.11: SIM {TimeUS : 51535211, Roll : -0.05, Pitch : -0.05, Yaw : 359.77, Alt : 47.0800018311, Lat : 49.2835703, Lng : -123.1150205, Q1 : 0.999997913837, Q2 : -0.000449287646916, Q3 : -0.00043552936404, Q4 : -0.00193331763148}
2019-04-14 11:03:24.21: SIM {TimeUS : 51635171, Roll : -0.08, Pitch : -0.04, Yaw : 359.77, Alt : 47.2799987793, Lat : 49.2835703, Lng : -123.1150205, Q1 : 0.999997794628, Q2 : -0.000714835652616, Q3 : -0.000399938377086, Q4 : -0.00195219111629}
2019-04-14 11:03:24.31: SIM {TimeUS : 51735131, Roll : -0.1, Pitch : -0.04, Yaw : 359.77, Alt : 47.4700012207, Lat : 49.2835703, Lng : -123.1150205, Q1 : 0.99999755621, Q2 : -0.000899740261957, Q3 : -0.000347459572367, Q4 : -0.00196811300702}
2019-04-14 11:03:24.41: SIM {TimeUS : 51835091, Roll : -0.12, Pitch : -0.03, Yaw : 359.77, Alt : 47.6599998474, Lat : 49.2835703, Lng : -123.1150205, Q1 : 0.999997437, Q2 : -0.00107349874452, Q3 : -0.000318510603392, Q4 : -0.00198348797858}
2019-04-14 11:03:24.51: SIM {TimeUS : 51935051, Roll : -0.14, Pitch : -0.04, Yaw : 359.77, Alt : 47.8300018311, Lat : 49.2835703, Lng : -123.1150205, Q1 : 0.999997079372, Q2 : -0.00129571917932, Q3 : -0.000394574599341, Q4 : -0.00200219615363}
2019-04-14 11:03:24.61: SIM {TimeUS : 52035011, Roll : -0.15, Pitch : -0.05, Yaw : 359.76, Alt : 47.9900016785, Lat : 49.2835703, Lng : -123.1150205, Q1 : 0.999996900558, Q2 : -0.00135946180671, Q3 : -0.000458760478068, Q4 : -0.00202308851294}
2019-04-14 11:03:24.71: SIM {TimeUS : 52134971, Roll : -0.14, Pitch : -0.05, Yaw : 359.76, Alt : 48.1399993896, Lat : 49.2835703, Lng : -123.1150205, Q1 : 0.999997019768, Q2 : -0.00126227992587, Q3 : -0.000445171550382, Q4 : -0.00204518483952}
2019-04-14 11:03:24.81: SIM {TimeUS : 52234931, Roll : -0.12, Pitch : -0.04, Yaw : 359.76, Alt : 48.2700004578, Lat : 49.2835703, Lng : -123.1150205, Q1 : 0.999997138977, Q2 : -0.00111091381405, Q3 : -0.000431243068306, Q4 : -0.00207111868076}
2019-04-14 11:03:24.91: SIM {TimeUS : 52334891, Roll : -0.09, Pitch : -0.05, Yaw : 359.75, Alt : 48.4000015259, Lat : 49.2835703, Lng : -123.1150205, Q1 : 0.999997317791, Q2 : -0.000860209402163, Q3 : -0.000482264556922, Q4 : -0.00210083788261}
2019-04-14 11:03:25.01: SIM {TimeUS : 52434851, Roll : -0.06, Pitch : -0.06, Yaw : 359.75, Alt : 48.5099983215, Lat : 49.2835703, Lng : -123.1150206, Q1 : 0.999997437, Q2 : -0.000536383944564, Q3 : -0.000541230663657, Q4 : -0.00213264254853}
2019-04-14 11:03:25.11: SIM {TimeUS : 52535644, Roll : -0.04, Pitch : -0.07, Yaw : 359.75, Alt : 48.6100006104, Lat : 49.2835703, Lng : -123.1150206, Q1 : 0.999997437, Q2 : -0.000358243647497, Q3 : -0.000612064322922, Q4 : -0.00215803226456}
2019-04-14 11:03:25.21: SIM {TimeUS : 52635604, Roll : -0.03, Pitch : -0.07, Yaw : 359.75, Alt : 48.7000007629, Lat : 49.2835703, Lng : -123.1150206, Q1 : 0.999997377396, Q2 : -0.000341729813954, Q3 : -0.000680617929902, Q4 : -0.00216857064515}
2019-04-14 11:03:25.31: SIM {TimeUS : 52735564, Roll : -0.01, Pitch : -0.07, Yaw : 359.75, Alt : 48.7799987793, Lat : 49.2835703, Lng : -123.1150206, Q1 : 0.999997377396, Q2 : -0.000158442984684, Q3 : -0.000653332390357, Q4 : -0.00217667291872}
2019-04-14 11:03:25.41: SIM {TimeUS : 52835524, Roll : 0.01, Pitch : -0.05, Yaw : 359.74, Alt : 48.8400001526, Lat : 49.2835703, Lng : -123.1150206, Q1 : 0.999997496605, Q2 : 0.000100815661426, Q3 : -0.000506949028932, Q4 : -0.00218706717715}
2019-04-14 11:03:25.51: SIM {TimeUS : 52935484, Roll : 0.03, Pitch : -0.03, Yaw : 359.74, Alt : 48.9000015259, Lat : 49.2835703, Lng : -123.1150206, Q1 : 0.999997437, Q2 : 0.00034251937177, Q3 : -0.000339699327014, Q4 : -0.00219886191189}
2019-04-14 11:03:25.61: SIM {TimeUS : 53035444, Roll : 0.05, Pitch : -0.01, Yaw : 359.74, Alt : 48.9500007629, Lat : 49.2835703, Lng : -123.1150206, Q1 : 0.999997437, Q2 : 0.000486319331685, Q3 : -0.000143479948747, Q4 : -0.00220992858522}
2019-04-14 11:03:25.71: SIM {TimeUS : 53135404, Roll : 0.08, Pitch : -0.02, Yaw : 359.74, Alt : 49.0, Lat : 49.2835703, Lng : -123.1150206, Q1 : 0.999997138977, Q2 : 0.000782059330959, Q3 : -0.00024713910534, Q4 : -0.00223057577386}
2019-04-14 11:03:25.81: SIM {TimeUS : 53235364, Roll : 0.22, Pitch : -0.16, Yaw : 359.74, Alt : 49.0299987793, Lat : 49.2835703, Lng : -123.1150206, Q1 : 0.999994516373, Q2 : 0.00192032475024, Q3 : -0.00145531084854, Q4 : -0.00226527149789}
2019-04-14 11:03:25.91: SIM {TimeUS : 53335324, Roll : 0.52, Pitch : -0.47, Yaw : 359.73, Alt : 49.0600013733, Lat : 49.2835703, Lng : -123.1150207, Q1 : 0.999978363514, Q2 : 0.00454328628257, Q3 : -0.00416911393404, Q4 : -0.00230403803289}
2019-04-14 11:03:26.01: SIM {TimeUS : 53435284, Roll : 1.02, Pitch : -0.95, Yaw : 359.72, Alt : 49.0900001526, Lat : 49.2835703, Lng : -123.1150206, Q1 : 0.999922335148, Q2 : 0.00892069190741, Q3 : -0.00838585663587, Q4 : -0.00234257732518}
2019-04-14 11:03:26.11: SIM {TimeUS : 53535244, Roll : 1.68, Pitch : -1.57, Yaw : 359.7, Alt : 49.1100006104, Lat : 49.2835704, Lng : -123.1150206, Q1 : 0.999793708324, Q2 : 0.0147032188252, Q3 : -0.0138135030866, Q4 : -0.00235809874721}
2019-04-14 11:03:26.21: SIM {TimeUS : 53635204, Roll : 2.44, Pitch : -2.25, Yaw : 359.68, Alt : 49.1300010681, Lat : 49.2835704, Lng : -123.1150205, Q1 : 0.999574899673, Q2 : 0.0212998520583, Q3 : -0.019774261862, Q4 : -0.00232096575201}
2019-04-14 11:03:26.31: SIM {TimeUS : 53735164, Roll : 3.19, Pitch : -2.9, Yaw : 359.66, Alt : 49.1500015259, Lat : 49.2835706, Lng : -123.1150204, Q1 : 0.999287843704, Q2 : 0.0278184432536, Q3 : -0.0253995824605, Q4 : -0.0022099991329}
2019-04-14 11:03:26.41: SIM {TimeUS : 53835124, Roll : 3.81, Pitch : -3.43, Yaw : 359.65, Alt : 49.1699981689, Lat : 49.2835707, Lng : -123.1150203, Q1 : 0.998994469643, Q2 : 0.0331829637289, Q3 : -0.0300801899284, Q4 : -0.0020327155944}
2019-04-14 11:03:26.51: SIM {TimeUS : 53935084, Roll : 4.26, Pitch : -3.86, Yaw : 359.64, Alt : 49.1800003052, Lat : 49.2835709, Lng : -123.11502, Q1 : 0.998737692833, Q2 : 0.0371029824018, Q3 : -0.0338098742068, Q4 : -0.00181380670983}
2019-04-14 11:03:26.61: SIM {TimeUS : 54035044, Roll : 4.58, Pitch : -4.19, Yaw : 359.65, Alt : 49.1899986267, Lat : 49.283571, Lng : -123.1150198, Q1 : 0.998532176018, Q2 : 0.0398328155279, Q3 : -0.0366668514907, Q4 : -0.0015549659729}
2019-04-14 11:03:26.71: SIM {TimeUS : 54135004, Roll : 4.81, Pitch : -4.48, Yaw : 359.66, Alt : 49.2000007629, Lat : 49.2835714, Lng : -123.1150194, Q1 : 0.998351991177, Q2 : 0.0418946594, Q3 : -0.0391981564462, Q4 : -0.00128099566791}
2019-04-14 11:03:26.81: SIM {TimeUS : 54234964, Roll : 5.05, Pitch : -4.75, Yaw : 359.67, Alt : 49.2099990845, Lat : 49.2835716, Lng : -123.1150189, Q1 : 0.998167097569, Q2 : 0.0439868420362, Q3 : -0.0415525063872, Q4 : -0.00098539434839}
2019-04-14 11:03:26.91: SIM {TimeUS : 54334924, Roll : 5.32, Pitch : -5.01, Yaw : 359.68, Alt : 49.2200012207, Lat : 49.283572, Lng : -123.1150183, Q1 : 0.997964024544, Q2 : 0.0463294163346, Q3 : -0.0438287891448, Q4 : -0.000681310135406}
2019-04-14 11:03:27.01: SIM {TimeUS : 54434884, Roll : 5.6, Pitch : -5.26, Yaw : 359.69, Alt : 49.2200012207, Lat : 49.2835724, Lng : -123.1150175, Q1 : 0.997753202915, Q2 : 0.0486919768155, Q3 : -0.0460161082447, Q4 : -0.000390009314287}
2019-04-14 11:03:27.11: SIM {TimeUS : 54534844, Roll : 5.84, Pitch : -5.47, Yaw : 359.7, Alt : 49.2299995422, Lat : 49.2835728, Lng : -123.1150169, Q1 : 0.997561573982, Q2 : 0.050789013505, Q3 : -0.0478687807918, Q4 : -0.00012038013665}
2019-04-14 11:03:27.21: SIM {TimeUS : 54635637, Roll : 6.01, Pitch : -5.63, Yaw : 359.71, Alt : 49.2400016785, Lat : 49.2835733, Lng : -123.115016, Q1 : 0.997418999672, Q2 : 0.0522763766348, Q3 : -0.0492190383375, Q4 : 0.000107791718619}
2019-04-14 11:03:27.31: SIM {TimeUS : 54735597, Roll : 6.12, Pitch : -5.75, Yaw : 359.72, Alt : 49.2400016785, Lat : 49.2835739, Lng : -123.1150151, Q1 : 0.997315526009, Q2 : 0.0532297864556, Q3 : -0.0502822063863, Q4 : 0.000272417644737}
2019-04-14 11:03:27.41: SIM {TimeUS : 54835557, Roll : 6.21, Pitch : -5.86, Yaw : 359.72, Alt : 49.25, Lat : 49.2835745, Lng : -123.1150141, Q1 : 0.997229039669, Q2 : 0.0539942681789, Q3 : -0.051173210144, Q4 : 0.000393091642763}
2019-04-14 11:03:27.51: SIM {TimeUS : 54935517, Roll : 6.31, Pitch : -5.96, Yaw : 359.72, Alt : 49.25, Lat : 49.2835752, Lng : -123.115013, Q1 : 0.997132956982, Q2 : 0.0549179837108, Q3 : -0.05205450207, Q4 : 0.000482216128148}
2019-04-14 11:03:27.61: SIM {TimeUS : 55035477, Roll : 6.52, Pitch : -6.0, Yaw : 359.76, Alt : 49.25, Lat : 49.2835759, Lng : -123.1150118, Q1 : 0.997013747692, Q2 : 0.0567275583744, Q3 : -0.0523899011314, Q4 : 0.000957411364652}
2019-04-14 11:03:27.71: SIM {TimeUS : 55135437, Roll : 6.98, Pitch : -5.91, Yaw : 0.22, Alt : 49.2599983215, Lat : 49.2835767, Lng : -123.1150106, Q1 : 0.996806681156, Q2 : 0.060935061425, Q3 : -0.0513537451625, Q4 : 0.00511569995433}
2019-04-14 11:03:27.81: SIM {TimeUS : 55235397, Roll : 7.61, Pitch : -5.82, Yaw : 1.77, Alt : 49.2599983215, Lat : 49.2835775, Lng : -123.1150093, Q1 : 0.99633616209, Q2 : 0.0670607313514, Q3 : -0.049625236541, Q4 : 0.0188258178532}
2019-04-14 11:03:27.91: SIM {TimeUS : 55335357, Roll : 8.11, Pitch : -6.03, Yaw : 4.87, Alt : 49.2599983215, Lat : 49.2835782, Lng : -123.1150078, Q1 : 0.995049595833, Q2 : 0.0728517398238, Q3 : -0.0494240745902, Q4 : 0.0461098402739}
2019-04-14 11:03:28.01: SIM {TimeUS : 55435317, Roll : 8.23, Pitch : -6.68, Yaw : 9.53, Alt : 49.2599983215, Lat : 49.2835792, Lng : -123.1150063, Q1 : 0.991927921772, Q2 : 0.0762333497405, Q3 : -0.0520127676427, Q4 : 0.086960054934}
2019-04-14 11:03:28.11: SIM {TimeUS : 55535277, Roll : 7.75, Pitch : -7.76, Yaw : 15.56, Alt : 49.2599983215, Lat : 49.28358, Lng : -123.1150047, Q1 : 0.985636115074, Q2 : 0.0760263651609, Q3 : -0.0577653199434, Q4 : 0.139300584793}
2019-04-14 11:03:28.21: SIM {TimeUS : 55635237, Roll : 6.63, Pitch : -9.09, Yaw : 22.69, Alt : 49.2599983215, Lat : 49.283581, Lng : -123.1150029, Q1 : 0.974821269512, Q2 : 0.0721585974097, Q3 : -0.066277243197, Q4 : 0.200309604406}
2019-04-14 11:03:28.31: SIM {TimeUS : 55735197, Roll : 4.86, Pitch : -10.48, Yaw : 30.66, Alt : 49.2700004578, Lat : 49.2835818, Lng : -123.115001, Q1 : 0.958469331264, Q2 : 0.0649377256632, Q3 : -0.0768859013915, Q4 : 0.266848653555}
2019-04-14 11:03:28.41: SIM {TimeUS : 55835157, Roll : 2.29, Pitch : -11.68, Yaw : 39.02, Alt : 49.2700004578, Lat : 49.2835829, Lng : -123.1149991, Q1 : 0.936799108982, Q2 : 0.0527699291706, Q3 : -0.0892796441913, Q4 : 0.334143579006}
2019-04-14 11:03:28.51: SIM {TimeUS : 55935117, Roll : -0.85, Pitch : -12.43, Yaw : 46.95, Alt : 49.2700004578, Lat : 49.2835838, Lng : -123.114997, Q1 : 0.912124335766, Q2 : 0.0363373570144, Q3 : -0.102320313454, Q4 : 0.395271241665}
2019-04-14 11:03:28.61: SIM {TimeUS : 56035077, Roll : -3.94, Pitch : -12.68, Yaw : 53.59, Alt : 49.2700004578, Lat : 49.2835849, Lng : -123.1149949, Q1 : 0.888339102268, Q2 : 0.0192629974335, Q3 : -0.113933630288, Q4 : 0.444411665201}
2019-04-14 11:03:28.71: SIM {TimeUS : 56135037, Roll : -6.31, Pitch : -12.6, Yaw : 58.37, Alt : 49.2700004578, Lat : 49.2835861, Lng : -123.1149926, Q1 : 0.869397044182, Q2 : 0.00566328968853, Q3 : -0.122380636632, Q4 : 0.478685289621}
2019-04-14 11:03:28.81: SIM {TimeUS : 56234997, Roll : -7.63, Pitch : -12.45, Yaw : 61.13, Alt : 49.2700004578, Lat : 49.2835874, Lng : -123.1149905, Q1 : 0.857708632946, Q2 : -0.00195109948982, Q3 : -0.126889392734, Q4 : 0.498228043318}
2019-04-14 11:03:28.91: SIM {TimeUS : 56334957, Roll : -7.92, Pitch : -12.45, Yaw : 62.07, Alt : 49.2700004578, Lat : 49.2835889, Lng : -123.1149882, Q1 : 0.853584051132, Q2 : -0.00303687970154, Q3 : -0.128106757998, Q4 : 0.504949212074}
2019-04-14 11:03:29.01: SIM {TimeUS : 56434917, Roll : -7.33, Pitch : -12.69, Yaw : 61.52, Alt : 49.2700004578, Lat : 49.2835904, Lng : -123.1149859, Q1 : 0.855889081955, Q2 : 0.00178939825855, Q3 : -0.127322345972, Q4 : 0.501238167286}
2019-04-14 11:03:29.11: SIM {TimeUS : 56534877, Roll : -6.11, Pitch : -13.19, Yaw : 59.83, Alt : 49.2700004578, Lat : 49.2835921, Lng : -123.1149837, Q1 : 0.862831890583, Q2 : 0.0113145159557, Q3 : -0.12584400177, Q4 : 0.489445000887}
2019-04-14 11:03:29.21: SIM {TimeUS : 56634837, Roll : -4.48, Pitch : -13.85, Yaw : 57.34, Alt : 49.2700004578, Lat : 49.2835938, Lng : -123.1149813, Q1 : 0.872575819492, Q2 : 0.0237564276904, Q3 : -0.124414004385, Q4 : 0.471771419048}
2019-04-14 11:03:29.31: SIM {TimeUS : 56735630, Roll : -2.64, Pitch : -14.57, Yaw : 54.33, Alt : 49.2799987793, Lat : 49.2835954, Lng : -123.1149789, Q1 : 0.883590757847, Q2 : 0.0374947786331, Q3 : -0.123266391456, Q4 : 0.450185447931}
2019-04-14 11:03:29.41: SIM {TimeUS : 56835590, Roll : -0.82, Pitch : -15.17, Yaw : 51.18, Alt : 49.2799987793, Lat : 49.2835972, Lng : -123.1149764, Q1 : 0.894388854504, Q2 : 0.0506353415549, Q3 : -0.122177124023, Q4 : 0.427290797234}
2019-04-14 11:03:29.51: SIM {TimeUS : 56935550, Roll : 0.82, Pitch : -15.57, Yaw : 48.18, Alt : 49.2799987793, Lat : 49.2835992, Lng : -123.1149738, Q1 : 0.904039144516, Q2 : 0.0618166103959, Q3 : -0.12078974396, Q4 : 0.405341595411}
2019-04-14 11:03:29.61: SIM {TimeUS : 57035510, Roll : 2.14, Pitch : -15.75, Yaw : 45.65, Alt : 49.2799987793, Lat : 49.2836011, Lng : -123.1149711, Q1 : 0.911815047264, Q2 : 0.0702694132924, Q3 : -0.119098335505, Q4 : 0.386614918709}
2019-04-14 11:03:29.71: SIM {TimeUS : 57135470, Roll : 3.04, Pitch : -15.77, Yaw : 43.8, Alt : 49.2799987793, Lat : 49.283603, Lng : -123.1149682, Q1 : 0.917368412018, Q2 : 0.0756072625518, Q3 : -0.117449849844, Q4 : 0.37272554636}
2019-04-14 11:03:29.81: SIM {TimeUS : 57235430, Roll : 3.48, Pitch : -15.71, Yaw : 42.71, Alt : 49.2799987793, Lat : 49.2836049, Lng : -123.1149652, Q1 : 0.920648574829, Q2 : 0.0777968242764, Q3 : -0.116329669952, Q4 : 0.364446491003}
2019-04-14 11:03:29.91: SIM {TimeUS : 57335390, Roll : 3.46, Pitch : -15.66, Yaw : 42.37, Alt : 49.2799987793, Lat : 49.2836068, Lng : -123.1149621, Q1 : 0.921788752079, Q2 : 0.0771675854921, Q3 : -0.116168044508, Q4 : 0.361739754677}
2019-04-14 11:03:30.01: SIM {TimeUS : 57435350, Roll : 3.06, Pitch : -15.68, Yaw : 42.69, Alt : 49.2799987793, Lat : 49.2836087, Lng : -123.1149589, Q1 : 0.921018242836, Q2 : 0.0743202790618, Q3 : -0.117355465889, Q4 : 0.363908737898}
2019-04-14 11:03:30.11: SIM {TimeUS : 57535310, Roll : 2.39, Pitch : -15.76, Yaw : 43.52, Alt : 49.2799987793, Lat : 49.2836108, Lng : -123.1149555, Q1 : 0.918680787086, Q2 : 0.0700565576553, Q3 : -0.119703039527, Q4 : 0.369849801064}
2019-04-14 11:03:30.21: SIM {TimeUS : 57635270, Roll : 1.56, Pitch : -15.9, Yaw : 44.68, Alt : 49.2799987793, Lat : 49.2836128, Lng : -123.1149522, Q1 : 0.915224909782, Q2 : 0.0650765746832, Q3 : -0.122791081667, Q4 : 0.378220587969}
2019-04-14 11:03:30.31: SIM {TimeUS : 57735230, Roll : 0.7, Pitch : -16.04, Yaw : 45.99, Alt : 49.2900009155, Lat : 49.2836147, Lng : -123.1149487, Q1 : 0.911153614521, Q2 : 0.0601140446961, Q3 : -0.126098364592, Q4 : 0.38766553998}
2019-04-14 11:03:30.41: SIM {TimeUS : 57835190, Roll : -0.07, Pitch : -16.17, Yaw : 47.28, Alt : 49.2900009155, Lat : 49.2836169, Lng : -123.1149452, Q1 : 0.906987428665, Q2 : 0.0557873360813, Q3 : -0.129148229957, Q4 : 0.396966397762}
2019-04-14 11:03:30.51: SIM {TimeUS : 57935150, Roll : -0.71, Pitch : -16.28, Yaw : 48.41, Alt : 49.2900009155, Lat : 49.2836189, Lng : -123.1149416, Q1 : 0.903199195862, Q2 : 0.0524815693498, Q3 : -0.131740763783, Q4 : 0.405118793249}
2019-04-14 11:03:30.61: SIM {TimeUS : 58035110, Roll : -1.15, Pitch : -16.37, Yaw : 49.29, Alt : 49.2900009155, Lat : 49.2836211, Lng : -123.1149379, Q1 : 0.900184929371, Q2 : 0.0502953194082, Q3 : -0.133639380336, Q4 : 0.411434084177}
2019-04-14 11:03:30.71: SIM {TimeUS : 58135070, Roll : -1.42, Pitch : -16.44, Yaw : 49.85, Alt : 49.2900009155, Lat : 49.2836232, Lng : -123.1149342, Q1 : 0.898177623749, Q2 : 0.049159526825, Q3 : -0.134872123599, Q4 : 0.415535539389}
2019-04-14 11:03:30.81: SIM {TimeUS : 58235030, Roll : -1.48, Pitch : -16.47, Yaw : 50.1, Alt : 49.2900009155, Lat : 49.2836255, Lng : -123.1149305, Q1 : 0.89727896452, Q2 : 0.0490245074034, Q3 : -0.135197535157, Q4 : 0.41738319397}
2019-04-14 11:03:30.91: SIM {TimeUS : 58334990, Roll : -1.36, Pitch : -16.47, Yaw : 50.06, Alt : 49.2900009155, Lat : 49.2836278, Lng : -123.1149268, Q1 : 0.897386074066, Q2 : 0.049902241677, Q3 : -0.134769454598, Q4 : 0.4171872437}
2019-04-14 11:03:31.01: SIM {TimeUS : 58434950, Roll : -1.13, Pitch : -16.47, Yaw : 49.78, Alt : 49.2900009155, Lat : 49.28363, Lng : -123.114923, Q1 : 0.898292660713, Q2 : 0.0514102913439, Q3 : -0.134079813957, Q4 : 0.415270924568}
2019-04-14 11:03:31.11: SIM {TimeUS : 58534910, Roll : -0.81, Pitch : -16.5, Yaw : 49.34, Alt : 49.2900009155, Lat : 49.2836323, Lng : -123.1149191, Q1 : 0.899718999863, Q2 : 0.0535323992372, Q3 : -0.133345037699, Q4 : 0.412139773369}
2019-04-14 11:03:31.21: SIM {TimeUS : 58634870, Roll : -0.43, Pitch : -16.53, Yaw : 48.8, Alt : 49.2900009155, Lat : 49.2836347, Lng : -123.1149153, Q1 : 0.901419579983, Q2 : 0.056008964777, Q3 : -0.132472977042, Q4 : 0.408358514309}
2019-04-14 11:03:31.31: SIM {TimeUS : 58734830, Roll : -0.06, Pitch : -16.56, Yaw : 48.25, Alt : 49.2900009155, Lat : 49.2836372, Lng : -123.1149113, Q1 : 0.903162360191, Q2 : 0.0583774670959, Q3 : -0.131690636277, Q4 : 0.404410094023}
2019-04-14 11:03:31.41: SIM {TimeUS : 58835623, Roll : 0.24, Pitch : -16.61, Yaw : 47.74, Alt : 49.2900009155, Lat : 49.2836396, Lng : -123.1149073, Q1 : 0.904744386673, Q2 : 0.0603786744177, Q3 : -0.131269708276, Q4 : 0.400699794292}
2019-04-14 11:03:31.51: SIM {TimeUS : 58935583, Roll : 0.46, Pitch : -16.66, Yaw : 47.32, Alt : 49.2900009155, Lat : 49.283642, Lng : -123.1149033, Q1 : 0.906014502048, Q2 : 0.0618075691164, Q3 : -0.131134793162, Q4 : 0.397644639015}
2019-04-14 11:03:31.61: SIM {TimeUS : 59035543, Roll : 0.58, Pitch : -16.72, Yaw : 47.03, Alt : 49.2900009155, Lat : 49.2836445, Lng : -123.1148993, Q1 : 0.906896173954, Q2 : 0.0626509413123, Q3 : -0.131336838007, Q4 : 0.395430028439}
2019-04-14 11:03:31.71: SIM {TimeUS : 59135503, Roll : 0.61, Pitch : -16.77, Yaw : 46.86, Alt : 49.2900009155, Lat : 49.2836469, Lng : -123.1148952, Q1 : 0.90738338232, Q2 : 0.0629125833511, Q3 : -0.131711617112, Q4 : 0.394143939018}
2019-04-14 11:03:31.81: SIM {TimeUS : 59235463, Roll : 0.57, Pitch : -16.82, Yaw : 46.82, Alt : 49.2900009155, Lat : 49.2836493, Lng : -123.1148911, Q1 : 0.90749168396, Q2 : 0.0627037137747, Q3 : -0.132265165448, Q4 : 0.393742382526}
2019-04-14 11:03:31.91: SIM {TimeUS : 59335423, Roll : 0.49, Pitch : -16.87, Yaw : 46.88, Alt : 49.2900009155, Lat : 49.2836518, Lng : -123.1148868, Q1 : 0.907266557217, Q2 : 0.0622881278396, Q3 : -0.132893413305, Q4 : 0.394115328789}
2019-04-14 11:03:32.01: SIM {TimeUS : 59435383, Roll : 0.38, Pitch : -16.9, Yaw : 47.02, Alt : 49.2900009155, Lat : 49.2836542, Lng : -123.1148827, Q1 : 0.906805574894, Q2 : 0.0617128759623, Q3 : -0.133464977145, Q4 : 0.395072579384}
2019-04-14 11:03:32.11: SIM {TimeUS : 59535343, Roll : 0.27, Pitch : -16.92, Yaw : 47.21, Alt : 49.2900009155, Lat : 49.2836567, Lng : -123.1148785, Q1 : 0.906196892262, Q2 : 0.061093647033, Q3 : -0.133945629001, Q4 : 0.39640045166}
2019-04-14 11:03:32.21: SIM {TimeUS : 59635303, Roll : 0.15, Pitch : -16.95, Yaw : 47.41, Alt : 49.2900009155, Lat : 49.2836592, Lng : -123.1148742, Q1 : 0.905526518822, Q2 : 0.060511700809, Q3 : -0.134400397539, Q4 : 0.397865116596}
2019-04-14 11:03:32.31: SIM {TimeUS : 59735263, Roll : 0.04, Pitch : -16.97, Yaw : 47.6, Alt : 49.2999992371, Lat : 49.2836619, Lng : -123.1148698, Q1 : 0.904889404774, Q2 : 0.0599106401205, Q3 : -0.134847760201, Q4 : 0.399251759052}
2019-04-14 11:03:32.41: SIM {TimeUS : 59835223, Roll : -0.05, Pitch : -16.98, Yaw : 47.77, Alt : 49.2999992371, Lat : 49.2836644, Lng : -123.1148655, Q1 : 0.904353618622, Q2 : 0.0593550503254, Q3 : -0.135267212987, Q4 : 0.400405168533}
2019-04-14 11:03:32.51: SIM {TimeUS : 59935183, Roll : -0.14, Pitch : -17.02, Yaw : 47.89, Alt : 49.2999992371, Lat : 49.283667, Lng : -123.1148613, Q1 : 0.903944551945, Q2 : 0.0589559525251, Q3 : -0.135744005442, Q4 : 0.401225656271}
2019-04-14 11:03:32.61: SIM {TimeUS : 60035143, Roll : -0.19, Pitch : -17.07, Yaw : 47.95, Alt : 49.2999992371, Lat : 49.2836695, Lng : -123.1148569, Q1 : 0.903682172298, Q2 : 0.0588020794094, Q3 : -0.136285066605, Q4 : 0.401655644178}
2019-04-14 11:03:32.71: SIM {TimeUS : 60135103, Roll : -0.22, Pitch : -17.11, Yaw : 47.97, Alt : 49.2999992371, Lat : 49.2836722, Lng : -123.1148526, Q1 : 0.903592646122, Q2 : 0.0587481595576, Q3 : -0.136731699109, Q4 : 0.401713192463}
2019-04-14 11:03:32.81: SIM {TimeUS : 60235063, Roll : -0.22, Pitch : -17.14, Yaw : 47.93, Alt : 49.2999992371, Lat : 49.2836748, Lng : -123.1148482, Q1 : 0.903676211834, Q2 : 0.0587366968393, Q3 : -0.136974185705, Q4 : 0.401444166899}
2019-04-14 11:03:32.91: SIM {TimeUS : 60335023, Roll : -0.21, Pitch : -17.16, Yaw : 47.87, Alt : 49.2999992371, Lat : 49.2836773, Lng : -123.1148438, Q1 : 0.903884112835, Q2 : 0.0588157624006, Q3 : -0.137129604816, Q4 : 0.400911122561}
2019-04-14 11:03:33.01: SIM {TimeUS : 60434983, Roll : -0.16, Pitch : -17.18, Yaw : 47.77, Alt : 49.2999992371, Lat : 49.2836799, Lng : -123.1148393, Q1 : 0.904157340527, Q2 : 0.0591822974384, Q3 : -0.137233927846, Q4 : 0.400204718113}
2019-04-14 11:03:33.11: SIM {TimeUS : 60534943, Roll : -0.09, Pitch : -17.22, Yaw : 47.66, Alt : 49.2999992371, Lat : 49.2836827, Lng : -123.1148349, Q1 : 0.904459476471, Q2 : 0.0597336106002, Q3 : -0.137320011854, Q4 : 0.399409800768}
2019-04-14 11:03:33.21: SIM {TimeUS : 60634903, Roll : 0.0, Pitch : -17.26, Yaw : 47.55, Alt : 49.2999992371, Lat : 49.2836852, Lng : -123.1148304, Q1 : 0.904751062393, Q2 : 0.0604644678533, Q3 : -0.137393727899, Q4 : 0.3986133039}
2019-04-14 11:03:33.31: SIM {TimeUS : 60734863, Roll : 0.08, Pitch : -17.31, Yaw : 47.45, Alt : 49.3100013733, Lat : 49.283688, Lng : -123.1148259, Q1 : 0.905005276203, Q2 : 0.0612246692181, Q3 : -0.137487515807, Q4 : 0.397887140512}
2019-04-14 11:03:33.41: SIM {TimeUS : 60834823, Roll : 0.14, Pitch : -17.34, Yaw : 47.36, Alt : 49.3100013733, Lat : 49.2836907, Lng : -123.1148214, Q1 : 0.905230641365, Q2 : 0.0617594979703, Q3 : -0.137591987848, Q4 : 0.397255212069}
2019-04-14 11:03:33.51: SIM {TimeUS : 60935616, Roll : 0.17, Pitch : -17.36, Yaw : 47.29, Alt : 49.3100013733, Lat : 49.2836934, Lng : -123.1148169, Q1 : 0.905437290668, Q2 : 0.0618940219283, Q3 : -0.137656927109, Q4 : 0.396740525961}
2019-04-14 11:03:33.61: SIM {TimeUS : 61035576, Roll : 0.15, Pitch : -17.35, Yaw : 47.25, Alt : 49.3100013733, Lat : 49.2836961, Lng : -123.1148123, Q1 : 0.905599236488, Q2 : 0.0617422759533, Q3 : -0.137709483504, Q4 : 0.396376103163}
2019-04-14 11:03:33.71: SIM {TimeUS : 61135536, Roll : 0.16, Pitch : -17.35, Yaw : 47.23, Alt : 49.3100013733, Lat : 49.2836987, Lng : -123.1148078, Q1 : 0.905684947968, Q2 : 0.061701733619, Q3 : -0.1376657933, Q4 : 0.396201759577}
2019-04-14 11:03:33.81: SIM {TimeUS : 61235496, Roll : 0.15, Pitch : -17.36, Yaw : 47.22, Alt : 49.3100013733, Lat : 49.2837015, Lng : -123.1148032, Q1 : 0.90569370985, Q2 : 0.0616990439594, Q3 : -0.13773983717, Q4 : 0.396156340837}
2019-04-14 11:03:33.91: SIM {TimeUS : 61335456, Roll : 0.16, Pitch : -17.39, Yaw : 47.23, Alt : 49.3100013733, Lat : 49.2837041, Lng : -123.1147986, Q1 : 0.905628442764, Q2 : 0.0618665963411, Q3 : -0.137982472777, Q4 : 0.396195083857}
2019-04-14 11:03:34.01: SIM {TimeUS : 61435416, Roll : 0.16, Pitch : -17.45, Yaw : 47.24, Alt : 49.3100013733, Lat : 49.2837069, Lng : -123.1147941, Q1 : 0.905512809753, Q2 : 0.0620771534741, Q3 : -0.138417482376, Q4 : 0.396274715662}
2019-04-14 11:03:34.11: SIM {TimeUS : 61535376, Roll : 0.14, Pitch : -17.49, Yaw : 47.26, Alt : 49.3100013733, Lat : 49.2837096, Lng : -123.1147894, Q1 : 0.905413448811, Q2 : 0.0621215105057, Q3 : -0.138777896762, Q4 : 0.396368682384}
2019-04-14 11:03:34.21: SIM {TimeUS : 61635336, Roll : 0.12, Pitch : -17.51, Yaw : 47.27, Alt : 49.3100013733, Lat : 49.2837124, Lng : -123.1147848, Q1 : 0.905340254307, Q2 : 0.0620597526431, Q3 : -0.139006361365, Q4 : 0.39646551013}
2019-04-14 11:03:34.31: SIM {TimeUS : 61735296, Roll : 0.09, Pitch : -17.53, Yaw : 47.29, Alt : 49.3100013733, Lat : 49.283715, Lng : -123.1147802, Q1 : 0.905296325684, Q2 : 0.061885215342, Q3 : -0.139266267419, Q4 : 0.396501839161}
2019-04-14 11:03:34.41: SIM {TimeUS : 61835256, Roll : 0.05, Pitch : -17.55, Yaw : 47.29, Alt : 49.3199996948, Lat : 49.2837179, Lng : -123.1147756, Q1 : 0.90527176857, Q2 : 0.0616855882108, Q3 : -0.139587789774, Q4 : 0.39647591114}
2019-04-14 11:03:34.51: SIM {TimeUS : 61935216, Roll : 0.05, Pitch : -17.57, Yaw : 47.29, Alt : 49.3199996948, Lat : 49.2837206, Lng : -123.1147709, Q1 : 0.905268847942, Q2 : 0.0616596154869, Q3 : -0.139736741781, Q4 : 0.396434158087}
2019-04-14 11:03:34.61: SIM {TimeUS : 62035176, Roll : 0.04, Pitch : -17.58, Yaw : 47.28, Alt : 49.3199996948, Lat : 49.2837234, Lng : -123.1147662, Q1 : 0.905290782452, Q2 : 0.0616780668497, Q3 : -0.139847531915, Q4 : 0.39634218812}
2019-04-14 11:03:34.71: SIM {TimeUS : 62135136, Roll : 0.05, Pitch : -17.58, Yaw : 47.26, Alt : 49.3199996948, Lat : 49.2837261, Lng : -123.1147616, Q1 : 0.905339717865, Q2 : 0.0617307834327, Q3 : -0.139880239964, Q4 : 0.396210581064}
2019-04-14 11:03:34.81: SIM {TimeUS : 62235096, Roll : 0.06, Pitch : -17.6, Yaw : 47.23, Alt : 49.3199996948, Lat : 49.283729, Lng : -123.1147569, Q1 : 0.905401289463, Q2 : 0.0618508681655, Q3 : -0.139955028892, Q4 : 0.396024703979}
2019-04-14 11:03:34.91: SIM {TimeUS : 62335056, Roll : 0.09, Pitch : -17.61, Yaw : 47.2, Alt : 49.3199996948, Lat : 49.2837318, Lng : -123.1147522, Q1 : 0.905477464199, Q2 : 0.0620271265507, Q3 : -0.139987513423, Q4 : 0.395811468363}
2019-04-14 11:03:35.01: SIM {TimeUS : 62435016, Roll : 0.11, Pitch : -17.62, Yaw : 47.17, Alt : 49.3199996948, Lat : 49.2837345, Lng : -123.1147475, Q1 : 0.90554690361, Q2 : 0.0622422732413, Q3 : -0.140032187104, Q4 : 0.395602971315}
2019-04-14 11:03:35.11: SIM {TimeUS : 62534976, Roll : 0.14, Pitch : -17.65, Yaw : 47.15, Alt : 49.3199996948, Lat : 49.2837374, Lng : -123.1147427, Q1 : 0.905596554279, Q2 : 0.0625240579247, Q3 : -0.140182808042, Q4 : 0.395391583443}
2019-04-14 11:03:35.21: SIM {TimeUS : 62634936, Roll : 0.15, Pitch : -17.7, Yaw : 47.12, Alt : 49.3199996948, Lat : 49.2837401, Lng : -123.1147381, Q1 : 0.9056199193, Q2 : 0.0627748146653, Q3 : -0.140557900071, Q4 : 0.39516505599}
2019-04-14 11:03:35.31: SIM {TimeUS : 62734896, Roll : 0.15, Pitch : -17.76, Yaw : 47.09, Alt : 49.3199996948, Lat : 49.283743, Lng : -123.1147333, Q1 : 0.905640602112, Q2 : 0.0628907829523, Q3 : -0.141025289893, Q4 : 0.394932508469}
2019-04-14 11:03:35.41: SIM {TimeUS : 62834856, Roll : 0.14, Pitch : -17.81, Yaw : 47.07, Alt : 49.3199996948, Lat : 49.2837459, Lng : -123.1147286, Q1 : 0.905665636063, Q2 : 0.0629486888647, Q3 : -0.141425326467, Q4 : 0.394722789526}
2019-04-14 11:03:35.51: SIM {TimeUS : 62934816, Roll : 0.15, Pitch : -17.83, Yaw : 47.05, Alt : 49.3199996948, Lat : 49.2837486, Lng : -123.1147239, Q1 : 0.905694782734, Q2 : 0.0631001144648, Q3 : -0.141568392515, Q4 : 0.394580483437}
2019-04-14 11:03:35.61: SIM {TimeUS : 63035609, Roll : 0.18, Pitch : -17.82, Yaw : 47.04, Alt : 49.3199996948, Lat : 49.2837515, Lng : -123.114719, Q1 : 0.905743360519, Q2 : 0.0632650926709, Q3 : -0.141402825713, Q4 : 0.39450186491}
2019-04-14 11:03:35.71: SIM {TimeUS : 63135569, Roll : 0.2, Pitch : -17.78, Yaw : 47.03, Alt : 49.3199996948, Lat : 49.2837544, Lng : -123.1147143, Q1 : 0.905817449093, Q2 : 0.0632572248578, Q3 : -0.141033217311, Q4 : 0.394465327263}
2019-04-14 11:03:35.81: SIM {TimeUS : 63235529, Roll : 0.19, Pitch : -17.75, Yaw : 47.02, Alt : 49.3199996948, Lat : 49.2837573, Lng : -123.1147095, Q1 : 0.905871093273, Q2 : 0.0631249845028, Q3 : -0.140820965171, Q4 : 0.394439220428}
2019-04-14 11:03:35.91: SIM {TimeUS : 63335489, Roll : 0.18, Pitch : -17.73, Yaw : 47.02, Alt : 49.3300018311, Lat : 49.28376, Lng : -123.1147047, Q1 : 0.905912816525, Q2 : 0.0629512742162, Q3 : -0.140713557601, Q4 : 0.394409447908}
2019-04-14 11:03:36.01: SIM {TimeUS : 63435449, Roll : 0.17, Pitch : -17.73, Yaw : 47.02, Alt : 49.3300018311, Lat : 49.283763, Lng : -123.1146999, Q1 : 0.905926525593, Q2 : 0.062887981534, Q3 : -0.140750348568, Q4 : 0.394374936819}
2019-04-14 11:03:36.11: SIM {TimeUS : 63535409, Roll : 0.16, Pitch : -17.75, Yaw : 47.01, Alt : 49.3300018311, Lat : 49.2837658, Lng : -123.1146951, Q1 : 0.905924618244, Q2 : 0.0628597959876, Q3 : -0.140943586826, Q4 : 0.394314825535}
2019-04-14 11:03:36.21: SIM {TimeUS : 63635369, Roll : 0.15, Pitch : -17.77, Yaw : 47.01, Alt : 49.3300018311, Lat : 49.2837686, Lng : -123.1146903, Q1 : 0.905916213989, Q2 : 0.0628923922777, Q3 : -0.141149967909, Q4 : 0.394255131483}
2019-04-14 11:03:36.31: SIM {TimeUS : 63735329, Roll : 0.15, Pitch : -17.82, Yaw : 47.0, Alt : 49.3300018311, Lat : 49.2837715, Lng : -123.1146855, Q1 : 0.905889451504, Q2 : 0.062956340611, Q3 : -0.141518563032, Q4 : 0.39417424798}
2019-04-14 11:03:36.41: SIM {TimeUS : 63835289, Roll : 0.14, Pitch : -17.86, Yaw : 46.99, Alt : 49.3300018311, Lat : 49.2837744, Lng : -123.1146807, Q1 : 0.905857145786, Q2 : 0.0630710795522, Q3 : -0.141924858093, Q4 : 0.39408403635}
2019-04-14 11:03:36.51: SIM {TimeUS : 63935249, Roll : 0.15, Pitch : -17.9, Yaw : 46.99, Alt : 49.3300018311, Lat : 49.2837772, Lng : -123.1146759, Q1 : 0.905843555927, Q2 : 0.0632477924228, Q3 : -0.142144054174, Q4 : 0.394007891417}
2019-04-14 11:03:36.61: SIM {TimeUS : 64035209, Roll : 0.15, Pitch : -17.93, Yaw : 46.97, Alt : 49.3300018311, Lat : 49.2837801, Lng : -123.114671, Q1 : 0.905842840672, Q2 : 0.0633495226502, Q3 : -0.142382889986, Q4 : 0.393907010555}
2019-04-14 11:03:36.71: SIM {TimeUS : 64135169, Roll : 0.15, Pitch : -17.94, Yaw : 46.96, Alt : 49.3300018311, Lat : 49.2837831, Lng : -123.1146661, Q1 : 0.905860602856, Q2 : 0.0633879229426, Q3 : -0.142548114061, Q4 : 0.393800199032}
2019-04-14 11:03:36.81: SIM {TimeUS : 64235129, Roll : 0.16, Pitch : -17.94, Yaw : 46.95, Alt : 49.3300018311, Lat : 49.283786, Lng : -123.1146614, Q1 : 0.905905246735, Q2 : 0.0634489804506, Q3 : -0.142466947436, Q4 : 0.39371702075}
2019-04-14 11:03:36.91: SIM {TimeUS : 64335089, Roll : 0.18, Pitch : -17.95, Yaw : 46.93, Alt : 49.3300018311, Lat : 49.2837887, Lng : -123.1146565, Q1 : 0.905934691429, Q2 : 0.063628450036, Q3 : -0.142454057932, Q4 : 0.393624961376}
2019-04-14 11:03:37.01: SIM {TimeUS : 64435049, Roll : 0.19, Pitch : -17.96, Yaw : 46.92, Alt : 49.3300018311, Lat : 49.2837916, Lng : -123.1146517, Q1 : 0.905963003635, Q2 : 0.0636939182878, Q3 : -0.142579644918, Q4 : 0.393503695726}
2019-04-14 11:03:37.11: SIM {TimeUS : 64535009, Roll : 0.19, Pitch : -17.97, Yaw : 46.9, Alt : 49.3300018311, Lat : 49.2837946, Lng : -123.1146468, Q1 : 0.906002223492, Q2 : 0.0637484937906, Q3 : -0.142629399896, Q4 : 0.393386512995}
2019-04-14 11:03:37.21: SIM {TimeUS : 64634969, Roll : 0.2, Pitch : -17.96, Yaw : 46.89, Alt : 49.3300018311, Lat : 49.2837976, Lng : -123.1146419, Q1 : 0.906057178974, Q2 : 0.0637620911002, Q3 : -0.142535984516, Q4 : 0.393291562796}
2019-04-14 11:03:37.31: SIM {TimeUS : 64734929, Roll : 0.21, Pitch : -17.96, Yaw : 46.88, Alt : 49.3400001526, Lat : 49.2838005, Lng : -123.1146371, Q1 : 0.906099617481, Q2 : 0.0638162121177, Q3 : -0.142481952906, Q4 : 0.393204599619}
2019-04-14 11:03:37.41: SIM {TimeUS : 64834889, Roll : 0.2, Pitch : -17.98, Yaw : 46.87, Alt : 49.3400001526, Lat : 49.2838033, Lng : -123.1146322, Q1 : 0.906121551991, Q2 : 0.0637698024511, Q3 : -0.142672687769, Q4 : 0.393092483282}
2019-04-14 11:03:37.51: SIM {TimeUS : 64934849, Roll : 0.17, Pitch : -18.01, Yaw : 46.86, Alt : 49.3400001526, Lat : 49.2838062, Lng : -123.1146273, Q1 : 0.906120181084, Q2 : 0.0636836960912, Q3 : -0.143066778779, Q4 : 0.392966300249}
2019-04-14 11:03:37.61: SIM {TimeUS : 65035642, Roll : 0.15, Pitch : -18.02, Yaw : 46.85, Alt : 49.3400001526, Lat : 49.2838092, Lng : -123.1146223, Q1 : 0.906143128872, Q2 : 0.0635504052043, Q3 : -0.143213793635, Q4 : 0.39288148284}
2019-04-14 11:03:37.71: SIM {TimeUS : 65135602, Roll : 0.16, Pitch : -18.0, Yaw : 46.84, Alt : 49.3400001526, Lat : 49.2838121, Lng : -123.1146175, Q1 : 0.906183838844, Q2 : 0.0635378062725, Q3 : -0.143048524857, Q4 : 0.392849743366}
2019-04-14 11:03:37.81: SIM {TimeUS : 65235562, Roll : 0.18, Pitch : -17.99, Yaw : 46.84, Alt : 49.3400001526, Lat : 49.2838151, Lng : -123.1146126, Q1 : 0.906217157841, Q2 : 0.0635895431042, Q3 : -0.142872557044, Q4 : 0.392828524113}
2019-04-14 11:03:37.91: SIM {TimeUS : 65335522, Roll : 0.18, Pitch : -17.99, Yaw : 46.83, Alt : 49.3400001526, Lat : 49.2838179, Lng : -123.1146077, Q1 : 0.906230509281, Q2 : 0.0636469647288, Q3 : -0.142897099257, Q4 : 0.392779529095}
2019-04-14 11:03:38.01: SIM {TimeUS : 65435482, Roll : 0.17, Pitch : -18.01, Yaw : 46.82, Alt : 49.3400001526, Lat : 49.2838208, Lng : -123.1146028, Q1 : 0.906235635281, Q2 : 0.0635980442166, Q3 : -0.143111079931, Q4 : 0.392697662115}
2019-04-14 11:03:38.11: SIM {TimeUS : 65535442, Roll : 0.14, Pitch : -18.04, Yaw : 46.82, Alt : 49.3400001526, Lat : 49.2838238, Lng : -123.1145979, Q1 : 0.906240522861, Q2 : 0.0634683966637, Q3 : -0.143425315619, Q4 : 0.392592817545}
2019-04-14 11:03:38.21: SIM {TimeUS : 65635402, Roll : 0.13, Pitch : -18.07, Yaw : 46.81, Alt : 49.3400001526, Lat : 49.2838268, Lng : -123.114593, Q1 : 0.90625089407, Q2 : 0.0634288787842, Q3 : -0.143668681383, Q4 : 0.392486184835}
2019-04-14 11:03:38.31: SIM {TimeUS : 65735362, Roll : 0.13, Pitch : -18.09, Yaw : 46.8, Alt : 49.3400001526, Lat : 49.2838297, Lng : -123.1145881, Q1 : 0.906256079674, Q2 : 0.0635442063212, Q3 : -0.143836989999, Q4 : 0.392393946648}
2019-04-14 11:03:38.41: SIM {TimeUS : 65835322, Roll : 0.15, Pitch : -18.11, Yaw : 46.79, Alt : 49.3400001526, Lat : 49.2838327, Lng : -123.1145831, Q1 : 0.906262457371, Q2 : 0.0636933743954, Q3 : -0.14395211637, Q4 : 0.392312735319}
2019-04-14 11:03:38.51: SIM {TimeUS : 65935282, Roll : 0.17, Pitch : -18.12, Yaw : 46.77, Alt : 49.3400001526, Lat : 49.2838355, Lng : -123.1145782, Q1 : 0.90627092123, Q2 : 0.0639270469546, Q3 : -0.143987342715, Q4 : 0.392242342234}
