2019-04-14 12:12:09.10: SIM {TimeUS : 39915694, Roll : 0.0, Pitch : 0.0, Yaw : 0.0, Alt : 30.1000003815, Lat : 49.28357, Lng : -123.11502, Q1 : 1.0, Q2 : 0.0, Q3 : 0.0, Q4 : 0.0}
2019-04-14 12:12:09.21: SIM {TimeUS : 40034813, Roll : 0.0, Pitch : 0.0, Yaw : 0.0, Alt : 30.1000003815, Lat : 49.28357, Lng : -123.11502, Q1 : 1.0, Q2 : 0.0, Q3 : 0.0, Q4 : 0.0}
2019-04-14 12:12:09.31: SIM {TimeUS : 40134773, Roll : 0.0, Pitch : 0.0, Yaw : 0.0, Alt : 30.1000003815, Lat : 49.28357, Lng : -123.11502, Q1 : 1.0, Q2 : 0.0, Q3 : 0.0, Q4 : 0.0}
2019-04-14 12:12:09.41: SIM {TimeUS : 40234733, Roll : 0.0, Pitch : 0.0, Yaw : 0.0, Alt : 30.1000003815, Lat : 49.28357, Lng : -123.11502, Q1 : 1.0, Q2 : 0.0, Q3 : 0.0, Q4 : 0.0}
2019-04-14 12:12:09.51: SIM {TimeUS : 40334693, Roll : 0.0, Pitch : 0.0, Yaw : 0.0, Alt : 30.1000003815, Lat : 49.28357, Lng : -123.11502, Q1 : 1.0, Q2 : 0.0, Q3 : 0.0, Q4 : 0.0}
2019-04-14 12:12:09.61: SIM {TimeUS : 40434653, Roll : 0.0, Pitch : 0.0, Yaw : 0.0, Alt : 30.1000003815, Lat : 49.28357, Lng : -123.11502, Q1 : 1.0, Q2 : 0.0, Q3 : 0.0, Q4 : 0.0}
2019-04-14 12:12:09.71: SIM {TimeUS : 40534613, Roll : 0.0, Pitch : 0.0, Yaw : 0.0, Alt : 30.1000003815, Lat : 49.28357, Lng : -123.11502, Q1 : 1.0, Q2 : 0.0, Q3 : 0.0, Q4 : 0.0}
2019-04-14 12:12:09.81: SIM {TimeUS : 40634573, Roll : 0.0, Pitch : 0.0, Yaw : 0.0, Alt : 30.1000003815, Lat : 49.28357, Lng : -123.11502, Q1 : 1.0, Q2 : 0.0, Q3 : 0.0, Q4 : 0.0}
2019-04-14 12:12:09.91: SIM {TimeUS : 40734533, Roll : 0.0, Pitch : 0.0, Yaw : 0.0, Alt : 30.1000003815, Lat : 49.28357, Lng : -123.11502, Q1 : 1.0, Q2 : 0.0, Q3 : 0.0, Q4 : 0.0}
2019-04-14 12:12:10.01: SIM {TimeUS : 40834493, Roll : 0.0, Pitch : 0.0, Yaw : 0.0, Alt : 30.1000003815, Lat : 49.28357, Lng : -123.11502, Q1 : 1.0, Q2 : 0.0, Q3 : 0.0, Q4 : 0.0}
2019-04-14 12:12:10.11: SIM {TimeUS : 40934453, Roll : 0.0, Pitch : 0.0, Yaw : 0.0, Alt : 30.1000003815, Lat : 49.28357, Lng : -123.11502, Q1 : 1.0, Q2 : 0.0, Q3 : 0.0, Q4 : 0.0}
2019-04-14 12:12:10.21: SIM {TimeUS : 41034413, Roll : 0.0, Pitch : 0.0, Yaw : 0.0, Alt : 30.1000003815, Lat : 49.28357, Lng : -123.11502, Q1 : 1.0, Q2 : 0.0, Q3 : 0.0, Q4 : 0.0}
2019-04-14 12:12:10.31: SIM {TimeUS : 41134373, Roll : 0.0, Pitch : 0.0, Yaw : 0.0, Alt : 30.1000003815, Lat : 49.28357, Lng : -123.11502, Q1 : 1.0, Q2 : 0.0, Q3 : 0.0, Q4 : 0.0}
2019-04-14 12:12:10.41: SIM {TimeUS : 41234333, Roll : 0.0, Pitch : 0.0, Yaw : 0.0, Alt : 30.1000003815, Lat : 49.28357, Lng : -123.11502, Q1 : 1.0, Q2 : 0.0, Q3 : 0.0, Q4 : 0.0}
2019-04-14 12:12:10.51: SIM {TimeUS : 41334293, Roll : 0.0, Pitch : 0.0, Yaw : 0.0, Alt : 30.1000003815, Lat : 49.28357, Lng : -123.11502, Q1 : 1.0, Q2 : 0.0, Q3 : 0.0, Q4 : 0.0}
2019-04-14 12:12:10.61: SIM {TimeUS : 41434253, Roll : 0.0, Pitch : 0.0, Yaw : 0.0, Alt : 30.1000003815, Lat : 49.28357, Lng : -123.11502, Q1 : 1.0, Q2 : 0.0, Q3 : 0.0, Q4 : 0.0}
2019-04-14 12:12:10.71: SIM {TimeUS : 41534213, Roll : 0.0, Pitch : 0.0, Yaw : 0.0, Alt : 30.1000003815, Lat : 49.28357, Lng : -123.11502, Q1 : 1.0, Q2 : 0.0, Q3 : 0.0, Q4 : 0.0}
2019-04-14 12:12:10.81: SIM {TimeUS : 41634173, Roll : 0.0, Pitch : 0.0, Yaw : 0.0, Alt : 30.1000003815, Lat : 49.28357, Lng : -123.11502, Q1 : 1.0, Q2 : 0.0, Q3 : 0.0, Q4 : 0.0}
2019-04-14 12:12:10.91: SIM {TimeUS : 41734133, Roll : 0.0, Pitch : 0.0, Yaw : 0.0, Alt : 30.1000003815, Lat : 49.28357, Lng : -123.11502, Q1 : 1.0, Q2 : 0.0, Q3 : 0.0, Q4 : 0.0}
2019-04-14 12:12:11.01: SIM {TimeUS : 41834093, Roll : 0.0, Pitch : 0.0, Yaw : 0.0, Alt : 30.1000003815, Lat : 49.28357, Lng : -123.11502, Q1 : 1.0, Q2 : 0.0, Q3 : 0.0, Q4 : 0.0}
2019-04-14 12:12:11.11: SIM {TimeUS : 41934053, Roll : 0.0, Pitch : 0.0, Yaw : 0.0, Alt : 30.1000003815, Lat : 49.28357, Lng : -123.11502, Q1 : 1.0, Q2 : 0.0, Q3 : 0.0, Q4 : 0.0}
2019-04-14 12:12:11.22: SIM {TimeUS : 42034846, Roll : 0.0, Pitch : 0.0, Yaw : 0.0, Alt : 30.1000003815, Lat : 49.28357, Lng : -123.11502, Q1 : 1.0, Q2 : 0.0, Q3 : 0.0, Q4 : 0.0}
2019-04-14 12:12:11.31: SIM {TimeUS : 42134806, Roll : 0.0, Pitch : 0.0, Yaw : 0.0, Alt : 30.1000003815, Lat : 49.28357, Lng : -123.11502, Q1 : 1.0, Q2 : 0.0, Q3 : 0.0, Q4 : 0.0}
2019-04-14 12:12:11.41: SIM {TimeUS : 42234766, Roll : 0.0, Pitch : 0.0, Yaw : 0.0, Alt : 30.1000003815, Lat : 49.28357, Lng : -123.11502, Q1 : 1.0, Q2 : 0.0, Q3 : 0.0, Q4 : 2.50972402582e-11}
2019-04-14 12:12:11.51: SIM {TimeUS : 42334726, Roll : 0.0, Pitch : 0.0, Yaw : 360.0, Alt : 30.1000003815, Lat : 49.28357, Lng : -123.11502, Q1 : 1.0, Q2 : 0.0, Q3 : 0.0, Q4 : -2.4248850039e-08}
2019-04-14 12:12:11.61: SIM {TimeUS : 42434686, Roll : 0.0, Pitch : 0.0, Yaw : 359.99, Alt : 30.1000003815, Lat : 49.28357, Lng : -123.11502, Q1 : 1.0, Q2 : 0.0, Q3 : 0.0, Q4 : -2.24946290928e-07}
2019-04-14 12:12:11.71: SIM {TimeUS : 42534646, Roll : 0.0, Pitch : 0.0, Yaw : 359.99, Alt : 30.1000003815, Lat : 49.28357, Lng : -123.11502, Q1 : 1.0, Q2 : 0.0, Q3 : 0.0, Q4 : -4.33072557371e-07}
2019-04-14 12:12:11.81: SIM {TimeUS : 42634606, Roll : 0.0, Pitch : 0.0, Yaw : 359.99, Alt : 30.1000003815, Lat : 49.28357, Lng : -123.11502, Q1 : 1.0, Q2 : 0.0, Q3 : 0.0, Q4 : -6.26563064543e-07}
2019-04-14 12:12:11.91: SIM {TimeUS : 42734566, Roll : 0.0, Pitch : 0.0, Yaw : 359.99, Alt : 30.1000003815, Lat : 49.28357, Lng : -123.11502, Q1 : 1.0, Q2 : 0.0, Q3 : 0.0, Q4 : -8.26377004159e-07}
2019-04-14 12:12:12.01: SIM {TimeUS : 42834526, Roll : 0.0, Pitch : 0.0, Yaw : 359.99, Alt : 30.1000003815, Lat : 49.28357, Lng : -123.11502, Q1 : 1.0, Q2 : 0.0, Q3 : 0.0, Q4 : -1.02474291452e-06}
2019-04-14 12:12:12.11: SIM {TimeUS : 42934486, Roll : 0.0, Pitch : 0.0, Yaw : 359.99, Alt : 30.1000003815, Lat : 49.28357, Lng : -123.11502, Q1 : 1.0, Q2 : 0.0, Q3 : 0.0, Q4 : -1.24459177187e-06}
2019-04-14 12:12:12.21: SIM {TimeUS : 43034446, Roll : 0.0, Pitch : 0.0, Yaw : 359.99, Alt : 30.1000003815, Lat : 49.28357, Lng : -123.11502, Q1 : 1.0, Q2 : 0.0, Q3 : 0.0, Q4 : -1.45909496041e-06}
2019-04-14 12:12:12.31: SIM {TimeUS : 43134406, Roll : 0.0, Pitch : 0.0, Yaw : 359.99, Alt : 30.1200008392, Lat : 49.28357, Lng : -123.11502, Q1 : 1.0, Q2 : 0.0, Q3 : 0.0, Q4 : -1.71579097241e-06}
2019-04-14 12:12:12.41: SIM {TimeUS : 43234366, Roll : 0.0, Pitch : 0.0, Yaw : 359.99, Alt : 30.1399993896, Lat : 49.28357, Lng : -123.11502, Q1 : 1.0, Q2 : 0.0, Q3 : 0.0, Q4 : -1.91641333913e-06}
2019-04-14 12:12:12.51: SIM {TimeUS : 43334326, Roll : 0.0, Pitch : 0.0, Yaw : 359.99, Alt : 30.1800003052, Lat : 49.28357, Lng : -123.11502, Q1 : 1.0, Q2 : 0.0, Q3 : 0.0, Q4 : -2.19818525693e-06}
2019-04-14 12:12:12.61: SIM {TimeUS : 43434286, Roll : 0.0, Pitch : 0.0, Yaw : 359.99, Alt : 30.2099990845, Lat : 49.28357, Lng : -123.11502, Q1 : 1.0, Q2 : -7.53603580961e-06, Q3 : -6.59044553686e-06, Q4 : -2.45959154199e-06}
2019-04-14 12:12:12.71: SIM {TimeUS : 43534246, Roll : -0.16, Pitch : -0.15, Yaw : 359.99, Alt : 30.2700004578, Lat : 49.28357, Lng : -123.11502, Q1 : 0.999997973442, Q2 : -0.00148071127478, Q3 : -0.00134852353949, Q4 : -1.90190039575e-05}
2019-04-14 12:12:12.81: SIM {TimeUS : 43634206, Roll : -0.45, Pitch : -0.44, Yaw : 359.99, Alt : 30.3899993896, Lat : 49.28357, Lng : -123.11502, Q1 : 0.999984502792, Q2 : -0.00396450795233, Q3 : -0.0039061291609, Q4 : -6.44387837383e-05}
2019-04-14 12:12:12.91: SIM {TimeUS : 43734166, Roll : -0.69, Pitch : -0.72, Yaw : 359.98, Alt : 30.5400009155, Lat : 49.28357, Lng : -123.11502, Q1 : 0.999961853027, Q2 : -0.00603724597022, Q3 : -0.0063127358444, Q4 : -0.000137578943395}
2019-04-14 12:12:13.01: SIM {TimeUS : 43834126, Roll : -0.79, Pitch : -0.84, Yaw : 359.98, Alt : 30.7000007629, Lat : 49.28357, Lng : -123.11502, Q1 : 0.999948680401, Q2 : -0.00696425884962, Q3 : -0.00735674845055, Q4 : -0.000223983777687}
2019-04-14 12:12:13.11: SIM {TimeUS : 43934086, Roll : -0.75, Pitch : -0.76, Yaw : 359.96, Alt : 30.8500003815, Lat : 49.28357, Lng : -123.1150201, Q1 : 0.999955713749, Q2 : -0.00661720568314, Q3 : -0.00668131513521, Q4 : -0.000313193566399}
2019-04-14 12:12:13.21: SIM {TimeUS : 44034046, Roll : -0.6, Pitch : -0.55, Yaw : 359.95, Alt : 31.0100002289, Lat : 49.2835701, Lng : -123.1150201, Q1 : 0.999973893166, Q2 : -0.00531134661287, Q3 : -0.00488229468465, Q4 : -0.000399128010031}
2019-04-14 12:12:13.32: SIM {TimeUS : 44134839, Roll : -0.4, Pitch : -0.31, Yaw : 359.94, Alt : 31.1599998474, Lat : 49.2835701, Lng : -123.1150202, Q1 : 0.99998986721, Q2 : -0.00352767249569, Q3 : -0.00276237586513, Q4 : -0.000472589716082}
2019-04-14 12:12:13.41: SIM {TimeUS : 44234799, Roll : -0.21, Pitch : -0.11, Yaw : 359.94, Alt : 31.3199996948, Lat : 49.2835702, Lng : -123.1150203, Q1 : 0.99999755621, Q2 : -0.0018997346051, Q3 : -0.00101746886503, Q4 : -0.000523306545801}
2019-04-14 12:12:13.51: SIM {TimeUS : 44334759, Roll : -0.07, Pitch : 0.01, Yaw : 359.93, Alt : 31.4899997711, Lat : 49.2835702, Lng : -123.1150204, Q1 : 0.999999642372, Q2 : -0.000657270138618, Q3 : 9.52990594669e-05, Q4 : -0.000559882784728}
2019-04-14 12:12:13.61: SIM {TimeUS : 44434719, Roll : 0.02, Pitch : 0.04, Yaw : 359.93, Alt : 31.6700000763, Lat : 49.2835702, Lng : -123.1150205, Q1 : 0.999999761581, Q2 : 0.000209218880627, Q3 : 0.000413045490859, Q4 : -0.000582998385653}
2019-04-14 12:12:13.71: SIM {TimeUS : 44534679, Roll : 0.07, Pitch : 0.03, Yaw : 359.93, Alt : 31.8400001526, Lat : 49.2835703, Lng : -123.1150205, Q1 : 0.999999582767, Q2 : 0.000624014413916, Q3 : 0.000315900193527, Q4 : -0.000596325146034}
2019-04-14 12:12:13.81: SIM {TimeUS : 44634639, Roll : 0.07, Pitch : 0.01, Yaw : 359.93, Alt : 32.0299987793, Lat : 49.2835703, Lng : -123.1150206, Q1 : 0.999999642372, Q2 : 0.000633350224234, Q3 : 0.000108303400339, Q4 : -0.000593749340624}
2019-04-14 12:12:13.91: SIM {TimeUS : 44734599, Roll : 0.06, Pitch : 0.0, Yaw : 359.93, Alt : 32.2099990845, Lat : 49.2835703, Lng : -123.1150207, Q1 : 0.999999701977, Q2 : 0.000534142774995, Q3 : -1.31977976707e-05, Q4 : -0.000577404978685}
2019-04-14 12:12:14.01: SIM {TimeUS : 44834559, Roll : 0.05, Pitch : 0.0, Yaw : 359.93, Alt : 32.4099998474, Lat : 49.2835703, Lng : -123.1150207, Q1 : 0.999999701977, Q2 : 0.000470931263408, Q3 : -2.53961916314e-05, Q4 : -0.0005514920922}
2019-04-14 12:12:14.11: SIM {TimeUS : 44934519, Roll : 0.06, Pitch : 0.01, Yaw : 359.93, Alt : 32.5999984741, Lat : 49.2835703, Lng : -123.1150208, Q1 : 0.999999701977, Q2 : 0.000551891222131, Q3 : 0.000114361355372, Q4 : -0.00052830047207}
2019-04-14 12:12:14.21: SIM {TimeUS : 45034479, Roll : 0.09, Pitch : 0.03, Yaw : 359.94, Alt : 32.7999992371, Lat : 49.2835703, Lng : -123.1150208, Q1 : 0.999999463558, Q2 : 0.000840230670292, Q3 : 0.000335489021381, Q4 : -0.000505919626448}
2019-04-14 12:12:14.31: SIM {TimeUS : 45134439, Roll : 0.14, Pitch : 0.06, Yaw : 359.94, Alt : 32.9900016785, Lat : 49.2835704, Lng : -123.1150208, Q1 : 0.999998867512, Q2 : 0.00126293557696, Q3 : 0.000608502188697, Q4 : -0.000499422603752}
2019-04-14 12:12:14.41: SIM {TimeUS : 45234399, Roll : 0.17, Pitch : 0.1, Yaw : 359.94, Alt : 33.2000007629, Lat : 49.2835704, Lng : -123.1150209, Q1 : 0.999998211861, Q2 : 0.00156596978195, Q3 : 0.000934889016207, Q4 : -0.000502278562635}
2019-04-14 12:12:14.51: SIM {TimeUS : 45334359, Roll : 0.18, Pitch : 0.13, Yaw : 359.94, Alt : 33.4000015259, Lat : 49.2835704, Lng : -123.1150209, Q1 : 0.999997854233, Q2 : 0.0016075426247, Q3 : 0.00121810473502, Q4 : -0.000503266346641}
2019-04-14 12:12:14.61: SIM {TimeUS : 45434319, Roll : 0.17, Pitch : 0.16, Yaw : 359.94, Alt : 33.6100006104, Lat : 49.2835704, Lng : -123.1150209, Q1 : 0.999997794628, Q2 : 0.00148589618038, Q3 : 0.00139964243863, Q4 : -0.000506567419507}
2019-04-14 12:12:14.71: SIM {TimeUS : 45534279, Roll : 0.15, Pitch : 0.17, Yaw : 359.94, Alt : 33.8100013733, Lat : 49.2835704, Lng : -123.1150209, Q1 : 0.999997735023, Q2 : 0.00137546670157, Q3 : 0.00154400151223, Q4 : -0.000516589381732}
2019-04-14 12:12:14.81: SIM {TimeUS : 45634239, Roll : 0.15, Pitch : 0.17, Yaw : 359.93, Alt : 34.0200004578, Lat : 49.2835706, Lng : -123.1150209, Q1 : 0.999997735023, Q2 : 0.00137559405994, Q3 : 0.00152145815082, Q4 : -0.000529739656486}
2019-04-14 12:12:14.91: SIM {TimeUS : 45734199, Roll : 0.15, Pitch : 0.16, Yaw : 359.93, Alt : 34.2299995422, Lat : 49.2835706, Lng : -123.1150209, Q1 : 0.999997854233, Q2 : 0.00135803373996, Q3 : 0.0014352487633, Q4 : -0.000548034673557}
2019-04-14 12:12:15.01: SIM {TimeUS : 45834159, Roll : 0.13, Pitch : 0.15, Yaw : 359.93, Alt : 34.4399986267, Lat : 49.2835706, Lng : -123.1150209, Q1 : 0.999998211861, Q2 : 0.00118780974299, Q3 : 0.0013455748558, Q4 : -0.000567771436181}
2019-04-14 12:12:15.11: SIM {TimeUS : 45934119, Roll : 0.11, Pitch : 0.11, Yaw : 359.93, Alt : 34.6599998474, Lat : 49.2835706, Lng : -123.1150209, Q1 : 0.999998807907, Q2 : 0.000996415386908, Q3 : 0.00101827003527, Q4 : -0.000576792284846}
2019-04-14 12:12:15.21: SIM {TimeUS : 46034079, Roll : 0.09, Pitch : 0.06, Yaw : 359.93, Alt : 34.8699989319, Lat : 49.2835706, Lng : -123.1150209, Q1 : 0.999999344349, Q2 : 0.000811233709101, Q3 : 0.000569066847675, Q4 : -0.000577034661546}
2019-04-14 12:12:15.31: SIM {TimeUS : 46134039, Roll : 0.06, Pitch : 0.03, Yaw : 359.93, Alt : 35.0900001526, Lat : 49.2835706, Lng : -123.1150209, Q1 : 0.999999582767, Q2 : 0.00059701903956, Q3 : 0.000288393523078, Q4 : -0.000600272906013}
2019-04-14 12:12:15.42: SIM {TimeUS : 46234832, Roll : 0.05, Pitch : 0.02, Yaw : 359.92, Alt : 35.3100013733, Lat : 49.2835706, Lng : -123.1150208, Q1 : 0.999999642372, Q2 : 0.000474832952023, Q3 : 0.000198269524844, Q4 : -0.000648577755783}
2019-04-14 12:12:15.51: SIM {TimeUS : 46334792, Roll : 0.05, Pitch : 0.02, Yaw : 359.91, Alt : 35.5200004578, Lat : 49.2835706, Lng : -123.1150208, Q1 : 0.999999582767, Q2 : 0.000486851669848, Q3 : 0.000242816298851, Q4 : -0.000711712578777}
2019-04-14 12:12:15.61: SIM {TimeUS : 46434752, Roll : 0.05, Pitch : 0.02, Yaw : 359.91, Alt : 35.7400016785, Lat : 49.2835706, Lng : -123.1150208, Q1 : 0.999999582767, Q2 : 0.000437401758973, Q3 : 0.000251734629273, Q4 : -0.000772277940996}
2019-04-14 12:12:15.71: SIM {TimeUS : 46534712, Roll : 0.02, Pitch : 0.02, Yaw : 359.9, Alt : 35.9599990845, Lat : 49.2835706, Lng : -123.1150208, Q1 : 0.999999642372, Q2 : 0.000184976684977, Q3 : 0.00022132624872, Q4 : -0.000818810483906}
2019-04-14 12:12:15.81: SIM {TimeUS : 46634672, Roll : 0.0, Pitch : 0.02, Yaw : 359.9, Alt : 36.1800003052, Lat : 49.2835706, Lng : -123.1150208, Q1 : 0.999999642372, Q2 : -5.67177630728e-05, Q3 : 0.000203516305191, Q4 : -0.000853645091411}
2019-04-14 12:12:15.91: SIM {TimeUS : 46734632, Roll : -0.01, Pitch : 0.04, Yaw : 359.89, Alt : 36.4000015259, Lat : 49.2835706, Lng : -123.1150208, Q1 : 0.999999523163, Q2 : -0.000170092913322, Q3 : 0.000386003521271, Q4 : -0.000882755673956}
2019-04-14 12:12:16.01: SIM {TimeUS : 46834592, Roll : -0.02, Pitch : 0.04, Yaw : 359.89, Alt : 36.6300010681, Lat : 49.2835706, Lng : -123.1150207, Q1 : 0.999999463558, Q2 : -0.000241279791226, Q3 : 0.000417824310716, Q4 : -0.000915912445635}
2019-04-14 12:12:16.11: SIM {TimeUS : 46934552, Roll : -0.02, Pitch : 0.04, Yaw : 359.89, Alt : 36.8499984741, Lat : 49.2835706, Lng : -123.1150207, Q1 : 0.999999463558, Q2 : -0.000231593498029, Q3 : 0.000351691385731, Q4 : -0.000948902859818}
2019-04-14 12:12:16.21: SIM {TimeUS : 47034512, Roll : -0.02, Pitch : 0.03, Yaw : 359.88, Alt : 37.0699996948, Lat : 49.2835706, Lng : -123.1150207, Q1 : 0.999999463558, Q2 : -0.00022446596995, Q3 : 0.000280434411252, Q4 : -0.000976477225777}
2019-04-14 12:12:16.31: SIM {TimeUS : 47134472, Roll : -0.02, Pitch : 0.02, Yaw : 359.88, Alt : 37.2999992371, Lat : 49.2835706, Lng : -123.1150207, Q1 : 0.999999463558, Q2 : -0.000192979539861, Q3 : 0.000214182568016, Q4 : -0.000991997425444}
2019-04-14 12:12:16.41: SIM {TimeUS : 47234432, Roll : 0.0, Pitch : 0.01, Yaw : 359.88, Alt : 37.5200004578, Lat : 49.2835704, Lng : -123.1150207, Q1 : 0.999999523163, Q2 : -7.51280749682e-05, Q3 : 0.000169016304426, Q4 : -0.00099433970172}
2019-04-14 12:12:16.51: SIM {TimeUS : 47334392, Roll : -0.01, Pitch : 0.0, Yaw : 359.88, Alt : 37.75, Lat : 49.2835704, Lng : -123.1150207, Q1 : 0.999999523163, Q2 : -0.000146527701872, Q3 : 1.73782082129e-05, Q4 : -0.000984433223493}
2019-04-14 12:12:16.61: SIM {TimeUS : 47434352, Roll : -0.04, Pitch : -0.02, Yaw : 359.88, Alt : 37.9799995422, Lat : 49.2835704, Lng : -123.1150207, Q1 : 0.999999463558, Q2 : -0.000371258094674, Q3 : -0.000226043659495, Q4 : -0.000969847955275}
2019-04-14 12:12:16.71: SIM {TimeUS : 47534312, Roll : -0.07, Pitch : -0.04, Yaw : 359.89, Alt : 38.2000007629, Lat : 49.2835704, Lng : -123.1150207, Q1 : 0.999999284744, Q2 : -0.000630073831417, Q3 : -0.000401049794164, Q4 : -0.000956589356065}
2019-04-14 12:12:16.81: SIM {TimeUS : 47634272, Roll : -0.09, Pitch : -0.04, Yaw : 359.89, Alt : 38.4300003052, Lat : 49.2835704, Lng : -123.1150207, Q1 : 0.99999910593, Q2 : -0.000860133266542, Q3 : -0.000399460026529, Q4 : -0.000953976006713}
2019-04-14 12:12:16.91: SIM {TimeUS : 47734232, Roll : -0.11, Pitch : -0.04, Yaw : 359.89, Alt : 38.6599998474, Lat : 49.2835704, Lng : -123.1150206, Q1 : 0.999998986721, Q2 : -0.000984650221653, Q3 : -0.000354456191417, Q4 : -0.000958699441981}
2019-04-14 12:12:17.01: SIM {TimeUS : 47834192, Roll : -0.11, Pitch : -0.03, Yaw : 359.88, Alt : 38.8899993896, Lat : 49.2835704, Lng : -123.1150206, Q1 : 0.999998986721, Q2 : -0.000981630408205, Q3 : -0.000337502977345, Q4 : -0.000969075539615}
2019-04-14 12:12:17.11: SIM {TimeUS : 47934152, Roll : -0.09, Pitch : -0.02, Yaw : 359.88, Alt : 39.1199989319, Lat : 49.2835704, Lng : -123.1150206, Q1 : 0.99999910593, Q2 : -0.000852453580592, Q3 : -0.000260269938735, Q4 : -0.000986500759609}
2019-04-14 12:12:17.21: SIM {TimeUS : 48034112, Roll : -0.07, Pitch : -0.03, Yaw : 359.88, Alt : 39.3499984741, Lat : 49.2835704, Lng : -123.1150206, Q1 : 0.99999922514, Q2 : -0.000631611503195, Q3 : -0.000346952030668, Q4 : -0.00101039500441}
2019-04-14 12:12:17.31: SIM {TimeUS : 48134072, Roll : -0.05, Pitch : -0.05, Yaw : 359.88, Alt : 39.5800018311, Lat : 49.2835704, Lng : -123.1150206, Q1 : 0.99999922514, Q2 : -0.00049993704306, Q3 : -0.00046408502385, Q4 : -0.00104578328319}
2019-04-14 12:12:17.41: SIM {TimeUS : 48234032, Roll : -0.04, Pitch : -0.04, Yaw : 359.87, Alt : 39.8100013733, Lat : 49.2835704, Lng : -123.1150206, Q1 : 0.99999922514, Q2 : -0.000434575136751, Q3 : -0.000416906783357, Q4 : -0.00107540294994}
2019-04-14 12:12:17.52: SIM {TimeUS : 48334825, Roll : -0.06, Pitch : -0.02, Yaw : 359.87, Alt : 40.0400009155, Lat : 49.2835704, Lng : -123.1150206, Q1 : 0.99999922514, Q2 : -0.000545300601516, Q3 : -0.000176632733201, Q4 : -0.00110601575579}
2019-04-14 12:12:17.61: SIM {TimeUS : 48434785, Roll : -0.06, Pitch : 0.01, Yaw : 359.86, Alt : 40.2700004578, Lat : 49.2835704, Lng : -123.1150206, Q1 : 0.99999922514, Q2 : -0.000549465825316, Q3 : 0.000103259248135, Q4 : -0.00114006025251}
2019-04-14 12:12:17.71: SIM {TimeUS : 48534745, Roll : -0.04, Pitch : 0.05, Yaw : 359.86, Alt : 40.5099983215, Lat : 49.2835704, Lng : -123.1150206, Q1 : 0.99999910593, Q2 : -0.000426101934863, Q3 : 0.00044854026055, Q4 : -0.00118238374125}
2019-04-14 12:12:17.81: SIM {TimeUS : 48634705, Roll : -0.03, Pitch : 0.06, Yaw : 359.86, Alt : 40.7400016785, Lat : 49.2835704, Lng : -123.1150207, Q1 : 0.999999046326, Q2 : -0.000268233969109, Q3 : 0.000601906271186, Q4 : -0.00121842091903}
2019-04-14 12:12:17.91: SIM {TimeUS : 48734665, Roll : 0.0, Pitch : 0.07, Yaw : 359.85, Alt : 40.9700012207, Lat : 49.2835704, Lng : -123.1150207, Q1 : 0.999999046326, Q2 : 4.51778078059e-06, Q3 : 0.000616739038378, Q4 : -0.00125253503211}
2019-04-14 12:12:18.01: SIM {TimeUS : 48834625, Roll : 0.03, Pitch : 0.08, Yaw : 359.85, Alt : 41.2000007629, Lat : 49.2835704, Lng : -123.1150207, Q1 : 0.999998867512, Q2 : 0.000336730765412, Q3 : 0.000714448397048, Q4 : -0.00128384225536}
2019-04-14 12:12:18.11: SIM {TimeUS : 48934585, Roll : 0.08, Pitch : 0.1, Yaw : 359.84, Alt : 41.4399986267, Lat : 49.2835704, Lng : -123.1150207, Q1 : 0.999998450279, Q2 : 0.000746169651393, Q3 : 0.000921324361116, Q4 : -0.0013128623832}
2019-04-14 12:12:18.21: SIM {TimeUS : 49034545, Roll : 0.11, Pitch : 0.12, Yaw : 359.84, Alt : 41.6699981689, Lat : 49.2835704, Lng : -123.1150207, Q1 : 0.999998033047, Q2 : 0.000967953528743, Q3 : 0.00111085281242, Q4 : -0.00134127039928}
2019-04-14 12:12:18.31: SIM {TimeUS : 49134505, Roll : 0.09, Pitch : 0.14, Yaw : 359.84, Alt : 41.9099998474, Lat : 49.2835706, Lng : -123.1150207, Q1 : 0.999997973442, Q2 : 0.000837853935082, Q3 : 0.00122724857647, Q4 : -0.00135593803134}
2019-04-14 12:12:18.41: SIM {TimeUS : 49234465, Roll : 0.05, Pitch : 0.14, Yaw : 359.84, Alt : 42.1399993896, Lat : 49.2835706, Lng : -123.1150207, Q1 : 0.999998152256, Q2 : 0.00044807663653, Q3 : 0.00129767425824, Q4 : -0.00136486394331}
2019-04-14 12:12:18.51: SIM {TimeUS : 49334425, Roll : 0.0, Pitch : 0.14, Yaw : 359.84, Alt : 42.3699989319, Lat : 49.2835706, Lng : -123.1150207, Q1 : 0.999998211861, Q2 : 4.98037625221e-05, Q3 : 0.00130731589161, Q4 : -0.00137779500801}
2019-04-14 12:12:18.61: SIM {TimeUS : 49434385, Roll : -0.01, Pitch : 0.11, Yaw : 359.84, Alt : 42.6100006104, Lat : 49.2835706, Lng : -123.1150207, Q1 : 0.999998509884, Q2 : -0.000124188853079, Q3 : 0.00103859498631, Q4 : -0.00139034248423}
2019-04-14 12:12:18.71: SIM {TimeUS : 49534345, Roll : -0.01, Pitch : 0.07, Yaw : 359.83, Alt : 42.8400001526, Lat : 49.2835704, Lng : -123.1150207, Q1 : 0.999998807907, Q2 : -0.000121479359223, Q3 : 0.000621343264356, Q4 : -0.0014053870691}
2019-04-14 12:12:18.81: SIM {TimeUS : 49634305, Roll : 0.0, Pitch : 0.06, Yaw : 359.83, Alt : 43.0800018311, Lat : 49.2835704, Lng : -123.1150207, Q1 : 0.999998867512, Q2 : -3.34616997861e-05, Q3 : 0.000545301067177, Q4 : -0.00142532493919}
2019-04-14 12:12:18.91: SIM {TimeUS : 49734265, Roll : 0.02, Pitch : 0.08, Yaw : 359.83, Alt : 43.3100013733, Lat : 49.2835704, Lng : -123.1150207, Q1 : 0.999998629093, Q2 : 0.000240363951889, Q3 : 0.0007407789235, Q4 : -0.00145347742364}
2019-04-14 12:12:19.01: SIM {TimeUS : 49834225, Roll : 0.08, Pitch : 0.11, Yaw : 359.83, Alt : 43.5499992371, Lat : 49.2835704, Lng : -123.1150207, Q1 : 0.999998152256, Q2 : 0.000705119688064, Q3 : 0.000995949376374, Q4 : -0.00147897063289}
2019-04-14 12:12:19.11: SIM {TimeUS : 49934185, Roll : 0.12, Pitch : 0.11, Yaw : 359.82, Alt : 43.7799987793, Lat : 49.2835704, Lng : -123.1150207, Q1 : 0.999997794628, Q2 : 0.00105189753231, Q3 : 0.00104006100446, Q4 : -0.0015113906702}
2019-04-14 12:12:19.21: SIM {TimeUS : 50034145, Roll : 0.12, Pitch : 0.1, Yaw : 359.82, Alt : 44.0200004578, Lat : 49.2835704, Lng : -123.1150207, Q1 : 0.999997794628, Q2 : 0.00105831003748, Q3 : 0.000945558655076, Q4 : -0.001541691483}
2019-04-14 12:12:19.31: SIM {TimeUS : 50134105, Roll : 0.07, Pitch : 0.08, Yaw : 359.82, Alt : 44.2599983215, Lat : 49.2835704, Lng : -123.1150207, Q1 : 0.999998211861, Q2 : 0.000696741626598, Q3 : 0.000776106491685, Q4 : -0.00155875261407}
2019-04-14 12:12:19.41: SIM {TimeUS : 50234065, Roll : 0.01, Pitch : 0.06, Yaw : 359.81, Alt : 44.4900016785, Lat : 49.2835704, Lng : -123.1150207, Q1 : 0.999998569489, Q2 : 0.000163307355251, Q3 : 0.000580757448915, Q4 : -0.00157231767662}
2019-04-14 12:12:19.51: SIM {TimeUS : 50334025, Roll : -0.02, Pitch : 0.05, Yaw : 359.81, Alt : 44.7299995422, Lat : 49.2835704, Lng : -123.1150206, Q1 : 0.999998629093, Q2 : -0.000198268127861, Q3 : 0.000473878200864, Q4 : -0.00158735166769}
2019-04-14 12:12:19.61: SIM {TimeUS : 50434818, Roll : -0.04, Pitch : 0.04, Yaw : 359.81, Alt : 44.9700012207, Lat : 49.2835704, Lng : -123.1150206, Q1 : 0.999998569489, Q2 : -0.000387950363802, Q3 : 0.000354396441253, Q4 : -0.00160641537514}
2019-04-14 12:12:19.71: SIM {TimeUS : 50534778, Roll : -0.03, Pitch : 0.01, Yaw : 359.81, Alt : 45.2000007629, Lat : 49.2835704, Lng : -123.1150206, Q1 : 0.999998569489, Q2 : -0.000346041546436, Q3 : 0.000163068209076, Q4 : -0.00164267979562}
2019-04-14 12:12:19.81: SIM {TimeUS : 50634738, Roll : -0.04, Pitch : 0.0, Yaw : 359.8, Alt : 45.4399986267, Lat : 49.2835704, Lng : -123.1150206, Q1 : 0.999998509884, Q2 : -0.000384141108952, Q3 : 1.85565731954e-05, Q4 : -0.00168481690343}
2019-04-14 12:12:19.91: SIM {TimeUS : 50734698, Roll : -0.03, Pitch : 0.0, Yaw : 359.8, Alt : 45.6699981689, Lat : 49.2835704, Lng : -123.1150206, Q1 : 0.999998450279, Q2 : -0.000308284652419, Q3 : -5.00527930853e-05, Q4 : -0.00172625773121}
2019-04-14 12:12:20.01: SIM {TimeUS : 50834658, Roll : -0.01, Pitch : 0.0, Yaw : 359.79, Alt : 45.9099998474, Lat : 49.2835703, Lng : -123.1150206, Q1 : 0.999998450279, Q2 : -0.000139390773256, Q3 : -2.76831342489e-05, Q4 : -0.00176740810275}
2019-04-14 12:12:20.11: SIM {TimeUS : 50934618, Roll : -0.01, Pitch : 0.0, Yaw : 359.79, Alt : 46.1399993896, Lat : 49.2835703, Lng : -123.1150206, Q1 : 0.999998390675, Q2 : -0.000109771979623, Q3 : 6.8370201916e-05, Q4 : -0.00179927051067}
2019-04-14 12:12:20.21: SIM {TimeUS : 51034578, Roll : -0.01, Pitch : 0.0, Yaw : 359.79, Alt : 46.3600006104, Lat : 49.2835703, Lng : -123.1150205, Q1 : 0.99999833107, Q2 : -0.000156908849021, Q3 : 4.92177678098e-05, Q4 : -0.00182284344919}
2019-04-14 12:12:20.31: SIM {TimeUS : 51134538, Roll : -0.02, Pitch : -0.01, Yaw : 359.78, Alt : 46.5800018311, Lat : 49.2835703, Lng : -123.1150205, Q1 : 0.999998271465, Q2 : -0.000225628755288, Q3 : -9.44819694269e-05, Q4 : -0.00184180308133}
2019-04-14 12:12:20.41: SIM {TimeUS : 51234498, Roll : -0.02, Pitch : -0.02, Yaw : 359.78, Alt : 46.7999992371, Lat : 49.2835703, Lng : -123.1150205, Q1 : 0.999998271465, Q2 : -0.000222463131649, Q3 : -0.000179025446414, Q4 : -0.00186092057265}
2019-04-14 12:12:20.51: SIM {TimeUS : 51334458, Roll : -0.02, Pitch : -0.02, Yaw : 359.78, Alt : 47.0099983215, Lat : 49.2835703, Lng : -123.1150205, Q1 : 0.999998211861, Q2 : -0.000176445639227, Q3 : -0.00022664401331, Q4 : -0.00187974481378}
2019-04-14 12:12:20.61: SIM {TimeUS : 51434418, Roll : -0.02, Pitch : -0.02, Yaw : 359.78, Alt : 47.2099990845, Lat : 49.2835703, Lng : -123.1150205, Q1 : 0.999998152256, Q2 : -0.000255195656791, Q3 : -0.000207373668673, Q4 : -0.00189892330673}
2019-04-14 12:12:20.71: SIM {TimeUS : 51534378, Roll : -0.05, Pitch : -0.01, Yaw : 359.77, Alt : 47.4099998474, Lat : 49.2835703, Lng : -123.1150205, Q1 : 0.999998033047, Q2 : -0.000479941954836, Q3 : -0.000140611824463, Q4 : -0.00192185060587}
2019-04-14 12:12:20.81: SIM {TimeUS : 51634338, Roll : -0.09, Pitch : -0.01, Yaw : 359.77, Alt : 47.5900001526, Lat : 49.2835703, Lng : -123.1150205, Q1 : 0.999997735023, Q2 : -0.000821445253678, Q3 : -0.000122028497572, Q4 : -0.00194953544997}
2019-04-14 12:12:20.91: SIM {TimeUS : 51734298, Roll : -0.14, Pitch : -0.03, Yaw : 359.77, Alt : 47.7700004578, Lat : 49.2835703, Lng : -123.1150205, Q1 : 0.999997198582, Q2 : -0.0012569532264, Q3 : -0.000291941221803, Q4 : -0.00198403489776}
2019-04-14 12:12:21.01: SIM {TimeUS : 51834258, Roll : -0.17, Pitch : -0.04, Yaw : 359.76, Alt : 47.9300003052, Lat : 49.2835703, Lng : -123.1150205, Q1 : 0.999996781349, Q2 : -0.00151286879554, Q3 : -0.000373376737116, Q4 : -0.00201904890127}
2019-04-14 12:12:21.11: SIM {TimeUS : 51934218, Roll : -0.17, Pitch : -0.03, Yaw : 359.76, Alt : 48.0900001526, Lat : 49.2835703, Lng : -123.1150205, Q1 : 0.99999666214, Q2 : -0.0015533050755, Q3 : -0.000291922042379, Q4 : -0.00205120560713}
2019-04-14 12:12:21.21: SIM {TimeUS : 52034178, Roll : -0.15, Pitch : -0.02, Yaw : 359.76, Alt : 48.2299995422, Lat : 49.2835703, Lng : -123.1150205, Q1 : 0.999996840954, Q2 : -0.00138723989949, Q3 : -0.000186398829101, Q4 : -0.00208351900801}
2019-04-14 12:12:21.31: SIM {TimeUS : 52134138, Roll : -0.12, Pitch : -0.01, Yaw : 359.75, Alt : 48.3600006104, Lat : 49.2835703, Lng : -123.1150205, Q1 : 0.999997138977, Q2 : -0.00112779694609, Q3 : -0.000132389817736, Q4 : -0.00211366522126}
2019-04-14 12:12:21.41: SIM {TimeUS : 52234098, Roll : -0.1, Pitch : -0.01, Yaw : 359.75, Alt : 48.4700012207, Lat : 49.2835703, Lng : -123.1150205, Q1 : 0.999997258186, Q2 : -0.000905289431103, Q3 : -0.000143051947816, Q4 : -0.00214391550981}
2019-04-14 12:12:21.51: SIM {TimeUS : 52334058, Roll : -0.07, Pitch : -0.02, Yaw : 359.75, Alt : 48.5800018311, Lat : 49.2835703, Lng : -123.1150205, Q1 : 0.999997377396, Q2 : -0.000663870421704, Q3 : -0.000249906734098, Q4 : -0.00217652390711}
2019-04-14 12:12:21.62: SIM {TimeUS : 52434851, Roll : -0.04, Pitch : -0.04, Yaw : 359.74, Alt : 48.6699981689, Lat : 49.2835703, Lng : -123.1150205, Q1 : 0.999997437, Q2 : -0.00037332487409, Q3 : -0.000358995224815, Q4 : -0.0022051455453}
2019-04-14 12:12:21.71: SIM {TimeUS : 52534811, Roll : -0.02, Pitch : -0.05, Yaw : 359.74, Alt : 48.75, Lat : 49.2835703, Lng : -123.1150205, Q1 : 0.999997377396, Q2 : -0.000201833783649, Q3 : -0.000472090701805, Q4 : -0.00222682650201}
2019-04-14 12:12:21.81: SIM {TimeUS : 52634771, Roll : -0.02, Pitch : -0.07, Yaw : 359.74, Alt : 48.8199996948, Lat : 49.2835703, Lng : -123.1150205, Q1 : 0.999997258186, Q2 : -0.000240760637098, Q3 : -0.000616373086814, Q4 : -0.00224164733663}
2019-04-14 12:12:21.91: SIM {TimeUS : 52734731, Roll : 0.0, Pitch : -0.07, Yaw : 359.74, Alt : 48.8800010681, Lat : 49.2835703, Lng : -123.1150206, Q1 : 0.999997258186, Q2 : -7.26482903701e-05, Q3 : -0.000638752360828, Q4 : -0.00225765700452}
2019-04-14 12:12:22.01: SIM {TimeUS : 52834691, Roll : 0.02, Pitch : -0.06, Yaw : 359.73, Alt : 48.9300003052, Lat : 49.2835703, Lng : -123.1150206, Q1 : 0.999997258186, Q2 : 0.00017509656027, Q3 : -0.000560797052458, Q4 : -0.00227248319425}
2019-04-14 12:12:22.11: SIM {TimeUS : 52934651, Roll : 0.04, Pitch : -0.05, Yaw : 359.73, Alt : 48.9799995422, Lat : 49.2835703, Lng : -123.1150206, Q1 : 0.999997198582, Q2 : 0.000431506428868, Q3 : -0.000445420708274, Q4 : -0.00228659808636}
2019-04-14 12:12:22.21: SIM {TimeUS : 53034611, Roll : 0.1, Pitch : -0.07, Yaw : 359.73, Alt : 49.0200004578, Lat : 49.2835703, Lng : -123.1150206, Q1 : 0.999996721745, Q2 : 0.000895435689017, Q3 : -0.000660826335661, Q4 : -0.0022998561617}
2019-04-14 12:12:22.31: SIM {TimeUS : 53134571, Roll : 0.29, Pitch : -0.24, Yaw : 359.73, Alt : 49.0499992371, Lat : 49.2835703, Lng : -123.1150206, Q1 : 0.999991714954, Q2 : 0.00258449278772, Q3 : -0.00211526150815, Q4 : -0.00232089706697}
2019-04-14 12:12:22.41: SIM {TimeUS : 53234531, Roll : 0.68, Pitch : -0.61, Yaw : 359.72, Alt : 49.0800018311, Lat : 49.2835703, Lng : -123.1150206, Q1 : 0.999965310097, Q2 : 0.00592367677018, Q3 : -0.0053605674766, Q4 : -0.00234645558521}
2019-04-14 12:12:22.51: SIM {TimeUS : 53334491, Roll : 1.23, Pitch : -1.15, Yaw : 359.71, Alt : 49.0999984741, Lat : 49.2835704, Lng : -123.1150206, Q1 : 0.999888539314, Q2 : 0.0107334619388, Q3 : -0.0101049179211, Q4 : -0.00236821174622}
2019-04-14 12:12:22.61: SIM {TimeUS : 53434451, Roll : 1.92, Pitch : -1.81, Yaw : 359.69, Alt : 49.1300010681, Lat : 49.2835704, Lng : -123.1150205, Q1 : 0.999730706215, Q2 : 0.0167887229472, Q3 : -0.0158457513899, Q4 : -0.00236597075127}
2019-04-14 12:12:22.71: SIM {TimeUS : 53534411, Roll : 2.68, Pitch : -2.5, Yaw : 359.67, Alt : 49.1399993896, Lat : 49.2835704, Lng : -123.1150205, Q1 : 0.999483287334, Q2 : 0.0233766566962, Q3 : -0.021942416206, Q4 : -0.0023062126711}
2019-04-14 12:12:22.81: SIM {TimeUS : 53634371, Roll : 3.37, Pitch : -3.13, Yaw : 359.65, Alt : 49.1599998474, Lat : 49.2835706, Lng : -123.1150203, Q1 : 0.999190032482, Q2 : 0.0293821636587, Q3 : -0.0274088568985, Q4 : -0.00217587896623}
2019-04-14 12:12:22.91: SIM {TimeUS : 53734331, Roll : 3.94, Pitch : -3.61, Yaw : 359.64, Alt : 49.1699981689, Lat : 49.2835708, Lng : -123.1150201, Q1 : 0.998910844326, Q2 : 0.0342879556119, Q3 : -0.03158506006, Q4 : -0.00197384227067}
2019-04-14 12:12:23.01: SIM {TimeUS : 53834291, Roll : 4.36, Pitch : -3.96, Yaw : 359.65, Alt : 49.1800003052, Lat : 49.2835709, Lng : -123.11502, Q1 : 0.998676836491, Q2 : 0.037959959358, Q3 : -0.0346505306661, Q4 : -0.00171712203883}
2019-04-14 12:12:23.11: SIM {TimeUS : 53934251, Roll : 4.68, Pitch : -4.25, Yaw : 359.66, Alt : 49.2000007629, Lat : 49.2835712, Lng : -123.1150196, Q1 : 0.998478472233, Q2 : 0.0406968146563, Q3 : -0.0371817424893, Q4 : -0.00143758265767}
2019-04-14 12:12:23.21: SIM {TimeUS : 54034211, Roll : 4.92, Pitch : -4.5, Yaw : 359.67, Alt : 49.2000007629, Lat : 49.2835715, Lng : -123.1150192, Q1 : 0.998303949833, Q2 : 0.0428253859282, Q3 : -0.0394196137786, Q4 : -0.00115289923269}
2019-04-14 12:12:23.31: SIM {TimeUS : 54134171, Roll : 5.16, Pitch : -4.78, Yaw : 359.68, Alt : 49.2099990845, Lat : 49.2835718, Lng : -123.1150186, Q1 : 0.998113453388, Q2 : 0.0449303649366, Q3 : -0.0418345332146, Q4 : -0.000870454183314}
2019-04-14 12:12:23.41: SIM {TimeUS : 54234131, Roll : 5.43, Pitch : -5.06, Yaw : 359.69, Alt : 49.2200012207, Lat : 49.2835721, Lng : -123.115018, Q1 : 0.997899472713, Q2 : 0.0472623631358, Q3 : -0.0443008728325, Q4 : -0.000577072671149}
2019-04-14 12:12:23.51: SIM {TimeUS : 54334091, Roll : 5.69, Pitch : -5.31, Yaw : 359.7, Alt : 49.2299995422, Lat : 49.2835726, Lng : -123.1150173, Q1 : 0.99769359827, Q2 : 0.0494967848063, Q3 : -0.0464486926794, Q4 : -0.000273027486401}
2019-04-14 12:12:23.61: SIM {TimeUS : 54434051, Roll : 5.89, Pitch : -5.51, Yaw : 359.71, Alt : 49.2299995422, Lat : 49.2835731, Lng : -123.1150165, Q1 : 0.997522115707, Q2 : 0.0512668378651, Q3 : -0.0481798909605, Q4 : 3.1916347325e-06}
2019-04-14 12:12:23.72: SIM {TimeUS : 54534844, Roll : 6.05, Pitch : -5.65, Yaw : 359.72, Alt : 49.2400016785, Lat : 49.2835735, Lng : -123.1150157, Q1 : 0.997391700745, Q2 : 0.0526269003749, Q3 : -0.0493982620537, Q4 : 0.000242055422859}
2019-04-14 12:12:23.81: SIM {TimeUS : 54634804, Roll : 6.15, Pitch : -5.74, Yaw : 359.73, Alt : 49.2400016785, Lat : 49.2835741, Lng : -123.1150147, Q1 : 0.997305929661, Q2 : 0.0534860342741, Q3 : -0.0501998625696, Q4 : 0.000415944465203}
2019-04-14 12:12:23.91: SIM {TimeUS : 54734764, Roll : 6.23, Pitch : -5.83, Yaw : 359.74, Alt : 49.25, Lat : 49.2835747, Lng : -123.1150137, Q1 : 0.997228503227, Q2 : 0.0541865192354, Q3 : -0.0509799830616, Q4 : 0.00051162193995}
2019-04-14 12:12:24.01: SIM {TimeUS : 54834724, Roll : 6.34, Pitch : -5.95, Yaw : 359.73, Alt : 49.25, Lat : 49.2835755, Lng : -123.1150126, Q1 : 0.997126698494, Q2 : 0.0551219247282, Q3 : -0.0519576482475, Q4 : 0.000554736761842}
2019-04-14 12:12:24.11: SIM {TimeUS : 54934684, Roll : 6.64, Pitch : -5.98, Yaw : 359.83, Alt : 49.25, Lat : 49.2835762, Lng : -123.1150114, Q1 : 0.99696201086, Q2 : 0.0577575191855, Q3 : -0.0522347539663, Q4 : 0.00157180824317}
2019-04-14 12:12:24.21: SIM {TimeUS : 55034644, Roll : 7.18, Pitch : -5.87, Yaw : 0.54, Alt : 49.2599983215, Lat : 49.283577, Lng : -123.1150101, Q1 : 0.996694743633, Q2 : 0.0628374963999, Q3 : -0.0508724376559, Q4 : 0.00793809536844}
2019-04-14 12:12:24.31: SIM {TimeUS : 55134604, Roll : 7.82, Pitch : -5.85, Yaw : 2.53, Alt : 49.2599983215, Lat : 49.2835777, Lng : -123.1150088, Q1 : 0.996049404144, Q2 : 0.0692481994629, Q3 : -0.0493944212794, Q4 : 0.0255035459995}
2019-04-14 12:12:24.41: SIM {TimeUS : 55234564, Roll : 8.22, Pitch : -6.2, Yaw : 6.11, Alt : 49.2599983215, Lat : 49.2835786, Lng : -123.1150072, Q1 : 0.994337916374, Q2 : 0.074421800673, Q3 : -0.050080370158, Q4 : 0.0569693669677}
2019-04-14 12:12:24.51: SIM {TimeUS : 55334524, Roll : 8.17, Pitch : -7.0, Yaw : 11.2, Alt : 49.2599983215, Lat : 49.2835794, Lng : -123.1150058, Q1 : 0.990411698818, Q2 : 0.0767812505364, Q3 : -0.053727786988, Q4 : 0.101501584053}
2019-04-14 12:12:24.61: SIM {TimeUS : 55434484, Roll : 7.51, Pitch : -8.17, Yaw : 17.58, Alt : 49.2599983215, Lat : 49.2835802, Lng : -123.1150041, Q1 : 0.98290681839, Q2 : 0.0754542946815, Q3 : -0.0603192783892, Q4 : 0.156724065542}
2019-04-14 12:12:24.71: SIM {TimeUS : 55534444, Roll : 6.19, Pitch : -9.54, Yaw : 24.99, Alt : 49.2599983215, Lat : 49.2835812, Lng : -123.1150023, Q1 : 0.970530331135, Q2 : 0.0705304965377, Q3 : -0.0694805532694, Q4 : 0.21970166266}
2019-04-14 12:12:24.81: SIM {TimeUS : 55634404, Roll : 4.17, Pitch : -10.89, Yaw : 33.14, Alt : 49.2700004578, Lat : 49.2835822, Lng : -123.1150004, Q1 : 0.95250082016, Q2 : 0.0618540272117, Q3 : -0.0805786773562, Q4 : 0.287094652653}
2019-04-14 12:12:24.91: SIM {TimeUS : 55734364, Roll : 1.37, Pitch : -11.97, Yaw : 41.47, Alt : 49.2700004578, Lat : 49.2835831, Lng : -123.1149984, Q1 : 0.929603993893, Q2 : 0.0481205023825, Q3 : -0.0933465957642, Q4 : 0.35328066349}
2019-04-14 12:12:25.01: SIM {TimeUS : 55834324, Roll : -1.82, Pitch : -12.57, Yaw : 49.09, Alt : 49.2700004578, Lat : 49.2835842, Lng : -123.1149963, Q1 : 0.904745638371, Q2 : 0.0311158746481, Q3 : -0.106212005019, Q4 : 0.41132247448}
2019-04-14 12:12:25.11: SIM {TimeUS : 55934284, Roll : -4.75, Pitch : -12.7, Yaw : 55.22, Alt : 49.2700004578, Lat : 49.2835854, Lng : -123.1149941, Q1 : 0.882032990456, Q2 : 0.0146974669769, Q3 : -0.11706764251, Q4 : 0.456176489592}
2019-04-14 12:12:25.21: SIM {TimeUS : 56034244, Roll : -6.84, Pitch : -12.55, Yaw : 59.39, Alt : 49.2700004578, Lat : 49.2835866, Lng : -123.1149919, Q1 : 0.865137398243, Q2 : 0.00253181322478, Q3 : -0.124247513711, Q4 : 0.485894441605}
2019-04-14 12:12:25.31: SIM {TimeUS : 56134204, Roll : -7.85, Pitch : -12.41, Yaw : 61.58, Alt : 49.2700004578, Lat : 49.2835879, Lng : -123.1149897, Q1 : 0.855797767639, Q2 : -0.00327432458289, Q3 : -0.127489954233, Q4 : 0.501344025135}
2019-04-14 12:12:25.41: SIM {TimeUS : 56234164, Roll : -7.83, Pitch : -12.46, Yaw : 62.03, Alt : 49.2700004578, Lat : 49.2835893, Lng : -123.1149875, Q1 : 0.85378164053, Q2 : -0.00240365369245, Q3 : -0.127786383033, Q4 : 0.504699766636}
2019-04-14 12:12:25.51: SIM {TimeUS : 56334124, Roll : -7.02, Pitch : -12.78, Yaw : 61.1, Alt : 49.2700004578, Lat : 49.2835909, Lng : -123.1149852, Q1 : 0.857672154903, Q2 : 0.00408639432862, Q3 : -0.126681357622, Q4 : 0.498330920935}
2019-04-14 12:12:25.61: SIM {TimeUS : 56434084, Roll : -5.66, Pitch : -13.35, Yaw : 59.13, Alt : 49.2700004578, Lat : 49.2835926, Lng : -123.1149829, Q1 : 0.865645110607, Q2 : 0.0146043542773, Q3 : -0.125248804688, Q4 : 0.484518289566}
2019-04-14 12:12:25.71: SIM {TimeUS : 56534044, Roll : -3.97, Pitch : -14.06, Yaw : 56.46, Alt : 49.2700004578, Lat : 49.2835943, Lng : -123.1149805, Q1 : 0.875894546509, Q2 : 0.0275723133236, Q3 : -0.124049976468, Q4 : 0.465467661619}
2019-04-14 12:12:25.82: SIM {TimeUS : 56634837, Roll : -2.12, Pitch : -14.76, Yaw : 53.37, Alt : 49.2799987793, Lat : 49.283596, Lng : -123.114978, Q1 : 0.886996090412, Q2 : 0.0413056015968, Q3 : -0.12304816395, Q4 : 0.443160206079}
2019-04-14 12:12:25.91: SIM {TimeUS : 56734797, Roll : -0.32, Pitch : -15.32, Yaw : 50.22, Alt : 49.2799987793, Lat : 49.2835978, Lng : -123.1149755, Q1 : 0.89754652977, Q2 : 0.0540400110185, Q3 : -0.121967129409, Q4 : 0.420254707336}
2019-04-14 12:12:26.01: SIM {TimeUS : 56834757, Roll : 1.25, Pitch : -15.68, Yaw : 47.33, Alt : 49.2799987793, Lat : 49.2835996, Lng : -123.1149729, Q1 : 0.906673312187, Q2 : 0.0647003427148, Q3 : -0.120620511472, Q4 : 0.399008870125}
2019-04-14 12:12:26.11: SIM {TimeUS : 56934717, Roll : 2.47, Pitch : -15.81, Yaw : 44.98, Alt : 49.2799987793, Lat : 49.2836016, Lng : -123.1149701, Q1 : 0.913805007935, Q2 : 0.0723534673452, Q3 : -0.11893364042, Q4 : 0.381549745798}
2019-04-14 12:12:26.21: SIM {TimeUS : 57034677, Roll : 3.24, Pitch : -15.79, Yaw : 43.34, Alt : 49.2799987793, Lat : 49.2836036, Lng : -123.1149672, Q1 : 0.918692052364, Q2 : 0.0767962262034, Q3 : -0.117278151214, Q4 : 0.36926022172}
2019-04-14 12:12:26.31: SIM {TimeUS : 57134637, Roll : 3.55, Pitch : -15.71, Yaw : 42.48, Alt : 49.2799987793, Lat : 49.2836055, Lng : -123.1149642, Q1 : 0.921332597733, Q2 : 0.0781183168292, Q3 : -0.116273544729, Q4 : 0.362662792206}
2019-04-14 12:12:26.41: SIM {TimeUS : 57234597, Roll : 3.41, Pitch : -15.66, Yaw : 42.35, Alt : 49.2799987793, Lat : 49.2836074, Lng : -123.114961, Q1 : 0.921897113323, Q2 : 0.0766989514232, Q3 : -0.116376936436, Q4 : 0.361496150494}
2019-04-14 12:12:26.51: SIM {TimeUS : 57334557, Roll : 2.92, Pitch : -15.67, Yaw : 42.84, Alt : 49.2799987793, Lat : 49.2836093, Lng : -123.1149578, Q1 : 0.920645356178, Q2 : 0.0733087509871, Q3 : -0.117700584233, Q4 : 0.364944696426}
2019-04-14 12:12:26.61: SIM {TimeUS : 57434517, Roll : 2.18, Pitch : -15.77, Yaw : 43.79, Alt : 49.2900009155, Lat : 49.2836114, Lng : -123.1149545, Q1 : 0.917934000492, Q2 : 0.0686898455024, Q3 : -0.1202641204, Q4 : 0.371773391962}
2019-04-14 12:12:26.71: SIM {TimeUS : 57534477, Roll : 1.32, Pitch : -15.92, Yaw : 45.02, Alt : 49.2900009155, Lat : 49.2836134, Lng : -123.1149511, Q1 : 0.914228141308, Q2 : 0.0636174455285, Q3 : -0.123544119298, Q4 : 0.380626738071}
2019-04-14 12:12:26.81: SIM {TimeUS : 57634437, Roll : 0.46, Pitch : -16.07, Yaw : 46.34, Alt : 49.2900009155, Lat : 49.2836153, Lng : -123.1149476, Q1 : 0.910048902035, Q2 : 0.0587588921189, Q3 : -0.126981005073, Q4 : 0.390172123909}
2019-04-14 12:12:26.91: SIM {TimeUS : 57734397, Roll : -0.29, Pitch : -16.21, Yaw : 47.6, Alt : 49.2900009155, Lat : 49.2836175, Lng : -123.114944, Q1 : 0.905933260918, Q2 : 0.0545603781939, Q3 : -0.130034700036, Q4 : 0.399248152971}
2019-04-14 12:12:27.01: SIM {TimeUS : 57834357, Roll : -0.88, Pitch : -16.3, Yaw : 48.67, Alt : 49.2900009155, Lat : 49.2836195, Lng : -123.1149404, Q1 : 0.902342498302, Q2 : 0.0514370687306, Q3 : -0.132347658277, Q4 : 0.406959921122}
2019-04-14 12:12:27.11: SIM {TimeUS : 57934317, Roll : -1.27, Pitch : -16.37, Yaw : 49.46, Alt : 49.2900009155, Lat : 49.2836218, Lng : -123.1149367, Q1 : 0.899603188038, Q2 : 0.0495858639479, Q3 : -0.133951097727, Q4 : 0.412689268589}
2019-04-14 12:12:27.21: SIM {TimeUS : 58034277, Roll : -1.45, Pitch : -16.43, Yaw : 49.94, Alt : 49.2900009155, Lat : 49.2836239, Lng : -123.114933, Q1 : 0.897904455662, Q2 : 0.048903927207, Q3 : -0.134855851531, Q4 : 0.416160941124}
2019-04-14 12:12:27.31: SIM {TimeUS : 58134237, Roll : -1.47, Pitch : -16.48, Yaw : 50.1, Alt : 49.2900009155, Lat : 49.2836262, Lng : -123.1149293, Q1 : 0.897269546986, Q2 : 0.0491724908352, Q3 : -0.135220691562, Q4 : 0.4173784554}
2019-04-14 12:12:27.41: SIM {TimeUS : 58234197, Roll : -1.32, Pitch : -16.5, Yaw : 49.98, Alt : 49.2900009155, Lat : 49.2836285, Lng : -123.1149255, Q1 : 0.897610664368, Q2 : 0.0502287261188, Q3 : -0.134927690029, Q4 : 0.416613399982}
2019-04-14 12:12:27.51: SIM {TimeUS : 58334157, Roll : -1.05, Pitch : -16.51, Yaw : 49.65, Alt : 49.2900009155, Lat : 49.2836308, Lng : -123.1149217, Q1 : 0.898693263531, Q2 : 0.0520553663373, Q3 : -0.134128212929, Q4 : 0.414307028055}
2019-04-14 12:12:27.61: SIM {TimeUS : 58434117, Roll : -0.71, Pitch : -16.52, Yaw : 49.17, Alt : 49.2900009155, Lat : 49.2836332, Lng : -123.1149179, Q1 : 0.900252640247, Q2 : 0.054169587791, Q3 : -0.133241325617, Q4 : 0.410922884941}
2019-04-14 12:12:27.71: SIM {TimeUS : 58534077, Roll : -0.35, Pitch : -16.55, Yaw : 48.62, Alt : 49.2900009155, Lat : 49.2836354, Lng : -123.114914, Q1 : 0.90200150013, Q2 : 0.0565059557557, Q3 : -0.13241699338, Q4 : 0.407021015882}
2019-04-14 12:12:27.81: SIM {TimeUS : 58634037, Roll : 0.01, Pitch : -16.58, Yaw : 48.07, Alt : 49.2900009155, Lat : 49.2836378, Lng : -123.1149101, Q1 : 0.903715968132, Q2 : 0.0588688179851, Q3 : -0.131619438529, Q4 : 0.403123021126}
2019-04-14 12:12:27.92: SIM {TimeUS : 58734830, Roll : 0.32, Pitch : -16.6, Yaw : 47.58, Alt : 49.2900009155, Lat : 49.2836403, Lng : -123.114906, Q1 : 0.905245125294, Q2 : 0.0608282573521, Q3 : -0.13100746274, Q4 : 0.399585098028}
2019-04-14 12:12:28.01: SIM {TimeUS : 58834790, Roll : 0.52, Pitch : -16.64, Yaw : 47.2, Alt : 49.2900009155, Lat : 49.2836427, Lng : -123.114902, Q1 : 0.906423270702, Q2 : 0.0621445737779, Q3 : -0.130843341351, Q4 : 0.396755486727}
2019-04-14 12:12:28.11: SIM {TimeUS : 58934750, Roll : 0.63, Pitch : -16.7, Yaw : 46.94, Alt : 49.2900009155, Lat : 49.2836451, Lng : -123.114898, Q1 : 0.907199323177, Q2 : 0.0628694519401, Q3 : -0.131076306105, Q4 : 0.394785791636}
2019-04-14 12:12:28.21: SIM {TimeUS : 59034710, Roll : 0.65, Pitch : -16.77, Yaw : 46.81, Alt : 49.2900009155, Lat : 49.2836476, Lng : -123.1148939, Q1 : 0.907552421093, Q2 : 0.0631093457341, Q3 : -0.131672620773, Q4 : 0.393736153841}
2019-04-14 12:12:28.31: SIM {TimeUS : 59134670, Roll : 0.59, Pitch : -16.83, Yaw : 46.79, Alt : 49.2900009155, Lat : 49.28365, Lng : -123.1148897, Q1 : 0.907555699348, Q2 : 0.0628227218986, Q3 : -0.132350072265, Q4 : 0.393547177315}
2019-04-14 12:12:28.41: SIM {TimeUS : 59234630, Roll : 0.48, Pitch : -16.88, Yaw : 46.88, Alt : 49.2900009155, Lat : 49.2836525, Lng : -123.1148856, Q1 : 0.907263100147, Q2 : 0.062228500843, Q3 : -0.133011668921, Q4 : 0.394092857838}
2019-04-14 12:12:28.51: SIM {TimeUS : 59334590, Roll : 0.35, Pitch : -16.91, Yaw : 47.04, Alt : 49.2900009155, Lat : 49.2836551, Lng : -123.1148813, Q1 : 0.906745016575, Q2 : 0.0615239590406, Q3 : -0.13366022706, Q4 : 0.395174980164}
2019-04-14 12:12:28.61: SIM {TimeUS : 59434550, Roll : 0.22, Pitch : -16.94, Yaw : 47.24, Alt : 49.2900009155, Lat : 49.2836576, Lng : -123.1148771, Q1 : 0.906098127365, Q2 : 0.0608077608049, Q3 : -0.134228229523, Q4 : 0.39657458663}
2019-04-14 12:12:28.71: SIM {TimeUS : 59534510, Roll : 0.1, Pitch : -16.96, Yaw : 47.44, Alt : 49.2900009155, Lat : 49.2836601, Lng : -123.1148728, Q1 : 0.905416369438, Q2 : 0.0601669736207, Q3 : -0.134708791971, Q4 : 0.398063719273}
2019-04-14 12:12:28.81: SIM {TimeUS : 59634470, Roll : 0.0, Pitch : -16.99, Yaw : 47.64, Alt : 49.2999992371, Lat : 49.2836627, Lng : -123.1148686, Q1 : 0.9047768116, Q2 : 0.0596726313233, Q3 : -0.135156422853, Q4 : 0.399438172579}
2019-04-14 12:12:28.91: SIM {TimeUS : 59734430, Roll : -0.08, Pitch : -17.01, Yaw : 47.79, Alt : 49.2999992371, Lat : 49.2836651, Lng : -123.1148642, Q1 : 0.904257535934, Q2 : 0.0592538677156, Q3 : -0.135546296835, Q4 : 0.400542706251}
2019-04-14 12:12:29.01: SIM {TimeUS : 59834390, Roll : -0.14, Pitch : -17.03, Yaw : 47.9, Alt : 49.2999992371, Lat : 49.2836677, Lng : -123.1148599, Q1 : 0.903892159462, Q2 : 0.0589786209166, Q3 : -0.135880082846, Q4 : 0.401294410229}
2019-04-14 12:12:29.11: SIM {TimeUS : 59934350, Roll : -0.17, Pitch : -17.06, Yaw : 47.95, Alt : 49.2999992371, Lat : 49.2836704, Lng : -123.1148556, Q1 : 0.903688669205, Q2 : 0.0589154623449, Q3 : -0.136205032468, Q4 : 0.401651531458}
2019-04-14 12:12:29.21: SIM {TimeUS : 60034310, Roll : -0.18, Pitch : -17.11, Yaw : 47.95, Alt : 49.2999992371, Lat : 49.283673, Lng : -123.1148512, Q1 : 0.903638184071, Q2 : 0.0590264834464, Q3 : -0.136597007513, Q4 : 0.401615709066}
2019-04-14 12:12:29.31: SIM {TimeUS : 60134270, Roll : -0.18, Pitch : -17.15, Yaw : 47.9, Alt : 49.2999992371, Lat : 49.2836755, Lng : -123.1148468, Q1 : 0.903741419315, Q2 : 0.0591479986906, Q3 : -0.13696461916, Q4 : 0.401240229607}
2019-04-14 12:12:29.41: SIM {TimeUS : 60234230, Roll : -0.16, Pitch : -17.18, Yaw : 47.82, Alt : 49.2999992371, Lat : 49.2836782, Lng : -123.1148423, Q1 : 0.90398234129, Q2 : 0.0592466779053, Q3 : -0.137144863605, Q4 : 0.400620937347}
2019-04-14 12:12:29.51: SIM {TimeUS : 60334190, Roll : -0.13, Pitch : -17.19, Yaw : 47.72, Alt : 49.2999992371, Lat : 49.2836808, Lng : -123.1148379, Q1 : 0.904298126698, Q2 : 0.0594291239977, Q3 : -0.137212693691, Q4 : 0.399857223034}
2019-04-14 12:12:29.61: SIM {TimeUS : 60434150, Roll : -0.07, Pitch : -17.22, Yaw : 47.61, Alt : 49.2999992371, Lat : 49.2836834, Lng : -123.1148335, Q1 : 0.904622077942, Q2 : 0.0598547533154, Q3 : -0.137262612581, Q4 : 0.399042993784}
2019-04-14 12:12:29.71: SIM {TimeUS : 60534110, Roll : 0.0, Pitch : -17.25, Yaw : 47.5, Alt : 49.2999992371, Lat : 49.2836861, Lng : -123.114829, Q1 : 0.904928982258, Q2 : 0.0603890158236, Q3 : -0.137323334813, Q4 : 0.398244947195}
2019-04-14 12:12:29.81: SIM {TimeUS : 60634070, Roll : 0.07, Pitch : -17.29, Yaw : 47.4, Alt : 49.3100013733, Lat : 49.2836888, Lng : -123.1148245, Q1 : 0.905185163021, Q2 : 0.0610270425677, Q3 : -0.137413606048, Q4 : 0.397533804178}
2019-04-14 12:12:29.91: SIM {TimeUS : 60734030, Roll : 0.15, Pitch : -17.33, Yaw : 47.32, Alt : 49.3100013733, Lat : 49.2836914, Lng : -123.11482, Q1 : 0.905377626419, Q2 : 0.0617267563939, Q3 : -0.137515440583, Q4 : 0.39695173502}
2019-04-14 12:12:30.02: SIM {TimeUS : 60834823, Roll : 0.2, Pitch : -17.37, Yaw : 47.26, Alt : 49.3100013733, Lat : 49.2836942, Lng : -123.1148154, Q1 : 0.905521571636, Q2 : 0.0621591806412, Q3 : -0.137663021684, Q4 : 0.396504491568}
2019-04-14 12:12:30.11: SIM {TimeUS : 60934783, Roll : 0.2, Pitch : -17.39, Yaw : 47.22, Alt : 49.3100013733, Lat : 49.2836968, Lng : -123.1148109, Q1 : 0.905628323555, Q2 : 0.0621650405228, Q3 : -0.137834653258, Q4 : 0.396200090647}
2019-04-14 12:12:30.21: SIM {TimeUS : 61034743, Roll : 0.16, Pitch : -17.4, Yaw : 47.21, Alt : 49.3100013733, Lat : 49.2836996, Lng : -123.1148063, Q1 : 0.90569126606, Q2 : 0.0619144663215, Q3 : -0.138026744127, Q4 : 0.396028548479}
2019-04-14 12:12:30.31: SIM {TimeUS : 61134703, Roll : 0.15, Pitch : -17.39, Yaw : 47.21, Alt : 49.3100013733, Lat : 49.2837022, Lng : -123.1148018, Q1 : 0.905706346035, Q2 : 0.0617505051196, Q3 : -0.138067260385, Q4 : 0.396005541086}
2019-04-14 12:12:30.41: SIM {TimeUS : 61234663, Roll : 0.13, Pitch : -17.4, Yaw : 47.22, Alt : 49.3100013733, Lat : 49.283705, Lng : -123.1147972, Q1 : 0.905666410923, Q2 : 0.0616464726627, Q3 : -0.138186275959, Q4 : 0.396071493626}
2019-04-14 12:12:30.51: SIM {TimeUS : 61334623, Roll : 0.12, Pitch : -17.44, Yaw : 47.23, Alt : 49.3100013733, Lat : 49.2837077, Lng : -123.1147926, Q1 : 0.90556615591, Q2 : 0.0617318116128, Q3 : -0.138485625386, Q4 : 0.396182894707}
2019-04-14 12:12:30.61: SIM {TimeUS : 61434583, Roll : 0.12, Pitch : -17.5, Yaw : 47.25, Alt : 49.3100013733, Lat : 49.2837105, Lng : -123.114788, Q1 : 0.905420958996, Q2 : 0.0619480907917, Q3 : -0.138987600803, Q4 : 0.396305203438}
2019-04-14 12:12:30.71: SIM {TimeUS : 61534543, Roll : 0.11, Pitch : -17.54, Yaw : 47.27, Alt : 49.3199996948, Lat : 49.2837132, Lng : -123.1147834, Q1 : 0.905323684216, Q2 : 0.0620089434087, Q3 : -0.139300584793, Q4 : 0.396408051252}
2019-04-14 12:12:30.81: SIM {TimeUS : 61634503, Roll : 0.1, Pitch : -17.54, Yaw : 47.28, Alt : 49.3199996948, Lat : 49.283716, Lng : -123.1147786, Q1 : 0.905286550522, Q2 : 0.0619706735015, Q3 : -0.139317929745, Q4 : 0.396492630243}
2019-04-14 12:12:30.91: SIM {TimeUS : 61734463, Roll : 0.09, Pitch : -17.54, Yaw : 47.29, Alt : 49.3199996948, Lat : 49.2837187, Lng : -123.1147741, Q1 : 0.905273616314, Q2 : 0.0618845112622, Q3 : -0.139383882284, Q4 : 0.396512508392}
2019-04-14 12:12:31.01: SIM {TimeUS : 61834423, Roll : 0.07, Pitch : -17.56, Yaw : 47.28, Alt : 49.3199996948, Lat : 49.2837215, Lng : -123.1147694, Q1 : 0.905274152756, Q2 : 0.0617898665369, Q3 : -0.139612942934, Q4 : 0.396445423365}
2019-04-14 12:12:31.11: SIM {TimeUS : 61934383, Roll : 0.07, Pitch : -17.58, Yaw : 47.27, Alt : 49.3199996948, Lat : 49.2837242, Lng : -123.1147648, Q1 : 0.905289769173, Q2 : 0.0618548616767, Q3 : -0.139802828431, Q4 : 0.396332710981}
2019-04-14 12:12:31.21: SIM {TimeUS : 62034343, Roll : 0.07, Pitch : -17.6, Yaw : 47.25, Alt : 49.3199996948, Lat : 49.2837271, Lng : -123.1147601, Q1 : 0.905328691006, Q2 : 0.0619048923254, Q3 : -0.139995932579, Q4 : 0.396167784929}
2019-04-14 12:12:31.31: SIM {TimeUS : 62134303, Roll : 0.07, Pitch : -17.62, Yaw : 47.23, Alt : 49.3199996948, Lat : 49.2837299, Lng : -123.1147554, Q1 : 0.905385792255, Q2 : 0.0619947761297, Q3 : -0.140131264925, Q4 : 0.395975381136}
2019-04-14 12:12:31.41: SIM {TimeUS : 62234263, Roll : 0.09, Pitch : -17.64, Yaw : 47.2, Alt : 49.3199996948, Lat : 49.2837326, Lng : -123.1147506, Q1 : 0.90545552969, Q2 : 0.0621853545308, Q3 : -0.140245139599, Q4 : 0.395745664835}
2019-04-14 12:12:31.51: SIM {TimeUS : 62334223, Roll : 0.12, Pitch : -17.65, Yaw : 47.16, Alt : 49.3199996948, Lat : 49.2837355, Lng : -123.114746, Q1 : 0.905547142029, Q2 : 0.062374535948, Q3 : -0.140240967274, Q4 : 0.395507574081}
2019-04-14 12:12:31.61: SIM {TimeUS : 62434183, Roll : 0.15, Pitch : -17.66, Yaw : 47.13, Alt : 49.3199996948, Lat : 49.2837382, Lng : -123.1147413, Q1 : 0.905632078648, Q2 : 0.062593780458, Q3 : -0.140234589577, Q4 : 0.395280689001}
2019-04-14 12:12:31.71: SIM {TimeUS : 62534143, Roll : 0.17, Pitch : -17.68, Yaw : 47.1, Alt : 49.3199996948, Lat : 49.2837411, Lng : -123.1147365, Q1 : 0.905693650246, Q2 : 0.0628571435809, Q3 : -0.140318021178, Q4 : 0.395068138838}
2019-04-14 12:12:31.81: SIM {TimeUS : 62634103, Roll : 0.18, Pitch : -17.72, Yaw : 47.07, Alt : 49.3199996948, Lat : 49.2837439, Lng : -123.1147318, Q1 : 0.905735433102, Q2 : 0.0630171298981, Q3 : -0.140584468842, Q4 : 0.394852072001}
2019-04-14 12:12:31.91: SIM {TimeUS : 62734063, Roll : 0.17, Pitch : -17.76, Yaw : 47.05, Alt : 49.3199996948, Lat : 49.2837467, Lng : -123.1147271, Q1 : 0.905769884586, Q2 : 0.0629828050733, Q3 : -0.140964820981, Q4 : 0.394642859697}
2019-04-14 12:12:32.01: SIM {TimeUS : 62834023, Roll : 0.15, Pitch : -17.79, Yaw : 47.04, Alt : 49.3199996948, Lat : 49.2837496, Lng : -123.1147223, Q1 : 0.905793488026, Q2 : 0.0629361495376, Q3 : -0.141336292028, Q4 : 0.394463181496}
2019-04-14 12:12:32.11: SIM {TimeUS : 62934816, Roll : 0.15, Pitch : -17.82, Yaw : 47.02, Alt : 49.3199996948, Lat : 49.2837524, Lng : -123.1147175, Q1 : 0.905804097652, Q2 : 0.0630542635918, Q3 : -0.141513437033, Q4 : 0.394356489182}
2019-04-14 12:12:32.21: SIM {TimeUS : 63034776, Roll : 0.18, Pitch : -17.82, Yaw : 47.01, Alt : 49.3300018311, Lat : 49.2837552, Lng : -123.1147128, Q1 : 0.905817270279, Q2 : 0.0632643252611, Q3 : -0.141472026706, Q4 : 0.394307464361}
2019-04-14 12:12:32.31: SIM {TimeUS : 63134736, Roll : 0.2, Pitch : -17.8, Yaw : 47.01, Alt : 49.3300018311, Lat : 49.2837581, Lng : -123.114708, Q1 : 0.905857086182, Q2 : 0.0633262097836, Q3 : -0.141238749027, Q4 : 0.394289761782}
2019-04-14 12:12:32.41: SIM {TimeUS : 63234696, Roll : 0.19, Pitch : -17.78, Yaw : 47.0, Alt : 49.3300018311, Lat : 49.283761, Lng : -123.1147032, Q1 : 0.905894577503, Q2 : 0.0632065907121, Q3 : -0.141120865941, Q4 : 0.394264936447}
2019-04-14 12:12:32.51: SIM {TimeUS : 63334656, Roll : 0.17, Pitch : -17.77, Yaw : 47.0, Alt : 49.3300018311, Lat : 49.2837638, Lng : -123.1146984, Q1 : 0.905924499035, Q2 : 0.0630369186401, Q3 : -0.141100853682, Q4 : 0.394230544567}
2019-04-14 12:12:32.61: SIM {TimeUS : 63434616, Roll : 0.16, Pitch : -17.77, Yaw : 47.0, Alt : 49.3300018311, Lat : 49.2837667, Lng : -123.1146936, Q1 : 0.905952274799, Q2 : 0.0629059001803, Q3 : -0.14109313488, Q4 : 0.394190371037}
2019-04-14 12:12:32.71: SIM {TimeUS : 63534576, Roll : 0.15, Pitch : -17.78, Yaw : 46.99, Alt : 49.3300018311, Lat : 49.2837696, Lng : -123.1146888, Q1 : 0.905959308147, Q2 : 0.0628531500697, Q3 : -0.141232684255, Q4 : 0.394132703543}
2019-04-14 12:12:32.81: SIM {TimeUS : 63634536, Roll : 0.15, Pitch : -17.8, Yaw : 46.99, Alt : 49.3300018311, Lat : 49.2837725, Lng : -123.114684, Q1 : 0.905956447124, Q2 : 0.0628976225853, Q3 : -0.141390889883, Q4 : 0.394075453281}
2019-04-14 12:12:32.91: SIM {TimeUS : 63734496, Roll : 0.14, Pitch : -17.83, Yaw : 46.98, Alt : 49.3300018311, Lat : 49.2837752, Lng : -123.1146791, Q1 : 0.905941784382, Q2 : 0.0629543364048, Q3 : -0.141678065062, Q4 : 0.393996953964}
2019-04-14 12:12:33.01: SIM {TimeUS : 63834456, Roll : 0.14, Pitch : -17.88, Yaw : 46.97, Alt : 49.3300018311, Lat : 49.2837782, Lng : -123.1146743, Q1 : 0.905915439129, Q2 : 0.0630843937397, Q3 : -0.142037525773, Q4 : 0.393907219172}
2019-04-14 12:12:33.11: SIM {TimeUS : 63934416, Roll : 0.15, Pitch : -17.91, Yaw : 46.96, Alt : 49.3300018311, Lat : 49.2837811, Lng : -123.1146695, Q1 : 0.905898332596, Q2 : 0.0632568001747, Q3 : -0.142318889499, Q4 : 0.39381736517}
2019-04-14 12:12:33.21: SIM {TimeUS : 64034376, Roll : 0.14, Pitch : -17.95, Yaw : 46.95, Alt : 49.3300018311, Lat : 49.283784, Lng : -123.1146646, Q1 : 0.905904173851, Q2 : 0.0633155107498, Q3 : -0.142584562302, Q4 : 0.393698483706}
2019-04-14 12:12:33.31: SIM {TimeUS : 64134336, Roll : 0.14, Pitch : -17.97, Yaw : 46.94, Alt : 49.3300018311, Lat : 49.2837868, Lng : -123.1146598, Q1 : 0.905929207802, Q2 : 0.0633215531707, Q3 : -0.142775043845, Q4 : 0.393570840359}
2019-04-14 12:12:33.41: SIM {TimeUS : 64234296, Roll : 0.15, Pitch : -17.96, Yaw : 46.92, Alt : 49.3300018311, Lat : 49.2837898, Lng : -123.1146549, Q1 : 0.905977547169, Q2 : 0.0633941814303, Q3 : -0.1427154392, Q4 : 0.39346948266}
2019-04-14 12:12:33.51: SIM {TimeUS : 64334256, Roll : 0.18, Pitch : -17.97, Yaw : 46.91, Alt : 49.3300018311, Lat : 49.2837927, Lng : -123.1146501, Q1 : 0.906013071537, Q2 : 0.0635986924171, Q3 : -0.142678529024, Q4 : 0.393368065357}
2019-04-14 12:12:33.61: SIM {TimeUS : 64434216, Roll : 0.19, Pitch : -17.99, Yaw : 46.89, Alt : 49.3300018311, Lat : 49.2837956, Lng : -123.1146452, Q1 : 0.906039535999, Q2 : 0.063742145896, Q3 : -0.14277997613, Q4 : 0.393246978521}
2019-04-14 12:12:33.71: SIM {TimeUS : 64534176, Roll : 0.2, Pitch : -18.0, Yaw : 46.87, Alt : 49.3400001526, Lat : 49.2837984, Lng : -123.1146404, Q1 : 0.906075596809, Q2 : 0.0638199672103, Q3 : -0.142834693193, Q4 : 0.393131405115}
2019-04-14 12:12:33.81: SIM {TimeUS : 64634136, Roll : 0.21, Pitch : -17.99, Yaw : 46.86, Alt : 49.3400001526, Lat : 49.2838013, Lng : -123.1146355, Q1 : 0.906126201153, Q2 : 0.0638704970479, Q3 : -0.14273634553, Q4 : 0.393042236567}
2019-04-14 12:12:33.91: SIM {TimeUS : 64734096, Roll : 0.21, Pitch : -17.98, Yaw : 46.85, Alt : 49.3400001526, Lat : 49.2838043, Lng : -123.1146306, Q1 : 0.906173527241, Q2 : 0.0638694614172, Q3 : -0.142644137144, Q4 : 0.392966836691}
2019-04-14 12:12:34.01: SIM {TimeUS : 64834056, Roll : 0.2, Pitch : -17.99, Yaw : 46.84, Alt : 49.3400001526, Lat : 49.2838072, Lng : -123.1146257, Q1 : 0.906198859215, Q2 : 0.0637901648879, Q3 : -0.14279127121, Q4 : 0.392867773771}
2019-04-14 12:12:34.12: SIM {TimeUS : 64934849, Roll : 0.18, Pitch : -18.02, Yaw : 46.83, Alt : 49.3400001526, Lat : 49.28381, Lng : -123.1146208, Q1 : 0.906198918819, Q2 : 0.0637047961354, Q3 : -0.143116384745, Q4 : 0.392763257027}
2019-04-14 12:12:34.21: SIM {TimeUS : 65034809, Roll : 0.16, Pitch : -18.02, Yaw : 46.83, Alt : 49.3400001526, Lat : 49.283813, Lng : -123.1146159, Q1 : 0.906222164631, Q2 : 0.0635750815272, Q3 : -0.143201440573, Q4 : 0.392699599266}
2019-04-14 12:12:34.31: SIM {TimeUS : 65134769, Roll : 0.17, Pitch : -18.01, Yaw : 46.82, Alt : 49.3400001526, Lat : 49.2838159, Lng : -123.114611, Q1 : 0.90625756979, Q2 : 0.0635552704334, Q3 : -0.143044009805, Q4 : 0.392678499222}
2019-04-14 12:12:34.41: SIM {TimeUS : 65234729, Roll : 0.18, Pitch : -17.99, Yaw : 46.82, Alt : 49.3400001526, Lat : 49.2838189, Lng : -123.1146061, Q1 : 0.906283140182, Q2 : 0.0636162385345, Q3 : -0.142896339297, Q4 : 0.39266332984}
2019-04-14 12:12:34.51: SIM {TimeUS : 65334689, Roll : 0.19, Pitch : -18.0, Yaw : 46.81, Alt : 49.3400001526, Lat : 49.2838219, Lng : -123.1146012, Q1 : 0.906285107136, Q2 : 0.063710488379, Q3 : -0.142974257469, Q4 : 0.392615109682}
2019-04-14 12:12:34.61: SIM {TimeUS : 65434649, Roll : 0.17, Pitch : -18.03, Yaw : 46.8, Alt : 49.3400001526, Lat : 49.2838248, Lng : -123.1145963, Q1 : 0.906286478043, Q2 : 0.0636730343103, Q3 : -0.143212944269, Q4 : 0.392531007528}
2019-04-14 12:12:34.71: SIM {TimeUS : 65534609, Roll : 0.15, Pitch : -18.06, Yaw : 46.8, Alt : 49.3400001526, Lat : 49.2838276, Lng : -123.1145914, Q1 : 0.906288564205, Q2 : 0.0635735318065, Q3 : -0.143508702517, Q4 : 0.392434358597}
2019-04-14 12:12:34.81: SIM {TimeUS : 65634569, Roll : 0.14, Pitch : -18.08, Yaw : 46.79, Alt : 49.3400001526, Lat : 49.2838306, Lng : -123.1145865, Q1 : 0.906299114227, Q2 : 0.0635079741478, Q3 : -0.143744051456, Q4 : 0.39233443141}
2019-04-14 12:12:34.91: SIM {TimeUS : 65734529, Roll : 0.14, Pitch : -18.1, Yaw : 46.78, Alt : 49.3400001526, Lat : 49.2838336, Lng : -123.1145816, Q1 : 0.906304359436, Q2 : 0.0635762438178, Q3 : -0.143915072083, Q4 : 0.392248570919}
2019-04-14 12:12:35.01: SIM {TimeUS : 65834489, Roll : 0.14, Pitch : -18.12, Yaw : 46.77, Alt : 49.3400001526, Lat : 49.2838365, Lng : -123.1145766, Q1 : 0.906311690807, Q2 : 0.0636843591928, Q3 : -0.144023731351, Q4 : 0.392174243927}
