2019-04-14 11:00:39.40: SIM {TimeUS : 40616247, Roll : 0.0, Pitch : 0.0, Yaw : 0.0, Alt : 30.1000003815, Lat : 49.28357, Lng : -123.11502, Q1 : 1.0, Q2 : 0.0, Q3 : 0.0, Q4 : 0.0}
2019-04-14 11:00:39.51: SIM {TimeUS : 40735366, Roll : 0.0, Pitch : 0.0, Yaw : 0.0, Alt : 30.1000003815, Lat : 49.28357, Lng : -123.11502, Q1 : 1.0, Q2 : 0.0, Q3 : 0.0, Q4 : 0.0}
2019-04-14 11:00:39.61: SIM {TimeUS : 40835326, Roll : 0.0, Pitch : 0.0, Yaw : 0.0, Alt : 30.1000003815, Lat : 49.28357, Lng : -123.11502, Q1 : 1.0, Q2 : 0.0, Q3 : 0.0, Q4 : 0.0}
2019-04-14 11:00:39.71: SIM {TimeUS : 40935286, Roll : 0.0, Pitch : 0.0, Yaw : 0.0, Alt : 30.1000003815, Lat : 49.28357, Lng : -123.11502, Q1 : 1.0, Q2 : 0.0, Q3 : 0.0, Q4 : 0.0}
2019-04-14 11:00:39.81: SIM {TimeUS : 41035246, Roll : 0.0, Pitch : 0.0, Yaw : 0.0, Alt : 30.1000003815, Lat : 49.28357, Lng : -123.11502, Q1 : 1.0, Q2 : 0.0, Q3 : 0.0, Q4 : 0.0}
2019-04-14 11:00:39.91: SIM {TimeUS : 41135206, Roll : 0.0, Pitch : 0.0, Yaw : 0.0, Alt : 30.1000003815, Lat : 49.28357, Lng : -123.11502, Q1 : 1.0, Q2 : 0.0, Q3 : 0.0, Q4 : 0.0}
2019-04-14 11:00:40.01: SIM {TimeUS : 41235166, Roll : 0.0, Pitch : 0.0, Yaw : 0.0, Alt : 30.1000003815, Lat : 49.28357, Lng : -123.11502, Q1 : 1.0, Q2 : 0.0, Q3 : 0.0, Q4 : 0.0}
2019-04-14 11:00:40.11: SIM {TimeUS : 41335126, Roll : 0.0, Pitch : 0.0, Yaw : 0.0, Alt : 30.1000003815, Lat : 49.28357, Lng : -123.11502, Q1 : 1.0, Q2 : 0.0, Q3 : 0.0, Q4 : 0.0}
2019-04-14 11:00:40.21: SIM {TimeUS : 41435086, Roll : 0.0, Pitch : 0.0, Yaw : 0.0, Alt : 30.1000003815, Lat : 49.28357, Lng : -123.11502, Q1 : 1.0, Q2 : 0.0, Q3 : 0.0, Q4 : 0.0}
2019-04-14 11:00:40.31: SIM {TimeUS : 41535046, Roll : 0.0, Pitch : 0.0, Yaw : 0.0, Alt : 30.1000003815, Lat : 49.28357, Lng : -123.11502, Q1 : 1.0, Q2 : 0.0, Q3 : 0.0, Q4 : 0.0}
2019-04-14 11:00:40.41: SIM {TimeUS : 41635006, Roll : 0.0, Pitch : 0.0, Yaw : 0.0, Alt : 30.1000003815, Lat : 49.28357, Lng : -123.11502, Q1 : 1.0, Q2 : 0.0, Q3 : 0.0, Q4 : 0.0}
2019-04-14 11:00:40.51: SIM {TimeUS : 41734966, Roll : 0.0, Pitch : 0.0, Yaw : 0.0, Alt : 30.1000003815, Lat : 49.28357, Lng : -123.11502, Q1 : 1.0, Q2 : 0.0, Q3 : 0.0, Q4 : 0.0}
2019-04-14 11:00:40.61: SIM {TimeUS : 41834926, Roll : 0.0, Pitch : 0.0, Yaw : 0.0, Alt : 30.1000003815, Lat : 49.28357, Lng : -123.11502, Q1 : 1.0, Q2 : 0.0, Q3 : 0.0, Q4 : 0.0}
2019-04-14 11:00:40.71: SIM {TimeUS : 41934886, Roll : 0.0, Pitch : 0.0, Yaw : 0.0, Alt : 30.1000003815, Lat : 49.28357, Lng : -123.11502, Q1 : 1.0, Q2 : 0.0, Q3 : 0.0, Q4 : 0.0}
2019-04-14 11:00:40.81: SIM {TimeUS : 42034846, Roll : 0.0, Pitch : 0.0, Yaw : 0.0, Alt : 30.1000003815, Lat : 49.28357, Lng : -123.11502, Q1 : 1.0, Q2 : 0.0, Q3 : 0.0, Q4 : 0.0}
2019-04-14 11:00:40.91: SIM {TimeUS : 42134806, Roll : 0.0, Pitch : 0.0, Yaw : 0.0, Alt : 30.1000003815, Lat : 49.28357, Lng : -123.11502, Q1 : 1.0, Q2 : 0.0, Q3 : 0.0, Q4 : 0.0}
2019-04-14 11:00:41.01: SIM {TimeUS : 42234766, Roll : 0.0, Pitch : 0.0, Yaw : 0.0, Alt : 30.1000003815, Lat : 49.28357, Lng : -123.11502, Q1 : 1.0, Q2 : 0.0, Q3 : 0.0, Q4 : 0.0}
2019-04-14 11:00:41.11: SIM {TimeUS : 42334726, Roll : 0.0, Pitch : 0.0, Yaw : 0.0, Alt : 30.1000003815, Lat : 49.28357, Lng : -123.11502, Q1 : 1.0, Q2 : 0.0, Q3 : 0.0, Q4 : 0.0}
2019-04-14 11:00:41.21: SIM {TimeUS : 42434686, Roll : 0.0, Pitch : 0.0, Yaw : 0.0, Alt : 30.1000003815, Lat : 49.28357, Lng : -123.11502, Q1 : 1.0, Q2 : 0.0, Q3 : 0.0, Q4 : 0.0}
2019-04-14 11:00:41.31: SIM {TimeUS : 42534646, Roll : 0.0, Pitch : 0.0, Yaw : 0.0, Alt : 30.1000003815, Lat : 49.28357, Lng : -123.11502, Q1 : 1.0, Q2 : 0.0, Q3 : 0.0, Q4 : 0.0}
2019-04-14 11:00:41.41: SIM {TimeUS : 42634606, Roll : 0.0, Pitch : 0.0, Yaw : 0.0, Alt : 30.1000003815, Lat : 49.28357, Lng : -123.11502, Q1 : 1.0, Q2 : 0.0, Q3 : 0.0, Q4 : 0.0}
2019-04-14 11:00:41.51: SIM {TimeUS : 42735399, Roll : 0.0, Pitch : 0.0, Yaw : 0.0, Alt : 30.1000003815, Lat : 49.28357, Lng : -123.11502, Q1 : 1.0, Q2 : 0.0, Q3 : 0.0, Q4 : 0.0}
2019-04-14 11:00:41.61: SIM {TimeUS : 42835359, Roll : 0.0, Pitch : 0.0, Yaw : 0.0, Alt : 30.1000003815, Lat : 49.28357, Lng : -123.11502, Q1 : 1.0, Q2 : 0.0, Q3 : 0.0, Q4 : 0.0}
2019-04-14 11:00:41.71: SIM {TimeUS : 42935319, Roll : 0.0, Pitch : 0.0, Yaw : 360.0, Alt : 30.1000003815, Lat : 49.28357, Lng : -123.11502, Q1 : 1.0, Q2 : 0.0, Q3 : 0.0, Q4 : -7.5309836492e-12}
2019-04-14 11:00:41.81: SIM {TimeUS : 43035279, Roll : 0.0, Pitch : 0.0, Yaw : 360.0, Alt : 30.1000003815, Lat : 49.28357, Lng : -123.11502, Q1 : 1.0, Q2 : 0.0, Q3 : 0.0, Q4 : -2.42403680462e-10}
2019-04-14 11:00:41.91: SIM {TimeUS : 43135239, Roll : 0.0, Pitch : 0.0, Yaw : 359.99, Alt : 30.1000003815, Lat : 49.28357, Lng : -123.11502, Q1 : 1.0, Q2 : 0.0, Q3 : 0.0, Q4 : -1.85881646075e-07}
2019-04-14 11:00:42.01: SIM {TimeUS : 43235199, Roll : 0.0, Pitch : 0.0, Yaw : 359.99, Alt : 30.1000003815, Lat : 49.28357, Lng : -123.11502, Q1 : 1.0, Q2 : 0.0, Q3 : 0.0, Q4 : -3.38824833079e-07}
2019-04-14 11:00:42.11: SIM {TimeUS : 43335159, Roll : 0.0, Pitch : 0.0, Yaw : 359.99, Alt : 30.1000003815, Lat : 49.28357, Lng : -123.11502, Q1 : 1.0, Q2 : 0.0, Q3 : 0.0, Q4 : -5.23542610154e-07}
2019-04-14 11:00:42.21: SIM {TimeUS : 43435119, Roll : 0.0, Pitch : 0.0, Yaw : 359.99, Alt : 30.1000003815, Lat : 49.28357, Lng : -123.11502, Q1 : 1.0, Q2 : 0.0, Q3 : 0.0, Q4 : -7.21410174265e-07}
2019-04-14 11:00:42.31: SIM {TimeUS : 43535079, Roll : 0.0, Pitch : 0.0, Yaw : 359.99, Alt : 30.1000003815, Lat : 49.28357, Lng : -123.11502, Q1 : 1.0, Q2 : 0.0, Q3 : 0.0, Q4 : -9.50863693561e-07}
2019-04-14 11:00:42.41: SIM {TimeUS : 43635039, Roll : 0.0, Pitch : 0.0, Yaw : 359.99, Alt : 30.1000003815, Lat : 49.28357, Lng : -123.11502, Q1 : 1.0, Q2 : 0.0, Q3 : 0.0, Q4 : -1.16108401471e-06}
2019-04-14 11:00:42.51: SIM {TimeUS : 43734999, Roll : 0.0, Pitch : 0.0, Yaw : 359.99, Alt : 30.1000003815, Lat : 49.28357, Lng : -123.11502, Q1 : 1.0, Q2 : 0.0, Q3 : 0.0, Q4 : -1.38135385441e-06}
2019-04-14 11:00:42.61: SIM {TimeUS : 43834959, Roll : 0.0, Pitch : 0.0, Yaw : 359.99, Alt : 30.1100006104, Lat : 49.28357, Lng : -123.11502, Q1 : 1.0, Q2 : 0.0, Q3 : 0.0, Q4 : -1.62195817666e-06}
2019-04-14 11:00:42.71: SIM {TimeUS : 43934919, Roll : 0.0, Pitch : 0.0, Yaw : 359.99, Alt : 30.1399993896, Lat : 49.28357, Lng : -123.11502, Q1 : 1.0, Q2 : 0.0, Q3 : 0.0, Q4 : -1.83791212294e-06}
2019-04-14 11:00:42.81: SIM {TimeUS : 44034879, Roll : 0.0, Pitch : 0.0, Yaw : 359.99, Alt : 30.1700000763, Lat : 49.28357, Lng : -123.11502, Q1 : 1.0, Q2 : 0.0, Q3 : 0.0, Q4 : -2.11102019421e-06}
2019-04-14 11:00:42.91: SIM {TimeUS : 44134839, Roll : 0.0, Pitch : 0.0, Yaw : 359.99, Alt : 30.2000007629, Lat : 49.28357, Lng : -123.11502, Q1 : 1.0, Q2 : 0.0, Q3 : 0.0, Q4 : -2.22800781557e-06}
2019-04-14 11:00:43.01: SIM {TimeUS : 44234799, Roll : -0.1, Pitch : -0.08, Yaw : 359.99, Alt : 30.25, Lat : 49.28357, Lng : -123.11502, Q1 : 0.999999344349, Q2 : -0.000879095576238, Q3 : -0.000753451196942, Q4 : -1.05979670479e-05}
2019-04-14 11:00:43.11: SIM {TimeUS : 44334759, Roll : -0.4, Pitch : -0.34, Yaw : 359.99, Alt : 30.3400001526, Lat : 49.28357, Lng : -123.11502, Q1 : 0.999989390373, Q2 : -0.00349836680107, Q3 : -0.00299769057892, Q4 : -4.11516048189e-05}
2019-04-14 11:00:43.21: SIM {TimeUS : 44434719, Roll : -0.67, Pitch : -0.61, Yaw : 359.99, Alt : 30.4899997711, Lat : 49.28357, Lng : -123.11502, Q1 : 0.999968290329, Q2 : -0.0059104077518, Q3 : -0.00533549347892, Q4 : -9.85835067695e-05}
2019-04-14 11:00:43.31: SIM {TimeUS : 44534679, Roll : -0.81, Pitch : -0.75, Yaw : 359.98, Alt : 30.6499996185, Lat : 49.28357, Lng : -123.11502, Q1 : 0.999952435493, Q2 : -0.00715106027201, Q3 : -0.00662711495534, Q4 : -0.000181432711543}
2019-04-14 11:00:43.41: SIM {TimeUS : 44634639, Roll : -0.81, Pitch : -0.75, Yaw : 359.97, Alt : 30.7999992371, Lat : 49.28357, Lng : -123.11502, Q1 : 0.999952614307, Q2 : -0.00715684797615, Q3 : -0.00659796269611, Q4 : -0.000268052855972}
2019-04-14 11:00:43.51: SIM {TimeUS : 44734599, Roll : -0.69, Pitch : -0.63, Yaw : 359.96, Alt : 30.9599990845, Lat : 49.28357, Lng : -123.1150201, Q1 : 0.999966204166, Q2 : -0.00605985848233, Q3 : -0.00554902059957, Q4 : -0.000347322493326}
2019-04-14 11:00:43.61: SIM {TimeUS : 44835392, Roll : -0.48, Pitch : -0.44, Yaw : 359.95, Alt : 31.1100006104, Lat : 49.2835701, Lng : -123.1150202, Q1 : 0.999983310699, Q2 : -0.0042369524017, Q3 : -0.00390701368451, Q4 : -0.000416046852479}
2019-04-14 11:00:43.71: SIM {TimeUS : 44935352, Roll : -0.25, Pitch : -0.24, Yaw : 359.94, Alt : 31.2700004578, Lat : 49.2835701, Lng : -123.1150203, Q1 : 0.999995052814, Q2 : -0.00224788859487, Q3 : -0.00215878896415, Q4 : -0.000471243518405}
2019-04-14 11:00:43.81: SIM {TimeUS : 45035312, Roll : -0.06, Pitch : -0.08, Yaw : 359.94, Alt : 31.4400005341, Lat : 49.2835702, Lng : -123.1150203, Q1 : 0.999999403954, Q2 : -0.000560746761039, Q3 : -0.000757202040404, Q4 : -0.000509397010319}
2019-04-14 11:00:43.91: SIM {TimeUS : 45135272, Roll : 0.06, Pitch : 0.01, Yaw : 359.93, Alt : 31.6100006104, Lat : 49.2835702, Lng : -123.1150204, Q1 : 0.999999701977, Q2 : 0.000532906036824, Q3 : 0.000108863634523, Q4 : -0.000533783866558}
2019-04-14 11:00:44.01: SIM {TimeUS : 45235232, Roll : 0.11, Pitch : 0.06, Yaw : 359.93, Alt : 31.7900009155, Lat : 49.2835703, Lng : -123.1150205, Q1 : 0.99999922514, Q2 : 0.000978983589448, Q3 : 0.000551508390345, Q4 : -0.00055125443032}
2019-04-14 11:00:44.11: SIM {TimeUS : 45335192, Roll : 0.1, Pitch : 0.08, Yaw : 359.93, Alt : 31.9799995422, Lat : 49.2835703, Lng : -123.1150205, Q1 : 0.999999165535, Q2 : 0.000879735278431, Q3 : 0.000777253822889, Q4 : -0.000559691281524}
2019-04-14 11:00:44.21: SIM {TimeUS : 45435152, Roll : 0.06, Pitch : 0.1, Yaw : 359.93, Alt : 32.1599998474, Lat : 49.2835703, Lng : -123.1150206, Q1 : 0.99999922514, Q2 : 0.000595587771386, Q3 : 0.000941909151152, Q4 : -0.000549468270037}
2019-04-14 11:00:44.31: SIM {TimeUS : 45535112, Roll : 0.05, Pitch : 0.12, Yaw : 359.94, Alt : 32.3499984741, Lat : 49.2835703, Lng : -123.1150207, Q1 : 0.99999910593, Q2 : 0.000492649618536, Q3 : 0.00112102506682, Q4 : -0.000519672525115}
2019-04-14 11:00:44.41: SIM {TimeUS : 45635072, Roll : 0.06, Pitch : 0.13, Yaw : 359.94, Alt : 32.5499992371, Lat : 49.2835703, Lng : -123.1150207, Q1 : 0.999999046326, Q2 : 0.000569206196815, Q3 : 0.00117333373055, Q4 : -0.000489472411573}
2019-04-14 11:00:44.51: SIM {TimeUS : 45735032, Roll : 0.07, Pitch : 0.14, Yaw : 359.94, Alt : 32.7400016785, Lat : 49.2835703, Lng : -123.1150207, Q1 : 0.999998927116, Q2 : 0.000651784066577, Q3 : 0.00123797392007, Q4 : -0.000461349292891}
2019-04-14 11:00:44.61: SIM {TimeUS : 45834992, Roll : 0.09, Pitch : 0.16, Yaw : 359.94, Alt : 32.9399986267, Lat : 49.2835704, Lng : -123.1150208, Q1 : 0.999998509884, Q2 : 0.000813615566585, Q3 : 0.00145818537567, Q4 : -0.000442461430794}
2019-04-14 11:00:44.71: SIM {TimeUS : 45934952, Roll : 0.12, Pitch : 0.16, Yaw : 359.95, Alt : 33.1399993896, Lat : 49.2835704, Lng : -123.1150208, Q1 : 0.999998271465, Q2 : 0.00105630140752, Q3 : 0.00144740182441, Q4 : -0.000428872328484}
2019-04-14 11:00:44.81: SIM {TimeUS : 46034912, Roll : 0.15, Pitch : 0.14, Yaw : 359.95, Alt : 33.3400001526, Lat : 49.2835704, Lng : -123.1150208, Q1 : 0.999998271465, Q2 : 0.0013378621079, Q3 : 0.00123849569354, Q4 : -0.000415059592342}
2019-04-14 11:00:44.91: SIM {TimeUS : 46134872, Roll : 0.17, Pitch : 0.12, Yaw : 359.95, Alt : 33.5499992371, Lat : 49.2835704, Lng : -123.1150208, Q1 : 0.999998152256, Q2 : 0.00152429169975, Q3 : 0.00112134427764, Q4 : -0.000406633305829}
2019-04-14 11:00:45.01: SIM {TimeUS : 46234832, Roll : 0.18, Pitch : 0.13, Yaw : 359.95, Alt : 33.7599983215, Lat : 49.2835704, Lng : -123.1150208, Q1 : 0.999997973442, Q2 : 0.00159620738123, Q3 : 0.00114526390098, Q4 : -0.000418690178776}
2019-04-14 11:00:45.11: SIM {TimeUS : 46334792, Roll : 0.19, Pitch : 0.14, Yaw : 359.94, Alt : 33.9700012207, Lat : 49.2835704, Lng : -123.1150208, Q1 : 0.999997735023, Q2 : 0.00165959773585, Q3 : 0.00123937451281, Q4 : -0.000444951088866}
2019-04-14 11:00:45.21: SIM {TimeUS : 46434752, Roll : 0.18, Pitch : 0.12, Yaw : 359.94, Alt : 34.1800003052, Lat : 49.2835704, Lng : -123.1150208, Q1 : 0.999998033047, Q2 : 0.00157904659864, Q3 : 0.00111822632607, Q4 : -0.000471472274512}
2019-04-14 11:00:45.31: SIM {TimeUS : 46534712, Roll : 0.15, Pitch : 0.11, Yaw : 359.94, Alt : 34.3899993896, Lat : 49.2835704, Lng : -123.1150208, Q1 : 0.999998509884, Q2 : 0.00135583907831, Q3 : 0.000966879248153, Q4 : -0.000496027409099}
2019-04-14 11:00:45.41: SIM {TimeUS : 46634672, Roll : 0.12, Pitch : 0.09, Yaw : 359.93, Alt : 34.5999984741, Lat : 49.2835704, Lng : -123.1150208, Q1 : 0.999998927116, Q2 : 0.00106456922367, Q3 : 0.000833549478557, Q4 : -0.000525509414729}
2019-04-14 11:00:45.51: SIM {TimeUS : 46734632, Roll : 0.08, Pitch : 0.08, Yaw : 359.93, Alt : 34.8199996948, Lat : 49.2835704, Lng : -123.1150208, Q1 : 0.999999284744, Q2 : 0.000769291364122, Q3 : 0.000750218052417, Q4 : -0.000556296727154}
2019-04-14 11:00:45.61: SIM {TimeUS : 46834592, Roll : 0.06, Pitch : 0.05, Yaw : 359.93, Alt : 35.0299987793, Lat : 49.2835704, Lng : -123.1150208, Q1 : 0.999999523163, Q2 : 0.000604980974458, Q3 : 0.000450289808214, Q4 : -0.00059265474556}
2019-04-14 11:00:45.71: SIM {TimeUS : 46935385, Roll : 0.05, Pitch : 0.01, Yaw : 359.92, Alt : 35.25, Lat : 49.2835704, Lng : -123.1150208, Q1 : 0.999999642372, Q2 : 0.000513997394592, Q3 : 0.00017145392485, Q4 : -0.000629322603345}
2019-04-14 11:00:45.81: SIM {TimeUS : 47035345, Roll : 0.03, Pitch : 0.0, Yaw : 359.92, Alt : 35.4700012207, Lat : 49.2835704, Lng : -123.1150208, Q1 : 0.999999701977, Q2 : 0.000335505959811, Q3 : 3.19843275065e-05, Q4 : -0.000664451916236}
2019-04-14 11:00:45.91: SIM {TimeUS : 47135305, Roll : 0.02, Pitch : 0.0, Yaw : 359.92, Alt : 35.6899986267, Lat : 49.2835704, Lng : -123.1150208, Q1 : 0.999999761581, Q2 : 0.000225908253924, Q3 : 1.94987314899e-05, Q4 : -0.000696150120348}
2019-04-14 11:00:46.01: SIM {TimeUS : 47235265, Roll : 0.02, Pitch : 0.0, Yaw : 359.91, Alt : 35.9099998474, Lat : 49.2835704, Lng : -123.1150207, Q1 : 0.999999701977, Q2 : 0.000201447168365, Q3 : 4.82401810586e-05, Q4 : -0.000728051294573}
2019-04-14 11:00:46.11: SIM {TimeUS : 47335225, Roll : 0.0, Pitch : -0.01, Yaw : 359.91, Alt : 36.1300010681, Lat : 49.2835704, Lng : -123.1150207, Q1 : 0.999999701977, Q2 : 4.96723441756e-06, Q3 : -0.000119132026157, Q4 : -0.000756062450819}
2019-04-14 11:00:46.21: SIM {TimeUS : 47435185, Roll : -0.03, Pitch : -0.04, Yaw : 359.91, Alt : 36.3499984741, Lat : 49.2835704, Lng : -123.1150207, Q1 : 0.999999582767, Q2 : -0.000298024911899, Q3 : -0.000418745330535, Q4 : -0.000778894405812}
2019-04-14 11:00:46.31: SIM {TimeUS : 47535145, Roll : -0.06, Pitch : -0.06, Yaw : 359.9, Alt : 36.5699996948, Lat : 49.2835704, Lng : -123.1150207, Q1 : 0.999999344349, Q2 : -0.000605328998063, Q3 : -0.000601316802204, Q4 : -0.000795515428763}
2019-04-14 11:00:46.41: SIM {TimeUS : 47635105, Roll : -0.1, Pitch : -0.08, Yaw : 359.9, Alt : 36.7900009155, Lat : 49.2835704, Lng : -123.1150207, Q1 : 0.999998986721, Q2 : -0.000874095538165, Q3 : -0.000728778948542, Q4 : -0.000811071251519}
2019-04-14 11:00:46.51: SIM {TimeUS : 47735065, Roll : -0.1, Pitch : -0.08, Yaw : 359.9, Alt : 37.0200004578, Lat : 49.2835704, Lng : -123.1150207, Q1 : 0.999998986721, Q2 : -0.000905995257199, Q3 : -0.000719295465387, Q4 : -0.000824355811346}
2019-04-14 11:00:46.61: SIM {TimeUS : 47835025, Roll : -0.09, Pitch : -0.07, Yaw : 359.9, Alt : 37.2400016785, Lat : 49.2835704, Lng : -123.1150207, Q1 : 0.99999910593, Q2 : -0.000824943475891, Q3 : -0.000641081947833, Q4 : -0.00083706015721}
2019-04-14 11:00:46.71: SIM {TimeUS : 47934985, Roll : -0.07, Pitch : -0.05, Yaw : 359.9, Alt : 37.4700012207, Lat : 49.2835704, Lng : -123.1150206, Q1 : 0.999999284744, Q2 : -0.000697044248227, Q3 : -0.000458095368231, Q4 : -0.000852132798173}
2019-04-14 11:00:46.81: SIM {TimeUS : 48034945, Roll : -0.06, Pitch : -0.03, Yaw : 359.9, Alt : 37.6899986267, Lat : 49.2835704, Lng : -123.1150206, Q1 : 0.999999403954, Q2 : -0.000557186780497, Q3 : -0.000323344458593, Q4 : -0.000863049237523}
2019-04-14 11:00:46.91: SIM {TimeUS : 48134905, Roll : -0.07, Pitch : -0.03, Yaw : 359.9, Alt : 37.9199981689, Lat : 49.2835704, Lng : -123.1150206, Q1 : 0.999999344349, Q2 : -0.000618131365627, Q3 : -0.00033696758328, Q4 : -0.000872746459208}
2019-04-14 11:00:47.01: SIM {TimeUS : 48234865, Roll : -0.08, Pitch : -0.02, Yaw : 359.89, Alt : 38.1500015259, Lat : 49.2835704, Lng : -123.1150206, Q1 : 0.999999284744, Q2 : -0.000732722284738, Q3 : -0.000237075437326, Q4 : -0.000884469423909}
2019-04-14 11:00:47.11: SIM {TimeUS : 48334825, Roll : -0.1, Pitch : -0.01, Yaw : 359.89, Alt : 38.3699989319, Lat : 49.2835704, Lng : -123.1150206, Q1 : 0.999999165535, Q2 : -0.000907504640054, Q3 : -8.78899154486e-05, Q4 : -0.000902797968592}
2019-04-14 11:00:47.21: SIM {TimeUS : 48434785, Roll : -0.1, Pitch : 0.0, Yaw : 359.89, Alt : 38.5999984741, Lat : 49.2835704, Lng : -123.1150206, Q1 : 0.999999165535, Q2 : -0.000900604296476, Q3 : 4.54443288618e-05, Q4 : -0.000915800745133}
2019-04-14 11:00:47.31: SIM {TimeUS : 48534745, Roll : -0.08, Pitch : 0.03, Yaw : 359.89, Alt : 38.8300018311, Lat : 49.2835704, Lng : -123.1150206, Q1 : 0.99999922514, Q2 : -0.000717500864994, Q3 : 0.000282772467472, Q4 : -0.000933262810577}
2019-04-14 11:00:47.41: SIM {TimeUS : 48634705, Roll : -0.05, Pitch : 0.02, Yaw : 359.89, Alt : 39.0600013733, Lat : 49.2835704, Lng : -123.1150206, Q1 : 0.999999403954, Q2 : -0.000480795337353, Q3 : 0.0002566423791, Q4 : -0.00095222494565}
2019-04-14 11:00:47.51: SIM {TimeUS : 48734665, Roll : -0.02, Pitch : 0.02, Yaw : 359.88, Alt : 39.2900009155, Lat : 49.2835706, Lng : -123.1150207, Q1 : 0.999999523163, Q2 : -0.000215780048165, Q3 : 0.000192254316062, Q4 : -0.000971532426775}
2019-04-14 11:00:47.61: SIM {TimeUS : 48834625, Roll : 0.01, Pitch : 0.03, Yaw : 359.88, Alt : 39.5200004578, Lat : 49.2835706, Lng : -123.1150207, Q1 : 0.999999463558, Q2 : 0.00011302936764, Q3 : 0.000329256348778, Q4 : -0.000988769694231}
2019-04-14 11:00:47.71: SIM {TimeUS : 48934585, Roll : 0.05, Pitch : 0.06, Yaw : 359.88, Alt : 39.75, Lat : 49.2835706, Lng : -123.1150207, Q1 : 0.99999922514, Q2 : 0.000452178297564, Q3 : 0.000587054877542, Q4 : -0.00101110676769}
2019-04-14 11:00:47.81: SIM {TimeUS : 49035378, Roll : 0.08, Pitch : 0.09, Yaw : 359.88, Alt : 39.9799995422, Lat : 49.2835706, Lng : -123.1150207, Q1 : 0.999998867512, Q2 : 0.000718535098713, Q3 : 0.000824004993774, Q4 : -0.00103759020567}
2019-04-14 11:00:47.91: SIM {TimeUS : 49135338, Roll : 0.07, Pitch : 0.11, Yaw : 359.87, Alt : 40.2099990845, Lat : 49.2835706, Lng : -123.1150207, Q1 : 0.999998688698, Q2 : 0.000643109087832, Q3 : 0.00102198170498, Q4 : -0.00106904574204}
2019-04-14 11:00:48.01: SIM {TimeUS : 49235298, Roll : 0.02, Pitch : 0.13, Yaw : 359.87, Alt : 40.4399986267, Lat : 49.2835706, Lng : -123.1150207, Q1 : 0.999998629093, Q2 : 0.000207091681659, Q3 : 0.00119323364925, Q4 : -0.00111629103776}
2019-04-14 11:00:48.11: SIM {TimeUS : 49335258, Roll : -0.02, Pitch : 0.14, Yaw : 359.86, Alt : 40.6800003052, Lat : 49.2835706, Lng : -123.1150207, Q1 : 0.999998509884, Q2 : -0.000176173518412, Q3 : 0.00127985188738, Q4 : -0.00115997134708}
2019-04-14 11:00:48.21: SIM {TimeUS : 49435218, Roll : -0.03, Pitch : 0.13, Yaw : 359.86, Alt : 40.9099998474, Lat : 49.2835706, Lng : -123.1150207, Q1 : 0.999998509884, Q2 : -0.000343113497365, Q3 : 0.0011960871052, Q4 : -0.00119538966101}
2019-04-14 11:00:48.31: SIM {TimeUS : 49535178, Roll : -0.04, Pitch : 0.13, Yaw : 359.85, Alt : 41.1399993896, Lat : 49.2835706, Lng : -123.1150207, Q1 : 0.999998509884, Q2 : -0.00037183353561, Q3 : 0.00113814126235, Q4 : -0.00122745637782}
2019-04-14 11:00:48.41: SIM {TimeUS : 49635138, Roll : -0.02, Pitch : 0.14, Yaw : 359.85, Alt : 41.3699989319, Lat : 49.2835706, Lng : -123.1150207, Q1 : 0.999998390675, Q2 : -0.000256537343375, Q3 : 0.0012314816704, Q4 : -0.00126348563936}
2019-04-14 11:00:48.51: SIM {TimeUS : 49735098, Roll : 0.01, Pitch : 0.15, Yaw : 359.85, Alt : 41.6100006104, Lat : 49.2835706, Lng : -123.1150207, Q1 : 0.999998211861, Q2 : 9.38171651796e-05, Q3 : 0.00138718297239, Q4 : -0.00130478502251}
2019-04-14 11:00:48.61: SIM {TimeUS : 49835058, Roll : 0.06, Pitch : 0.16, Yaw : 359.84, Alt : 41.8400001526, Lat : 49.2835706, Lng : -123.1150207, Q1 : 0.999997913837, Q2 : 0.000538505846635, Q3 : 0.00144580902997, Q4 : -0.00134738138877}
2019-04-14 11:00:48.71: SIM {TimeUS : 49935018, Roll : 0.09, Pitch : 0.12, Yaw : 359.84, Alt : 42.0800018311, Lat : 49.2835706, Lng : -123.1150207, Q1 : 0.999998033047, Q2 : 0.00085171480896, Q3 : 0.00112904049456, Q4 : -0.00138036161661}
2019-04-14 11:00:48.81: SIM {TimeUS : 50034978, Roll : 0.1, Pitch : 0.07, Yaw : 359.83, Alt : 42.3100013733, Lat : 49.2835706, Lng : -123.1150207, Q1 : 0.999998390675, Q2 : 0.000887404370587, Q3 : 0.000682386627886, Q4 : -0.00140476576053}
2019-04-14 11:00:48.91: SIM {TimeUS : 50134938, Roll : 0.06, Pitch : 0.04, Yaw : 359.83, Alt : 42.5400009155, Lat : 49.2835706, Lng : -123.1150207, Q1 : 0.999998748302, Q2 : 0.000591639138293, Q3 : 0.00036603488843, Q4 : -0.00141923327465}
2019-04-14 11:00:49.01: SIM {TimeUS : 50234898, Roll : 0.01, Pitch : 0.03, Yaw : 359.83, Alt : 42.7799987793, Lat : 49.2835706, Lng : -123.1150207, Q1 : 0.999998927116, Q2 : 0.000125079241116, Q3 : 0.000301943247905, Q4 : -0.00142604915891}
2019-04-14 11:00:49.11: SIM {TimeUS : 50334858, Roll : -0.02, Pitch : 0.06, Yaw : 359.83, Alt : 43.0099983215, Lat : 49.2835704, Lng : -123.1150207, Q1 : 0.999998807907, Q2 : -0.000221266367589, Q3 : 0.000546419003513, Q4 : -0.00142069056164}
2019-04-14 11:00:49.21: SIM {TimeUS : 50434818, Roll : -0.04, Pitch : 0.08, Yaw : 359.83, Alt : 43.25, Lat : 49.2835704, Lng : -123.1150207, Q1 : 0.999998688698, Q2 : -0.000393957947381, Q3 : 0.000741839350667, Q4 : -0.00141637399793}
2019-04-14 11:00:49.31: SIM {TimeUS : 50534778, Roll : -0.04, Pitch : 0.08, Yaw : 359.83, Alt : 43.4799995422, Lat : 49.2835704, Lng : -123.1150207, Q1 : 0.999998688698, Q2 : -0.000411786866607, Q3 : 0.000718281546142, Q4 : -0.00141618342604}
2019-04-14 11:00:49.41: SIM {TimeUS : 50634738, Roll : -0.05, Pitch : 0.06, Yaw : 359.83, Alt : 43.7200012207, Lat : 49.2835704, Lng : -123.1150207, Q1 : 0.999998688698, Q2 : -0.000474492408102, Q3 : 0.000610668153968, Q4 : -0.00142140535172}
2019-04-14 11:00:49.51: SIM {TimeUS : 50734698, Roll : -0.05, Pitch : 0.05, Yaw : 359.83, Alt : 43.9500007629, Lat : 49.2835704, Lng : -123.1150207, Q1 : 0.999998748302, Q2 : -0.000450877443654, Q3 : 0.00046657238272, Q4 : -0.00143042695709}
2019-04-14 11:00:49.61: SIM {TimeUS : 50834658, Roll : -0.03, Pitch : 0.04, Yaw : 359.83, Alt : 44.1899986267, Lat : 49.2835704, Lng : -123.1150206, Q1 : 0.999998867512, Q2 : -0.000285312737105, Q3 : 0.000361685233656, Q4 : -0.00144204031676}
2019-04-14 11:00:49.71: SIM {TimeUS : 50934618, Roll : -0.01, Pitch : 0.03, Yaw : 359.83, Alt : 44.4199981689, Lat : 49.2835704, Lng : -123.1150206, Q1 : 0.999998867512, Q2 : -0.000139315336128, Q3 : 0.000302960310364, Q4 : -0.0014528153697}
2019-04-14 11:00:49.81: SIM {TimeUS : 51034578, Roll : -0.01, Pitch : 0.01, Yaw : 359.83, Alt : 44.6599998474, Lat : 49.2835704, Lng : -123.1150206, Q1 : 0.999998927116, Q2 : -0.000153688175487, Q3 : 9.99159674393e-05, Q4 : -0.00146736949682}
2019-04-14 11:00:49.91: SIM {TimeUS : 51135371, Roll : -0.02, Pitch : -0.02, Yaw : 359.82, Alt : 44.9000015259, Lat : 49.2835704, Lng : -123.1150206, Q1 : 0.999998867512, Q2 : -0.000220761707169, Q3 : -0.000206274606171, Q4 : -0.00149236083962}
2019-04-14 11:00:50.01: SIM {TimeUS : 51235331, Roll : -0.02, Pitch : -0.04, Yaw : 359.82, Alt : 45.1399993896, Lat : 49.2835704, Lng : -123.1150206, Q1 : 0.999998748302, Q2 : -0.000215630832827, Q3 : -0.000380116776796, Q4 : -0.00152054952923}
2019-04-14 11:00:50.11: SIM {TimeUS : 51335291, Roll : -0.01, Pitch : -0.05, Yaw : 359.82, Alt : 45.3699989319, Lat : 49.2835703, Lng : -123.1150206, Q1 : 0.999998688698, Q2 : -0.00012481455633, Q3 : -0.000436341942986, Q4 : -0.00155724456999}
2019-04-14 11:00:50.21: SIM {TimeUS : 51435251, Roll : -0.01, Pitch : -0.04, Yaw : 359.81, Alt : 45.6100006104, Lat : 49.2835703, Lng : -123.1150206, Q1 : 0.999998629093, Q2 : -0.000159432398505, Q3 : -0.000423447578214, Q4 : -0.00159557408188}
2019-04-14 11:00:50.31: SIM {TimeUS : 51535211, Roll : -0.04, Pitch : -0.03, Yaw : 359.81, Alt : 45.8400001526, Lat : 49.2835703, Lng : -123.1150206, Q1 : 0.999998509884, Q2 : -0.00041774372221, Q3 : -0.00032074644696, Q4 : -0.00164069386665}
2019-04-14 11:00:50.41: SIM {TimeUS : 51635171, Roll : -0.08, Pitch : -0.02, Yaw : 359.8, Alt : 46.0699996948, Lat : 49.2835703, Lng : -123.1150206, Q1 : 0.999998271465, Q2 : -0.000778362562414, Q3 : -0.000236451654928, Q4 : -0.00168825790752}
2019-04-14 11:00:50.51: SIM {TimeUS : 51735131, Roll : -0.11, Pitch : -0.02, Yaw : 359.8, Alt : 46.2999992371, Lat : 49.2835703, Lng : -123.1150206, Q1 : 0.999997913837, Q2 : -0.00104181130882, Q3 : -0.000194809093955, Q4 : -0.0017314554425}
2019-04-14 11:00:50.61: SIM {TimeUS : 51835091, Roll : -0.12, Pitch : -0.01, Yaw : 359.79, Alt : 46.5200004578, Lat : 49.2835703, Lng : -123.1150206, Q1 : 0.999997854233, Q2 : -0.00110111152753, Q3 : -0.000106991064968, Q4 : -0.0017683923943}
2019-04-14 11:00:50.71: SIM {TimeUS : 51935051, Roll : -0.11, Pitch : 0.0, Yaw : 359.79, Alt : 46.7400016785, Lat : 49.2835703, Lng : -123.1150206, Q1 : 0.999997913837, Q2 : -0.000995569396764, Q3 : 7.21675096429e-05, Q4 : -0.0017976325471}
2019-04-14 11:00:50.81: SIM {TimeUS : 52035011, Roll : -0.09, Pitch : 0.01, Yaw : 359.79, Alt : 46.9500007629, Lat : 49.2835703, Lng : -123.1150206, Q1 : 0.999998033047, Q2 : -0.000787400233094, Q3 : 0.000160776777193, Q4 : -0.00182357861195}
2019-04-14 11:00:50.91: SIM {TimeUS : 52134971, Roll : -0.06, Pitch : 0.01, Yaw : 359.78, Alt : 47.1599998474, Lat : 49.2835703, Lng : -123.1150206, Q1 : 0.999998092651, Q2 : -0.00058579799952, Q3 : 0.00010729659698, Q4 : -0.00184727937449}
2019-04-14 11:00:51.01: SIM {TimeUS : 52234931, Roll : -0.05, Pitch : 0.0, Yaw : 359.78, Alt : 47.3600006104, Lat : 49.2835703, Lng : -123.1150206, Q1 : 0.999998152256, Q2 : -0.000473481428344, Q3 : -5.50070981262e-05, Q4 : -0.0018693942111}
2019-04-14 11:00:51.11: SIM {TimeUS : 52334891, Roll : -0.03, Pitch : -0.03, Yaw : 359.78, Alt : 47.5400009155, Lat : 49.2835703, Lng : -123.1150206, Q1 : 0.999998092651, Q2 : -0.000338366255164, Q3 : -0.000300496409182, Q4 : -0.00188968831208}
2019-04-14 11:00:51.21: SIM {TimeUS : 52434851, Roll : -0.02, Pitch : -0.07, Yaw : 359.78, Alt : 47.7200012207, Lat : 49.2835703, Lng : -123.1150206, Q1 : 0.999997973442, Q2 : -0.000243207585299, Q3 : -0.00063170917565, Q4 : -0.00190610310528}
2019-04-14 11:00:51.31: SIM {TimeUS : 52534811, Roll : -0.03, Pitch : -0.11, Yaw : 359.77, Alt : 47.8899993896, Lat : 49.2835703, Lng : -123.1150206, Q1 : 0.999997615814, Q2 : -0.00027599078021, Q3 : -0.000997869297862, Q4 : -0.00192391115706}
2019-04-14 11:00:51.41: SIM {TimeUS : 52634771, Roll : -0.03, Pitch : -0.14, Yaw : 359.77, Alt : 48.0499992371, Lat : 49.2835703, Lng : -123.1150206, Q1 : 0.999997258186, Q2 : -0.000346716027707, Q3 : -0.00126818241552, Q4 : -0.00194277451374}
2019-04-14 11:00:51.51: SIM {TimeUS : 52734731, Roll : -0.01, Pitch : -0.14, Yaw : 359.77, Alt : 48.1899986267, Lat : 49.2835703, Lng : -123.1150207, Q1 : 0.999997317791, Q2 : -0.000108576830826, Q3 : -0.00123028689995, Q4 : -0.00195929897018}
2019-04-14 11:00:51.61: SIM {TimeUS : 52834691, Roll : 0.02, Pitch : -0.11, Yaw : 359.77, Alt : 48.3199996948, Lat : 49.2835703, Lng : -123.1150207, Q1 : 0.999997496605, Q2 : 0.000247308315011, Q3 : -0.00102756067645, Q4 : -0.00197467417456}
2019-04-14 11:00:51.71: SIM {TimeUS : 52934651, Roll : 0.06, Pitch : -0.08, Yaw : 359.77, Alt : 48.4399986267, Lat : 49.2835703, Lng : -123.1150207, Q1 : 0.999997615814, Q2 : 0.00055394123774, Q3 : -0.000738866219763, Q4 : -0.00199234206229}
2019-04-14 11:00:51.81: SIM {TimeUS : 53034611, Roll : 0.07, Pitch : -0.05, Yaw : 359.76, Alt : 48.5499992371, Lat : 49.2835703, Lng : -123.1150207, Q1 : 0.999997675419, Q2 : 0.000655509880744, Q3 : -0.000445816433057, Q4 : -0.00201505376026}
2019-04-14 11:00:51.91: SIM {TimeUS : 53135404, Roll : 0.07, Pitch : -0.03, Yaw : 359.76, Alt : 48.6500015259, Lat : 49.2835703, Lng : -123.1150207, Q1 : 0.999997675419, Q2 : 0.000693728332408, Q3 : -0.000285166112008, Q4 : -0.00204703444615}
2019-04-14 11:00:52.01: SIM {TimeUS : 53235364, Roll : 0.07, Pitch : -0.03, Yaw : 359.76, Alt : 48.7299995422, Lat : 49.2835703, Lng : -123.1150207, Q1 : 0.99999755621, Q2 : 0.000622602528892, Q3 : -0.000318213860737, Q4 : -0.00208715070039}
2019-04-14 11:00:52.11: SIM {TimeUS : 53335324, Roll : 0.04, Pitch : -0.04, Yaw : 359.75, Alt : 48.8100013733, Lat : 49.2835704, Lng : -123.1150207, Q1 : 0.999997615814, Q2 : 0.000394913135096, Q3 : -0.000356934935553, Q4 : -0.00212634401396}
2019-04-14 11:00:52.21: SIM {TimeUS : 53435284, Roll : 0.02, Pitch : -0.03, Yaw : 359.75, Alt : 48.8699989319, Lat : 49.2835704, Lng : -123.1150207, Q1 : 0.999997615814, Q2 : 0.000259297143202, Q3 : -0.000301672553178, Q4 : -0.00215833773836}
2019-04-14 11:00:52.31: SIM {TimeUS : 53535244, Roll : 0.01, Pitch : -0.02, Yaw : 359.74, Alt : 48.9199981689, Lat : 49.2835704, Lng : -123.1150207, Q1 : 0.99999755621, Q2 : 0.000133317196742, Q3 : -0.000224011528189, Q4 : -0.00218744552694}
2019-04-14 11:00:52.41: SIM {TimeUS : 53635204, Roll : 0.0, Pitch : -0.01, Yaw : 359.74, Alt : 48.9700012207, Lat : 49.2835704, Lng : -123.1150207, Q1 : 0.99999755621, Q2 : 6.59040524624e-05, Q3 : -9.06838831725e-05, Q4 : -0.00221254909411}
2019-04-14 11:00:52.51: SIM {TimeUS : 53735164, Roll : 0.04, Pitch : 0.0, Yaw : 359.74, Alt : 49.0099983215, Lat : 49.2835704, Lng : -123.1150207, Q1 : 0.999997437, Q2 : 0.000408739084378, Q3 : -7.32515763957e-05, Q4 : -0.00223659561016}
2019-04-14 11:00:52.61: SIM {TimeUS : 53835124, Roll : 0.21, Pitch : -0.11, Yaw : 359.74, Alt : 49.0499992371, Lat : 49.2835704, Lng : -123.1150207, Q1 : 0.999995291233, Q2 : 0.00183355377521, Q3 : -0.0010059295455, Q4 : -0.00225868308917}
2019-04-14 11:00:52.71: SIM {TimeUS : 53935084, Roll : 0.55, Pitch : -0.43, Yaw : 359.73, Alt : 49.0699996948, Lat : 49.2835704, Lng : -123.1150207, Q1 : 0.999978601933, Q2 : 0.00482665840536, Q3 : -0.00378042878583, Q4 : -0.00228383531794}
2019-04-14 11:00:52.81: SIM {TimeUS : 54035044, Roll : 1.07, Pitch : -0.93, Yaw : 359.72, Alt : 49.0999984741, Lat : 49.2835704, Lng : -123.1150207, Q1 : 0.99991953373, Q2 : 0.00938079878688, Q3 : -0.00822399090976, Q4 : -0.002299700398}
2019-04-14 11:00:52.91: SIM {TimeUS : 54135004, Roll : 1.74, Pitch : -1.6, Yaw : 359.71, Alt : 49.1199989319, Lat : 49.2835704, Lng : -123.1150207, Q1 : 0.99978351593, Q2 : 0.0151682943106, Q3 : -0.0140598835424, Q4 : -0.00229063304141}
2019-04-14 11:00:53.01: SIM {TimeUS : 54234964, Roll : 2.49, Pitch : -2.34, Yaw : 359.69, Alt : 49.1399993896, Lat : 49.2835706, Lng : -123.1150206, Q1 : 0.999550700188, Q2 : 0.0217126235366, Q3 : -0.02054047212, Q4 : -0.00223781331442}
2019-04-14 11:00:53.11: SIM {TimeUS : 54334924, Roll : 3.21, Pitch : -3.02, Yaw : 359.67, Alt : 49.1599998474, Lat : 49.2835707, Lng : -123.1150205, Q1 : 0.999255478382, Q2 : 0.0279667656869, Q3 : -0.0264923516661, Q4 : -0.00212389463559}
2019-04-14 11:00:53.21: SIM {TimeUS : 54434884, Roll : 3.79, Pitch : -3.57, Yaw : 359.65, Alt : 49.1699981689, Lat : 49.2835708, Lng : -123.1150203, Q1 : 0.998964607716, Q2 : 0.0330002307892, Q3 : -0.0312569476664, Q4 : -0.00193741370458}
2019-04-14 11:00:53.31: SIM {TimeUS : 54534844, Roll : 4.21, Pitch : -3.96, Yaw : 359.66, Alt : 49.1800003052, Lat : 49.2835709, Lng : -123.11502, Q1 : 0.998722970486, Q2 : 0.0366846993566, Q3 : -0.0346961431205, Q4 : -0.00168856955133}
2019-04-14 11:00:53.41: SIM {TimeUS : 54634804, Roll : 4.53, Pitch : -4.24, Yaw : 359.67, Alt : 49.1899986267, Lat : 49.2835712, Lng : -123.1150198, Q1 : 0.998533546925, Q2 : 0.0393942482769, Q3 : -0.0371069051325, Q4 : -0.00140514480881}
2019-04-14 11:00:53.51: SIM {TimeUS : 54734764, Roll : 4.77, Pitch : -4.49, Yaw : 359.68, Alt : 49.2000007629, Lat : 49.2835714, Lng : -123.1150193, Q1 : 0.998364150524, Q2 : 0.0415568202734, Q3 : -0.039254412055, Q4 : -0.00111668230966}
2019-04-14 11:00:53.61: SIM {TimeUS : 54834724, Roll : 5.03, Pitch : -4.74, Yaw : 359.69, Alt : 49.2099990845, Lat : 49.2835716, Lng : -123.1150188, Q1 : 0.99818187952, Q2 : 0.0437562130392, Q3 : -0.0414454750717, Q4 : -0.000829520518892}
2019-04-14 11:00:53.71: SIM {TimeUS : 54934684, Roll : 5.33, Pitch : -5.01, Yaw : 359.7, Alt : 49.2200012207, Lat : 49.2835721, Lng : -123.1150182, Q1 : 0.997963011265, Q2 : 0.0463392026722, Q3 : -0.0438435561955, Q4 : -0.000537293904927}
2019-04-14 11:00:53.81: SIM {TimeUS : 55034644, Roll : 5.61, Pitch : -5.27, Yaw : 359.71, Alt : 49.2299995422, Lat : 49.2835725, Lng : -123.1150175, Q1 : 0.997746169567, Q2 : 0.0487743578851, Q3 : -0.0460823923349, Q4 : -0.000257073086686}
2019-04-14 11:00:53.91: SIM {TimeUS : 55134604, Roll : 5.83, Pitch : -5.48, Yaw : 359.72, Alt : 49.2299995422, Lat : 49.2835729, Lng : -123.1150168, Q1 : 0.997563958168, Q2 : 0.0507096275687, Q3 : -0.047902893275, Q4 : 5.30691477252e-06}
2019-04-14 11:00:54.01: SIM {TimeUS : 55235397, Roll : 5.98, Pitch : -5.65, Yaw : 359.72, Alt : 49.2400016785, Lat : 49.2835734, Lng : -123.115016, Q1 : 0.997424483299, Q2 : 0.0520502589643, Q3 : -0.0493467599154, Q4 : 0.000218061875785}
2019-04-14 11:00:54.11: SIM {TimeUS : 55335357, Roll : 6.09, Pitch : -5.76, Yaw : 359.73, Alt : 49.2400016785, Lat : 49.283574, Lng : -123.115015, Q1 : 0.997326254845, Q2 : 0.0530111044645, Q3 : -0.0502997860312, Q4 : 0.000387149833841}
2019-04-14 11:00:54.21: SIM {TimeUS : 55435317, Roll : 6.17, Pitch : -5.83, Yaw : 359.74, Alt : 49.25, Lat : 49.2835746, Lng : -123.1150139, Q1 : 0.99725818634, Q2 : 0.0537103898823, Q3 : -0.0509024374187, Q4 : 0.000515911204275}
2019-04-14 11:00:54.31: SIM {TimeUS : 55535277, Roll : 6.26, Pitch : -5.91, Yaw : 359.74, Alt : 49.25, Lat : 49.2835753, Lng : -123.1150129, Q1 : 0.997182011604, Q2 : 0.0544523857534, Q3 : -0.0516004450619, Q4 : 0.000595821125899}
2019-04-14 11:00:54.41: SIM {TimeUS : 55635237, Roll : 6.48, Pitch : -5.95, Yaw : 359.78, Alt : 49.2599983215, Lat : 49.2835761, Lng : -123.1150117, Q1 : 0.997053146362, Q2 : 0.0563910678029, Q3 : -0.051999591291, Q4 : 0.00107628153637}
2019-04-14 11:00:54.51: SIM {TimeUS : 55735197, Roll : 6.98, Pitch : -5.88, Yaw : 0.25, Alt : 49.2599983215, Lat : 49.2835768, Lng : -123.1150105, Q1 : 0.996817231178, Q2 : 0.0609412565827, Q3 : -0.0511146895587, Q4 : 0.00537071516737}
2019-04-14 11:00:54.61: SIM {TimeUS : 55835157, Roll : 7.65, Pitch : -5.79, Yaw : 1.84, Alt : 49.2599983215, Lat : 49.2835776, Lng : -123.1150092, Q1 : 0.996308147907, Q2 : 0.0674874261022, Q3 : -0.0493923015893, Q4 : 0.019389597699}
2019-04-14 11:00:54.71: SIM {TimeUS : 55935117, Roll : 8.18, Pitch : -6.01, Yaw : 4.98, Alt : 49.2599983215, Lat : 49.2835785, Lng : -123.1150078, Q1 : 0.994973897934, Q2 : 0.0734510049224, Q3 : -0.0491865724325, Q4 : 0.0470379404724}
2019-04-14 11:00:54.81: SIM {TimeUS : 56035077, Roll : 8.29, Pitch : -6.68, Yaw : 9.68, Alt : 49.2599983215, Lat : 49.2835793, Lng : -123.1150062, Q1 : 0.991779983044, Q2 : 0.0768277645111, Q3 : -0.0518437623978, Q4 : 0.0882163122296}
2019-04-14 11:00:54.91: SIM {TimeUS : 56135037, Roll : 7.81, Pitch : -7.78, Yaw : 15.73, Alt : 49.2700004578, Lat : 49.2835801, Lng : -123.1150046, Q1 : 0.985376775265, Q2 : 0.0765892490745, Q3 : -0.0577907077968, Q4 : 0.140808314085}
2019-04-14 11:00:55.01: SIM {TimeUS : 56234997, Roll : 6.67, Pitch : -9.16, Yaw : 22.88, Alt : 49.2700004578, Lat : 49.2835811, Lng : -123.1150028, Q1 : 0.974412798882, Q2 : 0.0726971775293, Q3 : -0.0666286349297, Q4 : 0.201978817582}
2019-04-14 11:00:55.11: SIM {TimeUS : 56334957, Roll : 4.86, Pitch : -10.57, Yaw : 30.87, Alt : 49.2700004578, Lat : 49.283582, Lng : -123.1150009, Q1 : 0.957911193371, Q2 : 0.0652228072286, Q3 : -0.0775392279029, Q4 : 0.268588632345}
2019-04-14 11:00:55.21: SIM {TimeUS : 56434917, Roll : 2.23, Pitch : -11.78, Yaw : 39.24, Alt : 49.2700004578, Lat : 49.283583, Lng : -123.1149989, Q1 : 0.936109602451, Q2 : 0.0527195632458, Q3 : -0.0901943817735, Q4 : 0.335834056139}
2019-04-14 11:00:55.31: SIM {TimeUS : 56534877, Roll : -0.94, Pitch : -12.55, Yaw : 47.15, Alt : 49.2700004578, Lat : 49.2835841, Lng : -123.1149969, Q1 : 0.911340415478, Q2 : 0.0362031720579, Q3 : -0.103504441679, Q4 : 0.396780639887}
2019-04-14 11:00:55.41: SIM {TimeUS : 56634837, Roll : -4.03, Pitch : -12.81, Yaw : 53.77, Alt : 49.2700004578, Lat : 49.2835852, Lng : -123.1149947, Q1 : 0.887542545795, Q2 : 0.0192509572953, Q3 : -0.115278825164, Q4 : 0.445655077696}
2019-04-14 11:00:55.51: SIM {TimeUS : 56734797, Roll : -6.38, Pitch : -12.73, Yaw : 58.52, Alt : 49.2700004578, Lat : 49.2835864, Lng : -123.1149926, Q1 : 0.868695020676, Q2 : 0.00585162313655, Q3 : -0.123689509928, Q4 : 0.479620277882}
2019-04-14 11:00:55.61: SIM {TimeUS : 56834757, Roll : -7.69, Pitch : -12.58, Yaw : 61.24, Alt : 49.2700004578, Lat : 49.2835877, Lng : -123.1149903, Q1 : 0.857169449329, Q2 : -0.0016817599535, Q3 : -0.128050222993, Q4 : 0.498859554529}
2019-04-14 11:00:55.71: SIM {TimeUS : 56934717, Roll : -7.95, Pitch : -12.53, Yaw : 62.14, Alt : 49.2700004578, Lat : 49.2835891, Lng : -123.1149881, Q1 : 0.853243112564, Q2 : -0.00282647577114, Q3 : -0.128900825977, Q4 : 0.505324482918}
2019-04-14 11:00:55.81: SIM {TimeUS : 57034677, Roll : -7.34, Pitch : -12.72, Yaw : 61.55, Alt : 49.2700004578, Lat : 49.2835905, Lng : -123.1149858, Q1 : 0.855729699135, Q2 : 0.00190933980048, Q3 : -0.127629071474, Q4 : 0.501431822777}
2019-04-14 11:00:55.91: SIM {TimeUS : 57134637, Roll : -6.1, Pitch : -13.17, Yaw : 59.84, Alt : 49.2700004578, Lat : 49.2835922, Lng : -123.1149835, Q1 : 0.862820744514, Q2 : 0.0112871555611, Q3 : -0.125690490007, Q4 : 0.489504754543}
2019-04-14 11:00:56.01: SIM {TimeUS : 57234597, Roll : -4.48, Pitch : -13.8, Yaw : 57.33, Alt : 49.2700004578, Lat : 49.2835939, Lng : -123.1149811, Q1 : 0.872667551041, Q2 : 0.0235504712909, Q3 : -0.123976878822, Q4 : 0.471727073193}
2019-04-14 11:00:56.11: SIM {TimeUS : 57335390, Roll : -2.66, Pitch : -14.48, Yaw : 54.31, Alt : 49.2799987793, Lat : 49.2835957, Lng : -123.1149787, Q1 : 0.88375467062, Q2 : 0.0370492003858, Q3 : -0.122692942619, Q4 : 0.45005723834}
2019-04-14 11:00:56.21: SIM {TimeUS : 57435350, Roll : -0.86, Pitch : -15.09, Yaw : 51.15, Alt : 49.2799987793, Lat : 49.2835975, Lng : -123.1149762, Q1 : 0.894589543343, Q2 : 0.049942355603, Q3 : -0.121729753911, Q4 : 0.427079796791}
2019-04-14 11:00:56.31: SIM {TimeUS : 57535310, Roll : 0.75, Pitch : -15.52, Yaw : 48.15, Alt : 49.2799987793, Lat : 49.2835994, Lng : -123.1149736, Q1 : 0.90423387289, Q2 : 0.0610874705017, Q3 : -0.120633795857, Q4 : 0.40506413579}
2019-04-14 11:00:56.41: SIM {TimeUS : 57635270, Roll : 2.07, Pitch : -15.74, Yaw : 45.62, Alt : 49.2799987793, Lat : 49.2836013, Lng : -123.1149708, Q1 : 0.911985874176, Q2 : 0.0695748925209, Q3 : -0.119256541133, Q4 : 0.386288762093}
2019-04-14 11:00:56.51: SIM {TimeUS : 57735230, Roll : 2.97, Pitch : -15.78, Yaw : 43.76, Alt : 49.2799987793, Lat : 49.2836031, Lng : -123.1149679, Q1 : 0.917516648769, Q2 : 0.0749842897058, Q3 : -0.117779172957, Q4 : 0.372382432222}
2019-04-14 11:00:56.61: SIM {TimeUS : 57835190, Roll : 3.43, Pitch : -15.73, Yaw : 42.68, Alt : 49.2799987793, Lat : 49.283605, Lng : -123.114965, Q1 : 0.920763015747, Q2 : 0.0774203166366, Q3 : -0.116639487445, Q4 : 0.364138364792}
2019-04-14 11:00:56.71: SIM {TimeUS : 57935150, Roll : 3.46, Pitch : -15.7, Yaw : 42.34, Alt : 49.2799987793, Lat : 49.2836069, Lng : -123.1149619, Q1 : 0.921838343143, Q2 : 0.0772230625153, Q3 : -0.116491213441, Q4 : 0.361497610807}
2019-04-14 11:00:56.81: SIM {TimeUS : 58035110, Roll : 3.11, Pitch : -15.72, Yaw : 42.67, Alt : 49.2799987793, Lat : 49.283609, Lng : -123.1149586, Q1 : 0.921008110046, Q2 : 0.0748548284173, Q3 : -0.117587529123, Q4 : 0.363749921322}
2019-04-14 11:00:56.91: SIM {TimeUS : 58135070, Roll : 2.47, Pitch : -15.82, Yaw : 43.5, Alt : 49.2799987793, Lat : 49.283611, Lng : -123.1149553, Q1 : 0.91863244772, Q2 : 0.0708599612117, Q3 : -0.119909510016, Q4 : 0.369750022888}
2019-04-14 11:00:57.01: SIM {TimeUS : 58235030, Roll : 1.65, Pitch : -15.94, Yaw : 44.67, Alt : 49.2799987793, Lat : 49.2836129, Lng : -123.1149519, Q1 : 0.915171384811, Q2 : 0.0659185498953, Q3 : -0.122892379761, Q4 : 0.378171384335}
2019-04-14 11:00:57.11: SIM {TimeUS : 58334990, Roll : 0.79, Pitch : -16.07, Yaw : 45.98, Alt : 49.2799987793, Lat : 49.283615, Lng : -123.1149484, Q1 : 0.911106050014, Q2 : 0.0609580166638, Q3 : -0.126020595431, Q4 : 0.3876709342}
2019-04-14 11:00:57.21: SIM {TimeUS : 58434950, Roll : -0.01, Pitch : -16.18, Yaw : 47.27, Alt : 49.2799987793, Lat : 49.2836171, Lng : -123.1149449, Q1 : 0.906965076923, Q2 : 0.0563562065363, Q3 : -0.129025891423, Q4 : 0.396976947784}
2019-04-14 11:00:57.31: SIM {TimeUS : 58534910, Roll : -0.67, Pitch : -16.28, Yaw : 48.41, Alt : 49.2799987793, Lat : 49.2836191, Lng : -123.1149413, Q1 : 0.903205037117, Q2 : 0.0527601577342, Q3 : -0.131535872817, Q4 : 0.405136287212}
2019-04-14 11:00:57.41: SIM {TimeUS : 58634870, Roll : -1.12, Pitch : -16.33, Yaw : 49.29, Alt : 49.2799987793, Lat : 49.2836214, Lng : -123.1149376, Q1 : 0.900224626064, Q2 : 0.0504245087504, Q3 : -0.133140921593, Q4 : 0.411492943764}
2019-04-14 11:00:57.51: SIM {TimeUS : 58734830, Roll : -1.36, Pitch : -16.35, Yaw : 49.85, Alt : 49.2799987793, Lat : 49.2836236, Lng : -123.1149339, Q1 : 0.898255050182, Q2 : 0.0492624938488, Q3 : -0.133929848671, Q4 : 0.415660709143}
2019-04-14 11:00:57.61: SIM {TimeUS : 58834790, Roll : -1.42, Pitch : -16.37, Yaw : 50.11, Alt : 49.2900009155, Lat : 49.2836257, Lng : -123.1149302, Q1 : 0.897346436977, Q2 : 0.0491263903677, Q3 : -0.13425116241, Q4 : 0.417531609535}
2019-04-14 11:00:57.71: SIM {TimeUS : 58934750, Roll : -1.34, Pitch : -16.41, Yaw : 50.07, Alt : 49.2900009155, Lat : 49.283628, Lng : -123.1149263, Q1 : 0.897415220737, Q2 : 0.0498921982944, Q3 : -0.134247049689, Q4 : 0.417294174433}
2019-04-14 11:00:57.81: SIM {TimeUS : 59034710, Roll : -1.13, Pitch : -16.47, Yaw : 49.79, Alt : 49.2900009155, Lat : 49.2836304, Lng : -123.1149226, Q1 : 0.898265302181, Q2 : 0.0514231845737, Q3 : -0.134073600173, Q4 : 0.415330439806}
2019-04-14 11:00:57.91: SIM {TimeUS : 59134670, Roll : -0.84, Pitch : -16.53, Yaw : 49.34, Alt : 49.2900009155, Lat : 49.2836327, Lng : -123.1149188, Q1 : 0.899673819542, Q2 : 0.0534184575081, Q3 : -0.133668169379, Q4 : 0.41214838624}
2019-04-14 11:00:58.01: SIM {TimeUS : 59234630, Roll : -0.49, Pitch : -16.58, Yaw : 48.81, Alt : 49.2900009155, Lat : 49.2836351, Lng : -123.1149148, Q1 : 0.901367723942, Q2 : 0.0556879937649, Q3 : -0.133150950074, Q4 : 0.408296376467}
2019-04-14 11:00:58.11: SIM {TimeUS : 59334590, Roll : -0.14, Pitch : -16.63, Yaw : 48.25, Alt : 49.2900009155, Lat : 49.2836373, Lng : -123.114911, Q1 : 0.903105735779, Q2 : 0.0579708404839, Q3 : -0.132586225867, Q4 : 0.404302328825}
2019-04-14 11:00:58.21: SIM {TimeUS : 59435383, Roll : 0.16, Pitch : -16.68, Yaw : 47.74, Alt : 49.2900009155, Lat : 49.2836399, Lng : -123.114907, Q1 : 0.904706537724, Q2 : 0.0600118935108, Q3 : -0.132060557604, Q4 : 0.400580495596}
2019-04-14 11:00:58.31: SIM {TimeUS : 59535343, Roll : 0.41, Pitch : -16.7, Yaw : 47.32, Alt : 49.2900009155, Lat : 49.2836422, Lng : -123.114903, Q1 : 0.906004190445, Q2 : 0.0616147220135, Q3 : -0.131616905332, Q4 : 0.397538781166}
2019-04-14 11:00:58.41: SIM {TimeUS : 59635303, Roll : 0.59, Pitch : -16.73, Yaw : 47.01, Alt : 49.2900009155, Lat : 49.2836446, Lng : -123.1148989, Q1 : 0.90692037344, Q2 : 0.0627310425043, Q3 : -0.131401360035, Q4 : 0.395340412855}
2019-04-14 11:00:58.51: SIM {TimeUS : 59735263, Roll : 0.66, Pitch : -16.76, Yaw : 46.84, Alt : 49.2900009155, Lat : 49.2836472, Lng : -123.1148949, Q1 : 0.907437443733, Q2 : 0.0632160007954, Q3 : -0.131441250443, Q4 : 0.394061148167}
2019-04-14 11:00:58.61: SIM {TimeUS : 59835223, Roll : 0.65, Pitch : -16.79, Yaw : 46.8, Alt : 49.2900009155, Lat : 49.2836495, Lng : -123.1148907, Q1 : 0.90755969286, Q2 : 0.0631788522005, Q3 : -0.131818294525, Q4 : 0.393659591675}
2019-04-14 11:00:58.71: SIM {TimeUS : 59935183, Roll : 0.56, Pitch : -16.84, Yaw : 46.86, Alt : 49.2900009155, Lat : 49.2836521, Lng : -123.1148866, Q1 : 0.907342255116, Q2 : 0.0627424642444, Q3 : -0.132441043854, Q4 : 0.394021332264}
2019-04-14 11:00:58.81: SIM {TimeUS : 60035143, Roll : 0.43, Pitch : -16.89, Yaw : 47.0, Alt : 49.2900009155, Lat : 49.2836546, Lng : -123.1148824, Q1 : 0.906875789165, Q2 : 0.0620133727789, Q3 : -0.133195757866, Q4 : 0.394955188036}
2019-04-14 11:00:58.91: SIM {TimeUS : 60135103, Roll : 0.26, Pitch : -16.92, Yaw : 47.19, Alt : 49.2900009155, Lat : 49.2836571, Lng : -123.1148781, Q1 : 0.906274020672, Q2 : 0.0609863847494, Q3 : -0.133973047137, Q4 : 0.396231383085}
2019-04-14 11:00:59.01: SIM {TimeUS : 60235063, Roll : 0.08, Pitch : -16.95, Yaw : 47.39, Alt : 49.2999992371, Lat : 49.2836596, Lng : -123.1148739, Q1 : 0.905626237392, Q2 : 0.0598958432674, Q3 : -0.134699389338, Q4 : 0.39763006568}
2019-04-14 11:00:59.11: SIM {TimeUS : 60335023, Roll : -0.07, Pitch : -16.97, Yaw : 47.59, Alt : 49.2999992371, Lat : 49.2836621, Lng : -123.1148696, Q1 : 0.905003905296, Q2 : 0.0589805915952, Q3 : -0.135333478451, Q4 : 0.398966282606}
2019-04-14 11:00:59.21: SIM {TimeUS : 60434983, Roll : -0.17, Pitch : -17.01, Yaw : 47.75, Alt : 49.2999992371, Lat : 49.2836646, Lng : -123.1148653, Q1 : 0.904450118542, Q2 : 0.0584782101214, Q3 : -0.135880962014, Q4 : 0.4001083076}
2019-04-14 11:00:59.31: SIM {TimeUS : 60534943, Roll : -0.23, Pitch : -17.04, Yaw : 47.87, Alt : 49.2999992371, Lat : 49.2836671, Lng : -123.1148609, Q1 : 0.904033124447, Q2 : 0.0582463443279, Q3 : -0.136314988136, Q4 : 0.400936096907}
2019-04-14 11:00:59.41: SIM {TimeUS : 60634903, Roll : -0.25, Pitch : -17.09, Yaw : 47.93, Alt : 49.2999992371, Lat : 49.2836698, Lng : -123.1148566, Q1 : 0.90376418829, Q2 : 0.0583737082779, Q3 : -0.136676862836, Q4 : 0.40140029788}
2019-04-14 11:00:59.51: SIM {TimeUS : 60734863, Roll : -0.22, Pitch : -17.14, Yaw : 47.94, Alt : 49.2999992371, Lat : 49.2836724, Lng : -123.1148522, Q1 : 0.903656184673, Q2 : 0.0587634779513, Q3 : -0.136969000101, Q4 : 0.401487052441}
2019-04-14 11:00:59.61: SIM {TimeUS : 60834823, Roll : -0.18, Pitch : -17.18, Yaw : 47.9, Alt : 49.2999992371, Lat : 49.2836749, Lng : -123.1148478, Q1 : 0.903706967831, Q2 : 0.0592432916164, Q3 : -0.137205153704, Q4 : 0.401221513748}
2019-04-14 11:00:59.71: SIM {TimeUS : 60934783, Roll : -0.13, Pitch : -17.21, Yaw : 47.83, Alt : 49.2999992371, Lat : 49.2836776, Lng : -123.1148434, Q1 : 0.903911054134, Q2 : 0.0596070215106, Q3 : -0.137322619557, Q4 : 0.400667369366}
2019-04-14 11:00:59.81: SIM {TimeUS : 61034743, Roll : -0.09, Pitch : -17.23, Yaw : 47.73, Alt : 49.2999992371, Lat : 49.2836803, Lng : -123.114839, Q1 : 0.904219806194, Q2 : 0.0598745048046, Q3 : -0.137375533581, Q4 : 0.3999119699}
2019-04-14 11:00:59.91: SIM {TimeUS : 61134703, Roll : -0.03, Pitch : -17.24, Yaw : 47.61, Alt : 49.3100013733, Lat : 49.2836828, Lng : -123.1148345, Q1 : 0.904571354389, Q2 : 0.0602280423045, Q3 : -0.137297272682, Q4 : 0.399089902639}
2019-04-14 11:01:00.01: SIM {TimeUS : 61234663, Roll : 0.03, Pitch : -17.25, Yaw : 47.5, Alt : 49.3100013733, Lat : 49.2836856, Lng : -123.1148301, Q1 : 0.904915392399, Q2 : 0.0606723017991, Q3 : -0.13720780611, Q4 : 0.398272514343}
2019-04-14 11:01:00.11: SIM {TimeUS : 61334623, Roll : 0.11, Pitch : -17.27, Yaw : 47.4, Alt : 49.3100013733, Lat : 49.2836882, Lng : -123.1148256, Q1 : 0.905201017857, Q2 : 0.0612663850188, Q3 : -0.137161999941, Q4 : 0.397547632456}
2019-04-14 11:01:00.21: SIM {TimeUS : 61434583, Roll : 0.18, Pitch : -17.32, Yaw : 47.31, Alt : 49.3100013733, Lat : 49.2836908, Lng : -123.1148211, Q1 : 0.905397236347, Q2 : 0.0619153119624, Q3 : -0.137328594923, Q4 : 0.396942347288}
2019-04-14 11:01:00.31: SIM {TimeUS : 61535376, Roll : 0.23, Pitch : -17.35, Yaw : 47.25, Alt : 49.3100013733, Lat : 49.2836937, Lng : -123.1148165, Q1 : 0.905561208725, Q2 : 0.0622800402343, Q3 : -0.137404084206, Q4 : 0.396484881639}
2019-04-14 11:01:00.41: SIM {TimeUS : 61635336, Roll : 0.24, Pitch : -17.34, Yaw : 47.21, Alt : 49.3100013733, Lat : 49.2836963, Lng : -123.114812, Q1 : 0.905696630478, Q2 : 0.0623311251402, Q3 : -0.137292906642, Q4 : 0.396205872297}
2019-04-14 11:01:00.51: SIM {TimeUS : 61735296, Roll : 0.22, Pitch : -17.34, Yaw : 47.2, Alt : 49.3100013733, Lat : 49.2836991, Lng : -123.1148074, Q1 : 0.905760586262, Q2 : 0.0621541552246, Q3 : -0.137403562665, Q4 : 0.396049141884}
2019-04-14 11:01:00.61: SIM {TimeUS : 61835256, Roll : 0.18, Pitch : -17.37, Yaw : 47.2, Alt : 49.3100013733, Lat : 49.2837017, Lng : -123.1148029, Q1 : 0.905739545822, Q2 : 0.0619368739426, Q3 : -0.137786567211, Q4 : 0.395998209715}
2019-04-14 11:01:00.71: SIM {TimeUS : 61935216, Roll : 0.14, Pitch : -17.41, Yaw : 47.21, Alt : 49.3100013733, Lat : 49.2837045, Lng : -123.1147983, Q1 : 0.905672371387, Q2 : 0.0617821365595, Q3 : -0.138177841902, Q4 : 0.396039754152}
2019-04-14 11:01:00.81: SIM {TimeUS : 62035176, Roll : 0.12, Pitch : -17.44, Yaw : 47.23, Alt : 49.3100013733, Lat : 49.2837071, Lng : -123.1147937, Q1 : 0.905565023422, Q2 : 0.0617380850017, Q3 : -0.138562172651, Q4 : 0.396157741547}
2019-04-14 11:01:00.91: SIM {TimeUS : 62135136, Roll : 0.1, Pitch : -17.47, Yaw : 47.26, Alt : 49.3100013733, Lat : 49.28371, Lng : -123.1147891, Q1 : 0.905454277992, Q2 : 0.061715696007, Q3 : -0.138848483562, Q4 : 0.396314144135}
2019-04-14 11:01:01.01: SIM {TimeUS : 62235096, Roll : 0.09, Pitch : -17.5, Yaw : 47.28, Alt : 49.3100013733, Lat : 49.2837126, Lng : -123.1147845, Q1 : 0.905348598957, Q2 : 0.0617566928267, Q3 : -0.139061182737, Q4 : 0.396474570036}
2019-04-14 11:01:01.11: SIM {TimeUS : 62335056, Roll : 0.09, Pitch : -17.51, Yaw : 47.3, Alt : 49.3199996948, Lat : 49.2837155, Lng : -123.1147798, Q1 : 0.905269920826, Q2 : 0.0618404373527, Q3 : -0.139128744602, Q4 : 0.396617293358}
2019-04-14 11:01:01.21: SIM {TimeUS : 62435016, Roll : 0.1, Pitch : -17.53, Yaw : 47.31, Alt : 49.3199996948, Lat : 49.2837181, Lng : -123.1147752, Q1 : 0.90520966053, Q2 : 0.0619955658913, Q3 : -0.139216810465, Q4 : 0.396699875593}
2019-04-14 11:01:01.31: SIM {TimeUS : 62534976, Roll : 0.11, Pitch : -17.55, Yaw : 47.31, Alt : 49.3199996948, Lat : 49.283721, Lng : -123.1147706, Q1 : 0.905176639557, Q2 : 0.0621736422181, Q3 : -0.139353856444, Q4 : 0.396699219942}
2019-04-14 11:01:01.41: SIM {TimeUS : 62634936, Roll : 0.11, Pitch : -17.58, Yaw : 47.3, Alt : 49.3199996948, Lat : 49.2837238, Lng : -123.1147659, Q1 : 0.905177772045, Q2 : 0.0622582398355, Q3 : -0.139598742127, Q4 : 0.396597117186}
2019-04-14 11:01:01.51: SIM {TimeUS : 62734896, Roll : 0.09, Pitch : -17.62, Yaw : 47.28, Alt : 49.3199996948, Lat : 49.2837265, Lng : -123.1147612, Q1 : 0.905203163624, Q2 : 0.0621915534139, Q3 : -0.140039399266, Q4 : 0.396394252777}
2019-04-14 11:01:01.61: SIM {TimeUS : 62834856, Roll : 0.08, Pitch : -17.67, Yaw : 47.25, Alt : 49.3199996948, Lat : 49.2837293, Lng : -123.1147565, Q1 : 0.905240297318, Q2 : 0.0622247084975, Q3 : -0.140464618802, Q4 : 0.396153748035}
2019-04-14 11:01:01.71: SIM {TimeUS : 62934816, Roll : 0.1, Pitch : -17.7, Yaw : 47.22, Alt : 49.3199996948, Lat : 49.283732, Lng : -123.1147518, Q1 : 0.905288934708, Q2 : 0.0624867714942, Q3 : -0.140677183867, Q4 : 0.395925849676}
2019-04-14 11:01:01.81: SIM {TimeUS : 63034776, Roll : 0.13, Pitch : -17.71, Yaw : 47.19, Alt : 49.3199996948, Lat : 49.2837349, Lng : -123.1147471, Q1 : 0.905374705791, Q2 : 0.0627343431115, Q3 : -0.140608519316, Q4 : 0.395714938641}
2019-04-14 11:01:01.91: SIM {TimeUS : 63134736, Roll : 0.17, Pitch : -17.69, Yaw : 47.16, Alt : 49.3199996948, Lat : 49.2837376, Lng : -123.1147424, Q1 : 0.905483365059, Q2 : 0.0628853738308, Q3 : -0.140387639403, Q4 : 0.395520716906}
2019-04-14 11:01:02.01: SIM {TimeUS : 63234696, Roll : 0.17, Pitch : -17.67, Yaw : 47.13, Alt : 49.3199996948, Lat : 49.2837405, Lng : -123.1147377, Q1 : 0.905595481396, Q2 : 0.0628273338079, Q3 : -0.140246838331, Q4 : 0.395323097706}
2019-04-14 11:01:02.11: SIM {TimeUS : 63334656, Roll : 0.17, Pitch : -17.65, Yaw : 47.11, Alt : 49.3199996948, Lat : 49.2837434, Lng : -123.1147329, Q1 : 0.905706822872, Q2 : 0.0627063363791, Q3 : -0.140110626817, Q4 : 0.395135462284}
2019-04-14 11:01:02.21: SIM {TimeUS : 63434616, Roll : 0.16, Pitch : -17.63, Yaw : 47.09, Alt : 49.3199996948, Lat : 49.2837461, Lng : -123.1147281, Q1 : 0.905810892582, Q2 : 0.0625830218196, Q3 : -0.139968752861, Q4 : 0.394966840744}
2019-04-14 11:01:02.31: SIM {TimeUS : 63534576, Roll : 0.16, Pitch : -17.65, Yaw : 47.07, Alt : 49.3199996948, Lat : 49.283749, Lng : -123.1147234, Q1 : 0.905864596367, Q2 : 0.0625395774841, Q3 : -0.140107154846, Q4 : 0.394801497459}
2019-04-14 11:01:02.41: SIM {TimeUS : 63635369, Roll : 0.15, Pitch : -17.68, Yaw : 47.05, Alt : 49.3199996948, Lat : 49.2837519, Lng : -123.1147186, Q1 : 0.90587836504, Q2 : 0.0625933036208, Q3 : -0.140395715833, Q4 : 0.39465880394}
2019-04-14 11:01:02.51: SIM {TimeUS : 63735329, Roll : 0.14, Pitch : -17.73, Yaw : 47.04, Alt : 49.3199996948, Lat : 49.2837546, Lng : -123.1147139, Q1 : 0.90585654974, Q2 : 0.0626686438918, Q3 : -0.14084148407, Q4 : 0.394538104534}
2019-04-14 11:01:02.61: SIM {TimeUS : 63835289, Roll : 0.14, Pitch : -17.79, Yaw : 47.03, Alt : 49.3300018311, Lat : 49.2837576, Lng : -123.1147091, Q1 : 0.90581458807, Q2 : 0.0628384202719, Q3 : -0.14131206274, Q4 : 0.394439190626}
2019-04-14 11:01:02.71: SIM {TimeUS : 63935249, Roll : 0.15, Pitch : -17.82, Yaw : 47.03, Alt : 49.3300018311, Lat : 49.2837604, Lng : -123.1147043, Q1 : 0.90579277277, Q2 : 0.0630255267024, Q3 : -0.141530930996, Q4 : 0.394380837679}
2019-04-14 11:01:02.81: SIM {TimeUS : 64035209, Roll : 0.15, Pitch : -17.85, Yaw : 47.02, Alt : 49.3300018311, Lat : 49.2837632, Lng : -123.1146995, Q1 : 0.905781388283, Q2 : 0.0631244704127, Q3 : -0.141740441322, Q4 : 0.394315928221}
2019-04-14 11:01:02.91: SIM {TimeUS : 64135169, Roll : 0.14, Pitch : -17.86, Yaw : 47.01, Alt : 49.3300018311, Lat : 49.2837661, Lng : -123.1146947, Q1 : 0.905791044235, Q2 : 0.0631102845073, Q3 : -0.141892582178, Q4 : 0.394241213799}
2019-04-14 11:01:03.01: SIM {TimeUS : 64235129, Roll : 0.15, Pitch : -17.85, Yaw : 47.01, Alt : 49.3300018311, Lat : 49.283769, Lng : -123.1146898, Q1 : 0.905827641487, Q2 : 0.0630876049399, Q3 : -0.141805380583, Q4 : 0.394192159176}
2019-04-14 11:01:03.11: SIM {TimeUS : 64335089, Roll : 0.16, Pitch : -17.86, Yaw : 47.0, Alt : 49.3300018311, Lat : 49.2837717, Lng : -123.1146851, Q1 : 0.905837416649, Q2 : 0.0632140412927, Q3 : -0.141834974289, Q4 : 0.394138872623}
2019-04-14 11:01:03.21: SIM {TimeUS : 64435049, Roll : 0.17, Pitch : -17.88, Yaw : 46.99, Alt : 49.3300018311, Lat : 49.2837746, Lng : -123.1146803, Q1 : 0.905838310719, Q2 : 0.063326485455, Q3 : -0.141980081797, Q4 : 0.394066423178}
2019-04-14 11:01:03.31: SIM {TimeUS : 64535009, Roll : 0.17, Pitch : -17.9, Yaw : 46.98, Alt : 49.3300018311, Lat : 49.2837776, Lng : -123.1146754, Q1 : 0.90584897995, Q2 : 0.0634102374315, Q3 : -0.142078503966, Q4 : 0.393993020058}
2019-04-14 11:01:03.41: SIM {TimeUS : 64634969, Roll : 0.18, Pitch : -17.89, Yaw : 46.97, Alt : 49.3300018311, Lat : 49.2837805, Lng : -123.1146706, Q1 : 0.905887067318, Q2 : 0.063480399549, Q3 : -0.14203736186, Q4 : 0.393909037113}
2019-04-14 11:01:03.51: SIM {TimeUS : 64734929, Roll : 0.18, Pitch : -17.9, Yaw : 46.95, Alt : 49.3300018311, Lat : 49.2837834, Lng : -123.1146658, Q1 : 0.905933856964, Q2 : 0.0634818077087, Q3 : -0.142051368952, Q4 : 0.393796056509}
2019-04-14 11:01:03.61: SIM {TimeUS : 64834889, Roll : 0.17, Pitch : -17.92, Yaw : 46.94, Alt : 49.3300018311, Lat : 49.2837862, Lng : -123.1146609, Q1 : 0.905970692635, Q2 : 0.0634099915624, Q3 : -0.142267167568, Q4 : 0.393644958735}
2019-04-14 11:01:03.71: SIM {TimeUS : 64934849, Roll : 0.14, Pitch : -17.95, Yaw : 46.92, Alt : 49.3300018311, Lat : 49.2837891, Lng : -123.1146561, Q1 : 0.905993998051, Q2 : 0.0632851198316, Q3 : -0.142689451575, Q4 : 0.393458604813}
2019-04-14 11:01:03.81: SIM {TimeUS : 65034809, Roll : 0.12, Pitch : -17.96, Yaw : 46.91, Alt : 49.3300018311, Lat : 49.283792, Lng : -123.1146512, Q1 : 0.906047642231, Q2 : 0.0631720721722, Q3 : -0.142808273435, Q4 : 0.393310040236}
2019-04-14 11:01:03.91: SIM {TimeUS : 65134769, Roll : 0.13, Pitch : -17.95, Yaw : 46.89, Alt : 49.3300018311, Lat : 49.2837948, Lng : -123.1146463, Q1 : 0.906109809875, Q2 : 0.0631985887885, Q3 : -0.142684727907, Q4 : 0.393207341433}
2019-04-14 11:01:04.01: SIM {TimeUS : 65234729, Roll : 0.16, Pitch : -17.94, Yaw : 46.87, Alt : 49.3300018311, Lat : 49.2837978, Lng : -123.1146415, Q1 : 0.906165540218, Q2 : 0.063310071826, Q3 : -0.142525076866, Q4 : 0.393118947744}
2019-04-14 11:01:04.11: SIM {TimeUS : 65334689, Roll : 0.17, Pitch : -17.95, Yaw : 46.86, Alt : 49.3400001526, Lat : 49.2838007, Lng : -123.1146366, Q1 : 0.90619969368, Q2 : 0.0634478628635, Q3 : -0.142531782389, Q4 : 0.393015533686}
2019-04-14 11:01:04.21: SIM {TimeUS : 65434649, Roll : 0.17, Pitch : -17.96, Yaw : 46.85, Alt : 49.3400001526, Lat : 49.2838037, Lng : -123.1146317, Q1 : 0.906224787235, Q2 : 0.0634497851133, Q3 : -0.142708450556, Q4 : 0.392893254757}
2019-04-14 11:01:04.31: SIM {TimeUS : 65534609, Roll : 0.15, Pitch : -17.99, Yaw : 46.83, Alt : 49.3400001526, Lat : 49.2838066, Lng : -123.1146268, Q1 : 0.906250119209, Q2 : 0.0633489117026, Q3 : -0.142946481705, Q4 : 0.392764478922}
2019-04-14 11:01:04.41: SIM {TimeUS : 65635402, Roll : 0.14, Pitch : -18.01, Yaw : 46.82, Alt : 49.3400001526, Lat : 49.2838094, Lng : -123.1146219, Q1 : 0.906263947487, Q2 : 0.0633295625448, Q3 : -0.143162414432, Q4 : 0.392657071352}
2019-04-14 11:01:04.51: SIM {TimeUS : 65735362, Roll : 0.14, Pitch : -18.02, Yaw : 46.81, Alt : 49.3400001526, Lat : 49.2838123, Lng : -123.114617, Q1 : 0.906276762486, Q2 : 0.0634106695652, Q3 : -0.143267214298, Q4 : 0.392576128244}
2019-04-14 11:01:04.61: SIM {TimeUS : 65835322, Roll : 0.15, Pitch : -18.03, Yaw : 46.8, Alt : 49.3400001526, Lat : 49.2838153, Lng : -123.114612, Q1 : 0.906291306019, Q2 : 0.0634934678674, Q3 : -0.143326193094, Q4 : 0.392507612705}
2019-04-14 11:01:04.71: SIM {TimeUS : 65935282, Roll : 0.17, Pitch : -18.05, Yaw : 46.8, Alt : 49.3400001526, Lat : 49.2838183, Lng : -123.1146072, Q1 : 0.906286656857, Q2 : 0.0636698156595, Q3 : -0.143374219537, Q4 : 0.392472416162}
2019-04-14 11:01:04.81: SIM {TimeUS : 66035242, Roll : 0.18, Pitch : -18.07, Yaw : 46.79, Alt : 49.3400001526, Lat : 49.2838212, Lng : -123.1146023, Q1 : 0.90627270937, Q2 : 0.0638054907322, Q3 : -0.143507555127, Q4 : 0.39243376255}
2019-04-14 11:01:04.91: SIM {TimeUS : 66135202, Roll : 0.18, Pitch : -18.09, Yaw : 46.79, Alt : 49.3400001526, Lat : 49.2838242, Lng : -123.1145974, Q1 : 0.90625756979, Q2 : 0.0639235824347, Q3 : -0.143660888076, Q4 : 0.392393380404}
2019-04-14 11:01:05.01: SIM {TimeUS : 66235162, Roll : 0.19, Pitch : -18.11, Yaw : 46.78, Alt : 49.3400001526, Lat : 49.283827, Lng : -123.1145925, Q1 : 0.906242847443, Q2 : 0.0640560239553, Q3 : -0.143790617585, Q4 : 0.392358273268}
2019-04-14 11:01:05.11: SIM {TimeUS : 66335122, Roll : 0.21, Pitch : -18.12, Yaw : 46.78, Alt : 49.3400001526, Lat : 49.2838299, Lng : -123.1145876, Q1 : 0.90622895956, Q2 : 0.0642602965236, Q3 : -0.14383085072, Q4 : 0.392342180014}
2019-04-14 11:01:05.21: SIM {TimeUS : 66435082, Roll : 0.24, Pitch : -18.13, Yaw : 46.78, Alt : 49.3400001526, Lat : 49.2838329, Lng : -123.1145827, Q1 : 0.906212687492, Q2 : 0.0645467564464, Q3 : -0.143806576729, Q4 : 0.392341643572}
2019-04-14 11:01:05.31: SIM {TimeUS : 66535042, Roll : 0.25, Pitch : -18.12, Yaw : 46.77, Alt : 49.3499984741, Lat : 49.2838359, Lng : -123.1145778, Q1 : 0.906238138676, Q2 : 0.0645214468241, Q3 : -0.143752291799, Q4 : 0.392306864262}
