2019-04-14 12:14:42.40: SIM {TimeUS : 40816167, Roll : 0.0, Pitch : 0.0, Yaw : 0.0, Alt : 30.1000003815, Lat : 49.28357, Lng : -123.11502, Q1 : 1.0, Q2 : 0.0, Q3 : 0.0, Q4 : 0.0}
2019-04-14 12:14:42.51: SIM {TimeUS : 40935286, Roll : 0.0, Pitch : 0.0, Yaw : 0.0, Alt : 30.1000003815, Lat : 49.28357, Lng : -123.11502, Q1 : 1.0, Q2 : 0.0, Q3 : 0.0, Q4 : 0.0}
2019-04-14 12:14:42.61: SIM {TimeUS : 41035246, Roll : 0.0, Pitch : 0.0, Yaw : 0.0, Alt : 30.1000003815, Lat : 49.28357, Lng : -123.11502, Q1 : 1.0, Q2 : 0.0, Q3 : 0.0, Q4 : 0.0}
2019-04-14 12:14:42.71: SIM {TimeUS : 41135206, Roll : 0.0, Pitch : 0.0, Yaw : 0.0, Alt : 30.1000003815, Lat : 49.28357, Lng : -123.11502, Q1 : 1.0, Q2 : 0.0, Q3 : 0.0, Q4 : 0.0}
2019-04-14 12:14:42.81: SIM {TimeUS : 41235166, Roll : 0.0, Pitch : 0.0, Yaw : 0.0, Alt : 30.1000003815, Lat : 49.28357, Lng : -123.11502, Q1 : 1.0, Q2 : 0.0, Q3 : 0.0, Q4 : 0.0}
2019-04-14 12:14:42.91: SIM {TimeUS : 41335126, Roll : 0.0, Pitch : 0.0, Yaw : 0.0, Alt : 30.1000003815, Lat : 49.28357, Lng : -123.11502, Q1 : 1.0, Q2 : 0.0, Q3 : 0.0, Q4 : 0.0}
2019-04-14 12:14:43.01: SIM {TimeUS : 41435086, Roll : 0.0, Pitch : 0.0, Yaw : 0.0, Alt : 30.1000003815, Lat : 49.28357, Lng : -123.11502, Q1 : 1.0, Q2 : 0.0, Q3 : 0.0, Q4 : 0.0}
2019-04-14 12:14:43.11: SIM {TimeUS : 41535046, Roll : 0.0, Pitch : 0.0, Yaw : 0.0, Alt : 30.1000003815, Lat : 49.28357, Lng : -123.11502, Q1 : 1.0, Q2 : 0.0, Q3 : 0.0, Q4 : 0.0}
2019-04-14 12:14:43.21: SIM {TimeUS : 41635006, Roll : 0.0, Pitch : 0.0, Yaw : 0.0, Alt : 30.1000003815, Lat : 49.28357, Lng : -123.11502, Q1 : 1.0, Q2 : 0.0, Q3 : 0.0, Q4 : 0.0}
2019-04-14 12:14:43.31: SIM {TimeUS : 41734966, Roll : 0.0, Pitch : 0.0, Yaw : 0.0, Alt : 30.1000003815, Lat : 49.28357, Lng : -123.11502, Q1 : 1.0, Q2 : 0.0, Q3 : 0.0, Q4 : 0.0}
2019-04-14 12:14:43.41: SIM {TimeUS : 41834926, Roll : 0.0, Pitch : 0.0, Yaw : 0.0, Alt : 30.1000003815, Lat : 49.28357, Lng : -123.11502, Q1 : 1.0, Q2 : 0.0, Q3 : 0.0, Q4 : 0.0}
2019-04-14 12:14:43.51: SIM {TimeUS : 41934886, Roll : 0.0, Pitch : 0.0, Yaw : 0.0, Alt : 30.1000003815, Lat : 49.28357, Lng : -123.11502, Q1 : 1.0, Q2 : 0.0, Q3 : 0.0, Q4 : 0.0}
2019-04-14 12:14:43.61: SIM {TimeUS : 42034846, Roll : 0.0, Pitch : 0.0, Yaw : 0.0, Alt : 30.1000003815, Lat : 49.28357, Lng : -123.11502, Q1 : 1.0, Q2 : 0.0, Q3 : 0.0, Q4 : 0.0}
2019-04-14 12:14:43.71: SIM {TimeUS : 42134806, Roll : 0.0, Pitch : 0.0, Yaw : 0.0, Alt : 30.1000003815, Lat : 49.28357, Lng : -123.11502, Q1 : 1.0, Q2 : 0.0, Q3 : 0.0, Q4 : 0.0}
2019-04-14 12:14:43.81: SIM {TimeUS : 42234766, Roll : 0.0, Pitch : 0.0, Yaw : 0.0, Alt : 30.1000003815, Lat : 49.28357, Lng : -123.11502, Q1 : 1.0, Q2 : 0.0, Q3 : 0.0, Q4 : 0.0}
2019-04-14 12:14:43.91: SIM {TimeUS : 42334726, Roll : 0.0, Pitch : 0.0, Yaw : 0.0, Alt : 30.1000003815, Lat : 49.28357, Lng : -123.11502, Q1 : 1.0, Q2 : 0.0, Q3 : 0.0, Q4 : 0.0}
2019-04-14 12:14:44.01: SIM {TimeUS : 42434686, Roll : 0.0, Pitch : 0.0, Yaw : 0.0, Alt : 30.1000003815, Lat : 49.28357, Lng : -123.11502, Q1 : 1.0, Q2 : 0.0, Q3 : 0.0, Q4 : 0.0}
2019-04-14 12:14:44.11: SIM {TimeUS : 42534646, Roll : 0.0, Pitch : 0.0, Yaw : 0.0, Alt : 30.1000003815, Lat : 49.28357, Lng : -123.11502, Q1 : 1.0, Q2 : 0.0, Q3 : 0.0, Q4 : 0.0}
2019-04-14 12:14:44.21: SIM {TimeUS : 42634606, Roll : 0.0, Pitch : 0.0, Yaw : 0.0, Alt : 30.1000003815, Lat : 49.28357, Lng : -123.11502, Q1 : 1.0, Q2 : 0.0, Q3 : 0.0, Q4 : 0.0}
2019-04-14 12:14:44.31: SIM {TimeUS : 42734566, Roll : 0.0, Pitch : 0.0, Yaw : 0.0, Alt : 30.1000003815, Lat : 49.28357, Lng : -123.11502, Q1 : 1.0, Q2 : 0.0, Q3 : 0.0, Q4 : 0.0}
2019-04-14 12:14:44.41: SIM {TimeUS : 42834526, Roll : 0.0, Pitch : 0.0, Yaw : 0.0, Alt : 30.1000003815, Lat : 49.28357, Lng : -123.11502, Q1 : 1.0, Q2 : 0.0, Q3 : 0.0, Q4 : 0.0}
2019-04-14 12:14:44.51: SIM {TimeUS : 42935319, Roll : 0.0, Pitch : 0.0, Yaw : 0.0, Alt : 30.1000003815, Lat : 49.28357, Lng : -123.11502, Q1 : 1.0, Q2 : 0.0, Q3 : 0.0, Q4 : 0.0}
2019-04-14 12:14:44.61: SIM {TimeUS : 43035279, Roll : 0.0, Pitch : 0.0, Yaw : 0.0, Alt : 30.1000003815, Lat : 49.28357, Lng : -123.11502, Q1 : 1.0, Q2 : 0.0, Q3 : 0.0, Q4 : 0.0}
2019-04-14 12:14:44.71: SIM {TimeUS : 43135239, Roll : 0.0, Pitch : 0.0, Yaw : 360.0, Alt : 30.1000003815, Lat : 49.28357, Lng : -123.11502, Q1 : 1.0, Q2 : 0.0, Q3 : 0.0, Q4 : -1.17322046175e-11}
2019-04-14 12:14:44.81: SIM {TimeUS : 43235199, Roll : 0.0, Pitch : 0.0, Yaw : 0.0, Alt : 30.1000003815, Lat : 49.28357, Lng : -123.11502, Q1 : 1.0, Q2 : 0.0, Q3 : 0.0, Q4 : 2.90170977524e-11}
2019-04-14 12:14:44.91: SIM {TimeUS : 43335159, Roll : 0.0, Pitch : 0.0, Yaw : 360.0, Alt : 30.1000003815, Lat : 49.28357, Lng : -123.11502, Q1 : 1.0, Q2 : 0.0, Q3 : 0.0, Q4 : -1.45012350572e-07}
2019-04-14 12:14:45.01: SIM {TimeUS : 43435119, Roll : 0.0, Pitch : 0.0, Yaw : 359.99, Alt : 30.1000003815, Lat : 49.28357, Lng : -123.11502, Q1 : 1.0, Q2 : 0.0, Q3 : 0.0, Q4 : -2.87542519573e-07}
2019-04-14 12:14:45.11: SIM {TimeUS : 43535079, Roll : 0.0, Pitch : 0.0, Yaw : 359.99, Alt : 30.1000003815, Lat : 49.28357, Lng : -123.11502, Q1 : 1.0, Q2 : 0.0, Q3 : 0.0, Q4 : -5.08034474933e-07}
2019-04-14 12:14:45.21: SIM {TimeUS : 43635039, Roll : 0.0, Pitch : 0.0, Yaw : 359.99, Alt : 30.1000003815, Lat : 49.28357, Lng : -123.11502, Q1 : 1.0, Q2 : 0.0, Q3 : 0.0, Q4 : -6.69727228342e-07}
2019-04-14 12:14:45.31: SIM {TimeUS : 43734999, Roll : 0.0, Pitch : 0.0, Yaw : 359.99, Alt : 30.1000003815, Lat : 49.28357, Lng : -123.11502, Q1 : 1.0, Q2 : 0.0, Q3 : 0.0, Q4 : -9.07138939965e-07}
2019-04-14 12:14:45.41: SIM {TimeUS : 43834959, Roll : 0.0, Pitch : 0.0, Yaw : 359.99, Alt : 30.1000003815, Lat : 49.28357, Lng : -123.11502, Q1 : 1.0, Q2 : 0.0, Q3 : 0.0, Q4 : -1.05910646653e-06}
2019-04-14 12:14:45.51: SIM {TimeUS : 43934919, Roll : 0.0, Pitch : 0.0, Yaw : 359.99, Alt : 30.1000003815, Lat : 49.28357, Lng : -123.11502, Q1 : 1.0, Q2 : 0.0, Q3 : 0.0, Q4 : -1.21973164369e-06}
2019-04-14 12:14:45.61: SIM {TimeUS : 44034879, Roll : 0.0, Pitch : 0.0, Yaw : 359.99, Alt : 30.1100006104, Lat : 49.28357, Lng : -123.11502, Q1 : 1.0, Q2 : 0.0, Q3 : 0.0, Q4 : -1.41939676723e-06}
2019-04-14 12:14:45.71: SIM {TimeUS : 44134839, Roll : 0.0, Pitch : 0.0, Yaw : 359.99, Alt : 30.1399993896, Lat : 49.28357, Lng : -123.11502, Q1 : 1.0, Q2 : 0.0, Q3 : 0.0, Q4 : -1.58528962402e-06}
2019-04-14 12:14:45.81: SIM {TimeUS : 44234799, Roll : 0.0, Pitch : 0.0, Yaw : 359.99, Alt : 30.1599998474, Lat : 49.28357, Lng : -123.11502, Q1 : 1.0, Q2 : 0.0, Q3 : 0.0, Q4 : -1.80408801498e-06}
2019-04-14 12:14:45.91: SIM {TimeUS : 44334759, Roll : 0.0, Pitch : 0.0, Yaw : 359.99, Alt : 30.2000007629, Lat : 49.28357, Lng : -123.11502, Q1 : 1.0, Q2 : 0.0, Q3 : 0.0, Q4 : -1.95168081518e-06}
2019-04-14 12:14:46.01: SIM {TimeUS : 44434719, Roll : -0.08, Pitch : -0.08, Yaw : 359.99, Alt : 30.25, Lat : 49.28357, Lng : -123.11502, Q1 : 0.999999403954, Q2 : -0.000768076162785, Q3 : -0.000740190502256, Q4 : -1.07140931505e-05}
2019-04-14 12:14:46.11: SIM {TimeUS : 44534679, Roll : -0.38, Pitch : -0.32, Yaw : 359.99, Alt : 30.3400001526, Lat : 49.28357, Lng : -123.11502, Q1 : 0.999990522861, Q2 : -0.00332622439601, Q3 : -0.0028095736634, Q4 : -4.84469928779e-05}
2019-04-14 12:14:46.21: SIM {TimeUS : 44634639, Roll : -0.69, Pitch : -0.55, Yaw : 359.99, Alt : 30.4899997711, Lat : 49.28357, Lng : -123.11502, Q1 : 0.99996984005, Q2 : -0.00610435614362, Q3 : -0.00480204448104, Q4 : -0.00011308183457}
2019-04-14 12:14:46.31: SIM {TimeUS : 44734599, Roll : -0.87, Pitch : -0.68, Yaw : 359.98, Alt : 30.6499996185, Lat : 49.28357, Lng : -123.11502, Q1 : 0.999952971935, Q2 : -0.00762123381719, Q3 : -0.00599256996065, Q4 : -0.000193805230083}
2019-04-14 12:14:46.41: SIM {TimeUS : 44834559, Roll : -0.85, Pitch : -0.7, Yaw : 359.97, Alt : 30.7999992371, Lat : 49.28357, Lng : -123.11502, Q1 : 0.999953210354, Q2 : -0.00747149763629, Q3 : -0.00613912614062, Q4 : -0.00027572500403}
2019-04-14 12:14:46.51: SIM {TimeUS : 44934519, Roll : -0.69, Pitch : -0.6, Yaw : 359.96, Alt : 30.9599990845, Lat : 49.28357, Lng : -123.1150201, Q1 : 0.999967694283, Q2 : -0.00604265322909, Q3 : -0.00528577156365, Q4 : -0.000348839123035}
2019-04-14 12:14:46.61: SIM {TimeUS : 45035312, Roll : -0.44, Pitch : -0.43, Yaw : 359.95, Alt : 31.1100006104, Lat : 49.2835701, Lng : -123.1150201, Q1 : 0.999985039234, Q2 : -0.00392712187022, Q3 : -0.00378702883609, Q4 : -0.000409105967265}
2019-04-14 12:14:46.71: SIM {TimeUS : 45135272, Roll : -0.2, Pitch : -0.24, Yaw : 359.94, Alt : 31.2700004578, Lat : 49.2835701, Lng : -123.1150202, Q1 : 0.999996125698, Q2 : -0.00177503190935, Q3 : -0.00210057082586, Q4 : -0.000455646746559}
2019-04-14 12:14:46.81: SIM {TimeUS : 45235232, Roll : -0.02, Pitch : -0.06, Yaw : 359.94, Alt : 31.4400005341, Lat : 49.2835702, Lng : -123.1150203, Q1 : 0.999999701977, Q2 : -0.000195070169866, Q3 : -0.00060448597651, Q4 : -0.000488202291308}
2019-04-14 12:14:46.91: SIM {TimeUS : 45335192, Roll : 0.06, Pitch : 0.05, Yaw : 359.94, Alt : 31.6100006104, Lat : 49.2835702, Lng : -123.1150204, Q1 : 0.999999582767, Q2 : 0.000590650888626, Q3 : 0.00045974587556, Q4 : -0.000508824596182}
2019-04-14 12:14:47.01: SIM {TimeUS : 45435152, Roll : 0.07, Pitch : 0.11, Yaw : 359.94, Alt : 31.7900009155, Lat : 49.2835703, Lng : -123.1150204, Q1 : 0.99999910593, Q2 : 0.000653132796288, Q3 : 0.00103567808401, Q4 : -0.000511932303198}
2019-04-14 12:14:47.11: SIM {TimeUS : 45535112, Roll : 0.06, Pitch : 0.14, Yaw : 359.94, Alt : 31.9799995422, Lat : 49.2835703, Lng : -123.1150205, Q1 : 0.999998867512, Q2 : 0.000538660213351, Q3 : 0.00128652458079, Q4 : -0.000519380089827}
2019-04-14 12:14:47.21: SIM {TimeUS : 45635072, Roll : 0.05, Pitch : 0.14, Yaw : 359.94, Alt : 32.1599998474, Lat : 49.2835703, Lng : -123.1150206, Q1 : 0.999998986721, Q2 : 0.000442793680122, Q3 : 0.00126755132806, Q4 : -0.000517836713698}
2019-04-14 12:14:47.31: SIM {TimeUS : 45735032, Roll : 0.04, Pitch : 0.14, Yaw : 359.94, Alt : 32.3499984741, Lat : 49.2835703, Lng : -123.1150206, Q1 : 0.999999046326, Q2 : 0.000389769120375, Q3 : 0.0012339168461, Q4 : -0.000512637197971}
2019-04-14 12:14:47.41: SIM {TimeUS : 45834992, Roll : 0.05, Pitch : 0.14, Yaw : 359.94, Alt : 32.5499992371, Lat : 49.2835703, Lng : -123.1150206, Q1 : 0.999999046326, Q2 : 0.00048702332424, Q3 : 0.00123042822815, Q4 : -0.000500338850543}
2019-04-14 12:14:47.51: SIM {TimeUS : 45934952, Roll : 0.08, Pitch : 0.12, Yaw : 359.94, Alt : 32.7400016785, Lat : 49.2835703, Lng : -123.1150207, Q1 : 0.999999046326, Q2 : 0.000743396405596, Q3 : 0.00105739012361, Q4 : -0.000483918003738}
2019-04-14 12:14:47.61: SIM {TimeUS : 46034912, Roll : 0.11, Pitch : 0.09, Yaw : 359.94, Alt : 32.9399986267, Lat : 49.2835703, Lng : -123.1150207, Q1 : 0.999999046326, Q2 : 0.00101037533022, Q3 : 0.000845867674798, Q4 : -0.000458866794361}
2019-04-14 12:14:47.71: SIM {TimeUS : 46134872, Roll : 0.13, Pitch : 0.09, Yaw : 359.94, Alt : 33.1399993896, Lat : 49.2835704, Lng : -123.1150207, Q1 : 0.999998807907, Q2 : 0.0012195839081, Q3 : 0.000841267989017, Q4 : -0.000442250311607}
2019-04-14 12:14:47.81: SIM {TimeUS : 46234832, Roll : 0.15, Pitch : 0.09, Yaw : 359.95, Alt : 33.3499984741, Lat : 49.2835704, Lng : -123.1150208, Q1 : 0.999998569489, Q2 : 0.00137399579398, Q3 : 0.00087082904065, Q4 : -0.00043025292689}
2019-04-14 12:14:47.91: SIM {TimeUS : 46334792, Roll : 0.17, Pitch : 0.11, Yaw : 359.95, Alt : 33.5499992371, Lat : 49.2835704, Lng : -123.1150208, Q1 : 0.999998271465, Q2 : 0.00149383838288, Q3 : 0.00101529189851, Q4 : -0.000417414761614}
2019-04-14 12:14:48.01: SIM {TimeUS : 46434752, Roll : 0.17, Pitch : 0.12, Yaw : 359.95, Alt : 33.7599983215, Lat : 49.2835704, Lng : -123.1150208, Q1 : 0.999998211861, Q2 : 0.00148460909259, Q3 : 0.00109511462506, Q4 : -0.000411390181398}
2019-04-14 12:14:48.11: SIM {TimeUS : 46534712, Roll : 0.15, Pitch : 0.12, Yaw : 359.95, Alt : 33.9700012207, Lat : 49.2835704, Lng : -123.1150208, Q1 : 0.999998450279, Q2 : 0.0013377640862, Q3 : 0.00108308449853, Q4 : -0.000414670619648}
2019-04-14 12:14:48.21: SIM {TimeUS : 46634672, Roll : 0.13, Pitch : 0.12, Yaw : 359.95, Alt : 34.1800003052, Lat : 49.2835704, Lng : -123.1150208, Q1 : 0.999998629093, Q2 : 0.0011558518745, Q3 : 0.00106131122448, Q4 : -0.000425522448495}
2019-04-14 12:14:48.31: SIM {TimeUS : 46734632, Roll : 0.1, Pitch : 0.11, Yaw : 359.94, Alt : 34.3899993896, Lat : 49.2835704, Lng : -123.1150208, Q1 : 0.999998927116, Q2 : 0.000956683885306, Q3 : 0.0010325810872, Q4 : -0.000446560385171}
2019-04-14 12:14:48.41: SIM {TimeUS : 46834592, Roll : 0.09, Pitch : 0.08, Yaw : 359.94, Alt : 34.5999984741, Lat : 49.2835704, Lng : -123.1150208, Q1 : 0.999999284744, Q2 : 0.000850642449223, Q3 : 0.000730649568141, Q4 : -0.000484789430629}
2019-04-14 12:14:48.51: SIM {TimeUS : 46934552, Roll : 0.08, Pitch : 0.05, Yaw : 359.93, Alt : 34.8199996948, Lat : 49.2835704, Lng : -123.1150208, Q1 : 0.999999463558, Q2 : 0.000776532513555, Q3 : 0.000448103412054, Q4 : -0.000528511358425}
2019-04-14 12:14:48.61: SIM {TimeUS : 47034512, Roll : 0.06, Pitch : 0.03, Yaw : 359.93, Alt : 35.0299987793, Lat : 49.2835704, Lng : -123.1150207, Q1 : 0.999999582767, Q2 : 0.000610010582022, Q3 : 0.000289579067612, Q4 : -0.000570236705244}
2019-04-14 12:14:48.71: SIM {TimeUS : 47135305, Roll : 0.05, Pitch : 0.02, Yaw : 359.93, Alt : 35.25, Lat : 49.2835704, Lng : -123.1150207, Q1 : 0.999999642372, Q2 : 0.000511708261911, Q3 : 0.000254590820987, Q4 : -0.000604150001891}
2019-04-14 12:14:48.81: SIM {TimeUS : 47235265, Roll : 0.05, Pitch : 0.02, Yaw : 359.92, Alt : 35.4700012207, Lat : 49.2835704, Lng : -123.1150207, Q1 : 0.999999642372, Q2 : 0.000502715818584, Q3 : 0.000249767879723, Q4 : -0.000627539353445}
2019-04-14 12:14:48.91: SIM {TimeUS : 47335225, Roll : 0.03, Pitch : 0.0, Yaw : 359.92, Alt : 35.6899986267, Lat : 49.2835704, Lng : -123.1150207, Q1 : 0.999999701977, Q2 : 0.000309602095513, Q3 : 5.18545130035e-05, Q4 : -0.000649310706649}
2019-04-14 12:14:49.01: SIM {TimeUS : 47435185, Roll : 0.0, Pitch : -0.03, Yaw : 359.92, Alt : 35.9099998474, Lat : 49.2835704, Lng : -123.1150207, Q1 : 0.999999761581, Q2 : 9.55420455284e-06, Q3 : -0.000269110372756, Q4 : -0.000670203880873}
2019-04-14 12:14:49.11: SIM {TimeUS : 47535145, Roll : -0.03, Pitch : -0.05, Yaw : 359.92, Alt : 36.1300010681, Lat : 49.2835704, Lng : -123.1150207, Q1 : 0.999999582767, Q2 : -0.000309718336212, Q3 : -0.000514988438226, Q4 : -0.000694677059073}
2019-04-14 12:14:49.21: SIM {TimeUS : 47635105, Roll : -0.06, Pitch : -0.07, Yaw : 359.91, Alt : 36.3499984741, Lat : 49.2835704, Lng : -123.1150207, Q1 : 0.999999403954, Q2 : -0.000577178434469, Q3 : -0.000645146006718, Q4 : -0.000716528913472}
2019-04-14 12:14:49.31: SIM {TimeUS : 47735065, Roll : -0.07, Pitch : -0.07, Yaw : 359.91, Alt : 36.5699996948, Lat : 49.2835704, Lng : -123.1150206, Q1 : 0.999999284744, Q2 : -0.000680022058077, Q3 : -0.000638178898953, Q4 : -0.00073521892773}
2019-04-14 12:14:49.41: SIM {TimeUS : 47835025, Roll : -0.08, Pitch : -0.06, Yaw : 359.91, Alt : 36.7999992371, Lat : 49.2835704, Lng : -123.1150206, Q1 : 0.999999284744, Q2 : -0.000701317097992, Q3 : -0.000602968386374, Q4 : -0.000753419706598}
2019-04-14 12:14:49.51: SIM {TimeUS : 47934985, Roll : -0.07, Pitch : -0.05, Yaw : 359.91, Alt : 37.0200004578, Lat : 49.2835704, Lng : -123.1150206, Q1 : 0.999999403954, Q2 : -0.000636793498415, Q3 : -0.000472020212328, Q4 : -0.000773697800469}
2019-04-14 12:14:49.61: SIM {TimeUS : 48034945, Roll : -0.06, Pitch : -0.04, Yaw : 359.9, Alt : 37.2400016785, Lat : 49.2835704, Lng : -123.1150206, Q1 : 0.999999463558, Q2 : -0.000524811388459, Q3 : -0.000403287267545, Q4 : -0.000792453123722}
2019-04-14 12:14:49.71: SIM {TimeUS : 48134905, Roll : -0.06, Pitch : -0.04, Yaw : 359.9, Alt : 37.4700012207, Lat : 49.2835704, Lng : -123.1150206, Q1 : 0.999999403954, Q2 : -0.000552670098841, Q3 : -0.000434946239693, Q4 : -0.000811479403637}
2019-04-14 12:14:49.81: SIM {TimeUS : 48234865, Roll : -0.07, Pitch : -0.03, Yaw : 359.9, Alt : 37.6899986267, Lat : 49.2835704, Lng : -123.1150206, Q1 : 0.999999403954, Q2 : -0.000627874862403, Q3 : -0.000298674043734, Q4 : -0.000833329337183}
2019-04-14 12:14:49.91: SIM {TimeUS : 48334825, Roll : -0.09, Pitch : -0.01, Yaw : 359.9, Alt : 37.9199981689, Lat : 49.2835704, Lng : -123.1150206, Q1 : 0.999999284744, Q2 : -0.0008304315852, Q3 : -9.93034627754e-05, Q4 : -0.000854006037116}
2019-04-14 12:14:50.01: SIM {TimeUS : 48434785, Roll : -0.09, Pitch : 0.0, Yaw : 359.9, Alt : 38.1500015259, Lat : 49.2835704, Lng : -123.1150206, Q1 : 0.999999284744, Q2 : -0.000862252025399, Q3 : 5.63131179661e-05, Q4 : -0.000866529066116}
2019-04-14 12:14:50.11: SIM {TimeUS : 48534745, Roll : -0.07, Pitch : 0.03, Yaw : 359.89, Alt : 38.3800010681, Lat : 49.2835704, Lng : -123.1150206, Q1 : 0.999999284744, Q2 : -0.000690708286129, Q3 : 0.000342961051501, Q4 : -0.000875880126841}
2019-04-14 12:14:50.21: SIM {TimeUS : 48634705, Roll : -0.05, Pitch : 0.03, Yaw : 359.89, Alt : 38.5999984741, Lat : 49.2835704, Lng : -123.1150206, Q1 : 0.999999403954, Q2 : -0.000494562147651, Q3 : 0.000302439031657, Q4 : -0.000893110816833}
2019-04-14 12:14:50.31: SIM {TimeUS : 48734665, Roll : -0.02, Pitch : 0.01, Yaw : 359.89, Alt : 38.8300018311, Lat : 49.2835704, Lng : -123.1150206, Q1 : 0.999999523163, Q2 : -0.0002505024313, Q3 : 0.000163824282936, Q4 : -0.000910446338821}
2019-04-14 12:14:50.41: SIM {TimeUS : 48834625, Roll : 0.0, Pitch : 0.02, Yaw : 359.89, Alt : 39.0600013733, Lat : 49.2835704, Lng : -123.1150206, Q1 : 0.999999523163, Q2 : 7.67063684179e-05, Q3 : 0.000242881767917, Q4 : -0.000926473061554}
2019-04-14 12:14:50.51: SIM {TimeUS : 48934585, Roll : 0.04, Pitch : 0.05, Yaw : 359.89, Alt : 39.2900009155, Lat : 49.2835706, Lng : -123.1150206, Q1 : 0.999999344349, Q2 : 0.000411306304159, Q3 : 0.000460568291601, Q4 : -0.000947558495682}
2019-04-14 12:14:50.61: SIM {TimeUS : 49034545, Roll : 0.07, Pitch : 0.08, Yaw : 359.88, Alt : 39.5200004578, Lat : 49.2835706, Lng : -123.1150206, Q1 : 0.999999046326, Q2 : 0.000660696125124, Q3 : 0.000701493525412, Q4 : -0.000975067261606}
2019-04-14 12:14:50.71: SIM {TimeUS : 49134505, Roll : 0.06, Pitch : 0.1, Yaw : 359.88, Alt : 39.75, Lat : 49.2835706, Lng : -123.1150206, Q1 : 0.999998867512, Q2 : 0.000595987658016, Q3 : 0.000940689467825, Q4 : -0.000998830422759}
2019-04-14 12:14:50.81: SIM {TimeUS : 49235298, Roll : 0.02, Pitch : 0.13, Yaw : 359.88, Alt : 39.9799995422, Lat : 49.2835706, Lng : -123.1150206, Q1 : 0.999998807907, Q2 : 0.00018465485482, Q3 : 0.00115065905266, Q4 : -0.00103975087404}
2019-04-14 12:14:50.91: SIM {TimeUS : 49335258, Roll : -0.01, Pitch : 0.12, Yaw : 359.87, Alt : 40.2200012207, Lat : 49.2835706, Lng : -123.1150206, Q1 : 0.999998807907, Q2 : -0.000143948607729, Q3 : 0.00110241665971, Q4 : -0.00106865505222}
2019-04-14 12:14:51.01: SIM {TimeUS : 49435218, Roll : -0.04, Pitch : 0.1, Yaw : 359.87, Alt : 40.4500007629, Lat : 49.2835706, Lng : -123.1150206, Q1 : 0.999998927116, Q2 : -0.000379195669666, Q3 : 0.000881375977769, Q4 : -0.00109046557918}
2019-04-14 12:14:51.11: SIM {TimeUS : 49535178, Roll : -0.05, Pitch : 0.08, Yaw : 359.87, Alt : 40.6800003052, Lat : 49.2835706, Lng : -123.1150206, Q1 : 0.999998986721, Q2 : -0.000471315550385, Q3 : 0.000739484385122, Q4 : -0.00111203978304}
2019-04-14 12:14:51.21: SIM {TimeUS : 49635138, Roll : -0.04, Pitch : 0.1, Yaw : 359.86, Alt : 40.9099998474, Lat : 49.2835706, Lng : -123.1150206, Q1 : 0.999998927116, Q2 : -0.000370535184629, Q3 : 0.000881076208316, Q4 : -0.00114141684026}
2019-04-14 12:14:51.31: SIM {TimeUS : 49735098, Roll : 0.0, Pitch : 0.13, Yaw : 359.86, Alt : 41.1399993896, Lat : 49.2835706, Lng : -123.1150206, Q1 : 0.999998629093, Q2 : 4.32703791375e-06, Q3 : 0.00116740050726, Q4 : -0.00117684272118}
2019-04-14 12:14:51.41: SIM {TimeUS : 49835058, Roll : 0.05, Pitch : 0.15, Yaw : 359.86, Alt : 41.3800010681, Lat : 49.2835706, Lng : -123.1150207, Q1 : 0.999998211861, Q2 : 0.00047463743249, Q3 : 0.00134182511829, Q4 : -0.00121606292669}
2019-04-14 12:14:51.51: SIM {TimeUS : 49935018, Roll : 0.08, Pitch : 0.13, Yaw : 359.85, Alt : 41.6100006104, Lat : 49.2835706, Lng : -123.1150207, Q1 : 0.999998271465, Q2 : 0.000773144885898, Q3 : 0.00113431864884, Q4 : -0.0012595889857}
2019-04-14 12:14:51.61: SIM {TimeUS : 50034978, Roll : 0.08, Pitch : 0.08, Yaw : 359.85, Alt : 41.8400001526, Lat : 49.2835706, Lng : -123.1150207, Q1 : 0.999998569489, Q2 : 0.000784412084613, Q3 : 0.000749847909901, Q4 : -0.00130050745793}
2019-04-14 12:14:51.71: SIM {TimeUS : 50134938, Roll : 0.05, Pitch : 0.04, Yaw : 359.84, Alt : 42.0800018311, Lat : 49.2835706, Lng : -123.1150207, Q1 : 0.999998927116, Q2 : 0.000462413445348, Q3 : 0.000427219900303, Q4 : -0.00132821407169}
2019-04-14 12:14:51.81: SIM {TimeUS : 50234898, Roll : 0.0, Pitch : 0.03, Yaw : 359.84, Alt : 42.3100013733, Lat : 49.2835706, Lng : -123.1150207, Q1 : 0.999999046326, Q2 : -1.15852872113e-05, Q3 : 0.000326486042468, Q4 : -0.00134524703026}
2019-04-14 12:14:51.91: SIM {TimeUS : 50334858, Roll : -0.03, Pitch : 0.06, Yaw : 359.84, Alt : 42.5499992371, Lat : 49.2835706, Lng : -123.1150206, Q1 : 0.999998867512, Q2 : -0.000331526360242, Q3 : 0.000538603286259, Q4 : -0.00135303416755}
2019-04-14 12:14:52.01: SIM {TimeUS : 50434818, Roll : -0.05, Pitch : 0.08, Yaw : 359.84, Alt : 42.7799987793, Lat : 49.2835704, Lng : -123.1150206, Q1 : 0.999998688698, Q2 : -0.000495880667586, Q3 : 0.000708579958882, Q4 : -0.00135465490166}
2019-04-14 12:14:52.11: SIM {TimeUS : 50534778, Roll : -0.05, Pitch : 0.07, Yaw : 359.84, Alt : 43.0200004578, Lat : 49.2835704, Lng : -123.1150206, Q1 : 0.999998748302, Q2 : -0.000473473482998, Q3 : 0.00066700449679, Q4 : -0.00135608308483}
2019-04-14 12:14:52.21: SIM {TimeUS : 50634738, Roll : -0.05, Pitch : 0.06, Yaw : 359.84, Alt : 43.25, Lat : 49.2835704, Lng : -123.1150206, Q1 : 0.999998748302, Q2 : -0.000498972425703, Q3 : 0.000600780593231, Q4 : -0.00136344565544}
2019-04-14 12:14:52.31: SIM {TimeUS : 50734698, Roll : -0.04, Pitch : 0.05, Yaw : 359.84, Alt : 43.4900016785, Lat : 49.2835704, Lng : -123.1150206, Q1 : 0.999998867512, Q2 : -0.000413164059864, Q3 : 0.000482991861645, Q4 : -0.00137552665547}
2019-04-14 12:14:52.41: SIM {TimeUS : 50834658, Roll : -0.02, Pitch : 0.04, Yaw : 359.84, Alt : 43.7200012207, Lat : 49.2835704, Lng : -123.1150206, Q1 : 0.999998927116, Q2 : -0.000216765824007, Q3 : 0.000399987126002, Q4 : -0.00139215483796}
2019-04-14 12:14:52.51: SIM {TimeUS : 50934618, Roll : 0.0, Pitch : 0.04, Yaw : 359.83, Alt : 43.9599990845, Lat : 49.2835704, Lng : -123.1150206, Q1 : 0.999998927116, Q2 : -7.59030153858e-05, Q3 : 0.000375327712391, Q4 : -0.00141188350972}
2019-04-14 12:14:52.61: SIM {TimeUS : 51034578, Roll : 0.0, Pitch : 0.02, Yaw : 359.83, Alt : 44.1899986267, Lat : 49.2835704, Lng : -123.1150206, Q1 : 0.999998927116, Q2 : -7.06366117811e-05, Q3 : 0.00018950770027, Q4 : -0.00143474701326}
2019-04-14 12:14:52.71: SIM {TimeUS : 51134538, Roll : -0.02, Pitch : -0.01, Yaw : 359.83, Alt : 44.4300003052, Lat : 49.2835704, Lng : -123.1150206, Q1 : 0.999998927116, Q2 : -0.000176649264176, Q3 : -0.000133692636155, Q4 : -0.00145988550503}
2019-04-14 12:14:52.81: SIM {TimeUS : 51234498, Roll : -0.02, Pitch : -0.03, Yaw : 359.82, Alt : 44.6599998474, Lat : 49.2835704, Lng : -123.1150206, Q1 : 0.999998807907, Q2 : -0.000252390658716, Q3 : -0.000332066847477, Q4 : -0.00149357446935}
2019-04-14 12:14:52.91: SIM {TimeUS : 51335291, Roll : -0.02, Pitch : -0.04, Yaw : 359.82, Alt : 44.9000015259, Lat : 49.2835704, Lng : -123.1150206, Q1 : 0.999998688698, Q2 : -0.000206435084692, Q3 : -0.000430356216384, Q4 : -0.00152416923083}
2019-04-14 12:14:53.01: SIM {TimeUS : 51435251, Roll : -0.02, Pitch : -0.05, Yaw : 359.82, Alt : 45.1399993896, Lat : 49.2835704, Lng : -123.1150206, Q1 : 0.999998629093, Q2 : -0.00024896429386, Q3 : -0.000477239431348, Q4 : -0.00155865168199}
2019-04-14 12:14:53.11: SIM {TimeUS : 51535211, Roll : -0.04, Pitch : -0.04, Yaw : 359.81, Alt : 45.3699989319, Lat : 49.2835703, Lng : -123.1150206, Q1 : 0.999998509884, Q2 : -0.000426637911005, Q3 : -0.00043016532436, Q4 : -0.00159636163153}
2019-04-14 12:14:53.21: SIM {TimeUS : 51635171, Roll : -0.08, Pitch : -0.04, Yaw : 359.81, Alt : 45.6100006104, Lat : 49.2835703, Lng : -123.1150206, Q1 : 0.99999833107, Q2 : -0.000708439387381, Q3 : -0.000353270414053, Q4 : -0.00163519231137}
2019-04-14 12:14:53.31: SIM {TimeUS : 51735131, Roll : -0.1, Pitch : -0.03, Yaw : 359.8, Alt : 45.8400001526, Lat : 49.2835703, Lng : -123.1150206, Q1 : 0.999998152256, Q2 : -0.000884561566636, Q3 : -0.000277125684079, Q4 : -0.00167136848904}
2019-04-14 12:14:53.41: SIM {TimeUS : 51835091, Roll : -0.1, Pitch : -0.01, Yaw : 359.8, Alt : 46.0699996948, Lat : 49.2835703, Lng : -123.1150206, Q1 : 0.999998092651, Q2 : -0.000905871158466, Q3 : -0.000138894363772, Q4 : -0.00170406489633}
2019-04-14 12:14:53.51: SIM {TimeUS : 51935051, Roll : -0.09, Pitch : 0.01, Yaw : 359.8, Alt : 46.2999992371, Lat : 49.2835703, Lng : -123.1150206, Q1 : 0.999998211861, Q2 : -0.000785641255789, Q3 : 0.00010554765322, Q4 : -0.00172939442564}
2019-04-14 12:14:53.61: SIM {TimeUS : 52035011, Roll : -0.06, Pitch : 0.02, Yaw : 359.79, Alt : 46.5200004578, Lat : 49.2835703, Lng : -123.1150206, Q1 : 0.999998271465, Q2 : -0.000576320977416, Q3 : 0.000242671914748, Q4 : -0.00174954812974}
2019-04-14 12:14:53.71: SIM {TimeUS : 52134971, Roll : -0.04, Pitch : 0.02, Yaw : 359.79, Alt : 46.7400016785, Lat : 49.2835703, Lng : -123.1150206, Q1 : 0.99999833107, Q2 : -0.000407358835218, Q3 : 0.000214954357943, Q4 : -0.00176731951069}
2019-04-14 12:14:53.81: SIM {TimeUS : 52234931, Roll : -0.03, Pitch : 0.0, Yaw : 359.79, Alt : 46.9500007629, Lat : 49.2835703, Lng : -123.1150206, Q1 : 0.999998390675, Q2 : -0.000332527473802, Q3 : 5.16950785823e-05, Q4 : -0.00178972270805}
2019-04-14 12:14:53.91: SIM {TimeUS : 52334891, Roll : -0.02, Pitch : -0.02, Yaw : 359.79, Alt : 47.1599998474, Lat : 49.2835703, Lng : -123.1150206, Q1 : 0.99999833107, Q2 : -0.000182344927453, Q3 : -0.000218812914682, Q4 : -0.00181157421321}
2019-04-14 12:14:54.01: SIM {TimeUS : 52434851, Roll : 0.0, Pitch : -0.05, Yaw : 359.79, Alt : 47.3600006104, Lat : 49.2835703, Lng : -123.1150206, Q1 : 0.999998211861, Q2 : 1.60650361067e-05, Q3 : -0.000485910277348, Q4 : -0.00183248799294}
2019-04-14 12:14:54.11: SIM {TimeUS : 52534811, Roll : 0.01, Pitch : -0.08, Yaw : 359.78, Alt : 47.5499992371, Lat : 49.2835703, Lng : -123.1150206, Q1 : 0.999998033047, Q2 : 9.55065697781e-05, Q3 : -0.000718256807886, Q4 : -0.00185094482731}
2019-04-14 12:14:54.21: SIM {TimeUS : 52634771, Roll : 0.01, Pitch : -0.12, Yaw : 359.78, Alt : 47.7200012207, Lat : 49.2835703, Lng : -123.1150206, Q1 : 0.999997675419, Q2 : 8.86545822141e-05, Q3 : -0.00105806521606, Q4 : -0.00186869525351}
2019-04-14 12:14:54.31: SIM {TimeUS : 52734731, Roll : 0.03, Pitch : -0.14, Yaw : 359.78, Alt : 47.8899993896, Lat : 49.2835703, Lng : -123.1150206, Q1 : 0.999997377396, Q2 : 0.000259973370703, Q3 : -0.00129943783395, Q4 : -0.00188572716434}
2019-04-14 12:14:54.41: SIM {TimeUS : 52834691, Roll : 0.05, Pitch : -0.15, Yaw : 359.78, Alt : 48.0499992371, Lat : 49.2835703, Lng : -123.1150206, Q1 : 0.999997198582, Q2 : 0.000503213843331, Q3 : -0.00133140105754, Q4 : -0.00190498726442}
2019-04-14 12:14:54.51: SIM {TimeUS : 52934651, Roll : 0.08, Pitch : -0.13, Yaw : 359.77, Alt : 48.1899986267, Lat : 49.2835704, Lng : -123.1150206, Q1 : 0.999997258186, Q2 : 0.000706498045474, Q3 : -0.00115910696331, Q4 : -0.00192361336667}
2019-04-14 12:14:54.61: SIM {TimeUS : 53034611, Roll : 0.08, Pitch : -0.1, Yaw : 359.77, Alt : 48.3300018311, Lat : 49.2835704, Lng : -123.1150206, Q1 : 0.999997437, Q2 : 0.000753582338803, Q3 : -0.000880595995113, Q4 : -0.00194629852194}
2019-04-14 12:14:54.71: SIM {TimeUS : 53134571, Roll : 0.08, Pitch : -0.07, Yaw : 359.77, Alt : 48.4500007629, Lat : 49.2835704, Lng : -123.1150206, Q1 : 0.99999755621, Q2 : 0.000761407311074, Q3 : -0.000651628419291, Q4 : -0.00197318405844}
2019-04-14 12:14:54.81: SIM {TimeUS : 53234531, Roll : 0.07, Pitch : -0.06, Yaw : 359.77, Alt : 48.5499992371, Lat : 49.2835704, Lng : -123.1150206, Q1 : 0.99999755621, Q2 : 0.000653272203635, Q3 : -0.000600805040449, Q4 : -0.00200608302839}
2019-04-14 12:14:54.91: SIM {TimeUS : 53335324, Roll : 0.04, Pitch : -0.05, Yaw : 359.76, Alt : 48.6500015259, Lat : 49.2835704, Lng : -123.1150206, Q1 : 0.999997735023, Q2 : 0.000419487711042, Q3 : -0.00050871365238, Q4 : -0.00203486951068}
2019-04-14 12:14:55.01: SIM {TimeUS : 53435284, Roll : 0.02, Pitch : -0.04, Yaw : 359.76, Alt : 48.7299995422, Lat : 49.2835704, Lng : -123.1150206, Q1 : 0.999997794628, Q2 : 0.000208077253774, Q3 : -0.000357236393029, Q4 : -0.0020603351295}
2019-04-14 12:14:55.11: SIM {TimeUS : 53535244, Roll : 0.0, Pitch : -0.02, Yaw : 359.76, Alt : 48.8100013733, Lat : 49.2835704, Lng : -123.1150206, Q1 : 0.999997794628, Q2 : 2.81722896034e-05, Q3 : -0.00021680748614, Q4 : -0.00208643777296}
2019-04-14 12:14:55.21: SIM {TimeUS : 53635204, Roll : 0.0, Pitch : 0.0, Yaw : 359.75, Alt : 48.8699989319, Lat : 49.2835704, Lng : -123.1150206, Q1 : 0.999997735023, Q2 : -6.05342975177e-05, Q3 : -1.40623421885e-06, Q4 : -0.00211614137515}
2019-04-14 12:14:55.31: SIM {TimeUS : 53735164, Roll : 0.0, Pitch : 0.03, Yaw : 359.75, Alt : 48.9199981689, Lat : 49.2835704, Lng : -123.1150206, Q1 : 0.999997675419, Q2 : 8.77333368408e-05, Q3 : 0.000287588190986, Q4 : -0.00214162492193}
2019-04-14 12:14:55.41: SIM {TimeUS : 53835124, Roll : 0.03, Pitch : 0.05, Yaw : 359.75, Alt : 48.9700012207, Lat : 49.2835704, Lng : -123.1150206, Q1 : 0.999997437, Q2 : 0.000316548743285, Q3 : 0.000513426610269, Q4 : -0.00216910731979}
2019-04-14 12:14:55.51: SIM {TimeUS : 53935084, Roll : 0.07, Pitch : 0.02, Yaw : 359.74, Alt : 49.0099983215, Lat : 49.2835704, Lng : -123.1150206, Q1 : 0.999997317791, Q2 : 0.000690832617693, Q3 : 0.000219174427912, Q4 : -0.00218988745473}
2019-04-14 12:14:55.61: SIM {TimeUS : 54035044, Roll : 0.21, Pitch : -0.12, Yaw : 359.74, Alt : 49.0499992371, Lat : 49.2835704, Lng : -123.1150206, Q1 : 0.999995231628, Q2 : 0.00187305465806, Q3 : -0.00107683148235, Q4 : -0.00221340660937}
2019-04-14 12:14:55.71: SIM {TimeUS : 54135004, Roll : 0.51, Pitch : -0.46, Yaw : 359.74, Alt : 49.0699996948, Lat : 49.2835706, Lng : -123.1150206, Q1 : 0.99997907877, Q2 : 0.00452708685771, Q3 : -0.00404719309881, Q4 : -0.00223686522804}
2019-04-14 12:14:55.81: SIM {TimeUS : 54234964, Roll : 1.02, Pitch : -0.98, Yaw : 359.73, Alt : 49.0999984741, Lat : 49.2835706, Lng : -123.1150206, Q1 : 0.999920248985, Q2 : 0.00894518196583, Q3 : -0.00862883590162, Q4 : -0.00225641927682}
2019-04-14 12:14:55.91: SIM {TimeUS : 54334924, Roll : 1.69, Pitch : -1.62, Yaw : 359.71, Alt : 49.1199989319, Lat : 49.2835706, Lng : -123.1150206, Q1 : 0.999786794186, Q2 : 0.0147830201313, Q3 : -0.0142409000546, Q4 : -0.00225517363288}
2019-04-14 12:14:56.01: SIM {TimeUS : 54434884, Roll : 2.45, Pitch : -2.34, Yaw : 359.69, Alt : 49.1399993896, Lat : 49.2835706, Lng : -123.1150205, Q1 : 0.999558448792, Q2 : 0.0213987994939, Q3 : -0.0204967688769, Q4 : -0.0022074568551}
2019-04-14 12:14:56.11: SIM {TimeUS : 54534844, Roll : 3.18, Pitch : -3.01, Yaw : 359.67, Alt : 49.1599998474, Lat : 49.2835707, Lng : -123.1150204, Q1 : 0.999264597893, Q2 : 0.0277465563267, Q3 : -0.0263813845813, Q4 : -0.00209481758066}
2019-04-14 12:14:56.21: SIM {TimeUS : 54634804, Roll : 3.77, Pitch : -3.55, Yaw : 359.66, Alt : 49.1699981689, Lat : 49.2835708, Lng : -123.1150202, Q1 : 0.998973488808, Q2 : 0.0328679569066, Q3 : -0.031111933291, Q4 : -0.00191193178762}
2019-04-14 12:14:56.31: SIM {TimeUS : 54734764, Roll : 4.2, Pitch : -3.96, Yaw : 359.66, Alt : 49.1800003052, Lat : 49.2835709, Lng : -123.11502, Q1 : 0.998729586601, Q2 : 0.0365284569561, Q3 : -0.0346712619066, Q4 : -0.00167830649298}
2019-04-14 12:14:56.41: SIM {TimeUS : 54834724, Roll : 4.51, Pitch : -4.26, Yaw : 359.67, Alt : 49.1899986267, Lat : 49.2835712, Lng : -123.1150197, Q1 : 0.998532533646, Q2 : 0.0392515435815, Q3 : -0.0372847281396, Q4 : -0.00141016440466}
2019-04-14 12:14:56.51: SIM {TimeUS : 54934684, Roll : 4.78, Pitch : -4.5, Yaw : 359.68, Alt : 49.2000007629, Lat : 49.2835715, Lng : -123.1150192, Q1 : 0.998359560966, Q2 : 0.0415678098798, Q3 : -0.0393581055105, Q4 : -0.00111448043026}
2019-04-14 12:14:56.61: SIM {TimeUS : 55034644, Roll : 5.03, Pitch : -4.72, Yaw : 359.69, Alt : 49.2099990845, Lat : 49.2835718, Lng : -123.1150187, Q1 : 0.998189032078, Q2 : 0.0437482781708, Q3 : -0.0412801615894, Q4 : -0.00082040898269}
2019-04-14 12:14:56.71: SIM {TimeUS : 55134604, Roll : 5.3, Pitch : -4.97, Yaw : 359.7, Alt : 49.2200012207, Lat : 49.2835721, Lng : -123.1150181, Q1 : 0.997988939285, Q2 : 0.0460935495794, Q3 : -0.0435113422573, Q4 : -0.00055300683016}
2019-04-14 12:14:56.81: SIM {TimeUS : 55234564, Roll : 5.55, Pitch : -5.24, Yaw : 359.7, Alt : 49.2299995422, Lat : 49.2835726, Lng : -123.1150175, Q1 : 0.997782468796, Q2 : 0.0483010411263, Q3 : -0.0457947701216, Q4 : -0.000309555034619}
2019-04-14 12:14:56.91: SIM {TimeUS : 55334524, Roll : 5.77, Pitch : -5.45, Yaw : 359.71, Alt : 49.2299995422, Lat : 49.2835729, Lng : -123.1150167, Q1 : 0.997600197792, Q2 : 0.0502217970788, Q3 : -0.0476617775857, Q4 : -7.93526196503e-05}
2019-04-14 12:14:57.01: SIM {TimeUS : 55435317, Roll : 5.94, Pitch : -5.61, Yaw : 359.72, Alt : 49.2400016785, Lat : 49.2835735, Lng : -123.1150158, Q1 : 0.99745965004, Q2 : 0.0516918748617, Q3 : -0.0490124933422, Q4 : 0.000133517023642}
2019-04-14 12:14:57.11: SIM {TimeUS : 55535277, Roll : 6.06, Pitch : -5.72, Yaw : 359.73, Alt : 49.2400016785, Lat : 49.283574, Lng : -123.1150149, Q1 : 0.997357189655, Q2 : 0.0526910834014, Q3 : -0.0500216893852, Q4 : 0.000307594164042}
2019-04-14 12:14:57.21: SIM {TimeUS : 55635237, Roll : 6.16, Pitch : -5.81, Yaw : 359.73, Alt : 49.25, Lat : 49.2835746, Lng : -123.1150139, Q1 : 0.997273266315, Q2 : 0.0535693988204, Q3 : -0.0507561005652, Q4 : 0.000449579121778}
2019-04-14 12:14:57.31: SIM {TimeUS : 55735197, Roll : 6.27, Pitch : -5.89, Yaw : 359.73, Alt : 49.25, Lat : 49.2835753, Lng : -123.1150128, Q1 : 0.997181892395, Q2 : 0.0545780770481, Q3 : -0.0514700673521, Q4 : 0.00054300785996}
2019-04-14 12:14:57.41: SIM {TimeUS : 55835157, Roll : 6.5, Pitch : -5.94, Yaw : 359.77, Alt : 49.2599983215, Lat : 49.2835761, Lng : -123.1150117, Q1 : 0.997047841549, Q2 : 0.0565925911069, Q3 : -0.0518840178847, Q4 : 0.000976577051915}
2019-04-14 12:14:57.51: SIM {TimeUS : 55935117, Roll : 6.97, Pitch : -5.86, Yaw : 0.21, Alt : 49.2599983215, Lat : 49.2835769, Lng : -123.1150104, Q1 : 0.996830999851, Q2 : 0.0608733445406, Q3 : -0.0509679690003, Q4 : 0.0049725077115}
2019-04-14 12:14:57.61: SIM {TimeUS : 56035077, Roll : 7.61, Pitch : -5.76, Yaw : 1.73, Alt : 49.2599983215, Lat : 49.2835776, Lng : -123.1150091, Q1 : 0.996361970901, Q2 : 0.0671123862267, Q3 : -0.0491974614561, Q4 : 0.0183932613581}
2019-04-14 12:14:57.71: SIM {TimeUS : 56135037, Roll : 8.14, Pitch : -5.99, Yaw : 4.79, Alt : 49.2599983215, Lat : 49.2835785, Lng : -123.1150077, Q1 : 0.995088636875, Q2 : 0.0730163231492, Q3 : -0.0491126440465, Q4 : 0.04533444345}
2019-04-14 12:14:57.81: SIM {TimeUS : 56234997, Roll : 8.27, Pitch : -6.68, Yaw : 9.41, Alt : 49.2700004578, Lat : 49.2835794, Lng : -123.1150062, Q1 : 0.991994738579, Q2 : 0.076590590179, Q3 : -0.0520306862891, Q4 : 0.0858667939901}
2019-04-14 12:14:57.91: SIM {TimeUS : 56334957, Roll : 7.83, Pitch : -7.79, Yaw : 15.4, Alt : 49.2700004578, Lat : 49.2835802, Lng : -123.1150045, Q1 : 0.985761523247, Q2 : 0.0766015797853, Q3 : -0.0580502413213, Q4 : 0.137973159552}
2019-04-14 12:14:58.01: SIM {TimeUS : 56434917, Roll : 6.72, Pitch : -9.15, Yaw : 22.51, Alt : 49.2700004578, Lat : 49.2835812, Lng : -123.1150027, Q1 : 0.975038409233, Q2 : 0.0729100108147, Q3 : -0.0666812956333, Q4 : 0.198841392994}
2019-04-14 12:14:58.11: SIM {TimeUS : 56534877, Roll : 4.96, Pitch : -10.55, Yaw : 30.47, Alt : 49.2700004578, Lat : 49.283582, Lng : -123.1150009, Q1 : 0.958796739578, Q2 : 0.0658019185066, Q3 : -0.0773348808289, Q4 : 0.265326797962}
2019-04-14 12:14:58.21: SIM {TimeUS : 56634837, Roll : 2.4, Pitch : -11.77, Yaw : 38.84, Alt : 49.2700004578, Lat : 49.2835831, Lng : -123.1149989, Q1 : 0.937206983566, Q2 : 0.0537641234696, Q3 : -0.0897472202778, Q4 : 0.332713037729}
2019-04-14 12:14:58.31: SIM {TimeUS : 56734797, Roll : -0.74, Pitch : -12.54, Yaw : 46.8, Alt : 49.2700004578, Lat : 49.2835841, Lng : -123.1149968, Q1 : 0.912521183491, Q2 : 0.0374637916684, Q3 : -0.102857753634, Q4 : 0.394108980894}
2019-04-14 12:14:58.41: SIM {TimeUS : 56834757, Roll : -3.84, Pitch : -12.82, Yaw : 53.49, Alt : 49.2700004578, Lat : 49.2835852, Lng : -123.1149947, Q1 : 0.888612866402, Q2 : 0.0204122066498, Q3 : -0.114665843546, Q4 : 0.443624019623}
2019-04-14 12:14:58.51: SIM {TimeUS : 56934717, Roll : -6.27, Pitch : -12.73, Yaw : 58.32, Alt : 49.2700004578, Lat : 49.2835864, Lng : -123.1149925, Q1 : 0.869494259357, Q2 : 0.0064657414332, Q3 : -0.123221680522, Q4 : 0.478282719851}
2019-04-14 12:14:58.61: SIM {TimeUS : 57034677, Roll : -7.65, Pitch : -12.54, Yaw : 61.14, Alt : 49.2700004578, Lat : 49.2835877, Lng : -123.1149903, Q1 : 0.857626497746, Q2 : -0.00167590531055, Q3 : -0.127636626363, Q4 : 0.498179554939}
2019-04-14 12:14:58.71: SIM {TimeUS : 57134637, Roll : -7.96, Pitch : -12.48, Yaw : 62.12, Alt : 49.2700004578, Lat : 49.2835891, Lng : -123.114988, Q1 : 0.853361964226, Q2 : -0.00321906222962, Q3 : -0.128524944186, Q4 : 0.505217194557}
2019-04-14 12:14:58.81: SIM {TimeUS : 57234597, Roll : -7.4, Pitch : -12.66, Yaw : 61.6, Alt : 49.2700004578, Lat : 49.2835905, Lng : -123.1149858, Q1 : 0.855573892593, Q2 : 0.00122898712289, Q3 : -0.127370372415, Q4 : 0.501765489578}
2019-04-14 12:14:58.91: SIM {TimeUS : 57334557, Roll : -6.19, Pitch : -13.1, Yaw : 59.93, Alt : 49.2700004578, Lat : 49.2835922, Lng : -123.1149835, Q1 : 0.862476229668, Q2 : 0.010440832004, Q3 : -0.125559836626, Q4 : 0.490163743496}
2019-04-14 12:14:59.01: SIM {TimeUS : 57434517, Roll : -4.59, Pitch : -13.75, Yaw : 57.45, Alt : 49.2700004578, Lat : 49.2835939, Lng : -123.1149811, Q1 : 0.872207999229, Q2 : 0.0226475242525, Q3 : -0.124060466886, Q4 : 0.47259837389}
2019-04-14 12:14:59.11: SIM {TimeUS : 57535310, Roll : -2.78, Pitch : -14.47, Yaw : 54.45, Alt : 49.2799987793, Lat : 49.2835957, Lng : -123.1149786, Q1 : 0.883247375488, Q2 : 0.0361661054194, Q3 : -0.123017340899, Q4 : 0.451035231352}
2019-04-14 12:14:59.21: SIM {TimeUS : 57635270, Roll : -0.98, Pitch : -15.09, Yaw : 51.29, Alt : 49.2799987793, Lat : 49.2835975, Lng : -123.1149761, Q1 : 0.894110679626, Q2 : 0.0491490215063, Q3 : -0.122093483806, Q4 : 0.428069710732}
2019-04-14 12:14:59.31: SIM {TimeUS : 57735230, Roll : 0.65, Pitch : -15.52, Yaw : 48.28, Alt : 49.2799987793, Lat : 49.2835994, Lng : -123.1149735, Q1 : 0.903839409351, Q2 : 0.0604332610965, Q3 : -0.120897851884, Q4 : 0.405963003635}
2019-04-14 12:14:59.41: SIM {TimeUS : 57835190, Roll : 2.01, Pitch : -15.73, Yaw : 45.72, Alt : 49.2799987793, Lat : 49.2836012, Lng : -123.1149708, Q1 : 0.911692082882, Q2 : 0.0692379996181, Q3 : -0.119309537113, Q4 : 0.387025684118}
2019-04-14 12:14:59.51: SIM {TimeUS : 57935150, Roll : 2.97, Pitch : -15.78, Yaw : 43.83, Alt : 49.2799987793, Lat : 49.2836031, Lng : -123.1149679, Q1 : 0.917300522327, Q2 : 0.0751114562154, Q3 : -0.117773316801, Q4 : 0.372890800238}
2019-04-14 12:14:59.61: SIM {TimeUS : 58035110, Roll : 3.46, Pitch : -15.75, Yaw : 42.7, Alt : 49.2799987793, Lat : 49.283605, Lng : -123.114965, Q1 : 0.920631945133, Q2 : 0.0778215676546, Q3 : -0.116698041558, Q4 : 0.364365458488}
2019-04-14 12:14:59.71: SIM {TimeUS : 58135070, Roll : 3.49, Pitch : -15.73, Yaw : 42.33, Alt : 49.2799987793, Lat : 49.2836069, Lng : -123.1149619, Q1 : 0.921818494797, Q2 : 0.0775565579534, Q3 : -0.11667264998, Q4 : 0.36141833663}
2019-04-14 12:14:59.81: SIM {TimeUS : 58235030, Roll : 3.13, Pitch : -15.73, Yaw : 42.63, Alt : 49.2799987793, Lat : 49.283609, Lng : -123.1149587, Q1 : 0.92111748457, Q2 : 0.0749836862087, Q3 : -0.117651499808, Q4 : 0.363425552845}
2019-04-14 12:14:59.91: SIM {TimeUS : 58334990, Roll : 2.51, Pitch : -15.79, Yaw : 43.44, Alt : 49.2799987793, Lat : 49.283611, Lng : -123.1149553, Q1 : 0.918848752975, Q2 : 0.0709896609187, Q3 : -0.119574792683, Q4 : 0.369295716286}
2019-04-14 12:15:00.01: SIM {TimeUS : 58434950, Roll : 1.69, Pitch : -15.89, Yaw : 44.59, Alt : 49.2799987793, Lat : 49.2836129, Lng : -123.1149519, Q1 : 0.915448963642, Q2 : 0.066058062017, Q3 : -0.122358255088, Q4 : 0.377647966146}
2019-04-14 12:15:00.11: SIM {TimeUS : 58534910, Roll : 0.84, Pitch : -16.03, Yaw : 45.91, Alt : 49.2799987793, Lat : 49.283615, Lng : -123.1149485, Q1 : 0.91138625145, Q2 : 0.0611372925341, Q3 : -0.125545293093, Q4 : 0.387137889862}
2019-04-14 12:15:00.21: SIM {TimeUS : 58634870, Roll : 0.07, Pitch : -16.14, Yaw : 47.21, Alt : 49.2799987793, Lat : 49.2836171, Lng : -123.1149449, Q1 : 0.907203614712, Q2 : 0.0568070746958, Q3 : -0.128463432193, Q4 : 0.396549791098}
2019-04-14 12:15:00.31: SIM {TimeUS : 58734830, Roll : -0.58, Pitch : -16.23, Yaw : 48.36, Alt : 49.2799987793, Lat : 49.2836191, Lng : -123.1149413, Q1 : 0.903401017189, Q2 : 0.0532526895404, Q3 : -0.130874171853, Q4 : 0.404849022627}
2019-04-14 12:15:00.41: SIM {TimeUS : 58834790, Roll : -1.07, Pitch : -16.3, Yaw : 49.25, Alt : 49.2799987793, Lat : 49.2836214, Lng : -123.1149377, Q1 : 0.900351822376, Q2 : 0.0506458617747, Q3 : -0.132787615061, Q4 : 0.411301672459}
2019-04-14 12:15:00.51: SIM {TimeUS : 58934750, Roll : -1.38, Pitch : -16.36, Yaw : 49.84, Alt : 49.2799987793, Lat : 49.2836236, Lng : -123.114934, Q1 : 0.898294866085, Q2 : 0.0491424053907, Q3 : -0.134084165096, Q4 : 0.415539175272}
2019-04-14 12:15:00.61: SIM {TimeUS : 59034710, Roll : -1.48, Pitch : -16.42, Yaw : 50.11, Alt : 49.2900009155, Lat : 49.2836257, Lng : -123.1149302, Q1 : 0.897293746471, Q2 : 0.0488720871508, Q3 : -0.134787797928, Q4 : 0.417501807213}
2019-04-14 12:15:00.71: SIM {TimeUS : 59134670, Roll : -1.4, Pitch : -16.46, Yaw : 50.09, Alt : 49.2900009155, Lat : 49.283628, Lng : -123.1149265, Q1 : 0.897297620773, Q2 : 0.0496196039021, Q3 : -0.134900704026, Q4 : 0.417368799448}
2019-04-14 12:15:00.81: SIM {TimeUS : 59234630, Roll : -1.18, Pitch : -16.5, Yaw : 49.82, Alt : 49.2900009155, Lat : 49.2836303, Lng : -123.1149227, Q1 : 0.8981320858, Q2 : 0.0511604174972, Q3 : -0.134500145912, Q4 : 0.415512949228}
2019-04-14 12:15:00.91: SIM {TimeUS : 59334590, Roll : -0.86, Pitch : -16.54, Yaw : 49.38, Alt : 49.2900009155, Lat : 49.2836327, Lng : -123.1149188, Q1 : 0.899533689022, Q2 : 0.0532761774957, Q3 : -0.133825570345, Q4 : 0.412421554327}
2019-04-14 12:15:01.01: SIM {TimeUS : 59434550, Roll : -0.5, Pitch : -16.57, Yaw : 48.85, Alt : 49.2900009155, Lat : 49.2836349, Lng : -123.114915, Q1 : 0.901234745979, Q2 : 0.0556528307498, Q3 : -0.133048251271, Q4 : 0.408627986908}
2019-04-14 12:15:01.11: SIM {TimeUS : 59534510, Roll : -0.13, Pitch : -16.61, Yaw : 48.29, Alt : 49.2900009155, Lat : 49.2836373, Lng : -123.114911, Q1 : 0.90298807621, Q2 : 0.058045938611, Q3 : -0.132271289825, Q4 : 0.404657274485}
2019-04-14 12:15:01.21: SIM {TimeUS : 59635303, Roll : 0.19, Pitch : -16.65, Yaw : 47.77, Alt : 49.2900009155, Lat : 49.2836397, Lng : -123.114907, Q1 : 0.904598355293, Q2 : 0.0601972788572, Q3 : -0.131705000997, Q4 : 0.400913774967}
2019-04-14 12:15:01.31: SIM {TimeUS : 59735263, Roll : 0.44, Pitch : -16.68, Yaw : 47.34, Alt : 49.2900009155, Lat : 49.2836421, Lng : -123.114903, Q1 : 0.905919015408, Q2 : 0.0617656186223, Q3 : -0.131350681186, Q4 : 0.39779740572}
2019-04-14 12:15:01.41: SIM {TimeUS : 59835223, Roll : 0.59, Pitch : -16.72, Yaw : 47.03, Alt : 49.2900009155, Lat : 49.2836446, Lng : -123.114899, Q1 : 0.906873583794, Q2 : 0.0627470463514, Q3 : -0.131257891655, Q4 : 0.395492762327}
2019-04-14 12:15:01.51: SIM {TimeUS : 59935183, Roll : 0.66, Pitch : -16.76, Yaw : 46.85, Alt : 49.2900009155, Lat : 49.283647, Lng : -123.1148949, Q1 : 0.907421410084, Q2 : 0.0631929710507, Q3 : -0.131468325853, Q4 : 0.394092857838}
2019-04-14 12:15:01.61: SIM {TimeUS : 60035143, Roll : 0.64, Pitch : -16.81, Yaw : 46.79, Alt : 49.2900009155, Lat : 49.2836495, Lng : -123.1148908, Q1 : 0.907574653625, Q2 : 0.0631339028478, Q3 : -0.131986886263, Q4 : 0.393575668335}
2019-04-14 12:15:01.71: SIM {TimeUS : 60135103, Roll : 0.53, Pitch : -16.85, Yaw : 46.84, Alt : 49.2900009155, Lat : 49.2836521, Lng : -123.1148866, Q1 : 0.907411694527, Q2 : 0.0625034570694, Q3 : -0.13263605535, Q4 : 0.393833756447}
2019-04-14 12:15:01.81: SIM {TimeUS : 60235063, Roll : 0.37, Pitch : -16.87, Yaw : 46.97, Alt : 49.2900009155, Lat : 49.2836545, Lng : -123.1148824, Q1 : 0.907016932964, Q2 : 0.0614672899246, Q3 : -0.133266940713, Q4 : 0.394692212343}
2019-04-14 12:15:01.91: SIM {TimeUS : 60335023, Roll : 0.2, Pitch : -16.89, Yaw : 47.16, Alt : 49.2900009155, Lat : 49.283657, Lng : -123.1148782, Q1 : 0.906446456909, Q2 : 0.060375098139, Q3 : -0.133964002132, Q4 : 0.395933538675}
2019-04-14 12:15:02.01: SIM {TimeUS : 60434983, Roll : 0.04, Pitch : -16.93, Yaw : 47.36, Alt : 49.2999992371, Lat : 49.2836596, Lng : -123.1148739, Q1 : 0.90576851368, Q2 : 0.0595522299409, Q3 : -0.134715989232, Q4 : 0.397351950407}
2019-04-14 12:15:02.11: SIM {TimeUS : 60534943, Roll : -0.06, Pitch : -16.99, Yaw : 47.56, Alt : 49.2999992371, Lat : 49.2836621, Lng : -123.1148696, Q1 : 0.905083060265, Q2 : 0.0590518899262, Q3 : -0.135432735085, Q4 : 0.398742437363}
2019-04-14 12:15:02.21: SIM {TimeUS : 60634903, Roll : -0.14, Pitch : -17.04, Yaw : 47.73, Alt : 49.2999992371, Lat : 49.2836645, Lng : -123.1148653, Q1 : 0.904475569725, Q2 : 0.0588327161968, Q3 : -0.136021345854, Q4 : 0.399951040745}
2019-04-14 12:15:02.31: SIM {TimeUS : 60734863, Roll : -0.17, Pitch : -17.09, Yaw : 47.85, Alt : 49.2999992371, Lat : 49.2836671, Lng : -123.114861, Q1 : 0.904000639915, Q2 : 0.0588895231485, Q3 : -0.1364672333, Q4 : 0.400863528252}
2019-04-14 12:15:02.41: SIM {TimeUS : 60834823, Roll : -0.19, Pitch : -17.13, Yaw : 47.92, Alt : 49.2999992371, Lat : 49.2836698, Lng : -123.1148567, Q1 : 0.903715312481, Q2 : 0.0589544139802, Q3 : -0.136776596308, Q4 : 0.401391476393}
2019-04-14 12:15:02.51: SIM {TimeUS : 60934783, Roll : -0.2, Pitch : -17.14, Yaw : 47.94, Alt : 49.2999992371, Lat : 49.2836724, Lng : -123.1148523, Q1 : 0.903642654419, Q2 : 0.0589406639338, Q3 : -0.136895105243, Q4 : 0.401516735554}
2019-04-14 12:15:02.61: SIM {TimeUS : 61034743, Roll : -0.19, Pitch : -17.15, Yaw : 47.91, Alt : 49.2999992371, Lat : 49.2836749, Lng : -123.1148479, Q1 : 0.903735101223, Q2 : 0.059015031904, Q3 : -0.136951521039, Q4 : 0.401278465986}
2019-04-14 12:15:02.71: SIM {TimeUS : 61134703, Roll : -0.14, Pitch : -17.15, Yaw : 47.84, Alt : 49.2999992371, Lat : 49.2836776, Lng : -123.1148435, Q1 : 0.903948783875, Q2 : 0.0593179725111, Q3 : -0.136865437031, Q4 : 0.400781571865}
2019-04-14 12:15:02.81: SIM {TimeUS : 61234663, Roll : -0.08, Pitch : -17.16, Yaw : 47.74, Alt : 49.2999992371, Lat : 49.2836802, Lng : -123.1148391, Q1 : 0.904240369797, Q2 : 0.0597145482898, Q3 : -0.136763289571, Q4 : 0.400099217892}
2019-04-14 12:15:02.91: SIM {TimeUS : 61334623, Roll : 0.0, Pitch : -17.19, Yaw : 47.64, Alt : 49.2999992371, Lat : 49.2836828, Lng : -123.1148346, Q1 : 0.904532015324, Q2 : 0.0603562965989, Q3 : -0.136806085706, Q4 : 0.399328351021}
2019-04-14 12:15:03.01: SIM {TimeUS : 61434583, Roll : 0.08, Pitch : -17.26, Yaw : 47.53, Alt : 49.3100013733, Lat : 49.2836855, Lng : -123.1148302, Q1 : 0.904791593552, Q2 : 0.0611137896776, Q3 : -0.137057796121, Q4 : 0.398537904024}
2019-04-14 12:15:03.11: SIM {TimeUS : 61534543, Roll : 0.15, Pitch : -17.3, Yaw : 47.43, Alt : 49.3100013733, Lat : 49.2836882, Lng : -123.1148257, Q1 : 0.905050516129, Q2 : 0.0617039091885, Q3 : -0.137197732925, Q4 : 0.397810220718}
2019-04-14 12:15:03.21: SIM {TimeUS : 61634503, Roll : 0.2, Pitch : -17.31, Yaw : 47.34, Alt : 49.3100013733, Lat : 49.2836908, Lng : -123.1148212, Q1 : 0.905293524265, Q2 : 0.0620634704828, Q3 : -0.137194395065, Q4 : 0.397202044725}
2019-04-14 12:15:03.31: SIM {TimeUS : 61735296, Roll : 0.21, Pitch : -17.33, Yaw : 47.28, Alt : 49.3100013733, Lat : 49.2836936, Lng : -123.1148166, Q1 : 0.905484259129, Q2 : 0.0621582902968, Q3 : -0.137287214398, Q4 : 0.396720141172}
2019-04-14 12:15:03.41: SIM {TimeUS : 61835256, Roll : 0.2, Pitch : -17.35, Yaw : 47.24, Alt : 49.3100013733, Lat : 49.2836962, Lng : -123.1148121, Q1 : 0.905603587627, Q2 : 0.0620884969831, Q3 : -0.137560650706, Q4 : 0.396363735199}
2019-04-14 12:15:03.51: SIM {TimeUS : 61935216, Roll : 0.18, Pitch : -17.38, Yaw : 47.22, Alt : 49.3100013733, Lat : 49.283699, Lng : -123.1148076, Q1 : 0.905656397343, Q2 : 0.0620156154037, Q3 : -0.137792274356, Q4 : 0.396173894405}
2019-04-14 12:15:03.61: SIM {TimeUS : 62035176, Roll : 0.16, Pitch : -17.4, Yaw : 47.22, Alt : 49.3100013733, Lat : 49.2837016, Lng : -123.114803, Q1 : 0.905646979809, Q2 : 0.0619371905923, Q3 : -0.138097256422, Q4 : 0.396101623774}
2019-04-14 12:15:03.71: SIM {TimeUS : 62135136, Roll : 0.14, Pitch : -17.42, Yaw : 47.22, Alt : 49.3100013733, Lat : 49.2837044, Lng : -123.1147984, Q1 : 0.905608057976, Q2 : 0.0618427656591, Q3 : -0.138316139579, Q4 : 0.396128982306}
2019-04-14 12:15:03.81: SIM {TimeUS : 62235096, Roll : 0.13, Pitch : -17.44, Yaw : 47.24, Alt : 49.3100013733, Lat : 49.2837071, Lng : -123.1147938, Q1 : 0.905533850193, Q2 : 0.0618763007224, Q3 : -0.138502940536, Q4 : 0.396228075027}
2019-04-14 12:15:03.91: SIM {TimeUS : 62335056, Roll : 0.13, Pitch : -17.46, Yaw : 47.26, Alt : 49.3100013733, Lat : 49.2837099, Lng : -123.1147892, Q1 : 0.905459940434, Q2 : 0.0618984401226, Q3 : -0.138643980026, Q4 : 0.39634424448}
2019-04-14 12:15:04.01: SIM {TimeUS : 62435016, Roll : 0.13, Pitch : -17.48, Yaw : 47.27, Alt : 49.3100013733, Lat : 49.2837126, Lng : -123.1147846, Q1 : 0.905380666256, Q2 : 0.0620117895305, Q3 : -0.138791501522, Q4 : 0.396455913782}
2019-04-14 12:15:04.11: SIM {TimeUS : 62534976, Roll : 0.14, Pitch : -17.5, Yaw : 47.28, Alt : 49.3100013733, Lat : 49.2837154, Lng : -123.11478, Q1 : 0.905307650566, Q2 : 0.0621687062085, Q3 : -0.138933584094, Q4 : 0.396548360586}
2019-04-14 12:15:04.21: SIM {TimeUS : 62634936, Roll : 0.13, Pitch : -17.54, Yaw : 47.29, Alt : 49.3199996948, Lat : 49.283718, Lng : -123.1147753, Q1 : 0.905247926712, Q2 : 0.0622359961271, Q3 : -0.139235183597, Q4 : 0.39656829834}
2019-04-14 12:15:04.31: SIM {TimeUS : 62734896, Roll : 0.1, Pitch : -17.58, Yaw : 47.29, Alt : 49.3199996948, Lat : 49.2837209, Lng : -123.1147707, Q1 : 0.905215322971, Q2 : 0.0621188990772, Q3 : -0.139669388533, Q4 : 0.396508455276}
2019-04-14 12:15:04.41: SIM {TimeUS : 62834856, Roll : 0.07, Pitch : -17.63, Yaw : 47.28, Alt : 49.3199996948, Lat : 49.2837236, Lng : -123.114766, Q1 : 0.905199706554, Q2 : 0.0620478875935, Q3 : -0.140124335885, Q4 : 0.396394729614}
2019-04-14 12:15:04.51: SIM {TimeUS : 62934816, Roll : 0.08, Pitch : -17.66, Yaw : 47.27, Alt : 49.3199996948, Lat : 49.2837265, Lng : -123.1147613, Q1 : 0.905204355717, Q2 : 0.0621943473816, Q3 : -0.140365481377, Q4 : 0.396275818348}
2019-04-14 12:15:04.61: SIM {TimeUS : 63034776, Roll : 0.11, Pitch : -17.67, Yaw : 47.25, Alt : 49.3199996948, Lat : 49.2837291, Lng : -123.1147566, Q1 : 0.905246973038, Q2 : 0.0624544806778, Q3 : -0.140327811241, Q4 : 0.396150827408}
2019-04-14 12:15:04.71: SIM {TimeUS : 63134736, Roll : 0.14, Pitch : -17.65, Yaw : 47.22, Alt : 49.3199996948, Lat : 49.283732, Lng : -123.1147518, Q1 : 0.905335247517, Q2 : 0.062631867826, Q3 : -0.140074074268, Q4 : 0.396010905504}
2019-04-14 12:15:04.81: SIM {TimeUS : 63234696, Roll : 0.16, Pitch : -17.63, Yaw : 47.2, Alt : 49.3199996948, Lat : 49.2837348, Lng : -123.1147472, Q1 : 0.905433595181, Q2 : 0.0626752972603, Q3 : -0.139903277159, Q4 : 0.395839482546}
2019-04-14 12:15:04.91: SIM {TimeUS : 63334656, Roll : 0.16, Pitch : -17.62, Yaw : 47.17, Alt : 49.3199996948, Lat : 49.2837376, Lng : -123.1147425, Q1 : 0.905543088913, Q2 : 0.0625812634826, Q3 : -0.139811426401, Q4 : 0.395636290312}
2019-04-14 12:15:05.01: SIM {TimeUS : 63434616, Roll : 0.15, Pitch : -17.6, Yaw : 47.14, Alt : 49.3199996948, Lat : 49.2837405, Lng : -123.1147378, Q1 : 0.905653893948, Q2 : 0.0624705702066, Q3 : -0.139721468091, Q4 : 0.395431905985}
2019-04-14 12:15:05.11: SIM {TimeUS : 63534576, Roll : 0.15, Pitch : -17.62, Yaw : 47.12, Alt : 49.3199996948, Lat : 49.2837433, Lng : -123.114733, Q1 : 0.905725300312, Q2 : 0.0624435059726, Q3 : -0.139873817563, Q4 : 0.395218640566}
2019-04-14 12:15:05.21: SIM {TimeUS : 63634536, Roll : 0.14, Pitch : -17.65, Yaw : 47.1, Alt : 49.3199996948, Lat : 49.283746, Lng : -123.1147283, Q1 : 0.905767798424, Q2 : 0.0624875128269, Q3 : -0.140152603388, Q4 : 0.395015567541}
2019-04-14 12:15:05.31: SIM {TimeUS : 63734496, Roll : 0.13, Pitch : -17.7, Yaw : 47.08, Alt : 49.3199996948, Lat : 49.2837489, Lng : -123.1147235, Q1 : 0.905788421631, Q2 : 0.062483061105, Q3 : -0.140602380037, Q4 : 0.394809097052}
2019-04-14 12:15:05.41: SIM {TimeUS : 63835289, Roll : 0.12, Pitch : -17.76, Yaw : 47.06, Alt : 49.3199996948, Lat : 49.2837518, Lng : -123.1147187, Q1 : 0.905770301819, Q2 : 0.0626356974244, Q3 : -0.141130521894, Q4 : 0.394638061523}
2019-04-14 12:15:05.51: SIM {TimeUS : 63935249, Roll : 0.13, Pitch : -17.79, Yaw : 47.05, Alt : 49.3199996948, Lat : 49.2837545, Lng : -123.1147139, Q1 : 0.905772268772, Q2 : 0.0628229901195, Q3 : -0.141331642866, Q4 : 0.394531667233}
2019-04-14 12:15:05.61: SIM {TimeUS : 64035209, Roll : 0.14, Pitch : -17.81, Yaw : 47.04, Alt : 49.3300018311, Lat : 49.2837575, Lng : -123.1147092, Q1 : 0.905781805515, Q2 : 0.0629168376327, Q3 : -0.141509696841, Q4 : 0.39443102479}
2019-04-14 12:15:05.71: SIM {TimeUS : 64135169, Roll : 0.13, Pitch : -17.83, Yaw : 47.02, Alt : 49.3300018311, Lat : 49.2837603, Lng : -123.1147044, Q1 : 0.905802726746, Q2 : 0.062934435904, Q3 : -0.141630679369, Q4 : 0.394336700439}
2019-04-14 12:15:05.81: SIM {TimeUS : 64235129, Roll : 0.15, Pitch : -17.82, Yaw : 47.01, Alt : 49.3300018311, Lat : 49.2837631, Lng : -123.1146996, Q1 : 0.905838131905, Q2 : 0.0629901885986, Q3 : -0.141557231545, Q4 : 0.394272863865}
2019-04-14 12:15:05.91: SIM {TimeUS : 64335089, Roll : 0.16, Pitch : -17.83, Yaw : 47.0, Alt : 49.3300018311, Lat : 49.283766, Lng : -123.1146948, Q1 : 0.905854344368, Q2 : 0.0631453320384, Q3 : -0.141549140215, Q4 : 0.394213706255}
2019-04-14 12:15:06.01: SIM {TimeUS : 64435049, Roll : 0.17, Pitch : -17.85, Yaw : 46.99, Alt : 49.3300018311, Lat : 49.2837689, Lng : -123.11469, Q1 : 0.905857205391, Q2 : 0.0632713362575, Q3 : -0.14169934392, Q4 : 0.394132971764}
2019-04-14 12:15:06.11: SIM {TimeUS : 64535009, Roll : 0.17, Pitch : -17.87, Yaw : 46.98, Alt : 49.3300018311, Lat : 49.2837717, Lng : -123.1146852, Q1 : 0.905868649483, Q2 : 0.063329435885, Q3 : -0.141839757562, Q4 : 0.394046843052}
2019-04-14 12:15:06.21: SIM {TimeUS : 64634969, Roll : 0.18, Pitch : -17.87, Yaw : 46.97, Alt : 49.3300018311, Lat : 49.2837746, Lng : -123.1146803, Q1 : 0.905898153782, Q2 : 0.0633922070265, Q3 : -0.141856059432, Q4 : 0.393963038921}
2019-04-14 12:15:06.31: SIM {TimeUS : 64734929, Roll : 0.18, Pitch : -17.88, Yaw : 46.96, Alt : 49.3300018311, Lat : 49.2837775, Lng : -123.1146755, Q1 : 0.90592956543, Q2 : 0.0634130761027, Q3 : -0.141917258501, Q4 : 0.393865406513}
2019-04-14 12:15:06.41: SIM {TimeUS : 64834889, Roll : 0.17, Pitch : -17.9, Yaw : 46.95, Alt : 49.3300018311, Lat : 49.2837804, Lng : -123.1146707, Q1 : 0.905957221985, Q2 : 0.0633480250835, Q3 : -0.14212295413, Q4 : 0.39373806119}
2019-04-14 12:15:06.51: SIM {TimeUS : 64934849, Roll : 0.14, Pitch : -17.93, Yaw : 46.94, Alt : 49.3300018311, Lat : 49.2837832, Lng : -123.1146658, Q1 : 0.905972957611, Q2 : 0.0632189065218, Q3 : -0.142518550158, Q4 : 0.393579572439}
2019-04-14 12:15:06.61: SIM {TimeUS : 65034809, Roll : 0.12, Pitch : -17.94, Yaw : 46.92, Alt : 49.3300018311, Lat : 49.2837861, Lng : -123.114661, Q1 : 0.906015574932, Q2 : 0.0631221160293, Q3 : -0.142610028386, Q4 : 0.393463879824}
2019-04-14 12:15:06.71: SIM {TimeUS : 65134769, Roll : 0.13, Pitch : -17.93, Yaw : 46.91, Alt : 49.3300018311, Lat : 49.2837891, Lng : -123.1146561, Q1 : 0.906071543694, Q2 : 0.0631083101034, Q3 : -0.142487168312, Q4 : 0.393381655216}
2019-04-14 12:15:06.81: SIM {TimeUS : 65234729, Roll : 0.15, Pitch : -17.91, Yaw : 46.9, Alt : 49.3300018311, Lat : 49.283792, Lng : -123.1146513, Q1 : 0.906120538712, Q2 : 0.0632141754031, Q3 : -0.14231389761, Q4 : 0.393314510584}
2019-04-14 12:15:06.91: SIM {TimeUS : 65334689, Roll : 0.16, Pitch : -17.92, Yaw : 46.89, Alt : 49.3300018311, Lat : 49.2837948, Lng : -123.1146464, Q1 : 0.906149208546, Q2 : 0.0633175894618, Q3 : -0.142328500748, Q4 : 0.393226444721}
2019-04-14 12:15:07.01: SIM {TimeUS : 65434649, Roll : 0.16, Pitch : -17.94, Yaw : 46.87, Alt : 49.3300018311, Lat : 49.2837977, Lng : -123.1146416, Q1 : 0.906163334846, Q2 : 0.0633188337088, Q3 : -0.14255617559, Q4 : 0.393111377954}
2019-04-14 12:15:07.11: SIM {TimeUS : 65534609, Roll : 0.13, Pitch : -17.97, Yaw : 46.86, Alt : 49.3400001526, Lat : 49.2838007, Lng : -123.1146367, Q1 : 0.906184077263, Q2 : 0.0632023364305, Q3 : -0.142851606011, Q4 : 0.39297503233}
2019-04-14 12:15:07.21: SIM {TimeUS : 65634569, Roll : 0.12, Pitch : -17.99, Yaw : 46.85, Alt : 49.3400001526, Lat : 49.2838036, Lng : -123.1146318, Q1 : 0.906206429005, Q2 : 0.063180193305, Q3 : -0.143051877618, Q4 : 0.392854124308}
2019-04-14 12:15:07.31: SIM {TimeUS : 65734529, Roll : 0.13, Pitch : -18.01, Yaw : 46.84, Alt : 49.3400001526, Lat : 49.2838065, Lng : -123.1146269, Q1 : 0.906221747398, Q2 : 0.0633209496737, Q3 : -0.143167063594, Q4 : 0.392754197121}
2019-04-14 12:15:07.41: SIM {TimeUS : 65835322, Roll : 0.15, Pitch : -18.02, Yaw : 46.82, Alt : 49.3400001526, Lat : 49.2838093, Lng : -123.114622, Q1 : 0.906238675117, Q2 : 0.0634808391333, Q3 : -0.143240243196, Q4 : 0.392662554979}
2019-04-14 12:15:07.51: SIM {TimeUS : 65935282, Roll : 0.17, Pitch : -18.03, Yaw : 46.81, Alt : 49.3400001526, Lat : 49.2838123, Lng : -123.1146171, Q1 : 0.906252145767, Q2 : 0.0636641383171, Q3 : -0.143252909184, Q4 : 0.392597258091}
2019-04-14 12:15:07.61: SIM {TimeUS : 66035242, Roll : 0.18, Pitch : -18.05, Yaw : 46.8, Alt : 49.3400001526, Lat : 49.2838153, Lng : -123.1146122, Q1 : 0.906257808208, Q2 : 0.0637922212481, Q3 : -0.143323913217, Q4 : 0.392537385225}
2019-04-14 12:15:07.71: SIM {TimeUS : 66135202, Roll : 0.19, Pitch : -18.07, Yaw : 46.8, Alt : 49.3400001526, Lat : 49.2838182, Lng : -123.1146073, Q1 : 0.906253159046, Q2 : 0.0639336183667, Q3 : -0.143448486924, Q4 : 0.392479687929}
2019-04-14 12:15:07.81: SIM {TimeUS : 66235162, Roll : 0.2, Pitch : -18.09, Yaw : 46.79, Alt : 49.3400001526, Lat : 49.2838211, Lng : -123.1146024, Q1 : 0.906247437, Q2 : 0.0640659183264, Q3 : -0.143575429916, Q4 : 0.392424762249}
2019-04-14 12:15:07.91: SIM {TimeUS : 66335122, Roll : 0.22, Pitch : -18.1, Yaw : 46.78, Alt : 49.3400001526, Lat : 49.283824, Lng : -123.1145974, Q1 : 0.906244575977, Q2 : 0.0642379820347, Q3 : -0.143618419766, Q4 : 0.392387568951}
2019-04-14 12:15:08.01: SIM {TimeUS : 66435082, Roll : 0.25, Pitch : -18.11, Yaw : 46.78, Alt : 49.3400001526, Lat : 49.2838269, Lng : -123.1145926, Q1 : 0.906235337257, Q2 : 0.0644990429282, Q3 : -0.143597260118, Q4 : 0.392373889685}
2019-04-14 12:15:08.11: SIM {TimeUS : 66535042, Roll : 0.25, Pitch : -18.11, Yaw : 46.77, Alt : 49.3400001526, Lat : 49.2838299, Lng : -123.1145877, Q1 : 0.906253814697, Q2 : 0.0644827708602, Q3 : -0.143586695194, Q4 : 0.392337679863}
2019-04-14 12:15:08.21: SIM {TimeUS : 66635002, Roll : 0.22, Pitch : -18.12, Yaw : 46.77, Alt : 49.3400001526, Lat : 49.2838329, Lng : -123.1145828, Q1 : 0.906270503998, Q2 : 0.0643223822117, Q3 : -0.143749624491, Q4 : 0.392265826464}
2019-04-14 12:15:08.31: SIM {TimeUS : 66734962, Roll : 0.2, Pitch : -18.14, Yaw : 46.76, Alt : 49.3499984741, Lat : 49.2838358, Lng : -123.1145779, Q1 : 0.906269490719, Q2 : 0.0641990825534, Q3 : -0.144024580717, Q4 : 0.39218750596}
