Start,TimeUS,Roll,Pitch,Yaw,Alt,Lat,Lng,Q1,Q2,Q3,Q4
2019-04-03 22:34:10.80,271216470, 0.0, 0.0, 353.0, 584.090026855, -35.363261, 149.1652299, 0.998134791851, 0.0, 0.0, -0.0610485821962
2019-04-03 22:34:10.91,271335589, 0.0, 0.0, 353.0, 584.090026855, -35.363261, 149.1652299, 0.998134791851, 0.0, 0.0, -0.0610485821962
2019-04-03 22:34:11.01,271435549, 0.0, 0.0, 353.0, 584.090026855, -35.363261, 149.1652299, 0.998134791851, 0.0, 0.0, -0.0610485821962
2019-04-03 22:34:11.11,271535509, 0.0, 0.0, 353.0, 584.090026855, -35.363261, 149.1652299, 0.998134791851, 0.0, 0.0, -0.0610485821962
2019-04-03 22:34:11.21,271635469, 0.0, 0.0, 353.0, 584.090026855, -35.363261, 149.1652299, 0.998134791851, 0.0, 0.0, -0.0610485821962
2019-04-03 22:34:11.31,271735429, 0.0, 0.0, 353.0, 584.090026855, -35.363261, 149.1652299, 0.998134791851, 0.0, 0.0, -0.0610485821962
2019-04-03 22:34:11.41,271835389, 0.0, 0.0, 353.0, 584.090026855, -35.363261, 149.1652299, 0.998134791851, 0.0, 0.0, -0.0610485821962
2019-04-03 22:34:11.51,271935349, 0.0, 0.0, 353.0, 584.090026855, -35.363261, 149.1652299, 0.998134791851, 0.0, 0.0, -0.0610485821962
2019-04-03 22:34:11.61,272035309, 0.0, 0.0, 353.0, 584.090026855, -35.363261, 149.1652299, 0.998134791851, 0.0, 0.0, -0.0610485821962
2019-04-03 22:34:11.71,272135269, 0.0, 0.0, 353.0, 584.090026855, -35.363261, 149.1652299, 0.998134791851, 0.0, 0.0, -0.0610485821962
2019-04-03 22:34:11.81,272235229, 0.0, 0.0, 353.0, 584.090026855, -35.363261, 149.1652299, 0.998134791851, 0.0, 0.0, -0.0610485821962
2019-04-03 22:34:11.91,272335189, 0.0, 0.0, 353.0, 584.090026855, -35.363261, 149.1652299, 0.998134791851, 0.0, 0.0, -0.0610485821962
2019-04-03 22:34:12.01,272435149, 0.0, 0.0, 353.0, 584.090026855, -35.363261, 149.1652299, 0.998134791851, 0.0, 0.0, -0.0610485821962
2019-04-03 22:34:12.11,272535109, 0.0, 0.0, 353.0, 584.090026855, -35.363261, 149.1652299, 0.998134791851, 0.0, 0.0, -0.0610485821962
2019-04-03 22:34:12.21,272635069, 0.0, 0.0, 353.0, 584.090026855, -35.363261, 149.1652299, 0.998134791851, 0.0, 0.0, -0.0610485821962
2019-04-03 22:34:12.31,272735029, 0.0, 0.0, 353.0, 584.090026855, -35.363261, 149.1652299, 0.998134791851, 0.0, 0.0, -0.0610485821962
2019-04-03 22:34:12.41,272834989, 0.0, 0.0, 353.0, 584.090026855, -35.363261, 149.1652299, 0.998134791851, 0.0, 0.0, -0.0610485821962
2019-04-03 22:34:12.51,272934949, 0.0, 0.0, 353.0, 584.090026855, -35.363261, 149.1652299, 0.998134791851, 0.0, 0.0, -0.0610485821962
2019-04-03 22:34:12.61,273034909, 0.0, 0.0, 353.0, 584.090026855, -35.363261, 149.1652299, 0.998134791851, 0.0, 0.0, -0.0610485821962
2019-04-03 22:34:12.71,273134869, 0.0, 0.0, 353.0, 584.090026855, -35.363261, 149.1652299, 0.998134791851, 0.0, 0.0, -0.0610485821962
2019-04-03 22:34:12.81,273234829, 0.0, 0.0, 353.0, 584.090026855, -35.363261, 149.1652299, 0.998134791851, 0.0, 0.0, -0.0610485821962
2019-04-03 22:34:12.91,273335622, 0.0, 0.0, 353.0, 584.090026855, -35.363261, 149.1652299, 0.998134791851, 0.0, 0.0, -0.0610485821962
2019-04-03 22:34:13.01,273435582, 0.0, 0.0, 353.0, 584.090026855, -35.363261, 149.1652299, 0.998134791851, 0.0, 0.0, -0.0610485821962
2019-04-03 22:34:13.11,273535542, 0.0, 0.0, 353.0, 584.090026855, -35.363261, 149.1652299, 0.998134791851, 0.0, 0.0, -0.0610485821962
2019-04-03 22:34:13.21,273635502, 0.0, 0.0, 353.0, 584.090026855, -35.363261, 149.1652299, 0.998134791851, 0.0, 0.0, -0.0610485821962
2019-04-03 22:34:13.31,273735462, 0.0, 0.0, 353.0, 584.090026855, -35.363261, 149.1652299, 0.998134791851, 0.0, 0.0, -0.0610485821962
2019-04-03 22:34:13.41,273835422, 0.0, 0.0, 353.0, 584.090026855, -35.363261, 149.1652299, 0.998134791851, 0.0, 0.0, -0.0610485821962
2019-04-03 22:34:13.51,273935382, 0.0, 0.0, 353.0, 584.090026855, -35.363261, 149.1652299, 0.998134791851, 0.0, 0.0, -0.0610485821962
2019-04-03 22:34:13.61,274035342, 0.0, 0.0, 353.0, 584.090026855, -35.363261, 149.1652299, 0.998134791851, 0.0, 0.0, -0.0610485821962
2019-04-03 22:34:13.71,274135302, 0.0, 0.0, 353.0, 584.090026855, -35.363261, 149.1652299, 0.998134791851, 0.0, 0.0, -0.0610485821962
2019-04-03 22:34:13.81,274235262, 0.0, 0.0, 353.0, 584.090026855, -35.363261, 149.1652299, 0.998134791851, 0.0, 0.0, -0.0610485821962
2019-04-03 22:34:13.91,274335222, 0.0, 0.0, 353.0, 584.090026855, -35.363261, 149.1652299, 0.998134791851, 0.0, 0.0, -0.0610485821962
2019-04-03 22:34:14.01,274435182, 0.0, 0.0, 353.0, 584.090026855, -35.363261, 149.1652299, 0.998134791851, 0.0, 0.0, -0.0610485821962
2019-04-03 22:34:14.11,274535142, 0.0, 0.0, 353.0, 584.090026855, -35.363261, 149.1652299, 0.998134791851, 0.0, 0.0, -0.0610485821962
2019-04-03 22:34:14.21,274635102, 0.0, 0.0, 353.0, 584.090026855, -35.363261, 149.1652299, 0.998134791851, 0.0, 0.0, -0.0610485821962
2019-04-03 22:34:14.31,274735062, 0.0, 0.0, 353.0, 584.090026855, -35.363261, 149.1652299, 0.998134791851, 0.0, 0.0, -0.0610485821962
2019-04-03 22:34:14.41,274835022, 0.0, 0.0, 353.0, 584.090026855, -35.363261, 149.1652299, 0.998134791851, 0.0, 0.0, -0.0610485821962
2019-04-03 22:34:14.51,274934982, 0.0, 0.0, 353.0, 584.090026855, -35.363261, 149.1652299, 0.998134791851, 0.0, 0.0, -0.0610485821962
2019-04-03 22:34:14.61,275034942, 0.0, 0.0, 353.0, 584.090026855, -35.363261, 149.1652299, 0.998134791851, 0.0, 0.0, -0.0610485821962
2019-04-03 22:34:14.71,275134902, 0.0, 0.0, 353.0, 584.090026855, -35.363261, 149.1652299, 0.998134791851, 0.0, 0.0, -0.0610485821962
2019-04-03 22:34:14.81,275234862, 0.0, 0.0, 353.0, 584.090026855, -35.363261, 149.1652299, 0.998134791851, 0.0, 0.0, -0.0610485821962
2019-04-03 22:34:14.91,275334822, 0.0, 0.0, 353.0, 584.090026855, -35.363261, 149.1652299, 0.998134791851, 0.0, 0.0, -0.0610485821962
2019-04-03 22:34:15.01,275435615, 0.0, 0.0, 353.0, 584.090026855, -35.363261, 149.1652299, 0.998134791851, 0.0, 0.0, -0.0610485821962
2019-04-03 22:34:15.11,275535575, 0.0, 0.0, 353.0, 584.090026855, -35.363261, 149.1652299, 0.998134791851, 0.0, 0.0, -0.0610485821962
2019-04-03 22:34:15.21,275635535, 0.0, 0.0, 353.0, 584.090026855, -35.363261, 149.1652299, 0.998134791851, 0.0, 0.0, -0.0610485821962
2019-04-03 22:34:15.31,275735495, 0.0, 0.0, 353.0, 584.090026855, -35.363261, 149.1652299, 0.998134791851, 0.0, 0.0, -0.0610485821962
2019-04-03 22:34:15.41,275835455, 0.0, 0.0, 353.0, 584.090026855, -35.363261, 149.1652299, 0.998134791851, 0.0, 0.0, -0.0610485821962
2019-04-03 22:34:15.51,275935415, 0.0, 0.0, 353.0, 584.090026855, -35.363261, 149.1652299, 0.998134791851, 0.0, 0.0, -0.0610485821962
2019-04-03 22:34:15.61,276035375, 0.0, 0.0, 353.0, 584.090026855, -35.363261, 149.1652299, 0.998134791851, 0.0, 0.0, -0.0610485821962
2019-04-03 22:34:15.71,276135335, 0.0, 0.0, 353.0, 584.090026855, -35.363261, 149.1652299, 0.998134791851, 0.0, 0.0, -0.0610485821962
2019-04-03 22:34:15.81,276235295, 0.0, 0.0, 353.0, 584.090026855, -35.363261, 149.1652299, 0.998134791851, 0.0, 0.0, -0.0610485821962
2019-04-03 22:34:15.91,276335255, 0.0, 0.0, 353.0, 584.090026855, -35.363261, 149.1652299, 0.998134791851, 0.0, 0.0, -0.0610485821962
2019-04-03 22:34:16.01,276435215, 0.0, 0.0, 353.0, 584.090026855, -35.363261, 149.1652299, 0.998134791851, 0.0, 0.0, -0.0610485821962
2019-04-03 22:34:16.11,276535175, 0.0, 0.0, 353.0, 584.090026855, -35.363261, 149.1652299, 0.998134791851, 0.0, 0.0, -0.0610485821962
2019-04-03 22:34:16.21,276635135, 0.0, 0.0, 353.0, 584.090026855, -35.363261, 149.1652299, 0.998134791851, 0.0, 0.0, -0.0610485821962
2019-04-03 22:34:16.31,276735095, 0.0, 0.0, 353.0, 584.090026855, -35.363261, 149.1652299, 0.998134791851, 0.0, 0.0, -0.0610485821962
2019-04-03 22:34:16.41,276835055, 0.0, 0.0, 353.0, 584.090026855, -35.363261, 149.1652299, 0.998134791851, 0.0, 0.0, -0.0610485821962
2019-04-03 22:34:16.51,276935015, 0.0, 0.0, 353.0, 584.090026855, -35.363261, 149.1652299, 0.998134791851, 0.0, 0.0, -0.0610485821962
2019-04-03 22:34:16.61,277034975, 0.0, 0.0, 353.0, 584.090026855, -35.363261, 149.1652299, 0.998134791851, 0.0, 0.0, -0.0610485821962
2019-04-03 22:34:16.71,277134935, 0.0, 0.0, 353.0, 584.090026855, -35.363261, 149.1652299, 0.998134791851, 0.0, 0.0, -0.0610485821962
2019-04-03 22:34:16.81,277234895, 0.0, 0.0, 353.0, 584.090026855, -35.363261, 149.1652299, 0.998134791851, 0.0, 0.0, -0.0610485821962
2019-04-03 22:34:16.91,277334855, 0.0, 0.0, 353.0, 584.090026855, -35.363261, 149.1652299, 0.998134791851, 0.0, 0.0, -0.0610485821962
2019-04-03 22:34:17.01,277434815, 0.0, 0.0, 353.0, 584.090026855, -35.363261, 149.1652299, 0.998134791851, 0.0, 0.0, -0.0610485821962
2019-04-03 22:34:17.11,277535608, 0.0, 0.0, 353.0, 584.090026855, -35.363261, 149.1652299, 0.998134791851, 0.0, 0.0, -0.0610485821962
2019-04-03 22:34:17.21,277635568, 0.0, 0.0, 353.0, 584.090026855, -35.363261, 149.1652299, 0.998134791851, 0.0, 0.0, -0.0610485821962
2019-04-03 22:34:17.31,277735528, 0.0, 0.0, 353.0, 584.090026855, -35.363261, 149.1652299, 0.998134791851, 0.0, 0.0, -0.0610485821962
2019-04-03 22:34:17.41,277835488, 0.0, 0.0, 353.0, 584.090026855, -35.363261, 149.1652299, 0.998134791851, 0.0, 0.0, -0.0610485821962
2019-04-03 22:34:17.51,277935448, 0.0, 0.0, 353.0, 584.090026855, -35.363261, 149.1652299, 0.998134791851, 0.0, 0.0, -0.0610485821962
2019-04-03 22:34:17.61,278035408, 0.0, 0.0, 353.0, 584.090026855, -35.363261, 149.1652299, 0.998134791851, 0.0, 0.0, -0.0610485821962
2019-04-03 22:34:17.71,278135368, 0.0, 0.0, 353.0, 584.090026855, -35.363261, 149.1652299, 0.998134791851, 0.0, 0.0, -0.0610485821962
2019-04-03 22:34:17.81,278235328, 0.0, 0.0, 353.0, 584.090026855, -35.363261, 149.1652299, 0.998134791851, 0.0, 0.0, -0.0610485821962
2019-04-03 22:34:17.91,278335288, 0.0, 0.0, 353.0, 584.090026855, -35.363261, 149.1652299, 0.998134791851, 0.0, 0.0, -0.0610485821962
2019-04-03 22:34:18.01,278435248, 0.0, 0.0, 353.0, 584.090026855, -35.363261, 149.1652299, 0.998134791851, 0.0, 0.0, -0.0610485821962
2019-04-03 22:34:18.11,278535208, 0.0, 0.0, 353.0, 584.090026855, -35.363261, 149.1652299, 0.998134791851, 0.0, 0.0, -0.0610485821962
2019-04-03 22:34:18.21,278635168, 0.0, 0.0, 353.0, 584.090026855, -35.363261, 149.1652299, 0.998134791851, 0.0, 0.0, -0.0610485821962
2019-04-03 22:34:18.31,278735128, 0.0, 0.0, 353.0, 584.090026855, -35.363261, 149.1652299, 0.998134791851, 0.0, 0.0, -0.0610485821962
2019-04-03 22:34:18.41,278835088, 0.0, 0.0, 353.0, 584.090026855, -35.363261, 149.1652299, 0.998134791851, 0.0, 0.0, -0.0610485821962
2019-04-03 22:34:18.51,278935048, 0.0, 0.0, 353.0, 584.090026855, -35.363261, 149.1652299, 0.998134791851, 0.0, 0.0, -0.0610485821962
2019-04-03 22:34:18.61,279035008, 0.0, 0.0, 353.0, 584.090026855, -35.363261, 149.1652299, 0.998134791851, 0.0, 0.0, -0.0610485821962
2019-04-03 22:34:18.71,279134968, 0.0, 0.0, 353.0, 584.090026855, -35.363261, 149.1652299, 0.998134791851, 0.0, 0.0, -0.0610485821962
2019-04-03 22:34:18.81,279234928, 0.0, 0.0, 353.0, 584.090026855, -35.363261, 149.1652299, 0.998134791851, 0.0, 0.0, -0.0610485821962
2019-04-03 22:34:18.91,279334888, 0.0, 0.0, 353.0, 584.090026855, -35.363261, 149.1652299, 0.998134791851, 0.0, 0.0, -0.0610485821962
2019-04-03 22:34:19.01,279434848, 0.0, 0.0, 353.0, 584.090026855, -35.363261, 149.1652299, 0.998134791851, 0.0, 0.0, -0.0610485821962
2019-04-03 22:34:19.11,279534808, 0.0, 0.0, 353.0, 584.090026855, -35.363261, 149.1652299, 0.998134791851, 0.0, 0.0, -0.0610485821962
2019-04-03 22:34:19.21,279635601, 0.0, 0.0, 353.0, 584.090026855, -35.363261, 149.1652299, 0.998134791851, 0.0, 0.0, -0.0610485821962
2019-04-03 22:34:19.31,279735561, 0.0, 0.0, 353.0, 584.090026855, -35.363261, 149.1652299, 0.998134791851, 0.0, 0.0, -0.0610485821962
2019-04-03 22:34:19.41,279835521, 0.0, 0.0, 353.0, 584.090026855, -35.363261, 149.1652299, 0.998134791851, 0.0, 0.0, -0.0610485821962
2019-04-03 22:34:19.51,279935481, 0.0, 0.0, 353.0, 584.090026855, -35.363261, 149.1652299, 0.998134791851, 0.0, 0.0, -0.0610485821962
2019-04-03 22:34:19.61,280035441, 0.0, 0.0, 353.0, 584.090026855, -35.363261, 149.1652299, 0.998134791851, 0.0, 0.0, -0.0610485821962
2019-04-03 22:34:19.71,280135401, 0.0, 0.0, 353.0, 584.090026855, -35.363261, 149.1652299, 0.998134791851, 0.0, 0.0, -0.0610485821962
2019-04-03 22:34:19.81,280235361, 0.0, 0.0, 353.0, 584.090026855, -35.363261, 149.1652299, 0.998134791851, 0.0, 0.0, -0.0610485821962
2019-04-03 22:34:19.91,280335321, 0.0, 0.0, 353.0, 584.090026855, -35.363261, 149.1652299, 0.998134791851, 0.0, 0.0, -0.0610485821962
2019-04-03 22:34:20.01,280435281, 0.0, 0.0, 353.0, 584.090026855, -35.363261, 149.1652299, 0.998134791851, 0.0, 0.0, -0.0610485821962
2019-04-03 22:34:20.11,280535241, 0.0, 0.0, 353.0, 584.090026855, -35.363261, 149.1652299, 0.998134791851, 0.0, 0.0, -0.0610485821962
2019-04-03 22:34:20.21,280635201, 0.0, 0.0, 353.0, 584.090026855, -35.363261, 149.1652299, 0.998134791851, 0.0, 0.0, -0.0610485821962
2019-04-03 22:34:20.31,280735161, 0.0, 0.0, 353.0, 584.090026855, -35.363261, 149.1652299, 0.998134791851, 0.0, 0.0, -0.0610485821962
2019-04-03 22:34:20.41,280835121, 0.0, 0.0, 353.0, 584.090026855, -35.363261, 149.1652299, 0.998134791851, 0.0, 0.0, -0.0610485821962
2019-04-03 22:34:20.51,280935081, 0.0, 0.0, 353.0, 584.090026855, -35.363261, 149.1652299, 0.998134791851, 0.0, 0.0, -0.0610485821962
2019-04-03 22:34:20.61,281035041, 0.0, 0.0, 353.0, 584.090026855, -35.363261, 149.1652299, 0.998134791851, 0.0, 0.0, -0.0610485821962
2019-04-03 22:34:22.81,283234994, 0.0, 0.0, 353.0, 584.090026855, -35.363261, 149.1652299, 0.998134791851, 0.0, 0.0, -0.0610485821962
2019-04-03 22:34:22.91,283334954, 0.0, 0.0, 353.0, 584.090026855, -35.363261, 149.1652299, 0.998134791851, 0.0, 0.0, -0.0610485821962
2019-04-03 22:34:23.01,283434914, 0.0, 0.0, 353.0, 584.090026855, -35.363261, 149.1652299, 0.998134791851, 0.0, 0.0, -0.0610485821962
2019-04-03 22:34:23.11,283534874, 0.0, 0.0, 353.0, 584.090026855, -35.363261, 149.1652299, 0.998134791851, 0.0, 0.0, -0.0610485821962
2019-04-03 22:34:23.21,283634834, 0.0, 0.0, 353.0, 584.090026855, -35.363261, 149.1652299, 0.998134791851, 0.0, 0.0, -0.0610485821962
2019-04-03 22:34:23.31,283735627, 0.0, 0.0, 353.0, 584.090026855, -35.363261, 149.1652299, 0.998134791851, 0.0, 0.0, -0.0610485821962
2019-04-03 22:34:23.41,283835587, 0.0, 0.0, 353.0, 584.090026855, -35.363261, 149.1652299, 0.998134791851, 0.0, 0.0, -0.0610485821962
2019-04-03 22:34:23.51,283935547, 0.0, 0.0, 353.0, 584.090026855, -35.363261, 149.1652299, 0.998134791851, 0.0, 0.0, -0.0610485821962
2019-04-03 22:34:23.61,284035507, 0.0, 0.0, 353.0, 584.090026855, -35.363261, 149.1652299, 0.998134791851, 0.0, 0.0, -0.0610485821962
2019-04-03 22:34:23.71,284135467, 0.0, 0.0, 353.0, 584.090026855, -35.363261, 149.1652299, 0.998134791851, 0.0, 0.0, -0.0610485821962
2019-04-03 22:34:23.81,284235427, 0.0, 0.0, 353.0, 584.090026855, -35.363261, 149.1652299, 0.998134791851, 0.0, 0.0, -0.0610485821962
2019-04-03 22:34:23.91,284335387, 0.0, 0.0, 353.0, 584.090026855, -35.363261, 149.1652299, 0.998134791851, 0.0, 0.0, -0.0610485821962
2019-04-03 22:34:24.01,284435347, 0.0, 0.0, 353.0, 584.090026855, -35.363261, 149.1652299, 0.998134791851, 0.0, 0.0, -0.0610485821962
2019-04-03 22:34:24.11,284535307, 0.0, 0.0, 353.0, 584.090026855, -35.363261, 149.1652299, 0.998134791851, 0.0, 0.0, -0.0610485821962
2019-04-03 22:34:24.21,284635267, 0.0, 0.0, 353.0, 584.090026855, -35.363261, 149.1652299, 0.998134791851, 0.0, 0.0, -0.0610485821962
2019-04-03 22:34:24.31,284735227, 0.0, 0.0, 353.0, 584.090026855, -35.363261, 149.1652299, 0.998134791851, 0.0, 0.0, -0.0610485821962
2019-04-03 22:34:24.41,284835187, 0.0, 0.0, 353.0, 584.090026855, -35.363261, 149.1652299, 0.998134791851, 0.0, 0.0, -0.0610485821962
2019-04-03 22:34:24.51,284935147, 0.0, 0.0, 353.0, 584.090026855, -35.363261, 149.1652299, 0.998134791851, 0.0, 0.0, -0.0610485821962
2019-04-03 22:34:24.61,285035107, 0.0, 0.0, 353.0, 584.090026855, -35.363261, 149.1652299, 0.998134791851, 0.0, 0.0, -0.0610485821962
2019-04-03 22:34:24.71,285135067, 0.0, 0.0, 353.0, 584.090026855, -35.363261, 149.1652299, 0.998134791851, 0.0, 0.0, -0.0610485821962
2019-04-03 22:34:24.81,285235027, 0.0, 0.0, 353.0, 584.090026855, -35.363261, 149.1652299, 0.998134791851, 0.0, 0.0, -0.0610485821962
2019-04-03 22:34:24.91,285334987, 0.0, 0.0, 353.0, 584.090026855, -35.363261, 149.1652299, 0.998134791851, 0.0, 0.0, -0.0610485821962
2019-04-03 22:34:25.01,285434947, 0.0, 0.0, 353.0, 584.090026855, -35.363261, 149.1652299, 0.998134791851, 0.0, 0.0, -0.0610485821962
2019-04-03 22:34:25.11,285534907, 0.0, 0.0, 353.0, 584.090026855, -35.363261, 149.1652299, 0.998134791851, 0.0, 0.0, -0.0610485821962
2019-04-03 22:34:25.21,285634867, 0.0, 0.0, 353.0, 584.090026855, -35.363261, 149.1652299, 0.998134791851, 0.0, 0.0, -0.0610485821962
2019-04-03 22:34:25.31,285734827, 0.0, 0.0, 353.0, 584.090026855, -35.363261, 149.1652299, 0.998134791851, 0.0, 0.0, -0.0610485821962
2019-04-03 22:34:25.41,285835620, 0.0, 0.0, 353.0, 584.090026855, -35.363261, 149.1652299, 0.998134791851, 0.0, 0.0, -0.0610485821962
2019-04-03 22:34:25.51,285935580, 0.0, 0.0, 353.0, 584.090026855, -35.363261, 149.1652299, 0.998134791851, 0.0, 0.0, -0.0610485821962
2019-04-03 22:34:25.61,286035540, 0.0, 0.0, 353.0, 584.090026855, -35.363261, 149.1652299, 0.998134791851, 0.0, 0.0, -0.0610485821962
2019-04-03 22:34:25.71,286135500, 0.0, 0.0, 353.0, 584.090026855, -35.363261, 149.1652299, 0.998134791851, 0.0, 0.0, -0.0610485821962
2019-04-03 22:34:25.81,286235460, 0.0, 0.0, 353.0, 584.090026855, -35.363261, 149.1652299, 0.998134791851, 0.0, 0.0, -0.0610485821962
2019-04-03 22:34:25.91,286335420, 0.0, 0.0, 353.0, 584.090026855, -35.363261, 149.1652299, 0.998134791851, 0.0, 0.0, -0.0610485821962
2019-04-03 22:34:26.01,286435380, 0.0, 0.0, 353.0, 584.090026855, -35.363261, 149.1652299, 0.998134791851, 0.0, 0.0, -0.0610485821962
2019-04-03 22:34:26.11,286535340, 0.0, 0.0, 353.0, 584.090026855, -35.363261, 149.1652299, 0.998134791851, 0.0, 0.0, -0.0610485821962
2019-04-03 22:34:26.21,286635300, 0.0, 0.0, 353.0, 584.090026855, -35.363261, 149.1652299, 0.998134791851, 0.0, 0.0, -0.0610485821962
2019-04-03 22:34:26.31,286735260, 0.0, 0.0, 353.0, 584.090026855, -35.363261, 149.1652299, 0.998134791851, 0.0, 0.0, -0.0610485821962
2019-04-03 22:34:26.41,286835220, 0.0, 0.0, 353.0, 584.090026855, -35.363261, 149.1652299, 0.998134791851, 0.0, 0.0, -0.0610485821962
2019-04-03 22:34:26.51,286935180, 0.0, 0.0, 353.0, 584.090026855, -35.363261, 149.1652299, 0.998134791851, 0.0, 0.0, -0.0610485821962
2019-04-03 22:34:26.61,287035140, 0.0, 0.0, 353.0, 584.090026855, -35.363261, 149.1652299, 0.998134791851, 0.0, 0.0, -0.0610485821962
2019-04-03 22:34:26.71,287135100, 0.0, 0.0, 353.0, 584.090026855, -35.363261, 149.1652299, 0.998134791851, 0.0, 0.0, -0.0610485821962
2019-04-03 22:34:26.81,287235060, 0.0, 0.0, 353.0, 584.090026855, -35.363261, 149.1652299, 0.998134791851, 0.0, 0.0, -0.0610485821962
2019-04-03 22:34:26.91,287335020, 0.0, 0.0, 353.0, 584.090026855, -35.363261, 149.1652299, 0.998134791851, 0.0, 0.0, -0.0610485821962
2019-04-03 22:34:27.01,287434980, 0.0, 0.0, 353.0, 584.090026855, -35.363261, 149.1652299, 0.998134791851, 0.0, 0.0, -0.0610485821962
2019-04-03 22:34:27.11,287534940, 0.0, 0.0, 353.0, 584.090026855, -35.363261, 149.1652299, 0.998134791851, 0.0, 0.0, -0.0610485821962
2019-04-03 22:34:27.21,287634900, 0.0, 0.0, 353.0, 584.090026855, -35.363261, 149.1652299, 0.998134791851, 0.0, 0.0, -0.0610485821962
2019-04-03 22:34:27.31,287734860, 0.0, 0.0, 353.0, 584.090026855, -35.363261, 149.1652299, 0.998134791851, 0.0, 0.0, -0.0610485821962
2019-04-03 22:34:27.41,287834820, 0.0, 0.0, 353.0, 584.090026855, -35.363261, 149.1652299, 0.998134791851, 0.0, 0.0, -0.0610485821962
2019-04-03 22:34:27.51,287935613, 0.0, 0.0, 353.0, 584.090026855, -35.363261, 149.1652299, 0.998134791851, 0.0, 0.0, -0.0610485821962
2019-04-03 22:34:27.61,288035573, 0.0, 0.0, 353.0, 584.090026855, -35.363261, 149.1652299, 0.998134791851, 0.0, 0.0, -0.0610485821962
2019-04-03 22:34:27.71,288135533, 0.0, 0.0, 353.0, 584.090026855, -35.363261, 149.1652299, 0.998134791851, 0.0, 0.0, -0.0610485821962
2019-04-03 22:34:27.81,288235493, 0.0, 0.0, 353.0, 584.090026855, -35.363261, 149.1652299, 0.998134791851, 0.0, 0.0, -0.0610485821962
2019-04-03 22:34:27.91,288335453, 0.0, 0.0, 353.0, 584.090026855, -35.363261, 149.1652299, 0.998134791851, 0.0, 0.0, -0.0610485821962
2019-04-03 22:34:28.01,288435413, 0.0, 0.0, 353.0, 584.090026855, -35.363261, 149.1652299, 0.998134791851, 0.0, 0.0, -0.0610485821962
2019-04-03 22:34:28.11,288535373, 0.0, 0.0, 353.0, 584.090026855, -35.363261, 149.1652299, 0.998134791851, 0.0, 0.0, -0.0610485821962
2019-04-03 22:34:28.21,288635333, 0.0, 0.0, 353.0, 584.090026855, -35.363261, 149.1652299, 0.998134791851, 0.0, 0.0, -0.0610485821962
2019-04-03 22:34:28.31,288735293, 0.0, 0.0, 353.0, 584.090026855, -35.363261, 149.1652299, 0.998134791851, 0.0, 0.0, -0.0610485821962
2019-04-03 22:34:28.41,288835253, 0.0, 0.0, 353.0, 584.090026855, -35.363261, 149.1652299, 0.998134791851, 0.0, 0.0, -0.0610485821962
2019-04-03 22:34:28.51,288935213, 0.0, 0.0, 353.0, 584.090026855, -35.363261, 149.1652299, 0.998134791851, 0.0, 0.0, -0.0610485821962
2019-04-03 22:34:28.61,289035173, 0.0, 0.0, 353.0, 584.090026855, -35.363261, 149.1652299, 0.998134791851, 0.0, 0.0, -0.0610485821962
2019-04-03 22:34:28.71,289135133, 0.0, 0.0, 353.0, 584.090026855, -35.363261, 149.1652299, 0.998134791851, 0.0, 0.0, -0.0610485821962
2019-04-03 22:34:28.81,289235093, 0.0, 0.0, 353.0, 584.090026855, -35.363261, 149.1652299, 0.998134791851, 0.0, 0.0, -0.0610485821962
2019-04-03 22:34:28.91,289335053, 0.0, 0.0, 353.0, 584.090026855, -35.363261, 149.1652299, 0.998134791851, 0.0, 0.0, -0.0610485821962
2019-04-03 22:34:29.01,289435013, 0.0, 0.0, 353.0, 584.090026855, -35.363261, 149.1652299, 0.998134791851, 0.0, 0.0, -0.0610485821962
2019-04-03 22:34:29.11,289534973, 0.0, 0.0, 353.0, 584.090026855, -35.363261, 149.1652299, 0.998134791851, 0.0, 0.0, -0.0610485821962
2019-04-03 22:34:29.21,289634933, 0.0, 0.0, 353.0, 584.090026855, -35.363261, 149.1652299, 0.998134791851, 0.0, 0.0, -0.0610485821962
2019-04-03 22:34:29.31,289734893, 0.0, 0.0, 353.0, 584.090026855, -35.363261, 149.1652299, 0.998134791851, 0.0, 0.0, -0.0610485821962
2019-04-03 22:34:29.41,289834853, 0.0, 0.0, 353.0, 584.090026855, -35.363261, 149.1652299, 0.998134791851, 0.0, 0.0, -0.0610485821962
2019-04-03 22:34:29.51,289934813, 0.0, 0.0, 353.0, 584.090026855, -35.363261, 149.1652299, 0.998134791851, 0.0, 0.0, -0.0610485821962
2019-04-03 22:34:29.61,290035606, 0.0, 0.0, 353.0, 584.090026855, -35.363261, 149.1652299, 0.998134791851, 0.0, 0.0, -0.0610485821962
2019-04-03 22:34:29.71,290135566, 0.0, 0.0, 353.0, 584.090026855, -35.363261, 149.1652299, 0.998134791851, 0.0, 0.0, -0.0610485821962
2019-04-03 22:34:29.81,290235526, 0.0, 0.0, 353.0, 584.090026855, -35.363261, 149.1652299, 0.998134791851, 0.0, 0.0, -0.0610485821962
2019-04-03 22:34:29.91,290335486, 0.0, 0.0, 353.0, 584.090026855, -35.363261, 149.1652299, 0.998134791851, 0.0, 0.0, -0.0610485821962
2019-04-03 22:34:30.01,290435446, 0.0, 0.0, 353.0, 584.090026855, -35.363261, 149.1652299, 0.998134791851, 0.0, 0.0, -0.0610485821962
2019-04-03 22:34:30.11,290535406, 0.0, 0.0, 353.0, 584.090026855, -35.363261, 149.1652299, 0.998134791851, 0.0, 0.0, -0.0610485821962
2019-04-03 22:34:30.21,290635366, 0.0, 0.0, 353.0, 584.090026855, -35.363261, 149.1652299, 0.998134791851, 0.0, 0.0, -0.0610485821962
2019-04-03 22:34:30.31,290735326, 0.0, 0.0, 353.0, 584.090026855, -35.363261, 149.1652299, 0.998134791851, 0.0, 0.0, -0.0610485821962
2019-04-03 22:34:30.41,290835286, 0.0, 0.0, 353.0, 584.090026855, -35.363261, 149.1652299, 0.998134791851, 0.0, 0.0, -0.0610485821962
2019-04-03 22:34:30.51,290935246, 0.0, 0.0, 353.0, 584.090026855, -35.363261, 149.1652299, 0.998134791851, 0.0, 0.0, -0.0610485821962
2019-04-03 22:34:30.61,291035206, 0.0, 0.0, 353.0, 584.090026855, -35.363261, 149.1652299, 0.998134791851, 0.0, 0.0, -0.0610485821962
2019-04-03 22:34:30.71,291135166, 0.0, 0.0, 353.0, 584.090026855, -35.363261, 149.1652299, 0.998134791851, 0.0, 0.0, -0.0610485821962
2019-04-03 22:34:30.81,291235126, 0.0, 0.0, 353.0, 584.090026855, -35.363261, 149.1652299, 0.998134791851, 0.0, 0.0, -0.0610485821962
2019-04-03 22:34:30.91,291335086, 0.0, 0.0, 353.0, 584.090026855, -35.363261, 149.1652299, 0.998134791851, 0.0, 0.0, -0.0610485821962
2019-04-03 22:34:31.01,291435046, 0.0, 0.0, 353.0, 584.090026855, -35.363261, 149.1652299, 0.998134791851, 0.0, 0.0, -0.0610485821962
2019-04-03 22:34:31.11,291535006, 0.0, 0.0, 353.0, 584.090026855, -35.363261, 149.1652299, 0.998134791851, 0.0, 0.0, -0.0610485821962
2019-04-03 22:34:31.21,291634966, 0.0, 0.0, 353.0, 584.090026855, -35.363261, 149.1652299, 0.998134791851, 0.0, 0.0, -0.0610485821962
2019-04-03 22:34:31.31,291734926, 0.0, 0.0, 353.0, 584.090026855, -35.363261, 149.1652299, 0.998134791851, 0.0, 0.0, -0.0610485821962
2019-04-03 22:34:31.41,291834886, 0.0, 0.0, 353.0, 584.090026855, -35.363261, 149.1652299, 0.998134791851, 0.0, 0.0, -0.0610485821962
2019-04-03 22:34:31.51,291934846, 0.0, 0.0, 353.0, 584.090026855, -35.363261, 149.1652299, 0.998134791851, 0.0, 0.0, -0.0610485821962
2019-04-03 22:34:31.61,292034806, 0.0, 0.0, 353.0, 584.090026855, -35.363261, 149.1652299, 0.998134791851, 0.0, 0.0, -0.0610485821962
2019-04-03 22:34:31.71,292135599, 0.0, 0.0, 353.0, 584.090026855, -35.363261, 149.1652299, 0.998134791851, 0.0, 0.0, -0.0610485821962
2019-04-03 22:34:31.81,292235559, 0.0, 0.0, 353.0, 584.090026855, -35.363261, 149.1652299, 0.998134791851, 0.0, 0.0, -0.0610485821962
2019-04-03 22:34:31.91,292335519, 0.0, 0.0, 353.0, 584.090026855, -35.363261, 149.1652299, 0.998134791851, 0.0, 0.0, -0.0610485821962
2019-04-03 22:34:32.01,292435479, 0.0, 0.0, 353.0, 584.090026855, -35.363261, 149.1652299, 0.998134791851, 0.0, 0.0, -0.0610485821962
2019-04-03 22:34:32.11,292535439, 0.0, 0.0, 353.0, 584.090026855, -35.363261, 149.1652299, 0.998134791851, 0.0, 0.0, -0.0610485821962
2019-04-03 22:34:32.21,292635399, 0.0, 0.0, 353.0, 584.090026855, -35.363261, 149.1652299, 0.998134791851, 0.0, 0.0, -0.0610485821962
2019-04-03 22:34:32.31,292735359, 0.0, 0.0, 353.0, 584.090026855, -35.363261, 149.1652299, 0.998134791851, 0.0, 0.0, -0.0610485821962
2019-04-03 22:34:32.41,292835319, 0.0, 0.0, 353.0, 584.090026855, -35.363261, 149.1652299, 0.998134791851, 0.0, 0.0, -0.0610485821962
2019-04-03 22:34:32.51,292935279, 0.0, 0.0, 353.0, 584.090026855, -35.363261, 149.1652299, 0.998134791851, 0.0, 0.0, -0.0610485821962
2019-04-03 22:34:32.61,293035239, 0.0, 0.0, 353.0, 584.090026855, -35.363261, 149.1652299, 0.998134791851, 0.0, 0.0, -0.0610485821962
2019-04-03 22:34:32.71,293135199, 0.0, 0.0, 353.0, 584.090026855, -35.363261, 149.1652299, 0.998134791851, 0.0, 0.0, -0.0610485821962
2019-04-03 22:34:32.81,293235159, 0.0, 0.0, 353.0, 584.090026855, -35.363261, 149.1652299, 0.998134791851, 0.0, 0.0, -0.0610485821962
2019-04-03 22:34:32.91,293335119, 0.0, 0.0, 353.0, 584.090026855, -35.363261, 149.1652299, 0.998134791851, 0.0, 0.0, -0.0610486753285
2019-04-03 22:34:33.01,293435079, 0.0, 0.0, 353.0, 584.090026855, -35.363261, 149.1652299, 0.998134791851, 0.0, 0.0, -0.0610486753285
2019-04-03 22:34:33.11,293535039, 0.0, 0.0, 353.0, 584.090026855, -35.363261, 149.1652299, 0.998134791851, 0.0, 0.0, -0.0610486753285
2019-04-03 22:34:33.21,293634999, 0.0, 0.0, 353.0, 584.090026855, -35.363261, 149.1652299, 0.998134791851, 0.0, 0.0, -0.0610486753285
2019-04-03 22:34:33.31,293734959, 0.0, 0.0, 353.0, 584.090026855, -35.363261, 149.1652299, 0.998134791851, 0.0, 0.0, -0.0610486790538
2019-04-03 22:34:33.41,293834919, 0.0, 0.0, 353.0, 584.090026855, -35.363261, 149.1652299, 0.998134791851, 0.0, 0.0, -0.0610486753285
2019-04-03 22:34:33.51,293934879, 0.0, 0.0, 353.0, 584.090026855, -35.363261, 149.1652299, 0.998134791851, 0.0, 0.0, -0.0610486753285
2019-04-03 22:34:33.61,294034839, 0.0, 0.0, 353.0, 584.090026855, -35.363261, 149.1652299, 0.998134791851, 0.0, 0.0, -0.0610486753285
2019-04-03 22:34:33.71,294134799, 0.0, 0.0, 353.0, 584.099975586, -35.363261, 149.1652299, 0.998134791851, 0.0, 0.0, -0.0610486827791
2019-04-03 22:34:33.81,294235592, 0.0, 0.0, 353.0, 584.099975586, -35.363261, 149.1652299, 0.998134791851, 0.0, 0.0, -0.0610486790538
2019-04-03 22:34:33.91,294335552, 0.0, 0.0, 353.0, 584.119995117, -35.363261, 149.1652299, 0.998134791851, 0.0, 0.0, -0.0610486753285
2019-04-03 22:34:34.01,294435512, 0.0, 0.0, 353.0, 584.140014648, -35.363261, 149.1652299, 0.998134791851, 0.0, 0.0, -0.0610486902297
2019-04-03 22:34:34.11,294535472, 0.0, 0.0, 353.0, 584.16998291, -35.363261, 149.1652299, 0.998134791851, 0.0, 0.0, -0.0610486753285
2019-04-03 22:34:34.21,294635432, 0.0, 0.0, 352.99, 584.200012207, -35.363261, 149.1652299, 0.998134791851, 0.0, 0.0, -0.0610489286482
2019-04-03 22:34:34.31,294735392, -0.04, -0.04, 352.99, 584.25, -35.363261, 149.1652299, 0.998133718967, -0.000428258208558, -0.000395659066271, -0.0610630773008
2019-04-03 22:34:34.41,294835352, -0.17, -0.2, 352.99, 584.349975586, -35.363261, 149.1652299, 0.998127520084, -0.00161297561135, -0.00166933704168, -0.0611238516867
2019-04-03 22:34:34.51,294935312, -0.32, -0.37, 352.98, 584.5, -35.363261, 149.1652299, 0.99811476469, -0.00300213834271, -0.0031362271402, -0.061221472919
2019-04-03 22:34:34.61,295035272, -0.44, -0.49, 352.96, 584.659973145, -35.363261, 149.1652299, 0.998100340366, -0.0041027632542, -0.00409775739536, -0.0613359734416
2019-04-03 22:34:34.71,295135232, -0.46, -0.5, 352.95, 584.809997559, -35.363261, 149.1652299, 0.998091757298, -0.00430085742846, -0.00417491095141, -0.06145632267
2019-04-03 22:34:34.81,295235192, -0.4, -0.42, 352.94, 584.960021973, -35.363261, 149.1652299, 0.99808961153, -0.00374436029233, -0.0034623995889, -0.0615719333291
2019-04-03 22:34:34.91,295335152, -0.27, -0.27, 352.92, 585.109985352, -35.363261, 149.1652298, 0.998090744019, -0.00257750204764, -0.00224836380221, -0.0616703443229
2019-04-03 22:34:35.01,295435112, -0.15, -0.13, 352.91, 585.270019531, -35.363261, 149.1652298, 0.998089969158, -0.00139790505636, -0.00108570780139, -0.0617519803345
2019-04-03 22:34:35.11,295535072, -0.07, -0.05, 352.91, 585.429992676, -35.3632609, 149.1652298, 0.998087644577, -0.000655904004816, -0.00043000941514, -0.0618093647063
2019-04-03 22:34:35.21,295635032, -0.04, -0.03, 352.9, 585.609985352, -35.3632609, 149.1652298, 0.998086333275, -0.000449956743978, -0.000289470364805, -0.0618334040046
2019-04-03 22:34:35.31,295734992, -0.04, -0.03, 352.91, 585.780029297, -35.3632609, 149.1652297, 0.998086810112, -0.000435527530499, -0.000246544601396, -0.0618258453906
2019-04-03 22:34:35.41,295834952, -0.06, -0.02, 352.91, 585.960021973, -35.3632608, 149.1652297, 0.998088359833, -0.000547249626834, -0.000148692022776, -0.0618003867567
2019-04-03 22:34:35.51,295934912, -0.05, -0.02, 352.91, 586.150024414, -35.3632608, 149.1652297, 0.998090803623, -0.000497842265759, -0.000191309736692, -0.0617610961199
2019-04-03 22:34:35.61,296034872, -0.04, -0.03, 352.92, 586.33001709, -35.3632608, 149.1652296, 0.998094141483, -0.000410333072068, -0.000267160241492, -0.0617079362273
2019-04-03 22:34:35.71,296134832, -0.02, -0.03, 352.93, 586.530029297, -35.3632608, 149.1652296, 0.998097479343, -0.000267272669589, -0.000289496732876, -0.0616551525891
2019-04-03 22:34:35.81,296235625, 0.0, -0.04, 352.93, 586.719970703, -35.3632607, 149.1652294, 0.998100161552, -7.62981653679e-05, -0.000350708985934, -0.0616115815938
2019-04-03 22:34:35.91,296335585, 0.02, -0.05, 352.93, 586.91998291, -35.3632607, 149.1652294, 0.998102366924, 0.000179603011929, -0.000463671982288, -0.0615749843419
2019-04-03 22:34:36.01,296435545, 0.04, -0.06, 352.94, 587.119995117, -35.3632607, 149.1652294, 0.998103737831, 0.000344298081473, -0.000595731369685, -0.0615501590073
2019-04-03 22:34:36.11,296535505, 0.04, -0.03, 352.94, 587.320007324, -35.3632607, 149.1652293, 0.998103797436, 0.00037008401705, -0.000365459622117, -0.0615512691438
2019-04-03 22:34:36.21,296635465, 0.03, 0.0, 352.93, 587.520019531, -35.3632607, 149.1652293, 0.998102426529, 0.000339585531037, -5.27004158357e-05, -0.0615743808448
2019-04-03 22:34:36.31,296735425, 0.01, 0.03, 352.93, 587.729980469, -35.3632605, 149.1652293, 0.998099923134, 0.000169083810761, 0.000264454662101, -0.0616151094437
2019-04-03 22:34:36.41,296835385, -0.01, 0.06, 352.92, 587.940002441, -35.3632605, 149.1652293, 0.998096585274, -9.19692611205e-05, 0.000536343839485, -0.0616680383682
2019-04-03 22:34:36.51,296935345, -0.03, 0.05, 352.92, 588.150024414, -35.3632605, 149.1652293, 0.998092234135, -0.000261053151917, 0.000468744750833, -0.0617382861674
2019-04-03 22:34:36.61,297035305, -0.07, 0.0, 352.91, 588.359985352, -35.3632605, 149.1652293, 0.998086929321, -0.000670261739288, -2.79477171716e-05, -0.0618224591017
2019-04-03 22:34:36.71,297135265, -0.14, -0.08, 352.89, 588.570007324, -35.3632605, 149.1652293, 0.99807959795, -0.00132437061984, -0.00066444609547, -0.0619269236922
2019-04-03 22:34:36.81,297235225, -0.21, -0.15, 352.88, 588.780029297, -35.3632605, 149.1652293, 0.998070657253, -0.00196975260042, -0.00119116797578, -0.0620457231998
2019-04-03 22:34:36.91,297335185, -0.28, -0.2, 352.87, 588.989990234, -35.3632605, 149.1652293, 0.99806112051, -0.00255604926497, -0.00161709007807, -0.0621674284339
2019-04-03 22:34:37.01,297435145, -0.31, -0.23, 352.85, 589.200012207, -35.3632605, 149.1652292, 0.998052358627, -0.00287384539843, -0.00187953317072, -0.0622870884836
2019-04-03 22:34:37.11,297535105, -0.29, -0.23, 352.84, 589.400024414, -35.3632604, 149.1652292, 0.998045444489, -0.00270077213645, -0.00188285519835, -0.0624051764607
2019-04-03 22:34:37.21,297635065, -0.25, -0.2, 352.83, 589.590026855, -35.3632604, 149.1652291, 0.998039186001, -0.00234123831615, -0.00163594796322, -0.0625276789069
2019-04-03 22:34:37.31,297735025, -0.23, -0.16, 352.81, 589.770019531, -35.3632604, 149.1652291, 0.998032331467, -0.00215287227184, -0.0012885814067, -0.0626512914896
2019-04-03 22:34:37.41,297834985, -0.22, -0.12, 352.8, 589.929992676, -35.3632604, 149.1652291, 0.998025298119, -0.00203585717827, -0.000962624850217, -0.0627730563283
2019-04-03 22:34:37.51,297934945, -0.07, 0.0, 352.78, 590.090026855, -35.3632604, 149.1652289, 0.998020529747, -0.000646701199003, 9.58350501605e-05, -0.062886275351
2019-04-03 22:34:37.61,298034905, 0.34, 0.35, 352.77, 590.229980469, -35.3632604, 149.1652289, 0.998004555702, 0.00323169236071, 0.00287691131234, -0.0629938393831
2019-04-03 22:34:37.71,298134865, 1.03, 0.92, 352.77, 590.359985352, -35.3632604, 149.1652289, 0.997933030128, 0.00952374283224, 0.00747641548514, -0.0631118044257
2019-04-03 22:34:37.81,298234825, 1.88, 1.63, 352.77, 590.469970703, -35.3632604, 149.1652289, 0.997759640217, 0.0172743294388, 0.0132460761815, -0.0632606968284
2019-04-03 22:34:37.91,298335618, 2.81, 2.43, 352.77, 590.58001709, -35.3632604, 149.1652289, 0.997455894947, 0.0258395597339, 0.0196230225265, -0.0634744018316
2019-04-03 22:34:38.01,298435578, 3.71, 3.19, 352.78, 590.66998291, -35.3632604, 149.1652289, 0.997048854828, 0.0340767763555, 0.0257923863828, -0.0637736096978
2019-04-03 22:34:38.11,298535538, 4.48, 3.87, 352.78, 590.75, -35.3632605, 149.1652292, 0.996597409248, 0.0411710031331, 0.0312897711992, -0.0641832724214
2019-04-03 22:34:38.21,298635498, 5.1, 4.42, 352.76, 590.820007324, -35.3632607, 149.1652293, 0.996167123318, 0.046817459166, 0.0356744341552, -0.0647040903568
2019-04-03 22:34:38.31,298735458, 5.58, 4.83, 352.73, 590.880004883, -35.3632609, 149.1652297, 0.995789408684, 0.0512100793421, 0.0389278121293, -0.0653111934662
2019-04-03 22:34:38.41,298835418, 5.9, 5.09, 352.68, 590.929992676, -35.363261, 149.1652299, 0.995508372784, 0.0541488751769, 0.0410002805293, -0.065953977406
2019-04-03 22:34:38.51,298935378, 6.08, 5.23, 352.62, 590.979980469, -35.3632611, 149.1652303, 0.995331346989, 0.0557998158038, 0.0420716367662, -0.066572226584
2019-04-03 22:34:38.61,299035338, 6.16, 5.29, 352.56, 591.020019531, -35.3632615, 149.165231, 0.995230972767, 0.0565908029675, 0.0425287298858, -0.067112788558
2019-04-03 22:34:38.71,299135298, 6.22, 5.35, 352.52, 591.059997559, -35.3632619, 149.1652317, 0.995150387287, 0.0571533851326, 0.0429982207716, -0.0675308853388
2019-04-03 22:34:38.81,299235258, 6.28, 5.47, 352.51, 591.090026855, -35.3632622, 149.1652323, 0.99505674839, 0.0577426441014, 0.0440504401922, -0.067730717361
2019-04-03 22:34:38.91,299335218, 6.24, 5.86, 352.78, 591.119995117, -35.3632627, 149.1652332, 0.995052814484, 0.0575268566608, 0.047568038106, -0.065558180213
2019-04-03 22:34:39.01,299435178, 6.16, 6.53, 353.98, 591.150024414, -35.3632632, 149.1652341, 0.995394051075, 0.056600254029, 0.0540095120668, -0.0554090179503
2019-04-03 22:34:39.11,299535138, 6.3, 7.15, 356.72, 591.16998291, -35.3632638, 149.1652351, 0.996037125587, 0.0566458106041, 0.0606981888413, -0.0318916775286
2019-04-03 22:34:39.21,299635098, 6.85, 7.31, 1.13, 591.190002441, -35.3632644, 149.165236, 0.996165573597, 0.0590289607644, 0.0642889738083, 0.00605672458187
2019-04-03 22:34:39.31,299735058, 7.79, 6.82, 6.99, 591.210021973, -35.363265, 149.1652372, 0.994310438633, 0.0640728026628, 0.0634522363544, 0.0567025281489
2019-04-03 22:34:39.41,299835018, 8.95, 5.64, 13.97, 591.229980469, -35.3632658, 149.1652383, 0.988812446594, 0.0714482292533, 0.0581878125668, 0.117300003767
2019-04-03 22:34:39.51,299934978, 10.15, 3.85, 21.74, 591.25, -35.3632665, 149.1652394, 0.97819930315, 0.0805517435074, 0.049631152302, 0.184862911701
2019-04-03 22:34:39.61,300034938, 11.18, 1.66, 30.02, 591.270019531, -35.3632675, 149.1652408, 0.961536407471, 0.0903527587652, 0.0391614511609, 0.256418704987
2019-04-03 22:34:39.71,300134898, 11.82, -0.78, 38.55, 591.289978027, -35.3632683, 149.1652422, 0.93864685297, 0.0994860976934, 0.0275465659797, 0.329068005085
2019-04-03 22:34:39.81,300234858, 11.95, -3.3, 47.11, 591.309997559, -35.3632694, 149.1652436, 0.910110592842, 0.106905162334, 0.0153570268303, 0.400042712688
2019-04-03 22:34:39.91,300334818, 11.61, -5.67, 55.46, 591.33001709, -35.3632704, 149.1652451, 0.877168178558, 0.112342610955, 0.00340118142776, 0.4668443501
2019-04-03 22:34:40.01,300435611, 10.86, -7.79, 63.5, 591.349975586, -35.3632714, 149.1652469, 0.841172575951, 0.11589692533, -0.00785665493459, 0.528142869473
2019-04-03 22:34:40.11,300535571, 9.87, -9.54, 70.94, 591.369995117, -35.3632725, 149.1652487, 0.804384052753, 0.11792857945, -0.0177207980305, 0.582018196583
2019-04-03 22:34:40.21,300635531, 8.79, -10.95, 77.79, 591.380004883, -35.3632736, 149.1652506, 0.767834186554, 0.119216479361, -0.0261457450688, 0.628915309906
2019-04-03 22:34:40.31,300735491, 7.74, -12.06, 84.04, 591.400024414, -35.3632748, 149.1652526, 0.732338726521, 0.120113842189, -0.0329431407154, 0.669453144073
2019-04-03 22:34:40.41,300835451, 6.73, -12.9, 89.76, 591.41998291, -35.3632759, 149.1652547, 0.698192536831, 0.120552703738, -0.0382920876145, 0.704647481441
2019-04-03 22:34:40.51,300935411, 5.78, -13.54, 95.07, 591.440002441, -35.3632771, 149.165257, 0.665173590183, 0.120704486966, -0.0424978286028, 0.735641539097
2019-04-03 22:34:40.61,301035371, 4.89, -14.02, 100.1, 591.460021973, -35.3632784, 149.1652593, 0.632703840733, 0.120682187378, -0.0458098128438, 0.763559520245
2019-04-03 22:34:40.71,301135331, 4.02, -14.41, 105.01, 591.479980469, -35.3632796, 149.1652618, 0.599993109703, 0.120698310435, -0.048651702702, 0.789349913597
2019-04-03 22:34:40.81,301235291, 3.11, -14.77, 109.92, 591.5, -35.3632809, 149.1652643, 0.566246032715, 0.120720393956, -0.0516792982817, 0.813708305359
2019-04-03 22:34:40.91,301335251, 2.02, -15.11, 114.95, 591.520019531, -35.3632823, 149.1652669, 0.5308817029, 0.120324373245, -0.055963486433, 0.836991488934
2019-04-03 22:34:41.01,301435211, 0.37, -15.43, 119.96, 591.539978027, -35.3632836, 149.1652695, 0.495334535837, 0.117862455547, -0.0643774345517, 0.858258485794
2019-04-03 22:34:41.11,301535171, -1.7, -15.58, 124.45, 591.559997559, -35.3632851, 149.1652724, 0.463414907455, 0.113103665411, -0.0762057229877, 0.875583767891
2019-04-03 22:34:41.21,301635131, -3.71, -15.54, 127.92, 591.58001709, -35.3632865, 149.1652753, 0.438619166613, 0.107339940965, -0.0882087573409, 0.887868583202
2019-04-03 22:34:41.31,301735091, -5.2, -15.4, 130.12, 591.599975586, -35.363288, 149.1652782, 0.422883987427, 0.102445736527, -0.0972176417708, 0.895110487938
2019-04-03 22:34:41.41,301835051, -5.86, -15.29, 131.03, 591.619995117, -35.3632894, 149.1652813, 0.416367977858, 0.099917627871, -0.10119356215, 0.898005604744
2019-04-03 22:34:41.51,301935011, -5.67, -15.28, 130.81, 591.640014648, -35.3632908, 149.1652844, 0.417941600084, 0.100365154445, -0.0998746082187, 0.897372126579
2019-04-03 22:34:41.61,302034971, -4.77, -15.4, 129.7, 591.659973145, -35.3632923, 149.1652877, 0.425781548023, 0.103699952364, -0.0942722856998, 0.893906712532
2019-04-03 22:34:41.71,302134931, -3.39, -15.65, 127.98, 591.66998291, -35.3632937, 149.165291, 0.437818109989, 0.109468735754, -0.0860830843449, 0.888212561607
2019-04-03 22:34:41.81,302234891, -1.85, -15.95, 125.93, 591.690002441, -35.3632951, 149.1652944, 0.452033907175, 0.116354741156, -0.0773653835058, 0.880988955498
2019-04-03 22:34:41.91,302334851, -0.37, -16.25, 123.83, 591.710021973, -35.3632967, 149.1652978, 0.46642306447, 0.123217515647, -0.0694596320391, 0.87317943573
2019-04-03 22:34:42.01,302434811, 0.87, -16.48, 121.94, 591.729980469, -35.3632981, 149.1653012, 0.479262113571, 0.129057466984, -0.0629537850618, 0.865845739841
2019-04-03 22:34:42.11,302535604, 1.79, -16.64, 120.43, 591.75, -35.3632998, 149.1653049, 0.489425718784, 0.133320122957, -0.0584249384701, 0.859810888767
2019-04-03 22:34:42.21,302635564, 2.31, -16.73, 119.45, 591.770019531, -35.3633015, 149.1653083, 0.496088296175, 0.135730311275, -0.0560783706605, 0.855762183666
2019-04-03 22:34:42.31,302735524, 2.46, -16.77, 119.01, 591.789978027, -35.363303, 149.165312, 0.499194741249, 0.136446237564, -0.0557006150484, 0.853864431381
2019-04-03 22:34:42.41,302835484, 2.29, -16.8, 119.06, 591.809997559, -35.3633048, 149.1653155, 0.49899199605, 0.13593518734, -0.0570084452629, 0.853978157043
2019-04-03 22:34:42.51,302935444, 1.89, -16.83, 119.51, 591.83001709, -35.3633066, 149.1653193, 0.496055871248, 0.13469722867, -0.0596051737666, 0.855705857277
2019-04-03 22:34:42.61,303035404, 1.34, -16.91, 120.24, 591.849975586, -35.3633084, 149.165323, 0.491156846285, 0.133347928524, -0.0631662011147, 0.8584831357
2019-04-03 22:34:42.71,303135364, 0.73, -17.0, 121.12, 591.869995117, -35.3633103, 149.1653266, 0.485195785761, 0.131894886494, -0.0671126544476, 0.861791551113
2019-04-03 22:34:42.81,303235324, 0.13, -17.08, 122.03, 591.890014648, -35.3633122, 149.1653303, 0.479038566351, 0.130472794175, -0.0709524899721, 0.865138530731
2019-04-03 22:34:42.91,303335284, -0.39, -17.15, 122.85, 591.909973145, -35.3633142, 149.1653342, 0.473406285048, 0.129361689091, -0.0743386372924, 0.868116259575
2019-04-03 22:34:43.01,303435244, -0.79, -17.22, 123.5, 591.929992676, -35.3633161, 149.165338, 0.468838602304, 0.128690302372, -0.0768864452839, 0.870469808578
2019-04-03 22:34:43.11,303535204, -1.03, -17.26, 123.95, 591.950012207, -35.3633181, 149.1653418, 0.465704470873, 0.128259822726, -0.0784025788307, 0.872079014778
2019-04-03 22:34:43.21,303635164, -1.11, -17.27, 124.17, 591.969970703, -35.36332, 149.1653457, 0.464081406593, 0.128201961517, -0.0788291394711, 0.872913956642
2019-04-03 22:34:43.31,303735124, -1.07, -17.29, 124.19, 591.979980469, -35.3633219, 149.1653497, 0.463890790939, 0.128518432379, -0.0785727798939, 0.872991800308
2019-04-03 22:34:43.41,303835084, -0.94, -17.33, 124.04, 592.0, -35.363324, 149.1653536, 0.464882969856, 0.129258915782, -0.0778802260756, 0.872416555882
2019-04-03 22:34:43.51,303935044, -0.73, -17.4, 123.76, 592.020019531, -35.363326, 149.1653576, 0.466712146997, 0.13045220077, -0.0769248753786, 0.871346414089
2019-04-03 22:34:43.61,304035004, -0.5, -17.48, 123.41, 592.039978027, -35.3633279, 149.1653617, 0.469028532505, 0.131794810295, -0.0758945792913, 0.869989871979
2019-04-03 22:34:43.71,304134964, -0.28, -17.56, 123.05, 592.059997559, -35.36333, 149.1653657, 0.471485972404, 0.133090883493, -0.0749393254519, 0.868545889854
2019-04-03 22:34:43.81,304234924, -0.08, -17.63, 122.71, 592.08001709, -35.3633321, 149.1653697, 0.473785042763, 0.134163960814, -0.074152842164, 0.867196142673
2019-04-03 22:34:43.91,304334884, 0.06, -17.66, 122.43, 592.099975586, -35.363334, 149.1653739, 0.475710749626, 0.134832859039, -0.0734246000648, 0.86609941721
2019-04-03 22:34:44.01,304434844, 0.16, -17.66, 122.23, 592.119995117, -35.3633362, 149.165378, 0.477125644684, 0.135094329715, -0.0729178413749, 0.865322828293
2019-04-03 22:34:44.11,304534804, 0.19, -17.65, 122.11, 592.140014648, -35.3633382, 149.1653821, 0.477980166674, 0.135106623173, -0.072778083384, 0.864861011505
2019-04-03 22:34:44.21,304635597, 0.17, -17.64, 122.07, 592.159973145, -35.3633404, 149.1653864, 0.478294581175, 0.134965389967, -0.0729263871908, 0.864696741104
2019-04-03 22:34:44.31,304735557, 0.11, -17.65, 122.1, 592.179992676, -35.3633425, 149.1653906, 0.47813680768, 0.134769260883, -0.0734567567706, 0.864769637585
2019-04-03 22:34:44.41,304835517, 0.0, -17.69, 122.18, 592.200012207, -35.3633447, 149.1653948, 0.477622926235, 0.134614363313, -0.0743098780513, 0.865004837513
2019-04-03 22:34:44.51,304935477, -0.1, -17.73, 122.3, 592.219970703, -35.3633468, 149.1653991, 0.476866304874, 0.134603202343, -0.0752011165023, 0.865346908569
2019-04-03 22:34:44.61,305035437, -0.17, -17.79, 122.42, 592.239990234, -35.363349, 149.1654032, 0.475984722376, 0.134802877903, -0.0758387595415, 0.865745425224
2019-04-03 22:34:44.71,305135397, -0.24, -17.84, 122.54, 592.260009766, -35.3633511, 149.1654075, 0.475144028664, 0.134969621897, -0.0763633847237, 0.866135120392
2019-04-03 22:34:44.81,305235357, -0.3, -17.87, 122.63, 592.280029297, -35.3633534, 149.1654118, 0.47446975112, 0.13503806293, -0.0768876895308, 0.866447627544
2019-04-03 22:34:44.91,305335317, -0.34, -17.89, 122.7, 592.299987793, -35.3633556, 149.1654161, 0.474009215832, 0.135031834245, -0.0772039443254, 0.866672515869
2019-04-03 22:34:45.01,305435277, -0.37, -17.91, 122.73, 592.320007324, -35.3633577, 149.1654204, 0.473777294159, 0.135116562247, -0.0774329304695, 0.866765677929
2019-04-03 22:34:45.11,305535237, -0.38, -17.93, 122.73, 592.340026855, -35.36336, 149.1654249, 0.473774969578, 0.135208755732, -0.0775652602315, 0.866740703583
2019-04-03 22:34:45.21,305635197, -0.37, -17.93, 122.7, 592.359985352, -35.3633622, 149.1654293, 0.473980098963, 0.135218754411, -0.0775718539953, 0.866626441479
2019-04-03 22:34:45.31,305735157, -0.35, -17.93, 122.66, 592.380004883, -35.3633644, 149.1654336, 0.474318921566, 0.135312378407, -0.0775195509195, 0.866431117058
2019-04-03 22:34:45.41,305835117, -0.33, -17.96, 122.59, 592.400024414, -35.3633666, 149.165438, 0.474731951952, 0.135559409857, -0.0774873718619, 0.866169095039
2019-04-03 22:34:45.51,305935077, -0.31, -17.98, 122.53, 592.41998291, -35.3633687, 149.1654424, 0.47519621253, 0.135788053274, -0.0775171965361, 0.865876019001
2019-04-03 22:34:45.61,306035037, -0.29, -18.01, 122.46, 592.440002441, -35.3633711, 149.1654469, 0.475642085075, 0.136067137122, -0.07757306844, 0.865582346916
2019-04-03 22:34:45.71,306134997, -0.28, -18.04, 122.4, 592.460021973, -35.3633733, 149.1654513, 0.476070165634, 0.13623636961, -0.077706694603, 0.865308344364
2019-04-03 22:34:45.81,306234957, -0.26, -18.05, 122.35, 592.479980469, -35.3633754, 149.1654558, 0.476414173841, 0.13633467257, -0.0776581317186, 0.865107893944
2019-04-03 22:34:45.91,306334917, -0.25, -18.06, 122.32, 592.5, -35.3633777, 149.1654601, 0.476654559374, 0.13650496304, -0.0776230022311, 0.864951729774
2019-04-03 22:34:46.01,306434877, -0.23, -18.08, 122.3, 592.520019531, -35.3633801, 149.1654647, 0.476785749197, 0.136694341898, -0.0775674283504, 0.864854514599
2019-04-03 22:34:46.11,306534837, -0.21, -18.09, 122.29, 592.539978027, -35.3633823, 149.1654692, 0.476821869612, 0.136843904853, -0.0774790197611, 0.864818871021
2019-04-03 22:34:46.21,306634797, -0.19, -18.09, 122.29, 592.559997559, -35.3633845, 149.1654737, 0.476782530546, 0.136924386024, -0.0773847177625, 0.864836275578
2019-04-03 22:34:46.31,306735590, -0.19, -18.1, 122.3, 592.58001709, -35.3633869, 149.1654783, 0.476692050695, 0.136970832944, -0.077380657196, 0.864879131317
2019-04-03 22:34:46.41,306835550, -0.2, -18.1, 122.32, 592.599975586, -35.3633891, 149.1654828, 0.476594269276, 0.136956393719, -0.0774200186133, 0.864931821823
2019-04-03 22:34:46.51,306935510, -0.2, -18.1, 122.33, 592.619995117, -35.3633914, 149.1654873, 0.476481795311, 0.136956378818, -0.0773931667209, 0.864996135235
2019-04-03 22:34:46.61,307035470, -0.21, -18.11, 122.35, 592.640014648, -35.3633936, 149.1654919, 0.476370602846, 0.137036055326, -0.07751506567, 0.865033864975
2019-04-03 22:34:46.71,307135430, -0.24, -18.13, 122.36, 592.659973145, -35.363396, 149.1654964, 0.47630289197, 0.137040525675, -0.0777914524078, 0.86504560709
2019-04-03 22:34:46.81,307235390, -0.27, -18.14, 122.37, 592.690002441, -35.3633983, 149.165501, 0.476265519857, 0.136998325586, -0.0780578479171, 0.865048885345
2019-04-03 22:34:46.91,307335350, -0.29, -18.14, 122.37, 592.710021973, -35.3634006, 149.1655056, 0.47624951601, 0.136927008629, -0.0781711265445, 0.865058779716
2019-04-03 22:34:47.01,307435310, -0.29, -18.14, 122.37, 592.729980469, -35.3634028, 149.1655101, 0.476237595081, 0.136930838227, -0.0782101079822, 0.865061223507
2019-04-03 22:34:47.11,307535270, -0.27, -18.16, 122.37, 592.75, -35.3634051, 149.1655147, 0.476214408875, 0.137149706483, -0.0781331658363, 0.865046262741
2019-04-03 22:34:47.21,307635230, -0.25, -18.17, 122.37, 592.770019531, -35.3634075, 149.1655193, 0.476200848818, 0.137370303273, -0.0780448913574, 0.865026712418
2019-04-03 22:34:47.31,307735190, -0.23, -18.18, 122.36, 592.789978027, -35.3634098, 149.1655238, 0.476213753223, 0.137493655086, -0.0779863148928, 0.865005254745
2019-04-03 22:34:47.41,307835150, -0.24, -18.19, 122.36, 592.809997559, -35.3634121, 149.1655285, 0.476280987263, 0.137480288744, -0.0780806466937, 0.864961862564
2019-04-03 22:34:47.51,307935110, -0.26, -18.18, 122.35, 592.83001709, -35.3634143, 149.1655331, 0.476371496916, 0.137391731143, -0.0781955122948, 0.864915728569
2019-04-03 22:34:47.61,308035070, -0.26, -18.19, 122.34, 592.849975586, -35.3634167, 149.1655376, 0.476455897093, 0.137415707111, -0.0782819390297, 0.86485761404
2019-04-03 22:34:47.71,308135030, -0.26, -18.18, 122.33, 592.869995117, -35.363419, 149.1655423, 0.476542413235, 0.137335270643, -0.0781904384494, 0.864830970764
2019-04-03 22:34:47.81,308234990, -0.25, -18.15, 122.31, 592.890014648, -35.3634213, 149.1655468, 0.476628303528, 0.137132436037, -0.0779874175787, 0.864834189415
2019-04-03 22:34:47.91,308334950, -0.24, -18.12, 122.31, 592.91998291, -35.3634236, 149.1655515, 0.476691275835, 0.136980265379, -0.0778179988265, 0.864838838577
2019-04-03 22:34:48.01,308434910, -0.22, -18.11, 122.3, 592.940002441, -35.3634259, 149.1655562, 0.476730287075, 0.136947035789, -0.0776847153902, 0.864834606647
2019-04-03 22:34:48.11,308534870, -0.21, -18.09, 122.3, 592.960021973, -35.3634282, 149.1655607, 0.476752638817, 0.13688826561, -0.0774980708957, 0.864848315716
2019-04-03 22:34:48.21,308634830, -0.19, -18.09, 122.29, 592.979980469, -35.3634306, 149.1655654, 0.476751625538, 0.136909604073, -0.0773373246193, 0.864859879017
2019-04-03 22:34:48.31,308735623, -0.16, -18.08, 122.29, 593.0, -35.3634329, 149.1655701, 0.47672355175, 0.137002170086, -0.0771133825183, 0.864880681038
2019-04-03 22:34:48.41,308835583, -0.14, -18.07, 122.3, 593.020019531, -35.3634353, 149.1655748, 0.476698279381, 0.136984288692, -0.07686560601, 0.864919543266
2019-04-03 22:34:48.51,308935543, -0.12, -18.06, 122.3, 593.039978027, -35.3634376, 149.1655793, 0.47665476799, 0.13698540628, -0.0766538232565, 0.864962100983
2019-04-03 22:34:48.61,309035503, -0.1, -18.07, 122.3, 593.059997559, -35.3634398, 149.1655841, 0.476601600647, 0.137137413025, -0.0765734091401, 0.864974439144
2019-04-03 22:34:48.71,309135463, -0.1, -18.11, 122.31, 593.08001709, -35.3634422, 149.1655887, 0.476537406445, 0.137454792857, -0.076746083796, 0.86494410038
2019-04-03 22:34:48.81,309235423, -0.11, -18.15, 122.31, 593.099975586, -35.3634446, 149.1655934, 0.476474940777, 0.137734293938, -0.0769487470388, 0.864916026592
2019-04-03 22:34:48.91,309335383, -0.14, -18.15, 122.32, 593.119995117, -35.3634469, 149.165598, 0.476476371288, 0.137594386935, -0.077190130949, 0.864916026592
2019-04-03 22:34:49.01,309435343, -0.19, -18.15, 122.32, 593.140014648, -35.3634492, 149.1656027, 0.476507395506, 0.137375324965, -0.0775465294719, 0.864901900291
2019-04-03 22:34:49.11,309535303, -0.22, -18.15, 122.32, 593.16998291, -35.3634516, 149.1656073, 0.476524949074, 0.137296929955, -0.0778210386634, 0.864880025387
2019-04-03 22:34:49.21,309635263, -0.24, -18.16, 122.32, 593.190002441, -35.3634538, 149.1656119, 0.476538300514, 0.137262433767, -0.0779783949256, 0.864863932133
2019-04-03 22:34:49.31,309735223, -0.24, -18.16, 122.32, 593.210021973, -35.3634562, 149.1656166, 0.476544141769, 0.137252792716, -0.0780100002885, 0.86485940218
2019-04-03 22:34:49.41,309835183, -0.21, -18.15, 122.32, 593.229980469, -35.3634586, 149.1656213, 0.476522058249, 0.137341916561, -0.0777193158865, 0.864883601665
2019-04-03 22:34:49.51,309935143, -0.16, -18.15, 122.32, 593.25, -35.3634609, 149.1656258, 0.476487547159, 0.137542828918, -0.0773576572537, 0.864903151989
2019-04-03 22:34:49.61,310035103, -0.15, -18.17, 122.31, 593.270019531, -35.3634633, 149.1656305, 0.476503968239, 0.137686133385, -0.0773159638047, 0.864874958992
2019-04-03 22:34:49.71,310135063, -0.16, -18.18, 122.31, 593.289978027, -35.3634656, 149.1656352, 0.476548045874, 0.137757763267, -0.0775208100677, 0.864820957184
2019-04-03 22:34:49.81,310235023, -0.18, -18.18, 122.3, 593.309997559, -35.3634678, 149.1656399, 0.476611346006, 0.137668356299, -0.0776708647609, 0.864786922932
2019-04-03 22:34:49.91,310334983, -0.17, -18.17, 122.3, 593.33001709, -35.3634702, 149.1656444, 0.476653516293, 0.137646064162, -0.0775508210063, 0.86477792263
2019-04-03 22:34:50.01,310434943, -0.15, -18.18, 122.29, 593.349975586, -35.3634726, 149.1656492, 0.476675391197, 0.137761428952, -0.0774686113, 0.864754855633
2019-04-03 22:34:50.11,310534903, -0.14, -18.19, 122.29, 593.369995117, -35.363475, 149.1656539, 0.476696848869, 0.137848839164, -0.0773998647928, 0.864735245705
2019-04-03 22:34:50.21,310634863, -0.13, -18.18, 122.28, 593.390014648, -35.3634773, 149.1656585, 0.476722508669, 0.137819051743, -0.0773002952337, 0.864734768867
2019-04-03 22:34:50.31,310734823, -0.12, -18.16, 122.28, 593.409973145, -35.3634797, 149.1656631, 0.476741075516, 0.13776782155, -0.0771361589432, 0.864747345448
2019-04-03 22:34:50.41,310835616, -0.12, -18.15, 122.28, 593.440002441, -35.363482, 149.1656679, 0.476763993502, 0.137650161982, -0.0770411789417, 0.864761948586
2019-04-03 22:34:50.51,310935576, -0.13, -18.12, 122.28, 593.460021973, -35.3634844, 149.1656726, 0.476801365614, 0.137411475182, -0.0770567134023, 0.86477792263
2019-04-03 22:34:50.61,311035536, -0.15, -18.09, 122.28, 593.479980469, -35.3634866, 149.1656772, 0.476842015982, 0.137131333351, -0.0770624950528, 0.864799439907
2019-04-03 22:34:50.71,311135496, -0.15, -18.08, 122.27, 593.5, -35.363489, 149.1656818, 0.476867884398, 0.136994495988, -0.077073328197, 0.864805877209
2019-04-03 22:34:50.81,311235456, -0.14, -18.11, 122.27, 593.520019531, -35.3634914, 149.1656865, 0.476852238178, 0.137271687388, -0.0771197080612, 0.864766418934
2019-04-03 22:34:50.91,311335416, -0.13, -18.16, 122.27, 593.539978027, -35.3634938, 149.1656912, 0.47682929039, 0.137718856335, -0.0772205367684, 0.864699006081
2019-04-03 22:34:51.01,311435376, -0.12, -18.21, 122.26, 593.559997559, -35.3634961, 149.1656959, 0.476818174124, 0.138114675879, -0.0773402750492, 0.864631295204
2019-04-03 22:34:51.11,311535336, -0.09, -18.24, 122.26, 593.58001709, -35.3634985, 149.1657005, 0.476797968149, 0.138447761536, -0.0772506222129, 0.864597201347
2019-04-03 22:34:51.21,311635296, -0.07, -18.22, 122.25, 593.599975586, -35.3635009, 149.1657052, 0.476829588413, 0.138381332159, -0.0770611315966, 0.864607274532
2019-04-03 22:34:51.31,311735256, -0.07, -18.17, 122.25, 593.619995117, -35.3635031, 149.1657099, 0.47691103816, 0.137992560863, -0.0768273994327, 0.864645302296
2019-04-03 22:34:51.41,311835216, -0.07, -18.13, 122.24, 593.640014648, -35.3635055, 149.1657145, 0.476980090141, 0.137697264552, -0.076673977077, 0.864667892456
2019-04-03 22:34:51.51,311935176, -0.07, -18.13, 122.24, 593.659973145, -35.3635079, 149.1657191, 0.477012097836, 0.137657523155, -0.0766588971019, 0.864657878876
2019-04-03 22:34:51.61,312035136, -0.06, -18.15, 122.23, 593.679992676, -35.3635103, 149.1657239, 0.477011620998, 0.137853935361, -0.0766729041934, 0.864625632763
2019-04-03 22:34:51.71,312135096, -0.03, -18.17, 122.23, 593.700012207, -35.3635127, 149.1657285, 0.476995140314, 0.138146132231, -0.0765956565738, 0.864594936371
2019-04-03 22:34:51.81,312235056, -0.01, -18.2, 122.23, 593.719970703, -35.363515, 149.1657332, 0.47698917985, 0.138416290283, -0.0765211209655, 0.864561617374
2019-04-03 22:34:51.91,312335016, -0.02, -18.2, 122.22, 593.739990234, -35.3635174, 149.1657378, 0.477027833462, 0.138418659568, -0.0766212120652, 0.864531040192
2019-04-03 22:34:52.01,312434976, -0.04, -18.21, 122.22, 593.760009766, -35.3635197, 149.1657425, 0.477081537247, 0.138354837894, -0.0768254697323, 0.864493489265
2019-04-03 22:34:52.11,312534936, -0.07, -18.21, 122.21, 593.780029297, -35.3635221, 149.1657472, 0.477144539356, 0.138235673308, -0.0770356878638, 0.864459097385
2019-04-03 22:34:52.21,312634896, -0.1, -18.2, 122.21, 593.799987793, -35.3635244, 149.1657517, 0.477211862803, 0.138092696667, -0.0772086158395, 0.864429354668
2019-04-03 22:34:52.31,312734856, -0.11, -18.2, 122.2, 593.820007324, -35.3635267, 149.1657564, 0.477267414331, 0.1380032897, -0.0772787705064, 0.864406645298
2019-04-03 22:34:52.41,312834816, -0.09, -18.19, 122.19, 593.840026855, -35.3635291, 149.1657612, 0.477317899466, 0.13801650703, -0.0771083310246, 0.864391922951
2019-04-03 22:34:52.51,312935609, -0.05, -18.17, 122.18, 593.859985352, -35.3635316, 149.1657659, 0.477369606495, 0.138063654304, -0.0767771229148, 0.864385306835
2019-04-03 22:34:52.61,313035569, -0.01, -18.16, 122.17, 593.880004883, -35.363534, 149.1657704, 0.477425634861, 0.138152092695, -0.0764294117689, 0.864371061325
2019-04-03 22:34:52.71,313135529, 0.01, -18.15, 122.16, 593.900024414, -35.3635363, 149.1657751, 0.477504640818, 0.138185545802, -0.0761984661222, 0.864342451096
2019-04-03 22:34:52.81,313235489, 0.02, -18.14, 122.14, 593.929992676, -35.3635387, 149.1657799, 0.477612674236, 0.138137921691, -0.0761291384697, 0.864296495914
2019-04-03 22:34:52.91,313335449, 0.01, -18.14, 122.13, 593.950012207, -35.3635411, 149.1657845, 0.477727651596, 0.13806386292, -0.0761760249734, 0.864240646362
2019-04-03 22:34:53.01,313435409, 0.0, -18.14, 122.11, 593.969970703, -35.3635434, 149.1657892, 0.477850228548, 0.137987852097, -0.0763504579663, 0.86416965723
2019-04-03 22:34:53.11,313535369, -0.01, -18.15, 122.1, 593.989990234, -35.3635458, 149.1657938, 0.477942019701, 0.137995645404, -0.0764713212848, 0.864106953144
2019-04-03 22:34:53.21,313635329, -0.02, -18.16, 122.09, 594.010009766, -35.3635481, 149.1657985, 0.478018790483, 0.138053461909, -0.0766000002623, 0.864043831825
2019-04-03 22:34:53.31,313735289, -0.02, -18.15, 122.08, 594.030029297, -35.3635505, 149.1658032, 0.478085070848, 0.137993171811, -0.0765634179115, 0.864020049572
2019-04-03 22:34:53.41,313835249, -0.01, -18.15, 122.08, 594.049987793, -35.3635528, 149.1658077, 0.478138953447, 0.13799315691, -0.0764983445406, 0.863995969296
2019-04-03 22:34:53.51,313935209, 0.01, -18.15, 122.07, 594.070007324, -35.3635553, 149.1658124, 0.478168278933, 0.138074576855, -0.0763051733375, 0.863983809948
