Start,TimeUS,Roll,Pitch,Yaw,Alt,Lat,Lng,Q1,Q2,Q3,Q4
2019-04-03 20:11:41.30,111716129, 0.0, 0.0, 353.0, 584.090026855, -35.363261, 149.1652299, 0.998134791851, 0.0, 0.0, -0.0610485821962
2019-04-03 20:11:41.40,111816089, 0.0, 0.0, 353.0, 584.090026855, -35.363261, 149.1652299, 0.998134791851, 0.0, 0.0, -0.0610485821962
2019-04-03 20:11:41.49,111916049, 0.0, 0.0, 353.0, 584.090026855, -35.363261, 149.1652299, 0.998134791851, 0.0, 0.0, -0.0610485821962
2019-04-03 20:11:41.59,112016009, 0.0, 0.0, 353.0, 584.090026855, -35.363261, 149.1652299, 0.998134791851, 0.0, 0.0, -0.0610485821962
2019-04-03 20:11:41.69,112115969, 0.0, 0.0, 353.0, 584.090026855, -35.363261, 149.1652299, 0.998134791851, 0.0, 0.0, -0.0610485821962
2019-04-03 20:11:41.79,112215929, 0.0, 0.0, 353.0, 584.090026855, -35.363261, 149.1652299, 0.998134791851, 0.0, 0.0, -0.0610485821962
2019-04-03 20:11:41.89,112315889, 0.0, 0.0, 353.0, 584.090026855, -35.363261, 149.1652299, 0.998134791851, 0.0, 0.0, -0.0610485821962
2019-04-03 20:11:41.99,112415849, 0.0, 0.0, 353.0, 584.090026855, -35.363261, 149.1652299, 0.998134791851, 0.0, 0.0, -0.0610485821962
2019-04-03 20:11:42.09,112515809, 0.0, 0.0, 353.0, 584.090026855, -35.363261, 149.1652299, 0.998134791851, 0.0, 0.0, -0.0610485821962
2019-04-03 20:11:42.19,112615769, 0.0, 0.0, 353.0, 584.090026855, -35.363261, 149.1652299, 0.998134791851, 0.0, 0.0, -0.0610485821962
2019-04-03 20:11:42.29,112715729, 0.0, 0.0, 353.0, 584.090026855, -35.363261, 149.1652299, 0.998134791851, 0.0, 0.0, -0.0610485821962
2019-04-03 20:11:42.39,112815689, 0.0, 0.0, 353.0, 584.090026855, -35.363261, 149.1652299, 0.998134791851, 0.0, 0.0, -0.0610485821962
2019-04-03 20:11:42.50,112916482, 0.0, 0.0, 353.0, 584.090026855, -35.363261, 149.1652299, 0.998134791851, 0.0, 0.0, -0.0610485821962
2019-04-03 20:11:42.60,113016442, 0.0, 0.0, 353.0, 584.090026855, -35.363261, 149.1652299, 0.998134791851, 0.0, 0.0, -0.0610485821962
2019-04-03 20:11:42.70,113116402, 0.0, 0.0, 353.0, 584.090026855, -35.363261, 149.1652299, 0.998134791851, 0.0, 0.0, -0.0610485821962
2019-04-03 20:11:42.80,113216362, 0.0, 0.0, 353.0, 584.090026855, -35.363261, 149.1652299, 0.998134791851, 0.0, 0.0, -0.0610485821962
2019-04-03 20:11:42.90,113316322, 0.0, 0.0, 353.0, 584.090026855, -35.363261, 149.1652299, 0.998134791851, 0.0, 0.0, -0.0610485821962
2019-04-03 20:11:43.00,113416282, 0.0, 0.0, 353.0, 584.090026855, -35.363261, 149.1652299, 0.998134791851, 0.0, 0.0, -0.0610485821962
2019-04-03 20:11:43.10,113516242, 0.0, 0.0, 353.0, 584.090026855, -35.363261, 149.1652299, 0.998134791851, 0.0, 0.0, -0.0610485821962
2019-04-03 20:11:43.20,113616202, 0.0, 0.0, 353.0, 584.090026855, -35.363261, 149.1652299, 0.998134791851, 0.0, 0.0, -0.0610485821962
2019-04-03 20:11:43.30,113716162, 0.0, 0.0, 353.0, 584.090026855, -35.363261, 149.1652299, 0.998134791851, 0.0, 0.0, -0.0610485821962
2019-04-03 20:11:43.40,113816122, 0.0, 0.0, 353.0, 584.090026855, -35.363261, 149.1652299, 0.998134791851, 0.0, 0.0, -0.0610485821962
2019-04-03 20:11:43.49,113916082, 0.0, 0.0, 353.0, 584.090026855, -35.363261, 149.1652299, 0.998134791851, 0.0, 0.0, -0.0610485821962
2019-04-03 20:11:43.59,114016042, 0.0, 0.0, 353.0, 584.090026855, -35.363261, 149.1652299, 0.998134791851, 0.0, 0.0, -0.0610485821962
2019-04-03 20:11:43.69,114116002, 0.0, 0.0, 353.0, 584.090026855, -35.363261, 149.1652299, 0.998134791851, 0.0, 0.0, -0.0610485821962
2019-04-03 20:11:43.79,114215962, 0.0, 0.0, 353.0, 584.090026855, -35.363261, 149.1652299, 0.998134791851, 0.0, 0.0, -0.0610485821962
2019-04-03 20:11:43.89,114315922, 0.0, 0.0, 353.0, 584.090026855, -35.363261, 149.1652299, 0.998134791851, 0.0, 0.0, -0.0610485821962
2019-04-03 20:11:43.99,114415882, 0.0, 0.0, 353.0, 584.090026855, -35.363261, 149.1652299, 0.998134791851, 0.0, 0.0, -0.0610485821962
2019-04-03 20:11:44.09,114515842, 0.0, 0.0, 353.0, 584.090026855, -35.363261, 149.1652299, 0.998134791851, 0.0, 0.0, -0.0610485821962
2019-04-03 20:11:44.19,114615802, 0.0, 0.0, 353.0, 584.090026855, -35.363261, 149.1652299, 0.998134791851, 0.0, 0.0, -0.0610485821962
2019-04-03 20:11:44.29,114715762, 0.0, 0.0, 353.0, 584.090026855, -35.363261, 149.1652299, 0.998134791851, 0.0, 0.0, -0.0610485821962
2019-04-03 20:11:44.39,114815722, 0.0, 0.0, 353.0, 584.090026855, -35.363261, 149.1652299, 0.998134791851, 0.0, 0.0, -0.0610485821962
2019-04-03 20:11:44.49,114915682, 0.0, 0.0, 353.0, 584.090026855, -35.363261, 149.1652299, 0.998134791851, 0.0, 0.0, -0.0610485821962
2019-04-03 20:11:44.60,115016475, 0.0, 0.0, 353.0, 584.090026855, -35.363261, 149.1652299, 0.998134791851, 0.0, 0.0, -0.0610485821962
2019-04-03 20:11:44.70,115116435, 0.0, 0.0, 353.0, 584.090026855, -35.363261, 149.1652299, 0.998134791851, 0.0, 0.0, -0.0610485821962
2019-04-03 20:11:44.80,115216395, 0.0, 0.0, 353.0, 584.090026855, -35.363261, 149.1652299, 0.998134791851, 0.0, 0.0, -0.0610485821962
2019-04-03 20:11:44.90,115316355, 0.0, 0.0, 353.0, 584.090026855, -35.363261, 149.1652299, 0.998134791851, 0.0, 0.0, -0.0610485821962
2019-04-03 20:11:45.00,115416315, 0.0, 0.0, 353.0, 584.090026855, -35.363261, 149.1652299, 0.998134791851, 0.0, 0.0, -0.0610485821962
2019-04-03 20:11:45.10,115516275, 0.0, 0.0, 353.0, 584.090026855, -35.363261, 149.1652299, 0.998134791851, 0.0, 0.0, -0.0610485821962
2019-04-03 20:11:45.20,115616235, 0.0, 0.0, 353.0, 584.090026855, -35.363261, 149.1652299, 0.998134791851, 0.0, 0.0, -0.0610485821962
2019-04-03 20:11:45.30,115716195, 0.0, 0.0, 353.0, 584.090026855, -35.363261, 149.1652299, 0.998134791851, 0.0, 0.0, -0.0610485821962
2019-04-03 20:11:45.40,115816155, 0.0, 0.0, 353.0, 584.090026855, -35.363261, 149.1652299, 0.998134791851, 0.0, 0.0, -0.0610485821962
2019-04-03 20:11:45.50,115916115, 0.0, 0.0, 353.0, 584.090026855, -35.363261, 149.1652299, 0.998134791851, 0.0, 0.0, -0.0610485821962
2019-04-03 20:11:45.59,116016075, 0.0, 0.0, 353.0, 584.090026855, -35.363261, 149.1652299, 0.998134791851, 0.0, 0.0, -0.0610485821962
2019-04-03 20:11:45.69,116116035, 0.0, 0.0, 353.0, 584.090026855, -35.363261, 149.1652299, 0.998134791851, 0.0, 0.0, -0.0610485821962
2019-04-03 20:11:45.79,116215995, 0.0, 0.0, 353.0, 584.090026855, -35.363261, 149.1652299, 0.998134791851, 0.0, 0.0, -0.0610485821962
2019-04-03 20:11:45.89,116315955, 0.0, 0.0, 353.0, 584.090026855, -35.363261, 149.1652299, 0.998134791851, 0.0, 0.0, -0.0610485821962
2019-04-03 20:11:45.99,116415915, 0.0, 0.0, 353.0, 584.090026855, -35.363261, 149.1652299, 0.998134791851, 0.0, 0.0, -0.0610485821962
2019-04-03 20:11:46.09,116515875, 0.0, 0.0, 353.0, 584.090026855, -35.363261, 149.1652299, 0.998134791851, 0.0, 0.0, -0.0610485821962
2019-04-03 20:11:46.19,116615835, 0.0, 0.0, 353.0, 584.090026855, -35.363261, 149.1652299, 0.998134791851, 0.0, 0.0, -0.0610485821962
2019-04-03 20:11:46.29,116715795, 0.0, 0.0, 353.0, 584.090026855, -35.363261, 149.1652299, 0.998134791851, 0.0, 0.0, -0.0610485821962
2019-04-03 20:11:46.39,116815755, 0.0, 0.0, 353.0, 584.090026855, -35.363261, 149.1652299, 0.998134791851, 0.0, 0.0, -0.0610485821962
2019-04-03 20:11:46.49,116915715, 0.0, 0.0, 353.0, 584.090026855, -35.363261, 149.1652299, 0.998134791851, 0.0, 0.0, -0.0610485821962
2019-04-03 20:11:46.59,117015675, 0.0, 0.0, 353.0, 584.090026855, -35.363261, 149.1652299, 0.998134791851, 0.0, 0.0, -0.0610485821962
2019-04-03 20:11:46.70,117116468, 0.0, 0.0, 353.0, 584.090026855, -35.363261, 149.1652299, 0.998134791851, 0.0, 0.0, -0.0610486157238
2019-04-03 20:11:46.80,117216428, 0.0, 0.0, 353.0, 584.090026855, -35.363261, 149.1652299, 0.998134791851, 0.0, 0.0, -0.0610486753285
2019-04-03 20:11:46.90,117316388, 0.0, 0.0, 353.0, 584.090026855, -35.363261, 149.1652299, 0.998134791851, 0.0, 0.0, -0.0610486753285
2019-04-03 20:11:47.00,117416348, 0.0, 0.0, 353.0, 584.090026855, -35.363261, 149.1652299, 0.998134791851, 0.0, 0.0, -0.0610486753285
2019-04-03 20:11:47.10,117516308, 0.0, 0.0, 353.0, 584.090026855, -35.363261, 149.1652299, 0.998134791851, 0.0, 0.0, -0.0610486753285
2019-04-03 20:11:47.20,117616268, 0.0, 0.0, 353.0, 584.090026855, -35.363261, 149.1652299, 0.998134791851, 0.0, 0.0, -0.0610486753285
2019-04-03 20:11:47.30,117716228, 0.0, 0.0, 353.0, 584.090026855, -35.363261, 149.1652299, 0.998134791851, 0.0, 0.0, -0.0610486753285
2019-04-03 20:11:47.40,117816188, 0.0, 0.0, 353.0, 584.090026855, -35.363261, 149.1652299, 0.998134791851, 0.0, 0.0, -0.0610486753285
2019-04-03 20:11:47.50,117916148, 0.0, 0.0, 353.0, 584.099975586, -35.363261, 149.1652299, 0.998134791851, 0.0, 0.0, -0.0610486753285
2019-04-03 20:11:47.60,118016108, 0.0, 0.0, 353.0, 584.099975586, -35.363261, 149.1652299, 0.998134791851, 0.0, 0.0, -0.0610486641526
2019-04-03 20:11:47.69,118116068, 0.0, 0.0, 353.0, 584.109985352, -35.363261, 149.1652299, 0.998134791851, 0.0, 0.0, -0.0610486753285
2019-04-03 20:11:47.79,118216028, 0.0, 0.0, 353.0, 584.119995117, -35.363261, 149.1652299, 0.998134791851, 0.0, 0.0, -0.0610486753285
2019-04-03 20:11:47.89,118315988, 0.0, 0.0, 353.0, 584.150024414, -35.363261, 149.1652299, 0.998134791851, 0.0, 0.0, -0.0610486753285
2019-04-03 20:11:47.99,118415948, 0.0, 0.0, 353.0, 584.179992676, -35.363261, 149.1652299, 0.998134791851, 0.0, 0.0, -0.0610486753285
2019-04-03 20:11:48.09,118515908, 0.0, 0.0, 352.99, 584.219970703, -35.363261, 149.1652299, 0.998134732246, -2.28959252127e-05, -3.16113073495e-05, -0.061049554497
2019-04-03 20:11:48.19,118615868, -0.03, -0.07, 352.99, 584.289978027, -35.363261, 149.1652299, 0.998133718967, -0.000385856314097, -0.000667803513352, -0.0610611736774
2019-04-03 20:11:48.29,118715828, -0.1, -0.2, 352.99, 584.409973145, -35.363261, 149.1652299, 0.998130440712, -0.00103171309456, -0.00171010417398, -0.06108732149
2019-04-03 20:11:48.39,118815788, -0.16, -0.32, 352.99, 584.559997559, -35.363261, 149.1652299, 0.998124659061, -0.00165148009546, -0.0027402699925, -0.0611300133169
2019-04-03 20:11:48.49,118915748, -0.21, -0.36, 352.98, 584.719970703, -35.363261, 149.1652299, 0.998119652271, -0.00202887947671, -0.00308637949638, -0.0611841864884
2019-04-03 20:11:48.59,119015708, -0.22, -0.33, 352.97, 584.869995117, -35.363261, 149.1652299, 0.998117029667, -0.00209695775993, -0.00277244113386, -0.0612397864461
2019-04-03 20:11:48.69,119115668, -0.19, -0.23, 352.97, 585.020019531, -35.363261, 149.1652299, 0.998116254807, -0.00178854854312, -0.00190924620256, -0.0612957365811
2019-04-03 20:11:48.80,119216461, -0.13, -0.1, 352.96, 585.179992676, -35.363261, 149.1652299, 0.998115718365, -0.00123369635548, -0.000875417841598, -0.0613409839571
2019-04-03 20:11:48.90,119316421, -0.08, -0.01, 352.96, 585.340026855, -35.363261, 149.1652299, 0.998114645481, -0.00073852512287, -4.70341401524e-05, -0.0613726824522
2019-04-03 20:11:49.00,119416381, -0.05, 0.04, 352.96, 585.510009766, -35.363261, 149.1652299, 0.998113453388, -0.000486177188577, 0.000420662428951, -0.061393044889
2019-04-03 20:11:49.10,119516341, -0.06, 0.06, 352.95, 585.679992676, -35.3632609, 149.1652299, 0.998112797737, -0.000528421020135, 0.000634172756691, -0.061402041465
2019-04-03 20:11:49.20,119616301, -0.09, 0.05, 352.95, 585.859985352, -35.3632609, 149.1652299, 0.998112678528, -0.000786588003393, 0.000549704185687, -0.0614019706845
2019-04-03 20:11:49.30,119716261, -0.09, 0.02, 352.96, 586.039978027, -35.3632609, 149.1652298, 0.998113632202, -0.000806947879028, 0.000307859503664, -0.0613881312311
2019-04-03 20:11:49.40,119816221, -0.08, 0.0, 352.96, 586.229980469, -35.3632609, 149.1652298, 0.998115062714, -0.000761228322517, -4.92789240525e-06, -0.0613660104573
2019-04-03 20:11:49.50,119916181, -0.06, 0.0, 352.96, 586.41998291, -35.3632609, 149.1652298, 0.998116075993, -0.000560329004657, -5.08116972924e-05, -0.0613514073193
2019-04-03 20:11:49.60,120016141, -0.04, 0.0, 352.96, 586.609985352, -35.3632609, 149.1652298, 0.998116493225, -0.000368734035874, 3.78982331313e-05, -0.0613459758461
2019-04-03 20:11:49.70,120116101, -0.02, 0.01, 352.96, 586.809997559, -35.3632609, 149.1652298, 0.998116910458, -0.000193396524992, 0.000159278191859, -0.0613400414586
2019-04-03 20:11:49.79,120216061, 0.0, 0.02, 352.96, 587.010009766, -35.3632609, 149.1652298, 0.998116850853, -1.94766216737e-05, 0.000227911528782, -0.0613410249352
2019-04-03 20:11:49.89,120316021, 0.0, 0.03, 352.96, 587.210021973, -35.3632608, 149.1652298, 0.998115837574, -1.40872123211e-06, 0.000302053318592, -0.0613572485745
2019-04-03 20:11:49.99,120415981, -0.02, 0.02, 352.96, 587.409973145, -35.3632608, 149.1652298, 0.998114705086, -0.000201713977731, 0.000214742161916, -0.0613753460348
2019-04-03 20:11:50.09,120515941, -0.05, 0.01, 352.96, 587.619995117, -35.3632608, 149.1652298, 0.998113572598, -0.000481706141727, 0.000180847593583, -0.0613932237029
2019-04-03 20:11:50.19,120615901, -0.06, 0.0, 352.95, 587.83001709, -35.3632608, 149.1652298, 0.998112738132, -0.00054920319235, 4.20180876972e-05, -0.0614056475461
2019-04-03 20:11:50.29,120715861, -0.05, -0.01, 352.95, 588.030029297, -35.3632608, 149.1652298, 0.998111903667, -0.000481236842461, -6.42875238555e-05, -0.061420083046
2019-04-03 20:11:50.39,120815821, -0.03, -0.01, 352.95, 588.239990234, -35.3632608, 149.1652298, 0.998111367226, -0.000312782911351, -7.53498607082e-05, -0.061429861933
2019-04-03 20:11:50.49,120915781, -0.02, -0.01, 352.95, 588.460021973, -35.3632608, 149.1652298, 0.998110234737, -0.000218492437853, -9.74883150775e-05, -0.0614490285516
2019-04-03 20:11:50.59,121015741, -0.04, -0.02, 352.94, 588.66998291, -35.3632608, 149.1652297, 0.998107731342, -0.000366325606592, -0.000184881719179, -0.0614877715707
2019-04-03 20:11:50.69,121115701, -0.05, -0.05, 352.94, 588.880004883, -35.3632608, 149.1652297, 0.998104631901, -0.000549344928004, -0.00044981110841, -0.0615356229246
2019-04-03 20:11:50.79,121215661, -0.08, -0.07, 352.93, 589.099975586, -35.3632608, 149.1652297, 0.998101294041, -0.000753421976697, -0.000637283490505, -0.0615861155093
2019-04-03 20:11:50.90,121316454, -0.11, -0.08, 352.93, 589.309997559, -35.3632608, 149.1652297, 0.998098194599, -0.0010732387891, -0.000695632304996, -0.0616306327283
2019-04-03 20:11:51.00,121416414, -0.15, -0.1, 352.92, 589.530029297, -35.3632608, 149.1652297, 0.998095035553, -0.00140258006286, -0.000794131075963, -0.0616751462221
2019-04-03 20:11:51.10,121516374, -0.16, -0.09, 352.92, 589.729980469, -35.3632608, 149.1652297, 0.998092293739, -0.00148486718535, -0.000778810528573, -0.0617172755301
2019-04-03 20:11:51.20,121616334, -0.13, -0.08, 352.91, 589.929992676, -35.3632608, 149.1652296, 0.998090267181, -0.0012473835377, -0.000639958016109, -0.0617564693093
2019-04-03 20:11:51.30,121716294, -0.09, -0.05, 352.91, 590.109985352, -35.3632607, 149.1652296, 0.998088240623, -0.000869888055604, -0.000420009746449, -0.0617973469198
2019-04-03 20:11:51.40,121816254, -0.07, -0.05, 352.9, 590.289978027, -35.3632607, 149.1652296, 0.998085737228, -0.000724706740584, -0.000416457653046, -0.0618396066129
2019-04-03 20:11:51.50,121916214, -0.08, 0.0, 352.9, 590.450012207, -35.3632607, 149.1652296, 0.998083412647, -0.000776515051257, -3.0147139114e-06, -0.0618779882789
2019-04-03 20:11:51.60,122016174, -0.16, 0.31, 352.89, 590.599975586, -35.3632607, 149.1652294, 0.998076319695, -0.00124118081294, 0.00286794011481, -0.0619183704257
2019-04-03 20:11:51.70,122116134, -0.33, 1.03, 352.89, 590.739990234, -35.3632607, 149.1652294, 0.998033821583, -0.00232529686764, 0.00916208792478, -0.0619611181319
2019-04-03 20:11:51.80,122216094, -0.57, 2.02, 352.88, 590.869995117, -35.3632607, 149.1652294, 0.997908115387, -0.00391657976434, 0.0179108083248, -0.0619941055775
2019-04-03 20:11:51.89,122316054, -0.83, 3.17, 352.86, 590.979980469, -35.3632608, 149.1652293, 0.99766433239, -0.00554484780878, 0.0280981361866, -0.0620133467019
2019-04-03 20:11:51.99,122416014, -1.07, 4.35, 352.84, 591.090026855, -35.3632608, 149.1652293, 0.997307777405, -0.0069760424085, 0.0385169163346, -0.0620081871748
2019-04-03 20:11:52.09,122515974, -1.26, 5.4, 352.82, 591.179992676, -35.363261, 149.1652293, 0.996902346611, -0.00804097577929, 0.0477584972978, -0.0619702078402
2019-04-03 20:11:52.19,122615934, -1.42, 6.22, 352.81, 591.260009766, -35.363261, 149.1652293, 0.996529817581, -0.00898803584278, 0.054932191968, -0.0618873275816
2019-04-03 20:11:52.29,122715894, -1.56, 6.81, 352.81, 591.340026855, -35.3632614, 149.1652292, 0.996227324009, -0.00991012714803, 0.060143597424, -0.0617719590664
2019-04-03 20:11:52.39,122815854, -1.69, 7.25, 352.81, 591.400024414, -35.3632617, 149.1652292, 0.995982706547, -0.0107763586566, 0.0640578493476, -0.0616357959807
2019-04-03 20:11:52.49,122915814, -1.79, 7.61, 352.81, 591.460021973, -35.3632622, 149.1652291, 0.99577331543, -0.0113929659128, 0.067251034081, -0.0615060478449
2019-04-03 20:11:52.59,123015774, -1.86, 7.9, 352.81, 591.510009766, -35.3632628, 149.1652289, 0.995600044727, -0.0119217652828, 0.0697897672653, -0.0613831579685
2019-04-03 20:11:52.69,123115734, -1.91, 8.11, 352.81, 591.559997559, -35.3632634, 149.1652289, 0.995472371578, -0.0121918981895, 0.0716208070517, -0.0612905323505
2019-04-03 20:11:52.79,123215694, -1.93, 8.25, 352.82, 591.609985352, -35.363264, 149.1652288, 0.995383858681, -0.0123158870265, 0.0728746280074, -0.0612262040377
2019-04-03 20:11:52.90,123316487, -1.94, 8.37, 352.82, 591.650024414, -35.3632649, 149.1652286, 0.995307028294, -0.0123386960477, 0.0739437639713, -0.0611881017685
2019-04-03 20:11:53.00,123416447, -1.94, 8.49, 352.81, 591.690002441, -35.3632658, 149.1652284, 0.995232582092, -0.0122876884416, 0.0749453082681, -0.0611906759441
2019-04-03 20:11:53.10,123516407, -1.87, 8.67, 352.78, 591.729980469, -35.3632666, 149.1652284, 0.995101690292, -0.0115367313847, 0.0765159353614, -0.0615216270089
2019-04-03 20:11:53.20,123616367, -1.58, 8.99, 352.37, 591.770019531, -35.3632677, 149.1652282, 0.994689464569, -0.00852473918349, 0.0791762620211, -0.0652022063732
2019-04-03 20:11:53.30,123716327, -1.15, 9.45, 350.9, 591.799987793, -35.3632688, 149.1652281, 0.993473827839, -0.00351633061655, 0.0829567611217, -0.0782021358609
2019-04-03 20:11:53.40,123816287, -1.08, 9.94, 347.81, 591.840026855, -35.36327, 149.1652279, 0.990647017956, -0.000135353126097, 0.0872226059437, -0.104931697249
2019-04-03 20:11:53.50,123916247, -1.63, 10.33, 343.06, 591.869995117, -35.3632713, 149.1652279, 0.985165774822, -0.000773850828409, 0.0911265015602, -0.145408883691
2019-04-03 20:11:53.60,124016207, -2.84, 10.4, 336.87, 591.909973145, -35.3632726, 149.1652278, 0.975822865963, -0.00606424873695, 0.0937901809812, -0.197323203087
2019-04-03 20:11:53.70,124116167, -4.6, 10.06, 329.59, 591.940002441, -35.3632739, 149.1652278, 0.961437284946, -0.0155884446576, 0.0950918272138, -0.257590591908
2019-04-03 20:11:53.80,124216127, -6.64, 9.22, 321.57, 591.979980469, -35.3632755, 149.1652278, 0.941200256348, -0.0280978996307, 0.0948253199458, -0.323049098253
2019-04-03 20:11:53.89,124316087, -8.7, 7.89, 313.14, 592.020019531, -35.3632771, 149.1652278, 0.914822816849, -0.042154610157, 0.0930653661489, -0.390718698502
2019-04-03 20:11:53.99,124416047, -10.53, 6.14, 304.59, 592.059997559, -35.3632786, 149.1652277, 0.882650434971, -0.0563888140023, 0.0898912921548, -0.457895249128
2019-04-03 20:11:54.09,124516007, -11.99, 4.15, 296.17, 592.109985352, -35.3632805, 149.1652277, 0.84565192461, -0.0695570111275, 0.0857535451651, -0.522188663483
2019-04-03 20:11:54.19,124615967, -12.98, 2.06, 288.08, 592.150024414, -35.3632823, 149.1652277, 0.805333614349, -0.080993309617, 0.0808818042278, -0.581666588783
2019-04-03 20:11:54.29,124715927, -13.54, 0.03, 280.46, 592.200012207, -35.3632841, 149.1652275, 0.763308107853, -0.0904422849417, 0.0756330341101, -0.635185480118
2019-04-03 20:11:54.39,124815887, -13.73, -1.83, 273.36, 592.25, -35.3632863, 149.1652274, 0.720967590809, -0.0978557392955, 0.0704521089792, -0.682397603989
2019-04-03 20:11:54.49,124915847, -13.66, -3.45, 266.79, 592.299987793, -35.3632884, 149.1652273, 0.67928391695, -0.103477805853, 0.065818220377, -0.723556280136
2019-04-03 20:11:54.59,125015807, -13.44, -4.84, 260.71, 592.349975586, -35.3632906, 149.1652269, 0.638751029968, -0.107673689723, 0.0619514808059, -0.759319126606
2019-04-03 20:11:54.69,125115767, -13.1, -6.0, 255.02, 592.409973145, -35.3632927, 149.1652268, 0.599416792393, -0.110632680357, 0.0587161630392, -0.790577173233
2019-04-03 20:11:54.79,125215727, -12.69, -7.01, 249.64, 592.460021973, -35.3632951, 149.1652265, 0.560938417912, -0.112945087254, 0.0558374077082, -0.818213760853
2019-04-03 20:11:54.89,125315687, -12.25, -7.95, 244.45, 592.520019531, -35.3632975, 149.1652262, 0.522673249245, -0.115117892623, 0.0533274188638, -0.843040168285
2019-04-03 20:11:55.00,125416480, -11.75, -8.89, 239.28, 592.58001709, -35.3633002, 149.1652259, -0.483604222536, 0.117493294179, -0.0505806878209, 0.865889072418
2019-04-03 20:11:55.10,125516440, -11.15, -9.83, 234.11, 592.640014648, -35.3633028, 149.1652255, -0.443656504154, 0.120010025799, -0.0474801510572, 0.886855185032
2019-04-03 20:11:55.20,125616400, -10.4, -10.79, 228.82, 592.700012207, -35.3633054, 149.1652251, -0.40198969841, 0.122573599219, -0.0434593036771, 0.90636152029
2019-04-03 20:11:55.30,125716360, -9.45, -11.76, 223.33, 592.760009766, -35.3633082, 149.1652249, -0.358192443848, 0.125190392137, -0.0385228432715, 0.924414157867
2019-04-03 20:11:55.40,125816320, -8.35, -12.71, 217.63, 592.83001709, -35.3633109, 149.1652245, -0.312075555325, 0.127868950367, -0.032871954143, 0.940838932991
2019-04-03 20:11:55.50,125916280, -7.05, -13.6, 211.71, 592.890014648, -35.3633138, 149.1652241, -0.263759344816, 0.130394488573, -0.026482315734, 0.955367445946
2019-04-03 20:11:55.60,126016240, -5.55, -14.36, 205.59, 592.960021973, -35.3633168, 149.1652239, -0.213584780693, 0.132437825203, -0.0192114375532, 0.967715203762
2019-04-03 20:11:55.70,126116200, -3.9, -14.96, 199.33, 593.020019531, -35.3633197, 149.1652235, -0.16198964417, 0.133946493268, -0.0114461425692, 0.977592289448
2019-04-03 20:11:55.80,126216160, -2.11, -15.36, 192.98, 593.08001709, -35.3633228, 149.1652231, -0.109600111842, 0.134886413813, -0.00308615807444, 0.984776079655
2019-04-03 20:11:55.90,126316120, 0.05, -15.56, 186.8, 593.150024414, -35.3633259, 149.1652227, -0.0588897615671, 0.135140493512, 0.00851324945688, 0.989038228989
2019-04-03 20:11:55.99,126416080, 2.48, -15.49, 181.37, 593.210021973, -35.363329, 149.1652225, -0.014786475338, 0.134476646781, 0.0230727102607, 0.990537762642
2019-04-03 20:11:56.09,126516040, 4.69, -15.21, 177.22, 593.280029297, -35.3633321, 149.1652221, 0.0185593944043, 0.13321429491, 0.0373459272087, 0.990209460258
2019-04-03 20:11:56.19,126616000, 6.23, -14.88, 174.63, 593.349975586, -35.3633355, 149.1652216, 0.0393409058452, 0.131695941091, 0.0478395223618, 0.989353239536
2019-04-03 20:11:56.29,126715960, 6.87, -14.65, 173.54, 593.409973145, -35.3633387, 149.1652211, 0.0480803996325, 0.130483672023, 0.0522253662348, 0.988905906677
2019-04-03 20:11:56.39,126815920, 6.58, -14.63, 173.76, 593.479980469, -35.3633419, 149.1652205, 0.0465736053884, 0.130082711577, 0.0499662980437, 0.989147484303
2019-04-03 20:11:56.49,126915880, 5.51, -14.81, 174.99, 593.539978027, -35.3633454, 149.1652198, 0.0370840504766, 0.130723491311, 0.0419988483191, 0.989834487438
2019-04-03 20:11:56.59,127015840, 3.93, -15.12, 176.94, 593.609985352, -35.3633488, 149.1652191, 0.0219073221087, 0.132417738438, 0.0305433683097, 0.990481078625
2019-04-03 20:11:56.69,127115800, 2.17, -15.48, 179.31, 593.66998291, -35.3633522, 149.1652183, 0.00332574662752, 0.134819447994, 0.0180091951042, 0.990700960159
2019-04-03 20:11:56.79,127215760, 0.48, -15.8, 181.82, 593.739990234, -35.3633556, 149.1652177, -0.0163149684668, 0.137373834848, 0.0063726673834, 0.990364432335
2019-04-03 20:11:56.89,127315720, -0.94, -16.02, 184.14, 593.809997559, -35.363359, 149.1652169, -0.0346742235124, 0.139594167471, -0.00315412413329, 0.989596545696
2019-04-03 20:11:56.99,127415680, -2.01, -16.14, 186.05, 593.869995117, -35.3633625, 149.1652164, -0.0498425550759, 0.141100108624, -0.00996275804937, 0.988689661026
2019-04-03 20:11:57.10,127516473, -2.66, -16.17, 187.4, 593.940002441, -35.3633662, 149.1652158, -0.0606611147523, 0.141813352704, -0.0139275398105, 0.987934827805
2019-04-03 20:11:57.20,127616433, -2.9, -16.14, 188.11, 594.010009766, -35.3633698, 149.1652152, -0.0664595514536, 0.141798615456, -0.0151433059946, 0.987545907497
2019-04-03 20:11:57.30,127716393, -2.79, -16.11, 188.21, 594.08001709, -35.3633734, 149.1652147, -0.0675152018666, 0.141521349549, -0.0140500711277, 0.98753029108
2019-04-03 20:11:57.40,127816353, -2.39, -16.11, 187.81, 594.140014648, -35.363377, 149.1652143, -0.0645370706916, 0.141179427505, -0.0110904267058, 0.987815976143
2019-04-03 20:11:57.50,127916313, -1.79, -16.13, 187.03, 594.210021973, -35.3633807, 149.1652138, -0.0585561096668, 0.141035780311, -0.00688737072051, 0.988247275352
2019-04-03 20:11:57.60,128016273, -1.12, -16.19, 186.03, 594.280029297, -35.3633844, 149.1652134, -0.0507308021188, 0.14119772613, -0.00232413900085, 0.98867803812
2019-04-03 20:11:57.70,128116233, -0.47, -16.27, 184.96, 594.349975586, -35.3633881, 149.1652131, -0.0422595739365, 0.141606211662, 0.00203774706461, 0.989018499851
2019-04-03 20:11:57.80,128216193, 0.12, -16.34, 183.94, 594.409973145, -35.3633918, 149.1652126, -0.0342373251915, 0.142037332058, 0.0059626433067, 0.989251077175
2019-04-03 20:11:57.90,128316153, 0.61, -16.41, 183.09, 594.479980469, -35.3633957, 149.1652123, -0.0274921655655, 0.142526194453, 0.00917812343687, 0.989366590977
2019-04-03 20:11:58.00,128416113, 0.97, -16.45, 182.47, 594.549987793, -35.3633995, 149.1652119, -0.0225584115833, 0.142925977707, 0.0114631950855, 0.989409863949
2019-04-03 20:11:58.09,128516073, 1.13, -16.49, 182.1, 594.619995117, -35.3634033, 149.1652115, -0.0196340400726, 0.143220797181, 0.012464446947, 0.989417493343
2019-04-03 20:11:58.19,128616033, 1.12, -16.5, 181.99, 594.679992676, -35.363407, 149.1652111, -0.0186805110425, 0.143376797438, 0.0122560411692, 0.989415943623
2019-04-03 20:11:58.29,128715993, 0.98, -16.51, 182.11, 594.75, -35.363411, 149.1652107, -0.0194598548114, 0.143434733152, 0.0111478231847, 0.989405632019
2019-04-03 20:11:58.39,128815953, 0.76, -16.54, 182.38, 594.820007324, -35.3634148, 149.1652102, -0.0215942151845, 0.143733710051, 0.00958217866719, 0.989334404469
2019-04-03 20:11:58.49,128915913, 0.49, -16.59, 182.77, 594.880004883, -35.3634188, 149.1652098, -0.0246151294559, 0.144204482436, 0.00778620736673, 0.989211082458
2019-04-03 20:11:58.59,129015873, 0.19, -16.64, 183.21, 594.950012207, -35.3634227, 149.1652093, -0.0280013065785, 0.144682094455, 0.00578667642549, 0.989064991474
2019-04-03 20:11:58.69,129115833, -0.07, -16.69, 183.64, 595.020019531, -35.3634265, 149.165209, -0.0313287973404, 0.145146980882, 0.00395099725574, 0.988906145096
2019-04-03 20:11:58.79,129215793, -0.27, -16.73, 184.01, 595.090026855, -35.3634306, 149.1652086, -0.0342841036618, 0.145522907376, 0.00268095568754, 0.988757073879
2019-04-03 20:11:58.89,129315753, -0.39, -16.75, 184.29, 595.150024414, -35.3634344, 149.1652082, -0.0366050004959, 0.145758956671, 0.00202477676794, 0.988640666008
2019-04-03 20:11:58.99,129415713, -0.44, -16.78, 184.48, 595.219970703, -35.3634385, 149.1652078, -0.0381583720446, 0.145986914635, 0.00187086942606, 0.988548576832
2019-04-03 20:11:59.09,129515673, -0.43, -16.8, 184.57, 595.289978027, -35.3634425, 149.1652074, -0.0389367043972, 0.1461956352, 0.00211977073923, 0.988486886024
2019-04-03 20:11:59.20,129616466, -0.37, -16.83, 184.57, 595.359985352, -35.3634465, 149.1652071, -0.0390035696328, 0.146356597543, 0.00259054847993, 0.988459289074
2019-04-03 20:11:59.30,129716426, -0.29, -16.84, 184.5, 595.41998291, -35.3634506, 149.1652068, -0.03850479424, 0.146495163441, 0.00321764219552, 0.988456487656
2019-04-03 20:11:59.40,129816386, -0.18, -16.87, 184.38, 595.489990234, -35.3634546, 149.1652064, -0.037631906569, 0.146644130349, 0.00398702407256, 0.988465189934
2019-04-03 20:11:59.50,129916346, -0.05, -16.88, 184.25, 595.559997559, -35.3634586, 149.1652059, -0.0366179719567, 0.146739408374, 0.00496931979433, 0.988484740257
2019-04-03 20:11:59.60,130016306, 0.06, -16.9, 184.11, 595.619995117, -35.3634628, 149.1652057, -0.0356069393456, 0.146858394146, 0.0058713122271, 0.988498985767
2019-04-03 20:11:59.70,130116266, 0.15, -16.91, 184.0, 595.690002441, -35.3634668, 149.1652053, -0.0347212739289, 0.146981850266, 0.00647599017248, 0.988508403301
2019-04-03 20:11:59.80,130216226, 0.18, -16.93, 183.91, 595.760009766, -35.3634708, 149.1652049, -0.0340586900711, 0.147073030472, 0.00666746869683, 0.988516628742
2019-04-03 20:11:59.90,130316186, 0.18, -16.92, 183.87, 595.83001709, -35.363475, 149.1652045, -0.0336974225938, 0.147009059787, 0.00658207433298, 0.988539099693
2019-04-03 20:12:00.00,130416146, 0.16, -16.9, 183.87, 595.890014648, -35.3634792, 149.1652042, -0.0336734391749, 0.146864399314, 0.00641036126763, 0.988562524319
2019-04-03 20:12:00.10,130516106, 0.14, -16.89, 183.91, 595.960021973, -35.3634833, 149.1652039, -0.0339685603976, 0.146798893809, 0.00630069896579, 0.988562881947
2019-04-03 20:12:00.19,130616066, 0.12, -16.91, 183.97, 596.030029297, -35.3634873, 149.1652035, -0.0345046520233, 0.146911457181, 0.00617101229727, 0.988528430462
2019-04-03 20:12:00.29,130716026, 0.09, -16.96, 184.06, 596.099975586, -35.3634915, 149.165203, -0.0352050811052, 0.147348761559, 0.00600869441405, 0.988439619541
2019-04-03 20:12:00.39,130815986, 0.05, -17.02, 184.16, 596.159973145, -35.3634957, 149.1652026, -0.0359992720187, 0.147951439023, 0.00587074598297, 0.988321781158
2019-04-03 20:12:00.49,130915946, 0.01, -17.05, 184.26, 596.229980469, -35.3634999, 149.1652024, -0.036790702492, 0.148217186332, 0.00562675390393, 0.988254249096
2019-04-03 20:12:00.59,131015906, -0.02, -17.06, 184.35, 596.299987793, -35.3635041, 149.165202, -0.0375248119235, 0.148260220885, 0.00538729410619, 0.988221526146
2019-04-03 20:12:00.69,131115866, -0.07, -17.07, 184.43, 596.369995117, -35.3635082, 149.1652016, -0.0381516702473, 0.148352652788, 0.00510584795848, 0.988185167313
2019-04-03 20:12:00.79,131215826, -0.11, -17.08, 184.49, 596.429992676, -35.3635124, 149.1652011, -0.0386435650289, 0.148493081331, 0.00480954069644, 0.988146424294
2019-04-03 20:12:00.89,131315786, -0.14, -17.1, 184.54, 596.5, -35.3635165, 149.1652007, -0.0390158444643, 0.148626103997, 0.00465276418254, 0.988112568855
2019-04-03 20:12:00.99,131415746, -0.15, -17.12, 184.57, 596.570007324, -35.3635207, 149.1652005, -0.03927019611, 0.14878153801, 0.00462843570858, 0.988079190254
2019-04-03 20:12:01.09,131515706, -0.13, -17.13, 184.59, 596.640014648, -35.363525, 149.1652001, -0.0394469425082, 0.148916080594, 0.00479042856023, 0.988051116467
2019-04-03 20:12:01.19,131615666, -0.09, -17.15, 184.6, 596.710021973, -35.3635292, 149.1651996, -0.0395664833486, 0.149077102542, 0.00513567915186, 0.988020300865
2019-04-03 20:12:01.30,131716459, -0.05, -17.18, 184.6, 596.770019531, -35.3635334, 149.1651992, -0.0396371595562, 0.149284556508, 0.00548337073997, 0.98798429966
2019-04-03 20:12:01.40,131816419, -0.02, -17.21, 184.6, 596.840026855, -35.3635377, 149.1651989, -0.0396894514561, 0.149547457695, 0.00577472802252, 0.987940788269
2019-04-03 20:12:01.50,131916379, -0.01, -17.24, 184.6, 596.909973145, -35.3635419, 149.1651985, -0.0397347398102, 0.149767622352, 0.00591670209542, 0.987904787064
2019-04-03 20:12:01.60,132016339, 0.0, -17.24, 184.61, 596.979980469, -35.3635462, 149.1651981, -0.039800863713, 0.149789303541, 0.00598999392241, 0.987898349762
2019-04-03 20:12:01.70,132116299, 0.0, -17.23, 184.62, 597.049987793, -35.3635504, 149.1651977, -0.0399106889963, 0.149734243751, 0.00597981922328, 0.987902343273
2019-04-03 20:12:01.80,132216259, 0.0, -17.23, 184.64, 597.109985352, -35.3635547, 149.1651973, -0.0400905683637, 0.14970806241, 0.00599560141563, 0.987898945808
2019-04-03 20:12:01.90,132316219, 0.0, -17.24, 184.67, 597.179992676, -35.363559, 149.165197, -0.0403368771076, 0.14983060956, 0.00613735569641, 0.987869501114
2019-04-03 20:12:02.00,132416179, 0.0, -17.27, 184.7, 597.25, -35.3635632, 149.1651966, -0.0406087897718, 0.150044098496, 0.00618419004604, 0.987825632095
2019-04-03 20:12:02.10,132516139, -0.02, -17.3, 184.74, 597.320007324, -35.3635675, 149.1651962, -0.0408617705107, 0.150291100144, 0.00596508942544, 0.987779021263
2019-04-03 20:12:02.20,132616099, -0.06, -17.33, 184.77, 597.390014648, -35.3635718, 149.1651958, -0.0411266349256, 0.150614336133, 0.00575976725668, 0.987720012665
2019-04-03 20:12:02.29,132716059, -0.08, -17.36, 184.81, 597.450012207, -35.3635762, 149.1651953, -0.0414006523788, 0.150823131204, 0.00561816850677, 0.987677514553
2019-04-03 20:12:02.39,132816019, -0.1, -17.35, 184.84, 597.520019531, -35.3635805, 149.1651949, -0.0416486598551, 0.15081551671, 0.00544060859829, 0.987669229507
2019-04-03 20:12:02.49,132915979, -0.13, -17.35, 184.87, 597.590026855, -35.3635848, 149.1651944, -0.0418465174735, 0.15074314177, 0.00524830352515, 0.987672924995
2019-04-03 20:12:02.59,133015939, -0.15, -17.34, 184.89, 597.659973145, -35.3635891, 149.165194, -0.0420169048011, 0.150667443871, 0.00510523468256, 0.98767799139
2019-04-03 20:12:02.69,133115899, -0.14, -17.35, 184.91, 597.729980469, -35.3635934, 149.1651937, -0.0421996600926, 0.150809586048, 0.00519425608218, 0.987648069859
2019-04-03 20:12:02.79,133215859, -0.13, -17.38, 184.93, 597.789978027, -35.3635978, 149.1651933, -0.0423707515001, 0.151051685214, 0.0053274310194, 0.987603008747
2019-04-03 20:12:02.89,133315819, -0.11, -17.4, 184.95, 597.859985352, -35.3636021, 149.1651929, -0.042551767081, 0.151207953691, 0.00557005312294, 0.987569987774
2019-04-03 20:12:02.99,133415779, -0.09, -17.41, 184.96, 597.929992676, -35.3636064, 149.1651924, -0.042710326612, 0.151316136122, 0.00578140327707, 0.987545371056
2019-04-03 20:12:03.09,133515739, -0.07, -17.42, 184.98, 598.0, -35.3636106, 149.165192, -0.0428482592106, 0.151338621974, 0.00590315461159, 0.987535238266
2019-04-03 20:12:03.19,133615699, -0.07, -17.41, 184.99, 598.070007324, -35.363615, 149.1651915, -0.0429721288383, 0.151281312108, 0.00595820508897, 0.987538278103
2019-04-03 20:12:03.29,133715659, -0.05, -17.39, 185.0, 598.140014648, -35.3636194, 149.1651911, -0.0431094430387, 0.151103660464, 0.00610611168668, 0.987558603287
2019-04-03 20:12:03.40,133816452, -0.05, -17.38, 185.02, 598.200012207, -35.3636238, 149.1651908, -0.0432428307831, 0.1510245502, 0.00618688995019, 0.987564384937
2019-04-03 20:12:03.50,133916412, -0.05, -17.39, 185.03, 598.270019531, -35.3636282, 149.1651903, -0.0433764755726, 0.151061654091, 0.00619173934683, 0.987552821636
2019-04-03 20:12:03.60,134016372, -0.05, -17.4, 185.05, 598.340026855, -35.3636325, 149.1651899, -0.0435247160494, 0.151189923286, 0.0061919670552, 0.987526655197
2019-04-03 20:12:03.70,134116332, -0.05, -17.44, 185.07, 598.409973145, -35.3636368, 149.1651895, -0.0436733588576, 0.151486560702, 0.00621536932886, 0.987474501133
2019-04-03 20:12:03.80,134216292, -0.04, -17.48, 185.09, 598.479980469, -35.3636413, 149.165189, -0.0438529141247, 0.151862338185, 0.00638821627945, 0.987407684326
2019-04-03 20:12:03.90,134316252, -0.05, -17.52, 185.11, 598.549987793, -35.3636456, 149.1651886, -0.0440066531301, 0.152233093977, 0.00634194444865, 0.987344026566
2019-04-03 20:12:04.00,134416212, -0.07, -17.55, 185.13, 598.609985352, -35.36365, 149.1651882, -0.0441416203976, 0.152454465628, 0.00615468202159, 0.987305104733
2019-04-03 20:12:04.10,134516172, -0.09, -17.56, 185.15, 598.679992676, -35.3636544, 149.1651877, -0.0442836470902, 0.152590349317, 0.00603644922376, 0.987278461456
2019-04-03 20:12:04.20,134616132, -0.1, -17.56, 185.16, 598.75, -35.3636586, 149.1651872, -0.0444229207933, 0.152570322156, 0.00598807586357, 0.987275540829
2019-04-03 20:12:04.30,134716092, -0.1, -17.55, 185.18, 598.820007324, -35.363663, 149.1651867, -0.0445699952543, 0.152497142553, 0.0060404073447, 0.987279951572
2019-04-03 20:12:04.39,134816052, -0.08, -17.54, 185.2, 598.890014648, -35.3636675, 149.1651863, -0.0447190515697, 0.152385115623, 0.00616925489157, 0.98728966713
2019-04-03 20:12:04.49,134916012, -0.08, -17.53, 185.21, 598.950012207, -35.3636719, 149.165186, -0.0448266156018, 0.152344465256, 0.00616296753287, 0.987291157246
2019-04-03 20:12:04.59,135015972, -0.09, -17.54, 185.22, 599.020019531, -35.3636763, 149.1651855, -0.0449081994593, 0.152353897691, 0.00610043527558, 0.987286329269
2019-04-03 20:12:04.69,135115932, -0.08, -17.54, 185.23, 599.090026855, -35.3636806, 149.1651851, -0.0450167320669, 0.152379438281, 0.0062677366659, 0.987276434898
2019-04-03 20:12:04.79,135215892, -0.04, -17.56, 185.24, 599.159973145, -35.3636849, 149.1651846, -0.0451499521732, 0.152565121651, 0.00663620326668, 0.9872392416
2019-04-03 20:12:04.89,135315852, 0.0, -17.58, 185.25, 599.229980469, -35.3636894, 149.1651842, -0.0452743247151, 0.152671828866, 0.00694587361068, 0.987214922905
2019-04-03 20:12:04.99,135415812, 0.0, -17.58, 185.26, 599.289978027, -35.3636938, 149.1651837, -0.0453765951097, 0.152703031898, 0.00708666769788, 0.987204432487
2019-04-03 20:12:05.09,135515772, 0.01, -17.57, 185.27, 599.359985352, -35.3636982, 149.1651832, -0.0454685352743, 0.152610823512, 0.00712426612154, 0.987214148045
2019-04-03 20:12:05.19,135615732, 0.0, -17.55, 185.28, 599.429992676, -35.3637025, 149.1651828, -0.0455378517509, 0.152468815446, 0.00695379590616, 0.987234115601
2019-04-03 20:12:05.29,135715692, -0.02, -17.54, 185.29, 599.5, -35.3637071, 149.1651823, -0.0456177964807, 0.152367830276, 0.0068389326334, 0.987246870995
2019-04-03 20:12:05.40,135816485, -0.04, -17.55, 185.3, 599.570007324, -35.3637115, 149.1651818, -0.0456876941025, 0.152451381087, 0.00671642972156, 0.987231552601
2019-04-03 20:12:05.50,135916445, -0.03, -17.56, 185.31, 599.640014648, -35.3637158, 149.1651814, -0.0457879044116, 0.152508720756, 0.00674783624709, 0.987217843533
2019-04-03 20:12:05.60,136016405, -0.03, -17.56, 185.32, 599.700012207, -35.3637203, 149.1651809, -0.045889403671, 0.152535155416, 0.00679514883086, 0.987208724022
2019-04-03 20:12:05.70,136116365, -0.03, -17.56, 185.33, 599.770019531, -35.3637247, 149.1651804, -0.0459726974368, 0.152511209249, 0.00677495496348, 0.987208664417
2019-04-03 20:12:05.80,136216325, -0.05, -17.55, 185.34, 599.840026855, -35.3637291, 149.16518, -0.0460334829986, 0.152411326766, 0.00666597951204, 0.987222015858
2019-04-03 20:12:05.90,136316285, -0.05, -17.53, 185.35, 599.909973145, -35.3637335, 149.1651795, -0.04608380422, 0.152280718088, 0.00660806521773, 0.987240195274
2019-04-03 20:12:06.00,136416245, -0.06, -17.55, 185.36, 599.979980469, -35.363738, 149.165179, -0.0461272783577, 0.15243896842, 0.0065870275721, 0.987213909626
2019-04-03 20:12:06.10,136516205, -0.05, -17.58, 185.36, 600.049987793, -35.3637424, 149.1651786, -0.0461644008756, 0.152705475688, 0.00663624284789, 0.987170636654
2019-04-03 20:12:06.20,136616165, -0.05, -17.61, 185.36, 600.109985352, -35.3637468, 149.1651781, -0.0461969338357, 0.152942925692, 0.00672813504934, 0.987131714821
2019-04-03 20:12:06.30,136716125, -0.03, -17.61, 185.36, 600.179992676, -35.3637511, 149.1651776, -0.0462329909205, 0.152957171202, 0.00688552390784, 0.987126767635
2019-04-03 20:12:06.39,136816085, -0.01, -17.61, 185.36, 600.25, -35.3637557, 149.1651771, -0.0462602004409, 0.15293340385, 0.00701239472255, 0.987128257751
2019-04-03 20:12:06.49,136916045, 0.0, -17.61, 185.36, 600.320007324, -35.3637601, 149.1651767, -0.046285957098, 0.152925357223, 0.00713660102338, 0.987127423286
2019-04-03 20:12:06.59,137016005, 0.0, -17.61, 185.37, 600.390014648, -35.3637644, 149.1651762, -0.0462850704789, 0.152962043881, 0.00711317779496, 0.987121939659
2019-04-03 20:12:06.69,137115965, -0.02, -17.61, 185.37, 600.460021973, -35.363769, 149.1651757, -0.0462651029229, 0.152939423919, 0.00694090174511, 0.9871276021
2019-04-03 20:12:06.79,137215925, -0.05, -17.61, 185.37, 600.520019531, -35.3637734, 149.1651752, -0.0462363623083, 0.152967840433, 0.0067076664418, 0.987126171589
2019-04-03 20:12:06.89,137315885, -0.09, -17.63, 185.37, 600.590026855, -35.3637778, 149.1651747, -0.0461830161512, 0.153127223253, 0.00635382300243, 0.987106323242
2019-04-03 20:12:06.99,137415845, -0.13, -17.65, 185.37, 600.659973145, -35.3637821, 149.1651742, -0.0461259149015, 0.15337574482, 0.00599970296025, 0.987072587013
2019-04-03 20:12:07.09,137515805, -0.15, -17.66, 185.37, 600.729980469, -35.3637867, 149.1651738, -0.0461146570742, 0.153470054269, 0.00588907534257, 0.987059116364
2019-04-03 20:12:07.19,137615765, -0.13, -17.67, 185.37, 600.799987793, -35.3637911, 149.1651733, -0.0461378879845, 0.153536751866, 0.00607244949788, 0.987046539783
2019-04-03 20:12:07.29,137715725, -0.12, -17.68, 185.37, 600.869995117, -35.3637955, 149.1651728, -0.0461269803345, 0.153640657663, 0.00614670617506, 0.987030446529
2019-04-03 20:12:07.39,137815685, -0.11, -17.7, 185.36, 600.929992676, -35.3638, 149.1651723, -0.0461093969643, 0.153752446175, 0.00624049641192, 0.987013220787
2019-04-03 20:12:07.50,137916478, -0.09, -17.7, 185.36, 601.0, -35.3638045, 149.1651718, -0.0460955426097, 0.15379782021, 0.00641993945464, 0.987005710602
2019-04-03 20:12:07.60,138016438, -0.06, -17.7, 185.35, 601.070007324, -35.3638088, 149.1651713, -0.0460871756077, 0.153749912977, 0.00662820646539, 0.987012147903
2019-04-03 20:12:07.70,138116398, -0.03, -17.67, 185.35, 601.140014648, -35.3638132, 149.1651708, -0.0460867770016, 0.153444260359, 0.00687065441161, 0.987058103085
2019-04-03 20:12:07.80,138216358, -0.02, -17.62, 185.34, 601.210021973, -35.3638178, 149.1651703, -0.0460650883615, 0.153047472239, 0.00691570574418, 0.987120389938
2019-04-03 20:12:07.90,138316318, -0.01, -17.59, 185.34, 601.280029297, -35.3638222, 149.1651699, -0.0460558310151, 0.152807801962, 0.00699737435207, 0.987157344818
2019-04-03 20:12:08.00,138416278, 0.0, -17.6, 185.34, 601.340026855, -35.3638267, 149.1651694, -0.0460530631244, 0.152865439653, 0.00705008208752, 0.987148225307
2019-04-03 20:12:08.10,138516238, 0.0, -17.61, 185.34, 601.409973145, -35.3638311, 149.1651689, -0.0460707210004, 0.152985602617, 0.00716820592061, 0.987127900124
2019-04-03 20:12:08.20,138616198, 0.0, -17.64, 185.34, 601.479980469, -35.3638356, 149.1651684, -0.0460785143077, 0.153203040361, 0.00711197545752, 0.987094223499
2019-04-03 20:12:08.30,138716158, -0.02, -17.66, 185.35, 601.549987793, -35.3638399, 149.1651679, -0.0460810065269, 0.153420045972, 0.00692231347784, 0.987061798573
2019-04-03 20:12:08.40,138816118, -0.03, -17.67, 185.35, 601.619995117, -35.3638445, 149.1651674, -0.0461130142212, 0.153468474746, 0.00688053574413, 0.987053096294
2019-04-03 20:12:08.49,138916078, -0.02, -17.67, 185.35, 601.679992676, -35.3638489, 149.1651669, -0.0461614504457, 0.153452530503, 0.00694348942488, 0.987052798271
2019-04-03 20:12:08.59,139016038, 0.0, -17.66, 185.36, 601.75, -35.3638533, 149.1651664, -0.0462229736149, 0.153347536922, 0.00710485735908, 0.987065076828
2019-04-03 20:12:08.69,139115998, 0.01, -17.64, 185.36, 601.820007324, -35.3638578, 149.1651659, -0.0462925881147, 0.1531765908, 0.00734476745129, 0.987086653709
2019-04-03 20:12:08.79,139215958, 0.04, -17.62, 185.36, 601.890014648, -35.3638623, 149.1651654, -0.0463352799416, 0.153048813343, 0.00752636883408, 0.987103044987
2019-04-03 20:12:08.89,139315918, 0.05, -17.61, 185.36, 601.960021973, -35.3638666, 149.165165, -0.0463575907052, 0.152952983975, 0.00766077823937, 0.987115859985
2019-04-03 20:12:08.99,139415878, 0.06, -17.61, 185.36, 602.020019531, -35.3638712, 149.1651645, -0.0463599450886, 0.152894362807, 0.0077099930495, 0.987124443054
2019-04-03 20:12:09.09,139515838, 0.06, -17.61, 185.36, 602.090026855, -35.3638756, 149.165164, -0.0463537462056, 0.152882888913, 0.00772781204432, 0.987126350403
2019-04-03 20:12:09.19,139615798, 0.04, -17.62, 185.36, 602.159973145, -35.36388, 149.1651635, -0.0463182888925, 0.152977794409, 0.00757954502478, 0.987114429474
2019-04-03 20:12:09.29,139715758, 0.03, -17.63, 185.36, 602.229980469, -35.3638845, 149.165163, -0.0462809875607, 0.153097867966, 0.0074495752342, 0.987098574638
2019-04-03 20:12:09.39,139815718, 0.02, -17.64, 185.36, 602.289978027, -35.363889, 149.1651624, -0.0462443269789, 0.15323318541, 0.00735457567498, 0.987080037594
2019-04-03 20:12:09.49,139915678, 0.0, -17.65, 185.35, 602.359985352, -35.3638933, 149.1651618, -0.0461990088224, 0.153253674507, 0.00720661412925, 0.987080037594
2019-04-03 20:12:09.60,140016471, -0.03, -17.64, 185.35, 602.429992676, -35.3638979, 149.1651614, -0.0461159870028, 0.153253138065, 0.00688432529569, 0.987086355686
2019-04-03 20:12:09.70,140116431, -0.05, -17.65, 185.35, 602.5, -35.3639024, 149.1651609, -0.0460471697152, 0.15328848362, 0.00667843176052, 0.987085461617
2019-04-03 20:12:09.80,140216391, -0.09, -17.65, 185.34, 602.559997559, -35.3639068, 149.1651604, -0.0459456779063, 0.153311386704, 0.00637549767271, 0.987088680267
2019-04-03 20:12:09.90,140316351, -0.51, -17.58, 185.3, 602.630004883, -35.3639113, 149.1651599, -0.0450247712433, 0.152930170298, 0.0026421812363, 0.98720729351
2019-04-03 20:12:10.00,140416311, -1.5, -17.48, 185.13, 602.690002441, -35.3639157, 149.1651594, -0.0422716327012, 0.152376204729, -0.00618718937039, 0.987398743629
2019-04-03 20:12:10.10,140516271, -2.7, -17.41, 184.75, 602.75, -35.3639201, 149.1651589, -0.0374583005905, 0.152192234993, -0.0170149002224, 0.987494289875
2019-04-03 20:12:10.20,140616231, -3.71, -17.46, 184.12, 602.789978027, -35.3639246, 149.1651585, -0.0306711420417, 0.152769386768, -0.0265893507749, 0.987427890301
2019-04-03 20:12:10.30,140716191, -4.3, -17.6, 183.23, 602.840026855, -35.3639289, 149.1651581, -0.0221656933427, 0.153946146369, -0.0328003130853, 0.987285912037
2019-04-03 20:12:10.40,140816151, -4.41, -17.81, 182.11, 602.880004883, -35.3639333, 149.1651579, -0.0122463069856, 0.155375272036, -0.0352317467332, 0.98715108633
2019-04-03 20:12:10.50,140916111, -4.17, -18.0, 180.8, 602.909973145, -35.3639377, 149.1651576, -0.00122318754438, 0.156585916877, -0.0348472744226, 0.987048625946
2019-04-03 20:12:10.59,141016071, -3.72, -18.14, 179.37, 602.940002441, -35.363942, 149.1651576, 0.0105098607019, 0.157387495041, -0.0329574272037, 0.986930906773
2019-04-03 20:12:10.69,141116031, -3.2, -18.21, 177.9, 602.960021973, -35.3639463, 149.1651576, 0.0224522165954, 0.15767505765, -0.0304587837309, 0.986765801907
2019-04-03 20:12:10.79,141215991, -2.7, -18.25, 176.46, 602.979980469, -35.3639506, 149.1651576, 0.0341501794755, 0.157770380378, -0.0281893666834, 0.986482441425
2019-04-03 20:12:10.89,141315951, -2.32, -18.25, 175.12, 603.0, -35.3639551, 149.1651579, 0.0452262274921, 0.157640576363, -0.026774873957, 0.986096978188
2019-04-03 20:12:10.99,141415911, -2.08, -18.26, 173.9, 603.010009766, -35.3639594, 149.165158, 0.0553730539978, 0.157475456595, -0.0263500344008, 0.985617101192
2019-04-03 20:12:11.09,141515871, -1.95, -18.27, 172.83, 603.030029297, -35.3639638, 149.1651583, 0.0643859878182, 0.157409206033, -0.0267092976719, 0.985070228577
2019-04-03 20:12:11.19,141615831, -1.89, -18.3, 171.91, 603.039978027, -35.3639681, 149.1651585, 0.0721927657723, 0.1574524194, -0.0275130141526, 0.984499871731
2019-04-03 20:12:11.29,141715791, -1.88, -18.32, 171.13, 603.039978027, -35.3639724, 149.165159, 0.0788696706295, 0.157472252846, -0.0285287071019, 0.983955383301
2019-04-03 20:12:11.39,141815751, -1.9, -18.35, 170.47, 603.049987793, -35.3639767, 149.1651594, 0.0845746323466, 0.157531902194, -0.0295833405107, 0.983440756798
2019-04-03 20:12:11.49,141915711, -1.95, -18.36, 169.9, 603.059997559, -35.363981, 149.1651599, 0.0895740538836, 0.157487243414, -0.0308297127485, 0.982966840267
2019-04-03 20:12:11.59,142015671, -2.01, -18.37, 169.38, 603.059997559, -35.3639854, 149.1651606, 0.0940905883908, 0.157331973314, -0.0320806726813, 0.982529640198
2019-04-03 20:12:11.70,142116464, -2.08, -18.35, 168.89, 603.070007324, -35.3639898, 149.1651612, 0.098379611969, 0.157014340162, -0.0333104878664, 0.982119321823
2019-04-03 20:12:11.80,142216424, -2.13, -18.33, 168.41, 603.070007324, -35.3639941, 149.1651619, 0.102530710399, 0.156650394201, -0.0343542173505, 0.981716811657
2019-04-03 20:12:11.90,142316384, -2.14, -18.31, 167.93, 603.070007324, -35.3639984, 149.1651627, 0.106703475118, 0.15632379055, -0.0351201035082, 0.981297016144
2019-04-03 20:12:12.00,142416344, -2.13, -18.31, 167.43, 603.070007324, -35.3640027, 149.1651636, 0.110981829464, 0.156130954623, -0.035674341023, 0.980833053589
2019-04-03 20:12:12.10,142516304, -2.07, -18.32, 166.91, 603.08001709, -35.364007, 149.1651645, 0.115379817784, 0.156108796597, -0.0359396450222, 0.980319321156
2019-04-03 20:12:12.20,142616264, -2.0, -18.32, 166.36, 603.08001709, -35.3640113, 149.1651654, 0.11990582943, 0.156071618199, -0.0360589250922, 0.979777514935
2019-04-03 20:12:12.30,142716224, -1.91, -18.33, 165.81, 603.08001709, -35.3640156, 149.1651664, 0.124485470355, 0.156063303351, -0.0360094532371, 0.979209363461
2019-04-03 20:12:12.40,142816184, -1.78, -18.34, 165.26, 603.08001709, -35.3640198, 149.1651675, 0.129009723663, 0.156071543694, -0.0356395468116, 0.978635787964
2019-04-03 20:12:12.50,142916144, -1.63, -18.32, 164.72, 603.08001709, -35.3640241, 149.1651685, 0.133419245481, 0.155966117978, -0.0350830256939, 0.978081345558
2019-04-03 20:12:12.60,143016104, -1.47, -18.31, 164.2, 603.08001709, -35.3640284, 149.1651698, 0.137639403343, 0.155909880996, -0.0344589538872, 0.977527558804
2019-04-03 20:12:12.69,143116064, -1.34, -18.29, 163.71, 603.08001709, -35.3640327, 149.1651709, 0.141643598676, 0.15573579073, -0.0339783318341, 0.976999938488
2019-04-03 20:12:12.79,143216024, -1.25, -18.27, 163.26, 603.08001709, -35.3640369, 149.1651723, 0.145401418209, 0.155515372753, -0.0338154174387, 0.97648859024
2019-04-03 20:12:12.89,143315984, -1.17, -18.27, 162.84, 603.08001709, -35.3640412, 149.1651736, 0.148826450109, 0.155496492982, -0.0337056294084, 0.975979268551
2019-04-03 20:12:12.99,143415944, -1.09, -18.31, 162.47, 603.08001709, -35.3640456, 149.1651748, 0.151894286275, 0.155807361007, -0.0335985645652, 0.975460588932
2019-04-03 20:12:13.09,143515904, -1.03, -18.34, 162.13, 603.08001709, -35.3640497, 149.1651762, 0.154672816396, 0.156077921391, -0.0335909947753, 0.974980831146
2019-04-03 20:12:13.19,143615864, -1.0, -18.37, 161.83, 603.08001709, -35.3640541, 149.1651777, 0.157203510404, 0.156275078654, -0.0337186418474, 0.974539995193
2019-04-03 20:12:13.29,143715824, -0.96, -18.38, 161.55, 603.08001709, -35.3640582, 149.1651791, 0.159517765045, 0.156364560127, -0.0338182114065, 0.974146068096
2019-04-03 20:12:13.39,143815784, -0.91, -18.37, 161.3, 603.08001709, -35.3640625, 149.1651806, 0.161638066173, 0.156240999699, -0.0337416045368, 0.973818957806
2019-04-03 20:12:13.49,143915744, -0.87, -18.36, 161.06, 603.08001709, -35.3640667, 149.1651822, 0.163621068001, 0.156151786447, -0.033699452877, 0.973503530025
2019-04-03 20:12:13.59,144015704, -0.85, -18.36, 160.83, 603.08001709, -35.3640709, 149.1651838, 0.165508165956, 0.156126320362, -0.0337875261903, 0.973185539246
2019-04-03 20:12:13.69,144115664, -0.82, -18.35, 160.61, 603.08001709, -35.3640752, 149.1651853, 0.167323976755, 0.156008139253, -0.0338851325214, 0.972890555859
2019-04-03 20:12:13.80,144216457, -0.78, -18.35, 160.4, 603.08001709, -35.3640794, 149.165187, 0.169062152505, 0.155972808599, -0.0338071323931, 0.97259837389
2019-04-03 20:12:13.90,144316417, -0.71, -18.35, 160.2, 603.08001709, -35.3640837, 149.1651886, 0.170669913292, 0.156037166715, -0.0334423743188, 0.972319841385
2019-04-03 20:12:14.00,144416377, -0.63, -18.37, 160.0, 603.08001709, -35.3640879, 149.1651903, 0.172221541405, 0.156294494867, -0.0331090800464, 0.972016274929
2019-04-03 20:12:14.10,144516337, -0.57, -18.41, 159.81, 603.08001709, -35.3640921, 149.165192, 0.173735037446, 0.156644135714, -0.0328829325736, 0.971698224545
2019-04-03 20:12:14.20,144616297, -0.53, -18.45, 159.63, 603.08001709, -35.3640964, 149.1651937, 0.175210505724, 0.156995907426, -0.0328776799142, 0.971376657486
2019-04-03 20:12:14.30,144716257, -0.5, -18.48, 159.46, 603.08001709, -35.3641005, 149.1651954, 0.176614791155, 0.157277897, -0.0329172536731, 0.971075356007
2019-04-03 20:12:14.40,144816217, -0.46, -18.48, 159.3, 603.08001709, -35.3641047, 149.1651972, 0.17793263495, 0.157291606069, -0.0327747091651, 0.97083735466
2019-04-03 20:12:14.50,144916177, -0.4, -18.45, 159.15, 603.08001709, -35.3641089, 149.165199, 0.17913363874, 0.157089993358, -0.0324020050466, 0.970661640167
2019-04-03 20:12:14.60,145016137, -0.36, -18.42, 159.01, 603.08001709, -35.3641131, 149.1652007, 0.180278092623, 0.156860038638, -0.0322362631559, 0.970492482185
2019-04-03 20:12:14.70,145116097, -0.33, -18.39, 158.88, 603.08001709, -35.3641172, 149.1652025, 0.18135215342, 0.156607180834, -0.0321460589767, 0.970336139202
2019-04-03 20:12:14.79,145216057, -0.3, -18.37, 158.75, 603.08001709, -35.3641214, 149.1652044, 0.182349249721, 0.156436443329, -0.0320090316236, 0.970181286335
2019-04-03 20:12:14.89,145316017, -0.27, -18.36, 158.64, 603.08001709, -35.3641256, 149.1652063, 0.18326126039, 0.156402751803, -0.0318679995835, 0.970019578934
2019-04-03 20:12:14.99,145415977, -0.24, -18.37, 158.54, 603.08001709, -35.3641299, 149.1652082, 0.184113815427, 0.156485825777, -0.0318136401474, 0.969846487045
2019-04-03 20:12:15.09,145515937, -0.21, -18.38, 158.44, 603.08001709, -35.3641341, 149.16521, 0.184891402721, 0.156627520919, -0.0316659994423, 0.96968048811
2019-04-03 20:12:15.19,145615897, -0.16, -18.4, 158.35, 603.08001709, -35.3641382, 149.1652119, 0.185605883598, 0.156769946218, -0.031449817121, 0.969528019428
2019-04-03 20:12:15.29,145715857, -0.11, -18.4, 158.26, 603.08001709, -35.3641424, 149.1652138, 0.186268433928, 0.156839862466, -0.0311448853463, 0.969399452209
2019-04-03 20:12:15.39,145815817, -0.07, -18.4, 158.18, 603.08001709, -35.3641466, 149.1652157, 0.186903491616, 0.156894207001, -0.0309087764472, 0.96927601099
2019-04-03 20:12:15.49,145915777, -0.04, -18.4, 158.1, 603.08001709, -35.3641508, 149.1652177, 0.187500566244, 0.156948581338, -0.0307535175234, 0.969156801701
2019-04-03 20:12:15.59,146015737, -0.02, -18.4, 158.03, 603.08001709, -35.3641548, 149.1652196, 0.188067167997, 0.156994119287, -0.0306524541229, 0.96904283762
2019-04-03 20:12:15.69,146115697, -0.01, -18.4, 157.97, 603.08001709, -35.364159, 149.1652216, 0.188606292009, 0.156926259398, -0.0306767448783, 0.968948304653
2019-04-03 20:12:15.80,146216490, -0.02, -18.4, 157.91, 603.08001709, -35.3641633, 149.1652235, 0.189123317599, 0.156874299049, -0.0308685824275, 0.96884983778
2019-04-03 20:12:15.90,146316450, -0.02, -18.38, 157.85, 603.08001709, -35.3641675, 149.1652255, 0.189578652382, 0.156773746014, -0.0309109501541, 0.968775689602
2019-04-03 20:12:16.00,146416410, -0.01, -18.37, 157.81, 603.08001709, -35.3641716, 149.1652274, 0.189976796508, 0.15661418438, -0.0308817531914, 0.968724489212
2019-04-03 20:12:16.10,146516370, -0.01, -18.34, 157.76, 603.08001709, -35.3641758, 149.1652293, 0.190345555544, 0.15636909008, -0.0308166164905, 0.96869379282
2019-04-03 20:12:16.20,146616330, 0.0, -18.33, 157.72, 603.08001709, -35.36418, 149.1652312, 0.190695628524, 0.156294822693, -0.0308259222656, 0.968636572361
2019-04-03 20:12:16.30,146716290, 0.0, -18.36, 157.68, 603.08001709, -35.364184, 149.1652332, 0.191014975309, 0.156581774354, -0.0309444982558, 0.968523561954
2019-04-03 20:12:16.40,146816250, -0.01, -18.39, 157.64, 603.08001709, -35.3641882, 149.1652353, 0.191331237555, 0.156829610467, -0.0310779474676, 0.968416750431
2019-04-03 20:12:16.50,146916210, 0.0, -18.41, 157.61, 603.08001709, -35.3641925, 149.1652373, 0.191632211208, 0.156988710165, -0.031126992777, 0.968329846859
2019-04-03 20:12:16.60,147016170, 0.0, -18.43, 157.57, 603.08001709, -35.3641966, 149.1652393, 0.191913455725, 0.157144010067, -0.0310831516981, 0.968250393867
2019-04-03 20:12:16.70,147116130, 0.03, -18.44, 157.54, 603.08001709, -35.3642008, 149.1652413, 0.192169591784, 0.157250627875, -0.0308933705091, 0.968188405037
2019-04-03 20:12:16.80,147216090, 0.07, -18.45, 157.5, 603.08001709, -35.3642049, 149.1652432, 0.192401751876, 0.157392218709, -0.0306467246264, 0.968127071857
2019-04-03 20:12:16.89,147316050, 0.1, -18.46, 157.47, 603.08001709, -35.364209, 149.1652452, 0.192625641823, 0.157497748733, -0.0304326806217, 0.96807217598
2019-04-03 20:12:16.99,147416010, 0.12, -18.46, 157.44, 603.08001709, -35.3642132, 149.1652473, 0.192850768566, 0.157517492771, -0.0303052961826, 0.968028128147
2019-04-03 20:12:17.09,147515970, 0.13, -18.45, 157.41, 603.08001709, -35.3642174, 149.1652494, 0.193076223135, 0.157513007522, -0.0302883572876, 0.967984437943
2019-04-03 20:12:17.19,147615930, 0.12, -18.44, 157.39, 603.08001709, -35.3642215, 149.1652514, 0.193302154541, 0.157327160239, -0.0303670894355, 0.967967092991
2019-04-03 20:12:17.29,147715890, 0.11, -18.42, 157.37, 603.08001709, -35.3642257, 149.1652533, 0.193501889706, 0.157167628407, -0.0304325874895, 0.967951059341
2019-04-03 20:12:17.39,147815850, 0.12, -18.42, 157.35, 603.090026855, -35.3642297, 149.1652555, 0.193661496043, 0.157169595361, -0.0304182358086, 0.967919290066
2019-04-03 20:12:17.49,147915810, 0.13, -18.41, 157.33, 603.090026855, -35.3642339, 149.1652575, 0.193808048964, 0.157152175903, -0.0303540490568, 0.967894792557
2019-04-03 20:12:17.59,148015770, 0.14, -18.4, 157.31, 603.090026855, -35.3642381, 149.1652595, 0.193938463926, 0.15706269443, -0.0302464235574, 0.967886507511
2019-04-03 20:12:17.69,148115730, 0.14, -18.41, 157.3, 603.090026855, -35.3642423, 149.1652615, 0.194053262472, 0.157102063298, -0.030229177326, 0.967857658863
2019-04-03 20:12:17.79,148215690, 0.14, -18.41, 157.28, 603.090026855, -35.3642464, 149.1652636, 0.194172874093, 0.157122254372, -0.0303093530238, 0.967827916145
2019-04-03 20:12:17.90,148316483, 0.14, -18.41, 157.27, 603.090026855, -35.3642506, 149.1652657, 0.19426548481, 0.157115072012, -0.0302990283817, 0.967810869217
2019-04-03 20:12:18.00,148416443, 0.15, -18.4, 157.26, 603.090026855, -35.3642548, 149.1652677, 0.194347217679, 0.157081723213, -0.0302526559681, 0.967801272869
2019-04-03 20:12:18.10,148516403, 0.15, -18.4, 157.25, 603.090026855, -35.3642588, 149.1652698, 0.194428429008, 0.157017573714, -0.0302147269249, 0.967796504498
2019-04-03 20:12:18.20,148616363, 0.13, -18.4, 157.24, 603.090026855, -35.364263, 149.1652719, 0.194532960653, 0.157041162252, -0.0304226037115, 0.967765212059
2019-04-03 20:12:18.30,148716323, 0.11, -18.42, 157.23, 603.090026855, -35.3642672, 149.1652739, 0.1946220994, 0.157125040889, -0.030582819134, 0.967728614807
2019-04-03 20:12:18.40,148816283, 0.12, -18.42, 157.22, 603.090026855, -35.3642714, 149.165276, 0.194689691067, 0.157143130898, -0.0305610839278, 0.967712759972
2019-04-03 20:12:18.50,148916243, 0.15, -18.4, 157.22, 603.090026855, -35.3642756, 149.165278, 0.194725692272, 0.157004386187, -0.0302787330002, 0.967736959457
2019-04-03 20:12:18.60,149016203, 0.17, -18.4, 157.21, 603.090026855, -35.3642797, 149.1652801, 0.194765225053, 0.157034128904, -0.0300957746804, 0.967729866505
2019-04-03 20:12:18.70,149116163, 0.16, -18.4, 157.2, 603.090026855, -35.3642838, 149.1652822, 0.194851413369, 0.157092273235, -0.0302132070065, 0.967699408531
2019-04-03 20:12:18.80,149216123, 0.13, -18.42, 157.19, 603.090026855, -35.364288, 149.1652842, 0.19495600462, 0.157198280096, -0.0305045824498, 0.967651963234
2019-04-03 20:12:18.89,149316083, 0.12, -18.44, 157.18, 603.090026855, -35.3642922, 149.1652863, 0.195025146008, 0.157363504171, -0.0306065566838, 0.967607975006
2019-04-03 20:12:18.99,149416043, 0.14, -18.45, 157.18, 603.090026855, -35.3642963, 149.1652883, 0.195064738393, 0.157459020615, -0.0305109526962, 0.967587471008
2019-04-03 20:12:19.09,149516003, 0.16, -18.44, 157.17, 603.090026855, -35.3643005, 149.1652904, 0.195095047355, 0.157411709428, -0.03036207892, 0.967593729496
