Start,TimeUS,Roll,Pitch,Yaw,Alt,Lat,Lng,Q1,Q2,Q3,Q4
2019-04-03 23:17:30.90,610515696, 0.0, 0.0, 353.0, 584.090026855, -35.363261, 149.1652299, 0.998134791851, 0.0, 0.0, -0.0610485821962
2019-04-03 23:17:31.01,610634815, 0.0, 0.0, 353.0, 584.090026855, -35.363261, 149.1652299, 0.998134791851, 0.0, 0.0, -0.0610485821962
2019-04-03 23:17:31.11,610734775, 0.0, 0.0, 353.0, 584.090026855, -35.363261, 149.1652299, 0.998134791851, 0.0, 0.0, -0.0610485821962
2019-04-03 23:17:31.21,610834735, 0.0, 0.0, 353.0, 584.090026855, -35.363261, 149.1652299, 0.998134791851, 0.0, 0.0, -0.0610485821962
2019-04-03 23:17:31.31,610934695, 0.0, 0.0, 353.0, 584.090026855, -35.363261, 149.1652299, 0.998134791851, 0.0, 0.0, -0.0610485821962
2019-04-03 23:17:31.41,611034655, 0.0, 0.0, 353.0, 584.090026855, -35.363261, 149.1652299, 0.998134791851, 0.0, 0.0, -0.0610485821962
2019-04-03 23:17:31.51,611134615, 0.0, 0.0, 353.0, 584.090026855, -35.363261, 149.1652299, 0.998134791851, 0.0, 0.0, -0.0610485821962
2019-04-03 23:17:31.61,611234575, 0.0, 0.0, 353.0, 584.090026855, -35.363261, 149.1652299, 0.998134791851, 0.0, 0.0, -0.0610485821962
2019-04-03 23:17:31.71,611334535, 0.0, 0.0, 353.0, 584.090026855, -35.363261, 149.1652299, 0.998134791851, 0.0, 0.0, -0.0610485821962
2019-04-03 23:17:31.81,611434495, 0.0, 0.0, 353.0, 584.090026855, -35.363261, 149.1652299, 0.998134791851, 0.0, 0.0, -0.0610485821962
2019-04-03 23:17:31.91,611534455, 0.0, 0.0, 353.0, 584.090026855, -35.363261, 149.1652299, 0.998134791851, 0.0, 0.0, -0.0610485821962
2019-04-03 23:17:32.01,611634415, 0.0, 0.0, 353.0, 584.090026855, -35.363261, 149.1652299, 0.998134791851, 0.0, 0.0, -0.0610485821962
2019-04-03 23:17:32.11,611734375, 0.0, 0.0, 353.0, 584.090026855, -35.363261, 149.1652299, 0.998134791851, 0.0, 0.0, -0.0610485821962
2019-04-03 23:17:32.21,611834335, 0.0, 0.0, 353.0, 584.090026855, -35.363261, 149.1652299, 0.998134791851, 0.0, 0.0, -0.0610485821962
2019-04-03 23:17:32.31,611934295, 0.0, 0.0, 353.0, 584.090026855, -35.363261, 149.1652299, 0.998134791851, 0.0, 0.0, -0.0610485821962
2019-04-03 23:17:32.41,612034255, 0.0, 0.0, 353.0, 584.090026855, -35.363261, 149.1652299, 0.998134791851, 0.0, 0.0, -0.0610485821962
2019-04-03 23:17:32.51,612134215, 0.0, 0.0, 353.0, 584.090026855, -35.363261, 149.1652299, 0.998134791851, 0.0, 0.0, -0.0610485821962
2019-04-03 23:17:32.61,612234175, 0.0, 0.0, 353.0, 584.090026855, -35.363261, 149.1652299, 0.998134791851, 0.0, 0.0, -0.0610485821962
2019-04-03 23:17:32.71,612334135, 0.0, 0.0, 353.0, 584.090026855, -35.363261, 149.1652299, 0.998134791851, 0.0, 0.0, -0.0610485821962
2019-04-03 23:17:32.81,612434095, 0.0, 0.0, 353.0, 584.090026855, -35.363261, 149.1652299, 0.998134791851, 0.0, 0.0, -0.0610485821962
2019-04-03 23:17:32.91,612534055, 0.0, 0.0, 353.0, 584.090026855, -35.363261, 149.1652299, 0.998134791851, 0.0, 0.0, -0.0610485821962
2019-04-03 23:17:33.02,612634848, 0.0, 0.0, 353.0, 584.090026855, -35.363261, 149.1652299, 0.998134791851, 0.0, 0.0, -0.0610485821962
2019-04-03 23:17:33.11,612734808, 0.0, 0.0, 353.0, 584.090026855, -35.363261, 149.1652299, 0.998134791851, 0.0, 0.0, -0.0610485821962
2019-04-03 23:17:33.21,612834768, 0.0, 0.0, 353.0, 584.090026855, -35.363261, 149.1652299, 0.998134791851, 0.0, 0.0, -0.0610485821962
2019-04-03 23:17:33.31,612934728, 0.0, 0.0, 353.0, 584.090026855, -35.363261, 149.1652299, 0.998134791851, 0.0, 0.0, -0.0610485821962
2019-04-03 23:17:33.41,613034688, 0.0, 0.0, 353.0, 584.090026855, -35.363261, 149.1652299, 0.998134791851, 0.0, 0.0, -0.0610485821962
2019-04-03 23:17:33.51,613134648, 0.0, 0.0, 353.0, 584.090026855, -35.363261, 149.1652299, 0.998134791851, 0.0, 0.0, -0.0610485821962
2019-04-03 23:17:33.61,613234608, 0.0, 0.0, 353.0, 584.090026855, -35.363261, 149.1652299, 0.998134791851, 0.0, 0.0, -0.0610485821962
2019-04-03 23:17:33.71,613334568, 0.0, 0.0, 353.0, 584.090026855, -35.363261, 149.1652299, 0.998134791851, 0.0, 0.0, -0.0610485821962
2019-04-03 23:17:33.81,613434528, 0.0, 0.0, 353.0, 584.090026855, -35.363261, 149.1652299, 0.998134791851, 0.0, 0.0, -0.0610485821962
2019-04-03 23:17:33.91,613534488, 0.0, 0.0, 353.0, 584.090026855, -35.363261, 149.1652299, 0.998134791851, 0.0, 0.0, -0.0610485821962
2019-04-03 23:17:34.01,613634448, 0.0, 0.0, 353.0, 584.090026855, -35.363261, 149.1652299, 0.998134791851, 0.0, 0.0, -0.0610485821962
2019-04-03 23:17:34.11,613734408, 0.0, 0.0, 353.0, 584.090026855, -35.363261, 149.1652299, 0.998134791851, 0.0, 0.0, -0.0610485821962
2019-04-03 23:17:34.21,613834368, 0.0, 0.0, 353.0, 584.090026855, -35.363261, 149.1652299, 0.998134791851, 0.0, 0.0, -0.0610485821962
2019-04-03 23:17:34.31,613934328, 0.0, 0.0, 353.0, 584.090026855, -35.363261, 149.1652299, 0.998134791851, 0.0, 0.0, -0.0610485821962
2019-04-03 23:17:34.41,614034288, 0.0, 0.0, 353.0, 584.090026855, -35.363261, 149.1652299, 0.998134791851, 0.0, 0.0, -0.0610485821962
2019-04-03 23:17:34.51,614134248, 0.0, 0.0, 353.0, 584.090026855, -35.363261, 149.1652299, 0.998134791851, 0.0, 0.0, -0.0610485821962
2019-04-03 23:17:34.61,614234208, 0.0, 0.0, 353.0, 584.090026855, -35.363261, 149.1652299, 0.998134791851, 0.0, 0.0, -0.0610485821962
2019-04-03 23:17:34.71,614334168, 0.0, 0.0, 353.0, 584.090026855, -35.363261, 149.1652299, 0.998134791851, 0.0, 0.0, -0.0610485821962
2019-04-03 23:17:34.81,614434128, 0.0, 0.0, 353.0, 584.090026855, -35.363261, 149.1652299, 0.998134791851, 0.0, 0.0, -0.0610485821962
2019-04-03 23:17:34.91,614534088, 0.0, 0.0, 353.0, 584.090026855, -35.363261, 149.1652299, 0.998134791851, 0.0, 0.0, -0.0610485821962
2019-04-03 23:17:35.01,614634048, 0.0, 0.0, 353.0, 584.090026855, -35.363261, 149.1652299, 0.998134791851, 0.0, 0.0, -0.0610485821962
2019-04-03 23:17:35.12,614734841, 0.0, 0.0, 353.0, 584.090026855, -35.363261, 149.1652299, 0.998134791851, 0.0, 0.0, -0.0610485821962
2019-04-03 23:17:35.21,614834801, 0.0, 0.0, 353.0, 584.090026855, -35.363261, 149.1652299, 0.998134791851, 0.0, 0.0, -0.0610485821962
2019-04-03 23:17:35.31,614934761, 0.0, 0.0, 353.0, 584.090026855, -35.363261, 149.1652299, 0.998134791851, 0.0, 0.0, -0.0610485821962
2019-04-03 23:17:35.41,615034721, 0.0, 0.0, 353.0, 584.090026855, -35.363261, 149.1652299, 0.998134791851, 0.0, 0.0, -0.0610485821962
2019-04-03 23:17:35.51,615134681, 0.0, 0.0, 353.0, 584.090026855, -35.363261, 149.1652299, 0.998134791851, 0.0, 0.0, -0.0610485821962
2019-04-03 23:17:35.61,615234641, 0.0, 0.0, 353.0, 584.090026855, -35.363261, 149.1652299, 0.998134791851, 0.0, 0.0, -0.0610485821962
2019-04-03 23:17:35.71,615334601, 0.0, 0.0, 353.0, 584.090026855, -35.363261, 149.1652299, 0.998134791851, 0.0, 0.0, -0.0610485821962
2019-04-03 23:17:35.81,615434561, 0.0, 0.0, 353.0, 584.090026855, -35.363261, 149.1652299, 0.998134791851, 0.0, 0.0, -0.0610485821962
2019-04-03 23:17:35.91,615534521, 0.0, 0.0, 353.0, 584.090026855, -35.363261, 149.1652299, 0.998134791851, 0.0, 0.0, -0.0610485821962
2019-04-03 23:17:36.01,615634481, 0.0, 0.0, 353.0, 584.090026855, -35.363261, 149.1652299, 0.998134791851, 0.0, 0.0, -0.0610485821962
2019-04-03 23:17:36.11,615734441, 0.0, 0.0, 353.0, 584.090026855, -35.363261, 149.1652299, 0.998134791851, 0.0, 0.0, -0.0610485821962
2019-04-03 23:17:36.21,615834401, 0.0, 0.0, 353.0, 584.090026855, -35.363261, 149.1652299, 0.998134791851, 0.0, 0.0, -0.0610485821962
2019-04-03 23:17:36.31,615934361, 0.0, 0.0, 353.0, 584.090026855, -35.363261, 149.1652299, 0.998134791851, 0.0, 0.0, -0.0610485821962
2019-04-03 23:17:36.41,616034321, 0.0, 0.0, 353.0, 584.090026855, -35.363261, 149.1652299, 0.998134791851, 0.0, 0.0, -0.0610485821962
2019-04-03 23:17:36.51,616134281, 0.0, 0.0, 353.0, 584.090026855, -35.363261, 149.1652299, 0.998134791851, 0.0, 0.0, -0.0610485821962
2019-04-03 23:17:36.61,616234241, 0.0, 0.0, 353.0, 584.090026855, -35.363261, 149.1652299, 0.998134791851, 0.0, 0.0, -0.0610485821962
2019-04-03 23:17:36.71,616334201, 0.0, 0.0, 353.0, 584.090026855, -35.363261, 149.1652299, 0.998134791851, 0.0, 0.0, -0.0610485821962
2019-04-03 23:17:36.81,616434161, 0.0, 0.0, 353.0, 584.090026855, -35.363261, 149.1652299, 0.998134791851, 0.0, 0.0, -0.0610485821962
2019-04-03 23:17:36.91,616534121, 0.0, 0.0, 353.0, 584.090026855, -35.363261, 149.1652299, 0.998134791851, 0.0, 0.0, -0.0610485821962
2019-04-03 23:17:37.01,616634081, 0.0, 0.0, 353.0, 584.090026855, -35.363261, 149.1652299, 0.998134791851, 0.0, 0.0, -0.0610485821962
2019-04-03 23:17:37.11,616734041, 0.0, 0.0, 353.0, 584.090026855, -35.363261, 149.1652299, 0.998134791851, 0.0, 0.0, -0.0610485821962
2019-04-03 23:17:37.22,616834834, 0.0, 0.0, 353.0, 584.090026855, -35.363261, 149.1652299, 0.998134791851, 0.0, 0.0, -0.0610485821962
2019-04-03 23:17:37.31,616934794, 0.0, 0.0, 353.0, 584.090026855, -35.363261, 149.1652299, 0.998134791851, 0.0, 0.0, -0.0610485821962
2019-04-03 23:17:37.41,617034754, 0.0, 0.0, 353.0, 584.090026855, -35.363261, 149.1652299, 0.998134791851, 0.0, 0.0, -0.0610485821962
2019-04-03 23:17:37.51,617134714, 0.0, 0.0, 353.0, 584.090026855, -35.363261, 149.1652299, 0.998134791851, 0.0, 0.0, -0.0610485821962
2019-04-03 23:17:37.61,617234674, 0.0, 0.0, 353.0, 584.090026855, -35.363261, 149.1652299, 0.998134791851, 0.0, 0.0, -0.0610485821962
2019-04-03 23:17:37.71,617334634, 0.0, 0.0, 353.0, 584.090026855, -35.363261, 149.1652299, 0.998134791851, 0.0, 0.0, -0.0610485821962
2019-04-03 23:17:37.81,617434594, 0.0, 0.0, 353.0, 584.090026855, -35.363261, 149.1652299, 0.998134791851, 0.0, 0.0, -0.0610485821962
2019-04-03 23:17:37.91,617534554, 0.0, 0.0, 353.0, 584.090026855, -35.363261, 149.1652299, 0.998134791851, 0.0, 0.0, -0.0610485821962
2019-04-03 23:17:38.01,617634514, 0.0, 0.0, 353.0, 584.090026855, -35.363261, 149.1652299, 0.998134791851, 0.0, 0.0, -0.0610485821962
2019-04-03 23:17:38.11,617734474, 0.0, 0.0, 353.0, 584.090026855, -35.363261, 149.1652299, 0.998134791851, 0.0, 0.0, -0.0610485821962
2019-04-03 23:17:38.21,617834434, 0.0, 0.0, 353.0, 584.090026855, -35.363261, 149.1652299, 0.998134791851, 0.0, 0.0, -0.0610485821962
2019-04-03 23:17:38.31,617934394, 0.0, 0.0, 353.0, 584.090026855, -35.363261, 149.1652299, 0.998134791851, 0.0, 0.0, -0.0610485821962
2019-04-03 23:17:38.41,618034354, 0.0, 0.0, 353.0, 584.090026855, -35.363261, 149.1652299, 0.998134791851, 0.0, 0.0, -0.0610485821962
2019-04-03 23:17:38.51,618134314, 0.0, 0.0, 353.0, 584.090026855, -35.363261, 149.1652299, 0.998134791851, 0.0, 0.0, -0.0610485821962
2019-04-03 23:17:38.61,618234274, 0.0, 0.0, 353.0, 584.090026855, -35.363261, 149.1652299, 0.998134791851, 0.0, 0.0, -0.0610485821962
2019-04-03 23:17:38.71,618334234, 0.0, 0.0, 353.0, 584.090026855, -35.363261, 149.1652299, 0.998134791851, 0.0, 0.0, -0.0610485821962
2019-04-03 23:17:38.81,618434194, 0.0, 0.0, 353.0, 584.090026855, -35.363261, 149.1652299, 0.998134791851, 0.0, 0.0, -0.0610485821962
2019-04-03 23:17:38.91,618534154, 0.0, 0.0, 353.0, 584.090026855, -35.363261, 149.1652299, 0.998134791851, 0.0, 0.0, -0.0610485821962
2019-04-03 23:17:39.01,618634114, 0.0, 0.0, 353.0, 584.090026855, -35.363261, 149.1652299, 0.998134791851, 0.0, 0.0, -0.0610485821962
2019-04-03 23:17:39.11,618734074, 0.0, 0.0, 353.0, 584.090026855, -35.363261, 149.1652299, 0.998134791851, 0.0, 0.0, -0.0610485821962
2019-04-03 23:17:39.21,618834034, 0.0, 0.0, 353.0, 584.090026855, -35.363261, 149.1652299, 0.998134791851, 0.0, 0.0, -0.0610485821962
2019-04-03 23:17:39.32,618934827, 0.0, 0.0, 353.0, 584.090026855, -35.363261, 149.1652299, 0.998134791851, 0.0, 0.0, -0.0610485821962
2019-04-03 23:17:39.41,619034787, 0.0, 0.0, 353.0, 584.090026855, -35.363261, 149.1652299, 0.998134791851, 0.0, 0.0, -0.0610485821962
2019-04-03 23:17:39.51,619134747, 0.0, 0.0, 353.0, 584.090026855, -35.363261, 149.1652299, 0.998134791851, 0.0, 0.0, -0.0610485821962
2019-04-03 23:17:39.61,619234707, 0.0, 0.0, 353.0, 584.090026855, -35.363261, 149.1652299, 0.998134791851, 0.0, 0.0, -0.0610485821962
2019-04-03 23:17:39.71,619334667, 0.0, 0.0, 353.0, 584.090026855, -35.363261, 149.1652299, 0.998134791851, 0.0, 0.0, -0.0610485821962
2019-04-03 23:17:39.81,619434627, 0.0, 0.0, 353.0, 584.090026855, -35.363261, 149.1652299, 0.998134791851, 0.0, 0.0, -0.0610485821962
2019-04-03 23:17:39.91,619534587, 0.0, 0.0, 353.0, 584.090026855, -35.363261, 149.1652299, 0.998134791851, 0.0, 0.0, -0.0610485821962
2019-04-03 23:17:40.01,619634547, 0.0, 0.0, 353.0, 584.090026855, -35.363261, 149.1652299, 0.998134791851, 0.0, 0.0, -0.0610485821962
2019-04-03 23:17:40.11,619734507, 0.0, 0.0, 353.0, 584.090026855, -35.363261, 149.1652299, 0.998134791851, 0.0, 0.0, -0.0610485821962
2019-04-03 23:17:40.21,619834467, 0.0, 0.0, 353.0, 584.090026855, -35.363261, 149.1652299, 0.998134791851, 0.0, 0.0, -0.0610485821962
2019-04-03 23:17:40.31,619934427, 0.0, 0.0, 353.0, 584.090026855, -35.363261, 149.1652299, 0.998134791851, 0.0, 0.0, -0.0610485821962
2019-04-03 23:17:40.41,620034387, 0.0, 0.0, 353.0, 584.090026855, -35.363261, 149.1652299, 0.998134791851, 0.0, 0.0, -0.0610485821962
2019-04-03 23:17:40.51,620134347, 0.0, 0.0, 353.0, 584.090026855, -35.363261, 149.1652299, 0.998134791851, 0.0, 0.0, -0.0610485821962
2019-04-03 23:17:40.61,620234307, 0.0, 0.0, 353.0, 584.090026855, -35.363261, 149.1652299, 0.998134791851, 0.0, 0.0, -0.0610485821962
2019-04-03 23:17:40.71,620334267, 0.0, 0.0, 353.0, 584.090026855, -35.363261, 149.1652299, 0.998134791851, 0.0, 0.0, -0.0610485821962
2019-04-03 23:17:42.11,621734540, 0.0, 0.0, 353.0, 584.090026855, -35.363261, 149.1652299, 0.998134791851, 0.0, 0.0, -0.0610485821962
2019-04-03 23:17:42.21,621834500, 0.0, 0.0, 353.0, 584.090026855, -35.363261, 149.1652299, 0.998134791851, 0.0, 0.0, -0.0610485821962
2019-04-03 23:17:42.31,621934460, 0.0, 0.0, 353.0, 584.090026855, -35.363261, 149.1652299, 0.998134791851, 0.0, 0.0, -0.0610485821962
2019-04-03 23:17:42.41,622034420, 0.0, 0.0, 353.0, 584.090026855, -35.363261, 149.1652299, 0.998134791851, 0.0, 0.0, -0.0610485821962
2019-04-03 23:17:42.51,622134380, 0.0, 0.0, 353.0, 584.090026855, -35.363261, 149.1652299, 0.998134791851, 0.0, 0.0, -0.0610485821962
2019-04-03 23:17:42.61,622234340, 0.0, 0.0, 353.0, 584.090026855, -35.363261, 149.1652299, 0.998134791851, 0.0, 0.0, -0.0610485821962
2019-04-03 23:17:42.71,622334300, 0.0, 0.0, 353.0, 584.090026855, -35.363261, 149.1652299, 0.998134791851, 0.0, 0.0, -0.0610485821962
2019-04-03 23:17:42.81,622434260, 0.0, 0.0, 353.0, 584.090026855, -35.363261, 149.1652299, 0.998134791851, 0.0, 0.0, -0.0610485821962
2019-04-03 23:17:42.91,622534220, 0.0, 0.0, 353.0, 584.090026855, -35.363261, 149.1652299, 0.998134791851, 0.0, 0.0, -0.0610485821962
2019-04-03 23:17:43.01,622634180, 0.0, 0.0, 353.0, 584.090026855, -35.363261, 149.1652299, 0.998134791851, 0.0, 0.0, -0.0610485821962
2019-04-03 23:17:43.11,622734140, 0.0, 0.0, 353.0, 584.090026855, -35.363261, 149.1652299, 0.998134791851, 0.0, 0.0, -0.0610485821962
2019-04-03 23:17:43.21,622834100, 0.0, 0.0, 353.0, 584.090026855, -35.363261, 149.1652299, 0.998134791851, 0.0, 0.0, -0.0610485821962
2019-04-03 23:17:43.31,622934060, 0.0, 0.0, 353.0, 584.090026855, -35.363261, 149.1652299, 0.998134791851, 0.0, 0.0, -0.0610485821962
2019-04-03 23:17:43.42,623034853, 0.0, 0.0, 353.0, 584.090026855, -35.363261, 149.1652299, 0.998134791851, 0.0, 0.0, -0.0610485821962
2019-04-03 23:17:43.51,623134813, 0.0, 0.0, 353.0, 584.090026855, -35.363261, 149.1652299, 0.998134791851, 0.0, 0.0, -0.0610485821962
2019-04-03 23:17:43.61,623234773, 0.0, 0.0, 353.0, 584.090026855, -35.363261, 149.1652299, 0.998134791851, 0.0, 0.0, -0.0610485821962
2019-04-03 23:17:43.71,623334733, 0.0, 0.0, 353.0, 584.090026855, -35.363261, 149.1652299, 0.998134791851, 0.0, 0.0, -0.0610485821962
2019-04-03 23:17:43.81,623434693, 0.0, 0.0, 353.0, 584.090026855, -35.363261, 149.1652299, 0.998134791851, 0.0, 0.0, -0.0610485821962
2019-04-03 23:17:43.91,623534653, 0.0, 0.0, 353.0, 584.090026855, -35.363261, 149.1652299, 0.998134791851, 0.0, 0.0, -0.0610485821962
2019-04-03 23:17:44.01,623634613, 0.0, 0.0, 353.0, 584.090026855, -35.363261, 149.1652299, 0.998134791851, 0.0, 0.0, -0.0610485821962
2019-04-03 23:17:44.11,623734573, 0.0, 0.0, 353.0, 584.090026855, -35.363261, 149.1652299, 0.998134791851, 0.0, 0.0, -0.0610485821962
2019-04-03 23:17:44.21,623834533, 0.0, 0.0, 353.0, 584.090026855, -35.363261, 149.1652299, 0.998134791851, 0.0, 0.0, -0.0610485821962
2019-04-03 23:17:44.31,623934493, 0.0, 0.0, 353.0, 584.090026855, -35.363261, 149.1652299, 0.998134791851, 0.0, 0.0, -0.0610485821962
2019-04-03 23:17:44.41,624034453, 0.0, 0.0, 353.0, 584.090026855, -35.363261, 149.1652299, 0.998134791851, 0.0, 0.0, -0.0610485821962
2019-04-03 23:17:44.51,624134413, 0.0, 0.0, 353.0, 584.090026855, -35.363261, 149.1652299, 0.998134791851, 0.0, 0.0, -0.0610485821962
2019-04-03 23:17:44.61,624234373, 0.0, 0.0, 353.0, 584.090026855, -35.363261, 149.1652299, 0.998134791851, 0.0, 0.0, -0.0610485486686
2019-04-03 23:17:44.71,624334333, 0.0, 0.0, 353.0, 584.090026855, -35.363261, 149.1652299, 0.998134791851, 0.0, 0.0, -0.061048541218
2019-04-03 23:17:44.81,624434293, 0.0, 0.0, 353.0, 584.090026855, -35.363261, 149.1652299, 0.998134791851, 0.0, 0.0, -0.061048541218
2019-04-03 23:17:44.91,624534253, 0.0, 0.0, 353.0, 584.090026855, -35.363261, 149.1652299, 0.998134791851, 0.0, 0.0, -0.061048541218
2019-04-03 23:17:45.01,624634213, 0.0, 0.0, 353.0, 584.090026855, -35.363261, 149.1652299, 0.998134791851, 0.0, 0.0, -0.061048541218
2019-04-03 23:17:45.11,624734173, 0.0, 0.0, 353.0, 584.090026855, -35.363261, 149.1652299, 0.998134791851, 0.0, 0.0, -0.061048541218
2019-04-03 23:17:45.21,624834133, 0.0, 0.0, 353.0, 584.090026855, -35.363261, 149.1652299, 0.998134791851, 0.0, 0.0, -0.0610485374928
2019-04-03 23:17:45.31,624934093, 0.0, 0.0, 353.0, 584.099975586, -35.363261, 149.1652299, 0.998134791851, 0.0, 0.0, -0.061048541218
2019-04-03 23:17:45.41,625034053, 0.0, 0.0, 353.0, 584.099975586, -35.363261, 149.1652299, 0.998134791851, 0.0, 0.0, -0.061048541218
2019-04-03 23:17:45.52,625134846, 0.0, 0.0, 353.0, 584.119995117, -35.363261, 149.1652299, 0.998134791851, 0.0, 0.0, -0.061048541218
2019-04-03 23:17:45.61,625234806, 0.0, 0.0, 353.0, 584.140014648, -35.363261, 149.1652299, 0.998134791851, 0.0, 0.0, -0.061048541218
2019-04-03 23:17:45.71,625334766, 0.0, 0.0, 353.0, 584.16998291, -35.363261, 149.1652299, 0.998134791851, 0.0, 0.0, -0.061048541218
2019-04-03 23:17:45.81,625434726, 0.0, 0.0, 353.0, 584.200012207, -35.363261, 149.1652299, 0.998134791851, 0.0, 0.0, -0.061048541218
2019-04-03 23:17:45.91,625534686, 0.0, 0.01, 353.0, 584.25, -35.363261, 149.1652299, 0.99813491106, 7.793270197e-05, 9.03953186935e-05, -0.0610466860235
2019-04-03 23:17:46.01,625634646, 0.05, 0.04, 353.0, 584.349975586, -35.363261, 149.1652299, 0.998135447502, 0.000473907712149, 0.00039710503188, -0.0610354505479
2019-04-03 23:17:46.11,625734606, 0.12, 0.11, 353.0, 584.489990234, -35.363261, 149.1652299, 0.998135983944, 0.00118246988859, 0.000895781733561, -0.0610118433833
2019-04-03 23:17:46.21,625834566, 0.2, 0.18, 353.0, 584.650024414, -35.363261, 149.1652299, 0.998136103153, 0.00187882513274, 0.00148798851296, -0.0609805248678
2019-04-03 23:17:46.31,625934526, 0.23, 0.22, 353.01, 584.809997559, -35.363261, 149.1652299, 0.998136937618, 0.00220574112609, 0.00180693657603, -0.0609466768801
2019-04-03 23:17:46.41,626034486, 0.23, 0.21, 353.01, 584.960021973, -35.363261, 149.1652299, 0.99813914299, 0.00214939354919, 0.00177341187373, -0.0609136670828
2019-04-03 23:17:46.51,626134446, 0.18, 0.17, 353.01, 585.109985352, -35.363261, 149.1652299, 0.998142361641, 0.00167473591864, 0.00138565490488, -0.0608862899244
2019-04-03 23:17:46.61,626234406, 0.12, 0.11, 353.02, 585.270019531, -35.363261, 149.1652299, 0.998144805431, 0.00116870109923, 0.000971837900579, -0.060866497457
2019-04-03 23:17:46.71,626334366, 0.09, 0.08, 353.02, 585.429992676, -35.363261, 149.1652299, 0.998145639896, 0.000852829543874, 0.000663664250169, -0.0608618557453
2019-04-03 23:17:46.81,626434326, 0.09, 0.08, 353.02, 585.599975586, -35.363261, 149.1652299, 0.998145520687, 0.000830647419207, 0.000661847239826, -0.0608640834689
2019-04-03 23:17:46.91,626534286, 0.12, 0.1, 353.01, 585.770019531, -35.363261, 149.1652299, 0.998144090176, 0.0011322646169, 0.000877405225765, -0.0608795657754
2019-04-03 23:17:47.01,626634246, 0.13, 0.09, 353.01, 585.940002441, -35.363261, 149.1652299, 0.998142540455, 0.00126590067521, 0.000774768996052, -0.0609042532742
2019-04-03 23:17:47.11,626734206, 0.02, 0.02, 353.01, 586.099975586, -35.363261, 149.1652301, 0.998141944408, 0.0002531260252, 0.000242881651502, -0.0609303377569
2019-04-03 23:17:47.21,626834166, -0.39, -0.15, 353.01, 586.25, -35.363261, 149.1652301, 0.99813324213, -0.00354204908945, -0.00114759290591, -0.0609603412449
2019-04-03 23:17:47.31,626934126, -1.15, -0.47, 353.01, 586.390014648, -35.363261, 149.1652301, 0.998078227043, -0.0103382421657, -0.00350417313166, -0.0609984025359
2019-04-03 23:17:47.41,627034086, -2.14, -0.86, 353.01, 586.510009766, -35.363261, 149.1652301, 0.997929632664, -0.0191821344197, -0.00640559010208, -0.0610532425344
2019-04-03 23:17:47.51,627134046, -3.24, -1.28, 353.02, 586.630004883, -35.363261, 149.1652299, 0.997663140297, -0.0289837289602, -0.00948886945844, -0.0611411891878
2019-04-03 23:17:47.62,627234839, -4.36, -1.7, 353.03, 586.729980469, -35.363261, 149.1652299, 0.997281610966, -0.0389492511749, -0.0125600481406, -0.0612753555179
2019-04-03 23:17:47.71,627334799, -5.37, -2.09, 353.04, 586.820007324, -35.363261, 149.1652298, 0.99684125185, -0.047871787101, -0.0154253384098, -0.0614644475281
2019-04-03 23:17:47.81,627434759, -6.23, -2.29, 353.03, 586.900024414, -35.363261, 149.1652296, 0.99640917778, -0.055460292846, -0.0166614484042, -0.0617678016424
2019-04-03 23:17:47.91,627534719, -6.91, -2.38, 353.0, 586.969970703, -35.363261, 149.1652292, 0.996028959751, -0.0614789053798, -0.0170320831239, -0.0621020235121
2019-04-03 23:17:48.01,627634679, -7.45, -2.41, 352.98, 587.030029297, -35.3632609, 149.1652288, 0.995708346367, -0.0661899670959, -0.0169732067734, -0.0624148547649
2019-04-03 23:17:48.11,627734639, -7.84, -2.38, 352.95, 587.090026855, -35.3632608, 149.1652282, 0.995471835136, -0.0695253163576, -0.0165376625955, -0.0626783445477
2019-04-03 23:17:48.21,627834599, -8.06, -2.31, 352.93, 587.130004883, -35.3632607, 149.1652274, 0.995339214802, -0.0714156553149, -0.0157383363694, -0.0628651976585
2019-04-03 23:17:48.31,627934559, -8.18, -2.22, 352.92, 587.16998291, -35.3632605, 149.1652267, 0.995273530483, -0.0724321827292, -0.0149509180337, -0.0629343092442
2019-04-03 23:17:48.41,628034519, -8.25, -2.15, 352.92, 587.210021973, -35.3632604, 149.1652258, 0.995248258114, -0.0729590654373, -0.0142647884786, -0.0628847777843
2019-04-03 23:17:48.51,628134479, -8.34, -2.07, 352.93, 587.239990234, -35.3632603, 149.1652249, 0.995209813118, -0.0737202391028, -0.0135700535029, -0.0627585873008
2019-04-03 23:17:48.61,628234439, -8.55, -1.85, 352.8, 587.270019531, -35.3632602, 149.1652238, 0.995042085648, -0.075460664928, -0.0114434873685, -0.0637651830912
2019-04-03 23:17:48.71,628334399, -8.95, -1.45, 351.97, 587.299987793, -35.3632599, 149.1652226, 0.994359374046, -0.0787308439612, -0.00713418470696, -0.070710837841
2019-04-03 23:17:48.81,628434359, -9.46, -1.15, 349.76, 587.33001709, -35.3632598, 149.1652214, 0.992495000362, -0.0830411463976, -0.00265251891688, -0.0897264257073
2019-04-03 23:17:48.91,628534319, -9.91, -1.33, 345.89, 587.349975586, -35.3632597, 149.16522, 0.988532960415, -0.0872165039182, -0.000890208233614, -0.123268321157
2019-04-03 23:17:49.01,628634279, -10.13, -2.15, 340.52, 587.369995117, -35.3632596, 149.1652186, 0.981291234493, -0.0902028977871, -0.00353826209903, -0.170054361224
2019-04-03 23:17:49.11,628734239, -9.94, -3.6, 333.92, 587.390014648, -35.3632596, 149.1652169, 0.969457685947, -0.0914817601442, -0.0109601970762, -0.227294504642
2019-04-03 23:17:49.21,628834199, -9.27, -5.47, 326.36, 587.41998291, -35.3632595, 149.1652154, 0.951894044876, -0.0910650417209, -0.0221942104399, -0.29174003005
2019-04-03 23:17:49.31,628934159, -8.1, -7.52, 318.12, 587.440002441, -35.3632595, 149.1652135, 0.927958667278, -0.0892543196678, -0.0359712094069, -0.360045105219
2019-04-03 23:17:49.41,629034119, -6.47, -9.49, 309.45, 587.460021973, -35.3632593, 149.1652117, 0.897739648819, -0.0861612558365, -0.0506965890527, -0.429033309221
2019-04-03 23:17:49.51,629134079, -4.5, -11.12, 300.63, 587.489990234, -35.3632593, 149.1652097, 0.862130224705, -0.0819175466895, -0.0647962167859, -0.495804876089
2019-04-03 23:17:49.61,629234039, -2.33, -12.3, 291.98, 587.510009766, -35.3632592, 149.1652078, 0.822780966759, -0.0767375677824, -0.0774411931634, -0.557804346085
2019-04-03 23:17:49.72,629334832, 0.0, -12.98, 283.75, 587.539978027, -35.3632592, 149.1652056, 0.781666755676, -0.0698329433799, -0.0888827517629, -0.613368034363
2019-04-03 23:17:49.81,629434792, 2.48, -13.17, 276.66, 587.559997559, -35.363259, 149.1652034, 0.743563115597, -0.0601388216019, -0.100018814206, -0.658402204514
2019-04-03 23:17:49.91,629534752, 4.76, -13.01, 271.28, 587.590026855, -35.3632587, 149.165201, 0.713040113449, -0.0496465265751, -0.109828710556, -0.690685689449
2019-04-03 23:17:50.01,629634712, 6.4, -12.74, 267.9, 587.619995117, -35.3632586, 149.1651986, 0.69315046072, -0.0412247404456, -0.11689402163, -0.710055470467
2019-04-03 23:17:50.11,629734672, 7.18, -12.58, 266.44, 587.640014648, -35.3632582, 149.1651959, 0.684355795383, -0.0370602346957, -0.120343394578, -0.718192994595
2019-04-03 23:17:50.21,629834632, 7.07, -12.63, 266.6, 587.66998291, -35.3632578, 149.1651934, 0.68534630537, -0.0379149205983, -0.119947470725, -0.717269539833
2019-04-03 23:17:50.31,629934592, 6.15, -12.92, 268.04, 587.700012207, -35.3632573, 149.1651906, 0.693849027157, -0.043760702014, -0.11647567153, -0.709289848804
2019-04-03 23:17:50.41,630034552, 4.64, -13.41, 270.37, 587.729980469, -35.3632567, 149.1651879, 0.707342624664, -0.0537205040455, -0.111163251102, -0.696005225182
2019-04-03 23:17:50.51,630134512, 2.79, -14.0, 273.28, 587.760009766, -35.3632561, 149.1651849, 0.723487317562, -0.0660961568356, -0.105268754065, -0.679055154324
2019-04-03 23:17:50.61,630234472, 0.88, -14.56, 276.43, 587.789978027, -35.3632555, 149.165182, 0.740268826485, -0.0787950158119, -0.0996157974005, -0.660204648972
2019-04-03 23:17:50.71,630334432, -0.86, -14.99, 279.47, 587.820007324, -35.3632549, 149.1651791, 0.75591814518, -0.0900545492768, -0.0946932733059, -0.641491293907
2019-04-03 23:17:50.81,630434392, -2.27, -15.22, 282.09, 587.849975586, -35.3632543, 149.1651758, 0.769003689289, -0.0985885560513, -0.0906458869576, -0.625057578087
2019-04-03 23:17:50.91,630534352, -3.2, -15.32, 284.04, 587.880004883, -35.3632537, 149.1651727, 0.77863663435, -0.103862963617, -0.0880385264754, -0.612524867058
2019-04-03 23:17:51.01,630634312, -3.63, -15.34, 285.22, 587.909973145, -35.3632531, 149.1651694, 0.784473240376, -0.10601361841, -0.0869692414999, -0.604813337326
2019-04-03 23:17:51.11,630734272, -3.61, -15.33, 285.62, 587.940002441, -35.3632526, 149.165166, 0.786630034447, -0.105495058, -0.0873426273465, -0.602042555809
2019-04-03 23:17:51.21,630834232, -3.24, -15.34, 285.35, 587.969970703, -35.363252, 149.1651624, 0.785512149334, -0.103181764483, -0.0891133621335, -0.603641450405
2019-04-03 23:17:51.31,630934192, -2.61, -15.42, 284.55, 588.0, -35.3632517, 149.1651589, 0.781771361828, -0.0999274328351, -0.0922888964415, -0.608548104763
2019-04-03 23:17:51.41,631034152, -1.81, -15.56, 283.42, 588.039978027, -35.3632512, 149.1651552, 0.776254296303, -0.0962270572782, -0.0965272188187, -0.61550962925
2019-04-03 23:17:51.51,631134112, -0.97, -15.73, 282.14, 588.070007324, -35.3632507, 149.1651516, 0.769871115685, -0.0925447717309, -0.101165339351, -0.623297274113
2019-04-03 23:17:51.61,631234072, -0.18, -15.88, 280.89, 588.099975586, -35.3632501, 149.1651478, 0.763504087925, -0.0892601981759, -0.105527192354, -0.630839288235
2019-04-03 23:17:51.71,631334032, 0.46, -16.01, 279.81, 588.130004883, -35.3632497, 149.1651439, 0.757908165455, -0.0866304114461, -0.109128154814, -0.637307941914
2019-04-03 23:17:51.82,631434825, 0.94, -16.11, 278.99, 588.159973145, -35.3632492, 149.1651399, 0.75358825922, -0.0848326385021, -0.111882321537, -0.642176389694
2019-04-03 23:17:51.91,631534785, 1.24, -16.2, 278.49, 588.190002441, -35.3632487, 149.165136, 0.750929355621, -0.0838391110301, -0.113775514066, -0.64508241415
2019-04-03 23:17:52.01,631634745, 1.35, -16.27, 278.31, 588.219970703, -35.3632481, 149.1651321, 0.749919116497, -0.0836854726076, -0.114696919918, -0.6461135149
2019-04-03 23:17:52.11,631734705, 1.28, -16.31, 278.4, 588.25, -35.3632475, 149.1651279, 0.750379800797, -0.08432405442, -0.114652648568, -0.645503282547
2019-04-03 23:17:52.21,631834665, 1.06, -16.35, 278.72, 588.280029297, -35.3632469, 149.1651239, 0.75198251009, -0.0856272950768, -0.113940633833, -0.643589794636
2019-04-03 23:17:52.31,631934625, 0.76, -16.4, 279.19, 588.309997559, -35.3632463, 149.1651197, 0.754321455956, -0.0874348804355, -0.112887330353, -0.640789151192
2019-04-03 23:17:52.41,632034585, 0.43, -16.46, 279.72, 588.340026855, -35.3632456, 149.1651156, 0.756987631321, -0.089453548193, -0.111873909831, -0.63753592968
2019-04-03 23:17:52.51,632134545, 0.09, -16.52, 280.25, 588.369995117, -35.363245, 149.1651114, 0.759607791901, -0.0915163233876, -0.110793411732, -0.634307205677
2019-04-03 23:17:52.61,632234505, -0.21, -16.56, 280.72, 588.400024414, -35.3632443, 149.1651071, 0.761907219887, -0.0933094993234, -0.109789282084, -0.631456315517
2019-04-03 23:17:52.71,632334465, -0.41, -16.59, 281.09, 588.429992676, -35.3632437, 149.1651028, 0.763711988926, -0.0944774225354, -0.10915196687, -0.629208981991
2019-04-03 23:17:52.81,632434425, -0.51, -16.62, 281.32, 588.460021973, -35.363243, 149.1650984, 0.764898717403, -0.0950578898191, -0.109010502696, -0.627702713013
2019-04-03 23:17:52.91,632534385, -0.51, -16.66, 281.43, 588.489990234, -35.3632424, 149.1650941, 0.765440225601, -0.0952055603266, -0.10931161046, -0.626967430115
2019-04-03 23:17:53.01,632634345, -0.47, -16.7, 281.42, 588.520019531, -35.3632416, 149.1650895, 0.765368759632, -0.0951654240489, -0.10984519124, -0.626967489719
2019-04-03 23:17:53.11,632734305, -0.37, -16.75, 281.31, 588.549987793, -35.3632409, 149.1650852, 0.764817297459, -0.0948747247458, -0.110593028367, -0.627552807331
2019-04-03 23:17:53.21,632834265, -0.22, -16.78, 281.14, 588.58001709, -35.3632403, 149.1650807, 0.763969063759, -0.0942094400525, -0.11148263514, -0.628528058529
2019-04-03 23:17:53.31,632934225, -0.06, -16.81, 280.94, 588.609985352, -35.3632397, 149.1650761, 0.762960970402, -0.0934486761689, -0.112414635718, -0.62969905138
2019-04-03 23:17:53.41,633034185, 0.1, -16.81, 280.73, 588.640014648, -35.363239, 149.1650716, 0.76194870472, -0.0925998166203, -0.113192461431, -0.630909621716
2019-04-03 23:17:53.51,633134145, 0.25, -16.84, 280.54, 588.66998291, -35.3632383, 149.165067, 0.76102399826, -0.0918983370066, -0.114023506641, -0.63197773695
2019-04-03 23:17:53.61,633234105, 0.36, -16.86, 280.4, 588.700012207, -35.3632376, 149.1650623, 0.760274529457, -0.0914583578706, -0.114636927843, -0.632832050323
2019-04-03 23:17:53.71,633334065, 0.4, -16.88, 280.3, 588.729980469, -35.3632368, 149.1650577, 0.759733438492, -0.0914235711098, -0.114964097738, -0.633427321911
2019-04-03 23:17:53.81,633434025, 0.4, -16.93, 280.25, 588.760009766, -35.3632361, 149.1650531, 0.759420931339, -0.0917406603694, -0.115233160555, -0.633707225323
2019-04-03 23:17:53.91,633534818, 0.38, -16.98, 280.25, 588.789978027, -35.3632354, 149.1650483, 0.759365200996, -0.0921045020223, -0.115438751876, -0.633683800697
2019-04-03 23:17:54.01,633634778, 0.35, -17.0, 280.29, 588.820007324, -35.3632347, 149.1650436, 0.759525001049, -0.0923840627074, -0.115484654903, -0.633443176746
2019-04-03 23:17:54.11,633734738, 0.31, -17.0, 280.35, 588.849975586, -35.3632339, 149.1650388, 0.759833574295, -0.0926219895482, -0.115322671831, -0.633067786694
2019-04-03 23:17:54.21,633834698, 0.25, -17.0, 280.42, 588.880004883, -35.3632331, 149.165034, 0.760211229324, -0.0929012522101, -0.115015976131, -0.632629096508
2019-04-03 23:17:54.31,633934658, 0.19, -16.99, 280.5, 588.909973145, -35.3632324, 149.1650293, 0.760581016541, -0.0932263955474, -0.114677876234, -0.632198035717
2019-04-03 23:17:54.41,634034618, 0.13, -17.0, 280.57, 588.940002441, -35.3632317, 149.1650245, 0.760889828205, -0.0935786068439, -0.114526696503, -0.631801724434
2019-04-03 23:17:54.51,634134578, 0.1, -17.03, 280.62, 588.969970703, -35.3632309, 149.1650197, 0.761117994785, -0.0938696935773, -0.114526890218, -0.63148355484
2019-04-03 23:17:54.61,634234538, 0.09, -17.06, 280.65, 589.0, -35.3632301, 149.1650149, 0.761246681213, -0.09409314394, -0.114666983485, -0.631269752979
2019-04-03 23:17:54.71,634334498, 0.09, -17.09, 280.66, 589.030029297, -35.3632294, 149.1650101, 0.761275649071, -0.094230376184, -0.114938311279, -0.631164968014
2019-04-03 23:17:54.81,634434458, 0.1, -17.12, 280.65, 589.059997559, -35.3632286, 149.1650052, 0.761208236217, -0.0943234562874, -0.115179330111, -0.631188452244
2019-04-03 23:17:54.91,634534418, 0.1, -17.12, 280.62, 589.090026855, -35.3632278, 149.1650004, 0.76106107235, -0.0943813920021, -0.115156941116, -0.631361305714
2019-04-03 23:17:55.01,634634378, 0.08, -17.12, 280.58, 589.119995117, -35.363227, 149.1649955, 0.760838508606, -0.0945009738207, -0.115010648966, -0.631638288498
2019-04-03 23:17:55.11,634734338, 0.09, -17.11, 280.54, 589.150024414, -35.3632263, 149.1649904, 0.760592460632, -0.0945078209043, -0.114986620843, -0.631937801838
2019-04-03 23:17:55.21,634834298, 0.12, -17.11, 280.49, 589.190002441, -35.3632255, 149.1649856, 0.760362744331, -0.0943065434694, -0.115074463189, -0.632228374481
2019-04-03 23:17:55.31,634934258, 0.16, -17.11, 280.44, 589.219970703, -35.3632246, 149.1649807, 0.760135889053, -0.0941270813346, -0.115276023746, -0.632491111755
2019-04-03 23:17:55.41,635034218, 0.18, -17.14, 280.4, 589.25, -35.3632239, 149.1649756, 0.759889662266, -0.0941868722439, -0.115565814078, -0.632725119591
2019-04-03 23:17:55.51,635134178, 0.19, -17.2, 280.37, 589.280029297, -35.3632232, 149.1649708, 0.759644150734, -0.0944542065263, -0.115950375795, -0.632909715176
2019-04-03 23:17:55.61,635234138, 0.19, -17.24, 280.34, 589.309997559, -35.3632224, 149.1649658, 0.75945019722, -0.0946814864874, -0.116207107902, -0.633061468601
2019-04-03 23:17:55.71,635334098, 0.19, -17.28, 280.32, 589.340026855, -35.3632215, 149.1649608, 0.759290754795, -0.0949668884277, -0.116493396461, -0.633157253265
2019-04-03 23:17:55.81,635434058, 0.19, -17.31, 280.3, 589.369995117, -35.3632208, 149.1649558, 0.759194672108, -0.0951453968883, -0.116627663374, -0.633220970631
2019-04-03 23:17:55.92,635534851, 0.18, -17.31, 280.3, 589.400024414, -35.36322, 149.1649507, 0.759148180485, -0.095209017396, -0.116632603109, -0.633266270161
2019-04-03 23:17:56.01,635634811, 0.19, -17.32, 280.29, 589.429992676, -35.3632191, 149.1649458, 0.75911706686, -0.0952335521579, -0.116681337357, -0.633290886879
2019-04-03 23:17:56.11,635734771, 0.18, -17.33, 280.29, 589.460021973, -35.3632184, 149.1649407, 0.759079635143, -0.0953321456909, -0.116747803986, -0.633308708668
2019-04-03 23:17:56.21,635834731, 0.17, -17.36, 280.29, 589.489990234, -35.3632176, 149.1649357, 0.759026110172, -0.0955823734403, -0.116878412664, -0.633311033249
2019-04-03 23:17:56.31,635934691, 0.15, -17.4, 280.28, 589.520019531, -35.3632169, 149.1649306, 0.758956730366, -0.0959593057632, -0.117032162845, -0.633308768272
2019-04-03 23:17:56.41,636034651, 0.14, -17.43, 280.28, 589.549987793, -35.363216, 149.1649256, 0.758905231953, -0.0961772873998, -0.11713000387, -0.633319318295
2019-04-03 23:17:56.51,636134611, 0.15, -17.43, 280.28, 589.58001709, -35.3632153, 149.1649205, 0.758892774582, -0.0960730910301, -0.117189526558, -0.633339047432
2019-04-03 23:17:56.61,636234571, 0.16, -17.4, 280.27, 589.609985352, -35.3632145, 149.1649155, 0.758886992931, -0.0958725139499, -0.117102265358, -0.633392453194
2019-04-03 23:17:56.71,636334531, 0.15, -17.39, 280.26, 589.640014648, -35.3632136, 149.1649104, 0.758827328682, -0.095933996141, -0.116942226887, -0.633484244347
2019-04-03 23:17:56.81,636434491, 0.11, -17.41, 280.25, 589.66998291, -35.3632129, 149.1649052, 0.758707821369, -0.0962728634477, -0.116830587387, -0.633596599102
2019-04-03 23:17:56.91,636534451, 0.09, -17.44, 280.23, 589.700012207, -35.3632121, 149.1649002, 0.758578419685, -0.0965915098786, -0.116863921285, -0.633696854115
2019-04-03 23:17:57.01,636634411, 0.1, -17.46, 280.22, 589.729980469, -35.3632112, 149.1648951, 0.75847452879, -0.0966977626085, -0.117095723748, -0.63376224041
2019-04-03 23:17:57.11,636734371, 0.12, -17.49, 280.2, 589.760009766, -35.3632105, 149.1648899, 0.758385539055, -0.0966914072633, -0.117374680936, -0.633818030357
2019-04-03 23:17:57.21,636834331, 0.13, -17.52, 280.19, 589.789978027, -35.3632097, 149.1648849, 0.758283019066, -0.096804395318, -0.117595136166, -0.633882641792
2019-04-03 23:17:57.31,636934291, 0.11, -17.56, 280.17, 589.83001709, -35.3632088, 149.1648798, 0.758140623569, -0.0971850752831, -0.117723874748, -0.633970737457
2019-04-03 23:17:57.41,637034251, 0.08, -17.59, 280.16, 589.859985352, -35.3632081, 149.1648746, 0.758001804352, -0.0975940153003, -0.117733776569, -0.634072124958
2019-04-03 23:17:57.51,637134211, 0.06, -17.61, 280.14, 589.890014648, -35.3632073, 149.1648694, 0.757887482643, -0.0978640466928, -0.117801815271, -0.634154558182
2019-04-03 23:17:57.61,637234171, 0.06, -17.62, 280.13, 589.91998291, -35.3632064, 149.1648644, 0.757805168629, -0.0979146957397, -0.117850854993, -0.634235978127
2019-04-03 23:17:57.71,637334131, 0.08, -17.63, 280.12, 589.950012207, -35.3632057, 149.1648592, 0.757737636566, -0.0978512614965, -0.118039228022, -0.634291410446
2019-04-03 23:17:57.81,637434091, 0.1, -17.64, 280.1, 589.979980469, -35.3632049, 149.164854, 0.757678687572, -0.0977741107345, -0.118207745254, -0.634342372417
2019-04-03 23:17:57.91,637534051, 0.11, -17.63, 280.09, 590.010009766, -35.3632041, 149.1648488, 0.757634699345, -0.0977141931653, -0.118157178164, -0.634413540363
2019-04-03 23:17:58.02,637634844, 0.11, -17.61, 280.09, 590.039978027, -35.3632032, 149.1648437, 0.75761783123, -0.0975903347135, -0.117981545627, -0.634485423565
2019-04-03 23:17:58.11,637734804, 0.11, -17.58, 280.08, 590.070007324, -35.3632025, 149.1648385, 0.757618606091, -0.0974128693342, -0.117825835943, -0.634540677071
2019-04-03 23:17:58.21,637834764, 0.12, -17.56, 280.08, 590.099975586, -35.3632017, 149.1648333, 0.757620573044, -0.0972487106919, -0.117682509124, -0.634590089321
2019-04-03 23:17:58.31,637934724, 0.1, -17.56, 280.07, 590.130004883, -35.3632008, 149.1648281, 0.757589161396, -0.0973422452807, -0.117600671947, -0.634628474712
2019-04-03 23:17:58.41,638034684, 0.09, -17.58, 280.07, 590.159973145, -35.3632001, 149.1648229, 0.757542252541, -0.0975556895137, -0.117708198726, -0.634631693363
2019-04-03 23:17:58.51,638134644, 0.08, -17.62, 280.07, 590.190002441, -35.3631993, 149.1648176, 0.757477343082, -0.0978900119662, -0.117891833186, -0.634623587132
2019-04-03 23:17:58.61,638234604, 0.06, -17.67, 280.07, 590.219970703, -35.3631984, 149.1648124, 0.757409632206, -0.0982461050153, -0.118160538375, -0.63459944725
2019-04-03 23:17:58.71,638334564, 0.06, -17.72, 280.07, 590.25, -35.3631977, 149.1648073, 0.757351517677, -0.0985658839345, -0.118441700935, -0.63456684351
2019-04-03 23:17:58.81,638434524, 0.05, -17.74, 280.07, 590.280029297, -35.3631969, 149.1648021, 0.757329702377, -0.0986909717321, -0.118523210287, -0.634558200836
2019-04-03 23:17:58.91,638534484, 0.04, -17.72, 280.07, 590.309997559, -35.363196, 149.1647969, 0.757333576679, -0.098697848618, -0.118325449526, -0.634589374065
2019-04-03 23:17:59.01,638634444, 0.02, -17.69, 280.07, 590.349975586, -35.3631953, 149.1647917, 0.75735104084, -0.0986446365714, -0.117992982268, -0.634638726711
2019-04-03 23:17:59.11,638734404, 0.01, -17.67, 280.07, 590.380004883, -35.3631945, 149.1647864, 0.757359147072, -0.0985590666533, -0.117814525962, -0.634675502777
2019-04-03 23:17:59.21,638834364, 0.02, -17.66, 280.06, 590.409973145, -35.3631936, 149.1647812, 0.757354855537, -0.0984566435218, -0.117827922106, -0.634694039822
2019-04-03 23:17:59.31,638934324, 0.02, -17.68, 280.06, 590.440002441, -35.3631929, 149.164776, 0.757320940495, -0.098520681262, -0.117943905294, -0.634703040123
2019-04-03 23:17:59.41,639034284, 0.02, -17.7, 280.05, 590.469970703, -35.3631922, 149.1647707, 0.757274270058, -0.0986676067114, -0.118055269122, -0.634715139866
2019-04-03 23:17:59.51,639134244, 0.02, -17.72, 280.05, 590.5, -35.3631914, 149.1647654, 0.757227659225, -0.0988264530897, -0.118190348148, -0.634720921516
2019-04-03 23:17:59.61,639234204, 0.02, -17.75, 280.05, 590.530029297, -35.3631905, 149.1647602, 0.757183551788, -0.0989734083414, -0.118349328637, -0.634721040726
2019-04-03 23:17:59.71,639334164, 0.02, -17.75, 280.05, 590.559997559, -35.3631898, 149.1647549, 0.757176697254, -0.0989643484354, -0.118374079466, -0.634726047516
2019-04-03 23:17:59.81,639434124, 0.02, -17.75, 280.05, 590.590026855, -35.363189, 149.1647497, 0.757177948952, -0.0989587530494, -0.118398420513, -0.634720861912
2019-04-03 23:17:59.91,639534084, 0.01, -17.77, 280.05, 590.619995117, -35.3631881, 149.1647444, 0.757143199444, -0.0992114618421, -0.118482999504, -0.634707093239
2019-04-03 23:18:00.01,639634044, 0.0, -17.8, 280.05, 590.650024414, -35.3631874, 149.1647391, 0.757115840912, -0.0994246527553, -0.118533119559, -0.634696960449
2019-04-03 23:18:00.12,639734837, 0.0, -17.78, 280.05, 590.679992676, -35.3631866, 149.1647338, 0.757143378258, -0.0992780402303, -0.118500083685, -0.634693264961
2019-04-03 23:18:00.21,639834797, 0.0, -17.77, 280.05, 590.710021973, -35.3631857, 149.1647286, 0.757150113583, -0.0992420613766, -0.118457011878, -0.634698867798
2019-04-03 23:18:00.31,639934757, 0.0, -17.79, 280.05, 590.75, -35.363185, 149.1647233, 0.75713300705, -0.0993334278464, -0.118537984788, -0.634689927101
2019-04-03 23:18:00.41,640034717, 0.01, -17.8, 280.05, 590.780029297, -35.3631843, 149.164718, 0.757136166096, -0.0993049815297, -0.118691861629, -0.634661853313
2019-04-03 23:18:00.51,640134677, 0.01, -17.78, 280.05, 590.809997559, -35.3631835, 149.1647128, 0.757159113884, -0.0992126241326, -0.118561118841, -0.634673297405
2019-04-03 23:18:00.61,640234637, 0.02, -17.73, 280.05, 590.840026855, -35.3631826, 149.1647075, 0.757218539715, -0.0989007428288, -0.118263185024, -0.634706676006
2019-04-03 23:18:00.71,640334597, 0.05, -17.68, 280.05, 590.869995117, -35.3631819, 149.1647022, 0.757297754288, -0.0984354689717, -0.118102483451, -0.63471442461
2019-04-03 23:18:00.81,640434557, 0.07, -17.65, 280.05, 590.900024414, -35.3631811, 149.164697, 0.757360875607, -0.0981125980616, -0.11804959178, -0.634698927402
2019-04-03 23:18:00.91,640534517, 0.07, -17.66, 280.06, 590.929992676, -35.3631804, 149.1646917, 0.757375359535, -0.0981401503086, -0.118114992976, -0.634665250778
2019-04-03 23:18:01.01,640634477, 0.05, -17.68, 280.06, 590.960021973, -35.3631795, 149.1646864, 0.75736540556, -0.0983307510614, -0.118117578328, -0.634647130966
2019-04-03 23:18:01.11,640734437, 0.02, -17.69, 280.06, 590.989990234, -35.3631788, 149.1646811, 0.757331550121, -0.0986492112279, -0.118016339839, -0.634656906128
2019-04-03 23:18:01.21,640834397, 0.0, -17.71, 280.07, 591.020019531, -35.363178, 149.1646758, 0.757313728333, -0.0988933071494, -0.117978274822, -0.634647250175
2019-04-03 23:18:01.31,640934357, -0.01, -17.73, 280.07, 591.049987793, -35.3631771, 149.1646705, 0.75730496645, -0.09911365062, -0.118032708764, -0.634613275528
2019-04-03 23:18:01.41,641034317, -0.02, -17.76, 280.08, 591.08001709, -35.3631765, 149.1646653, 0.757301568985, -0.0993395671248, -0.118230804801, -0.634545087814
2019-04-03 23:18:01.51,641134277, -0.02, -17.8, 280.09, 591.109985352, -35.3631757, 149.16466, 0.757306456566, -0.0995166376233, -0.118485607207, -0.634463965893
2019-04-03 23:18:01.61,641234237, 0.0, -17.81, 280.09, 591.140014648, -35.3631749, 149.1646547, 0.757359743118, -0.0993860438466, -0.118710890412, -0.634378731251
2019-04-03 23:18:01.71,641334197, 0.02, -17.81, 280.1, 591.16998291, -35.3631741, 149.1646494, 0.757408261299, -0.0992884561419, -0.118854999542, -0.634309113026
2019-04-03 23:18:01.81,641434157, 0.03, -17.81, 280.11, 591.200012207, -35.3631734, 149.1646441, 0.757463753223, -0.0991630628705, -0.11886921525, -0.634259700775
2019-04-03 23:18:01.91,641534117, 0.03, -17.79, 280.11, 591.229980469, -35.3631726, 149.1646388, 0.757514715195, -0.0990930274129, -0.118770599365, -0.634228348732
2019-04-03 23:18:02.01,641634077, 0.0, -17.76, 280.12, 591.260009766, -35.3631717, 149.1646334, 0.757565140724, -0.0990939587355, -0.118470214307, -0.634224116802
2019-04-03 23:18:02.11,641734037, -0.01, -17.74, 280.13, 591.289978027, -35.363171, 149.1646281, 0.757616758347, -0.0991043969989, -0.118154510856, -0.634219765663
2019-04-03 23:18:02.22,641834830, -0.04, -17.73, 280.14, 591.320007324, -35.3631703, 149.1646228, 0.757648468018, -0.0992231592536, -0.118000276387, -0.634192049503
2019-04-03 23:18:02.31,641934790, -0.06, -17.73, 280.15, 591.349975586, -35.3631695, 149.1646175, 0.757673025131, -0.099353171885, -0.117899268866, -0.634161114693
2019-04-03 23:18:02.41,642034750, -0.05, -17.74, 280.15, 591.380004883, -35.3631686, 149.1646122, 0.757712543011, -0.099315866828, -0.11800211668, -0.634100615978
2019-04-03 23:18:02.51,642134710, -0.03, -17.75, 280.16, 591.409973145, -35.3631679, 149.164607, 0.757752716541, -0.0992639437318, -0.118131771684, -0.63403660059
2019-04-03 23:18:02.61,642234670, -0.03, -17.75, 280.17, 591.440002441, -35.3631672, 149.1646017, 0.757791638374, -0.0992517843843, -0.118136636913, -0.633991062641
2019-04-03 23:18:02.71,642334630, -0.06, -17.75, 280.17, 591.469970703, -35.3631664, 149.1645964, 0.757812976837, -0.0993853285909, -0.118013039231, -0.63396769762
2019-04-03 23:18:02.81,642434590, -0.08, -17.75, 280.18, 591.5, -35.3631655, 149.1645911, 0.757823467255, -0.0995694249868, -0.117891788483, -0.633948743343
2019-04-03 23:18:02.91,642534550, -0.09, -17.74, 280.19, 591.530029297, -35.3631649, 149.1645858, 0.757856369019, -0.0995815768838, -0.117830596864, -0.633918941021
2019-04-03 23:18:03.01,642634510, -0.07, -17.73, 280.19, 591.559997559, -35.3631641, 149.1645805, 0.757916390896, -0.0993961542845, -0.117872908711, -0.633868396282
2019-04-03 23:18:03.11,642734470, -0.05, -17.73, 280.2, 591.590026855, -35.3631632, 149.1645752, 0.757980287075, -0.0991962105036, -0.117940865457, -0.633810698986
2019-04-03 23:18:03.21,642834430, -0.04, -17.72, 280.21, 591.619995117, -35.3631625, 149.1645699, 0.758027970791, -0.0991153568029, -0.117990344763, -0.63375711441
2019-04-03 23:18:03.31,642934390, -0.05, -17.73, 280.21, 591.650024414, -35.3631618, 149.1645646, 0.758054971695, -0.0992390587926, -0.11800403893, -0.633702874184
2019-04-03 23:18:03.41,643034350, -0.07, -17.75, 280.22, 591.679992676, -35.363161, 149.1645592, 0.75806927681, -0.0994497165084, -0.117984160781, -0.633656382561
2019-04-03 23:18:03.51,643134310, -0.09, -17.76, 280.23, 591.710021973, -35.3631602, 149.1645539, 0.758084774017, -0.0996513292193, -0.11795090884, -0.633612453938
2019-04-03 23:18:03.61,643234270, -0.1, -17.76, 280.24, 591.739990234, -35.3631595, 149.1645486, 0.758126735687, -0.0996956378222, -0.117880046368, -0.633568406105
2019-04-03 23:18:03.71,643334230, -0.11, -17.75, 280.25, 591.770019531, -35.3631587, 149.1645433, 0.758180737495, -0.0996666625142, -0.117786429822, -0.633525788784
2019-04-03 23:18:03.81,643434190, -0.11, -17.75, 280.26, 591.799987793, -35.363158, 149.164538, 0.758227348328, -0.0996926426888, -0.117772452533, -0.633468568325
2019-04-03 23:18:03.91,643534150, -0.11, -17.76, 280.27, 591.83001709, -35.3631571, 149.1645328, 0.758266329765, -0.0997456163168, -0.117910042405, -0.633387923241
2019-04-03 23:18:04.01,643634110, -0.11, -17.78, 280.28, 591.859985352, -35.3631564, 149.1645275, 0.758301973343, -0.0998299270868, -0.118066743016, -0.633302748203
2019-04-03 23:18:04.11,643734070, -0.13, -17.78, 280.29, 591.890014648, -35.3631557, 149.1645222, 0.758347451687, -0.0999219492078, -0.117909617722, -0.63326305151
2019-04-03 23:18:04.21,643834030, -0.15, -17.76, 280.3, 591.91998291, -35.3631549, 149.1645169, 0.75840061903, -0.0999802276492, -0.117688059807, -0.633231401443
2019-04-03 23:18:04.32,643934823, -0.15, -17.74, 280.31, 591.950012207, -35.363154, 149.1645115, 0.758480191231, -0.0998440682888, -0.117603898048, -0.63317322731
2019-04-03 23:18:04.41,644034783, -0.13, -17.72, 280.32, 591.979980469, -35.3631533, 149.1645062, 0.758568108082, -0.099630638957, -0.1175673455, -0.633108317852
2019-04-03 23:18:04.51,644134743, -0.12, -17.71, 280.33, 592.010009766, -35.3631526, 149.1645009, 0.758649766445, -0.099440343678, -0.11754475534, -0.633044600487
2019-04-03 23:18:04.61,644234703, -0.09, -17.7, 280.34, 592.039978027, -35.3631518, 149.1644955, 0.75872862339, -0.0992315411568, -0.117657482624, -0.63296186924
2019-04-03 23:18:04.71,644334663, -0.06, -17.71, 280.35, 592.070007324, -35.363151, 149.1644902, 0.758802711964, -0.0990631431341, -0.11786223948, -0.632861375809
2019-04-03 23:18:04.81,644434623, -0.06, -17.72, 280.36, 592.099975586, -35.3631503, 149.1644849, 0.758857011795, -0.0990665853024, -0.117967046797, -0.632776081562
2019-04-03 23:18:04.91,644534583, -0.08, -17.72, 280.37, 592.130004883, -35.3631495, 149.1644796, 0.758910119534, -0.0991703420877, -0.117857158184, -0.632716655731
2019-04-03 23:18:05.01,644634543, -0.1, -17.71, 280.38, 592.159973145, -35.3631488, 149.1644743, 0.758970022202, -0.099250100553, -0.117672421038, -0.632666707039
2019-04-03 23:18:05.11,644734503, -0.13, -17.7, 280.4, 592.190002441, -35.3631479, 149.164469, 0.759021162987, -0.0993640050292, -0.117477871478, -0.632623612881
2019-04-03 23:18:05.21,644834463, -0.16, -17.7, 280.41, 592.219970703, -35.3631473, 149.1644637, 0.759048461914, -0.0995690599084, -0.117344550788, -0.632583379745
2019-04-03 23:18:05.31,644934423, -0.17, -17.71, 280.41, 592.25, -35.3631465, 149.1644584, 0.759077370167, -0.0996885225177, -0.117380149662, -0.632523298264
2019-04-03 23:18:05.41,645034383, -0.15, -17.71, 280.42, 592.280029297, -35.3631456, 149.1644531, 0.759141921997, -0.0995679944754, -0.11741900444, -0.632457613945
2019-04-03 23:18:05.51,645134343, -0.14, -17.7, 280.43, 592.309997559, -35.3631449, 149.1644478, 0.759214401245, -0.0994293391705, -0.117436654866, -0.632389068604
2019-04-03 23:18:05.61,645234303, -0.15, -17.72, 280.44, 592.340026855, -35.3631442, 149.1644425, 0.759238183498, -0.0996123924851, -0.117542050779, -0.632312059402
2019-04-03 23:18:05.71,645334263, -0.17, -17.75, 280.45, 592.369995117, -35.3631434, 149.164437, 0.759246826172, -0.0998785197735, -0.117683045566, -0.632233500481
2019-04-03 23:18:05.81,645434223, -0.17, -17.79, 280.46, 592.400024414, -35.3631427, 149.1644318, 0.759261727333, -0.100097209215, -0.117866709828, -0.632146894932
2019-04-03 23:18:05.91,645534183, -0.16, -17.79, 280.47, 592.429992676, -35.3631418, 149.1644265, 0.759316146374, -0.100067585707, -0.117979586124, -0.632065117359
2019-04-03 23:18:06.01,645634143, -0.15, -17.78, 280.48, 592.460021973, -35.3631412, 149.1644212, 0.759390711784, -0.0999060496688, -0.117956355214, -0.632005393505
2019-04-03 23:18:06.11,645734103, -0.14, -17.76, 280.49, 592.489990234, -35.3631404, 149.1644159, 0.759483039379, -0.09968970716, -0.117913722992, -0.631936609745
2019-04-03 23:18:06.21,645834063, -0.12, -17.74, 280.5, 592.520019531, -35.3631397, 149.1644106, 0.759589254856, -0.0994126722217, -0.117882542312, -0.631858408451
2019-04-03 23:18:06.31,645934023, -0.13, -17.71, 280.52, 592.549987793, -35.3631388, 149.1644053, 0.759680449963, -0.0993201956153, -0.117677472532, -0.631801486015
2019-04-03 23:18:06.41,646034816, -0.15, -17.69, 280.53, 592.58001709, -35.3631381, 149.1643999, 0.759754896164, -0.0993795543909, -0.11742156744, -0.631750226021
2019-04-03 23:18:06.51,646134776, -0.17, -17.7, 280.55, 592.609985352, -35.3631374, 149.1643945, 0.759807825089, -0.0995452255011, -0.117383122444, -0.631667673588
2019-04-03 23:18:06.61,646234736, -0.18, -17.74, 280.56, 592.640014648, -35.3631366, 149.1643892, 0.759845018387, -0.0997554883361, -0.117639429867, -0.631542086601
2019-04-03 23:18:06.71,646334696, -0.16, -17.81, 280.57, 592.66998291, -35.3631358, 149.1643839, 0.759852409363, -0.100052244961, -0.118174806237, -0.631386220455
2019-04-03 23:18:06.81,646434656, -0.14, -17.87, 280.58, 592.700012207, -35.3631351, 149.1643786, 0.759869933128, -0.100239425898, -0.11871843785, -0.631233453751
2019-04-03 23:18:06.91,646534616, -0.14, -17.9, 280.6, 592.729980469, -35.3631343, 149.1643734, 0.759903728962, -0.100353211164, -0.118926584721, -0.631135523319
2019-04-03 23:18:07.01,646634576, -0.15, -17.88, 280.6, 592.760009766, -35.3631336, 149.1643681, 0.759964466095, -0.1002785936, -0.118772476912, -0.631103277206
2019-04-03 23:18:07.11,646734536, -0.16, -17.84, 280.61, 592.789978027, -35.3631327, 149.1643628, 0.760045170784, -0.10011266917, -0.118433013558, -0.631096243858
2019-04-03 23:18:07.21,646834496, -0.16, -17.8, 280.62, 592.820007324, -35.3631321, 149.1643574, 0.760135054588, -0.0999324172735, -0.118174321949, -0.631065011024
2019-04-03 23:18:07.31,646934456, -0.17, -17.77, 280.63, 592.849975586, -35.3631313, 149.1643521, 0.760216593742, -0.0998004153371, -0.117964699864, -0.631026923656
2019-04-03 23:18:07.41,647034416, -0.16, -17.77, 280.64, 592.880004883, -35.3631304, 149.1643468, 0.760288536549, -0.0997422710061, -0.117955602705, -0.630951166153
2019-04-03 23:18:07.51,647134376, -0.15, -17.77, 280.66, 592.909973145, -35.3631297, 149.1643415, 0.760369718075, -0.0996651649475, -0.118021935225, -0.630853056908
2019-04-03 23:18:07.61,647234336, -0.16, -17.77, 280.67, 592.940002441, -35.363129, 149.1643361, 0.760438263416, -0.0997120812535, -0.118030674756, -0.630761444569
2019-04-03 23:18:07.71,647334296, -0.18, -17.77, 280.69, 592.969970703, -35.3631283, 149.1643308, 0.760493040085, -0.0998544543982, -0.117947869003, -0.630688369274
2019-04-03 23:18:07.81,647434256, -0.19, -17.76, 280.7, 593.0, -35.3631275, 149.1643255, 0.76057779789, -0.0998104810715, -0.117815338075, -0.630617797375
2019-04-03 23:18:07.91,647534216, -0.19, -17.76, 280.71, 593.030029297, -35.3631266, 149.1643202, 0.760652124882, -0.0997991859913, -0.117820292711, -0.630529046059
2019-04-03 23:18:08.01,647634176, -0.19, -17.76, 280.73, 593.059997559, -35.363126, 149.1643149, 0.760721921921, -0.099795371294, -0.117840789258, -0.630441665649
2019-04-03 23:18:08.11,647734136, -0.18, -17.75, 280.74, 593.090026855, -35.3631252, 149.1643096, 0.760804116726, -0.099677965045, -0.117851369083, -0.630358994007
2019-04-03 23:18:08.21,647834096, -0.16, -17.75, 280.75, 593.119995117, -35.3631245, 149.1643043, 0.760886728764, -0.0995370745659, -0.117932476103, -0.630266368389
2019-04-03 23:18:08.31,647934056, -0.14, -17.74, 280.76, 593.150024414, -35.3631236, 149.164299, 0.760982036591, -0.0993119031191, -0.117992177606, -0.63017565012
2019-04-03 23:18:08.42,648034849, -0.13, -17.71, 280.77, 593.179992676, -35.3631229, 149.1642935, 0.761083424091, -0.0990842878819, -0.117895007133, -0.630107283592
2019-04-03 23:18:08.51,648134809, -0.15, -17.71, 280.78, 593.210021973, -35.3631222, 149.1642882, 0.761130928993, -0.0992091596127, -0.117768839002, -0.630053818226
2019-04-03 23:18:08.61,648234769, -0.21, -17.73, 280.8, 593.239990234, -35.3631214, 149.1642829, 0.761133790016, -0.0996519103646, -0.117594651878, -0.630012989044
2019-04-03 23:18:08.71,648334729, -0.26, -17.75, 280.81, 593.270019531, -35.3631205, 149.1642776, 0.761117756367, -0.100147306919, -0.117478132248, -0.629975557327
2019-04-03 23:18:08.81,648434689, -0.28, -17.78, 280.82, 593.299987793, -35.3631198, 149.1642723, 0.76112383604, -0.100396022201, -0.117527022958, -0.629919528961
2019-04-03 23:18:08.91,648534649, -0.26, -17.8, 280.82, 593.33001709, -35.3631191, 149.164267, 0.76116257906, -0.100367426872, -0.117766991258, -0.629832386971
2019-04-03 23:18:09.01,648634609, -0.24, -17.82, 280.83, 593.359985352, -35.3631182, 149.1642617, 0.76119607687, -0.10032582283, -0.11804728955, -0.629746079445
2019-04-03 23:18:09.11,648734569, -0.24, -17.84, 280.84, 593.390014648, -35.3631175, 149.1642564, 0.76120197773, -0.100488223135, -0.118191547692, -0.629685938358
2019-04-03 23:18:09.21,648834529, -0.27, -17.85, 280.84, 593.41998291, -35.3631168, 149.164251, 0.761204063892, -0.100672900677, -0.118134796619, -0.629664599895
2019-04-03 23:18:09.31,648934489, -0.27, -17.83, 280.85, 593.450012207, -35.363116, 149.1642456, 0.761241137981, -0.100614778697, -0.117951802909, -0.629663407803
2019-04-03 23:18:09.41,649034449, -0.27, -17.8, 280.85, 593.479980469, -35.3631151, 149.1642403, 0.761295378208, -0.100436471403, -0.117787651718, -0.629657030106
2019-04-03 23:18:09.51,649134409, -0.26, -17.79, 280.86, 593.510009766, -35.3631145, 149.164235, 0.761346578598, -0.100254461169, -0.117789186537, -0.629623830318
2019-04-03 23:18:09.61,649234369, -0.23, -17.78, 280.86, 593.539978027, -35.3631137, 149.1642297, 0.761404275894, -0.100034043193, -0.117816440761, -0.629584014416
2019-04-03 23:18:09.71,649334329, -0.21, -17.77, 280.86, 593.570007324, -35.3631129, 149.1642244, 0.761466145515, -0.0997913479805, -0.117918014526, -0.629528701305
2019-04-03 23:18:09.81,649434289, -0.2, -17.77, 280.87, 593.599975586, -35.3631121, 149.1642191, 0.761512815952, -0.0997300595045, -0.117989882827, -0.629468500614
2019-04-03 23:18:09.91,649534249, -0.22, -17.77, 280.88, 593.630004883, -35.3631114, 149.1642138, 0.761537432671, -0.09990260005, -0.117857448757, -0.629436135292
2019-04-03 23:18:10.01,649634209, -0.26, -17.77, 280.89, 593.659973145, -35.3631106, 149.1642084, 0.761557459831, -0.100145027041, -0.117611691356, -0.629419386387
2019-04-03 23:18:10.11,649734169, -0.28, -17.77, 280.9, 593.690002441, -35.3631099, 149.164203, 0.761586427689, -0.100294046104, -0.117573209107, -0.629367768764
2019-04-03 23:18:10.21,649834129, -0.28, -17.78, 280.91, 593.719970703, -35.363109, 149.1641977, 0.761630058289, -0.100324615836, -0.117680385709, -0.629290103912
2019-04-03 23:18:10.31,649934089, -0.29, -17.79, 280.92, 593.75, -35.3631083, 149.1641924, 0.761673033237, -0.100411832333, -0.117684341967, -0.629223406315
2019-04-03 23:18:10.41,650034049, -0.3, -17.79, 280.93, 593.780029297, -35.3631075, 149.1641871, 0.761723697186, -0.100464329123, -0.117600642145, -0.629169344902
2019-04-03 23:18:10.52,650134842, -0.29, -17.77, 280.94, 593.809997559, -35.3631068, 149.1641818, 0.761799991131, -0.100282996893, -0.117557488382, -0.629113912582
2019-04-03 23:18:10.61,650234802, -0.27, -17.75, 280.95, 593.840026855, -35.363106, 149.1641764, 0.76188236475, -0.100013837218, -0.117552548647, -0.629058003426
2019-04-03 23:18:10.71,650334762, -0.24, -17.75, 280.96, 593.869995117, -35.3631052, 149.1641711, 0.761946320534, -0.0998603329062, -0.117676727474, -0.628981649876
2019-04-03 23:18:10.81,650434722, -0.23, -17.77, 280.96, 593.900024414, -35.3631045, 149.1641658, 0.761969685555, -0.0999103337526, -0.117907837033, -0.62890213728
2019-04-03 23:18:10.91,650534682, -0.24, -17.8, 280.97, 593.929992676, -35.3631036, 149.1641603, 0.761965572834, -0.10010920465, -0.11802110821, -0.62885427475
2019-04-03 23:18:11.01,650634642, -0.26, -17.81, 280.97, 593.960021973, -35.3631029, 149.164155, 0.76196449995, -0.100305095315, -0.117981560528, -0.628831803799
2019-04-03 23:18:11.11,650734602, -0.28, -17.81, 280.98, 593.989990234, -35.3631022, 149.1641498, 0.761977493763, -0.100422665477, -0.117869526148, -0.62881821394
2019-04-03 23:18:11.21,650834562, -0.29, -17.81, 280.98, 594.020019531, -35.3631014, 149.1641445, 0.762001156807, -0.100465781987, -0.117885284126, -0.628779709339
2019-04-03 23:18:11.31,650934522, -0.29, -17.82, 280.99, 594.049987793, -35.3631006, 149.1641391, 0.762031435966, -0.100496582687, -0.117902345955, -0.628734946251
