Start,TimeUS,Roll,Pitch,Yaw,Alt,Lat,Lng,Q1,Q2,Q3,Q4
2019-04-03 20:28:10.80,105016310, 0.0, 0.0, 353.0, 584.090026855, -35.363261, 149.1652299, 0.998134791851, 0.0, 0.0, -0.0610485821962
2019-04-03 20:28:10.89,105116270, 0.0, 0.0, 353.0, 584.090026855, -35.363261, 149.1652299, 0.998134791851, 0.0, 0.0, -0.0610485821962
2019-04-03 20:28:10.99,105216230, 0.0, 0.0, 353.0, 584.090026855, -35.363261, 149.1652299, 0.998134791851, 0.0, 0.0, -0.0610485821962
2019-04-03 20:28:11.09,105316190, 0.0, 0.0, 353.0, 584.090026855, -35.363261, 149.1652299, 0.998134791851, 0.0, 0.0, -0.0610485821962
2019-04-03 20:28:11.19,105416150, 0.0, 0.0, 353.0, 584.090026855, -35.363261, 149.1652299, 0.998134791851, 0.0, 0.0, -0.0610485821962
2019-04-03 20:28:11.29,105516110, 0.0, 0.0, 353.0, 584.090026855, -35.363261, 149.1652299, 0.998134791851, 0.0, 0.0, -0.0610485821962
2019-04-03 20:28:11.39,105616070, 0.0, 0.0, 353.0, 584.090026855, -35.363261, 149.1652299, 0.998134791851, 0.0, 0.0, -0.0610485821962
2019-04-03 20:28:11.49,105716030, 0.0, 0.0, 353.0, 584.090026855, -35.363261, 149.1652299, 0.998134791851, 0.0, 0.0, -0.0610485821962
2019-04-03 20:28:11.59,105815990, 0.0, 0.0, 353.0, 584.090026855, -35.363261, 149.1652299, 0.998134791851, 0.0, 0.0, -0.0610485821962
2019-04-03 20:28:11.69,105915950, 0.0, 0.0, 353.0, 584.090026855, -35.363261, 149.1652299, 0.998134791851, 0.0, 0.0, -0.0610485821962
2019-04-03 20:28:11.79,106015910, 0.0, 0.0, 353.0, 584.090026855, -35.363261, 149.1652299, 0.998134791851, 0.0, 0.0, -0.0610485821962
2019-04-03 20:28:11.89,106115870, 0.0, 0.0, 353.0, 584.090026855, -35.363261, 149.1652299, 0.998134791851, 0.0, 0.0, -0.0610485821962
2019-04-03 20:28:11.99,106215830, 0.0, 0.0, 353.0, 584.090026855, -35.363261, 149.1652299, 0.998134791851, 0.0, 0.0, -0.0610485821962
2019-04-03 20:28:12.09,106315790, 0.0, 0.0, 353.0, 584.090026855, -35.363261, 149.1652299, 0.998134791851, 0.0, 0.0, -0.0610485821962
2019-04-03 20:28:12.19,106415750, 0.0, 0.0, 353.0, 584.090026855, -35.363261, 149.1652299, 0.998134791851, 0.0, 0.0, -0.0610485821962
2019-04-03 20:28:12.29,106515710, 0.0, 0.0, 353.0, 584.090026855, -35.363261, 149.1652299, 0.998134791851, 0.0, 0.0, -0.0610485821962
2019-04-03 20:28:12.39,106615670, 0.0, 0.0, 353.0, 584.090026855, -35.363261, 149.1652299, 0.998134791851, 0.0, 0.0, -0.0610485821962
2019-04-03 20:28:12.50,106716463, 0.0, 0.0, 353.0, 584.090026855, -35.363261, 149.1652299, 0.998134791851, 0.0, 0.0, -0.0610485821962
2019-04-03 20:28:12.60,106816423, 0.0, 0.0, 353.0, 584.090026855, -35.363261, 149.1652299, 0.998134791851, 0.0, 0.0, -0.0610485821962
2019-04-03 20:28:12.70,106916383, 0.0, 0.0, 353.0, 584.090026855, -35.363261, 149.1652299, 0.998134791851, 0.0, 0.0, -0.0610485821962
2019-04-03 20:28:12.80,107016343, 0.0, 0.0, 353.0, 584.090026855, -35.363261, 149.1652299, 0.998134791851, 0.0, 0.0, -0.0610485821962
2019-04-03 20:28:12.89,107116303, 0.0, 0.0, 353.0, 584.090026855, -35.363261, 149.1652299, 0.998134791851, 0.0, 0.0, -0.0610485821962
2019-04-03 20:28:12.99,107216263, 0.0, 0.0, 353.0, 584.090026855, -35.363261, 149.1652299, 0.998134791851, 0.0, 0.0, -0.0610485821962
2019-04-03 20:28:13.09,107316223, 0.0, 0.0, 353.0, 584.090026855, -35.363261, 149.1652299, 0.998134791851, 0.0, 0.0, -0.0610485821962
2019-04-03 20:28:13.19,107416183, 0.0, 0.0, 353.0, 584.090026855, -35.363261, 149.1652299, 0.998134791851, 0.0, 0.0, -0.0610485821962
2019-04-03 20:28:13.29,107516143, 0.0, 0.0, 353.0, 584.090026855, -35.363261, 149.1652299, 0.998134791851, 0.0, 0.0, -0.0610485821962
2019-04-03 20:28:13.39,107616103, 0.0, 0.0, 353.0, 584.090026855, -35.363261, 149.1652299, 0.998134791851, 0.0, 0.0, -0.0610485821962
2019-04-03 20:28:13.49,107716063, 0.0, 0.0, 353.0, 584.090026855, -35.363261, 149.1652299, 0.998134791851, 0.0, 0.0, -0.0610485821962
2019-04-03 20:28:13.59,107816023, 0.0, 0.0, 353.0, 584.090026855, -35.363261, 149.1652299, 0.998134791851, 0.0, 0.0, -0.0610485821962
2019-04-03 20:28:13.69,107915983, 0.0, 0.0, 353.0, 584.090026855, -35.363261, 149.1652299, 0.998134791851, 0.0, 0.0, -0.0610485821962
2019-04-03 20:28:13.79,108015943, 0.0, 0.0, 353.0, 584.090026855, -35.363261, 149.1652299, 0.998134791851, 0.0, 0.0, -0.0610485821962
2019-04-03 20:28:13.89,108115903, 0.0, 0.0, 353.0, 584.090026855, -35.363261, 149.1652299, 0.998134791851, 0.0, 0.0, -0.0610485821962
2019-04-03 20:28:13.99,108215863, 0.0, 0.0, 353.0, 584.090026855, -35.363261, 149.1652299, 0.998134791851, 0.0, 0.0, -0.0610485821962
2019-04-03 20:28:14.09,108315823, 0.0, 0.0, 353.0, 584.090026855, -35.363261, 149.1652299, 0.998134791851, 0.0, 0.0, -0.0610485821962
2019-04-03 20:28:14.19,108415783, 0.0, 0.0, 353.0, 584.090026855, -35.363261, 149.1652299, 0.998134791851, 0.0, 0.0, -0.0610485821962
2019-04-03 20:28:14.29,108515743, 0.0, 0.0, 353.0, 584.090026855, -35.363261, 149.1652299, 0.998134791851, 0.0, 0.0, -0.0610485821962
2019-04-03 20:28:14.39,108615703, 0.0, 0.0, 353.0, 584.090026855, -35.363261, 149.1652299, 0.998134791851, 0.0, 0.0, -0.0610485821962
2019-04-03 20:28:14.49,108715663, 0.0, 0.0, 353.0, 584.090026855, -35.363261, 149.1652299, 0.998134791851, 0.0, 0.0, -0.0610485821962
2019-04-03 20:28:14.60,108816456, 0.0, 0.0, 353.0, 584.090026855, -35.363261, 149.1652299, 0.998134791851, 0.0, 0.0, -0.0610485821962
2019-04-03 20:28:14.70,108916416, 0.0, 0.0, 353.0, 584.090026855, -35.363261, 149.1652299, 0.998134791851, 0.0, 0.0, -0.0610485821962
2019-04-03 20:28:14.80,109016376, 0.0, 0.0, 353.0, 584.090026855, -35.363261, 149.1652299, 0.998134791851, 0.0, 0.0, -0.0610485821962
2019-04-03 20:28:14.90,109116336, 0.0, 0.0, 353.0, 584.090026855, -35.363261, 149.1652299, 0.998134791851, 0.0, 0.0, -0.0610485821962
2019-04-03 20:28:14.99,109216296, 0.0, 0.0, 353.0, 584.090026855, -35.363261, 149.1652299, 0.998134791851, 0.0, 0.0, -0.0610485821962
2019-04-03 20:28:15.09,109316256, 0.0, 0.0, 353.0, 584.090026855, -35.363261, 149.1652299, 0.998134791851, 0.0, 0.0, -0.0610486753285
2019-04-03 20:28:15.19,109416216, 0.0, 0.0, 353.0, 584.090026855, -35.363261, 149.1652299, 0.998134791851, 0.0, 0.0, -0.0610486641526
2019-04-03 20:28:15.29,109516176, 0.0, 0.0, 353.0, 584.090026855, -35.363261, 149.1652299, 0.998134791851, 0.0, 0.0, -0.0610486753285
2019-04-03 20:28:15.39,109616136, 0.0, 0.0, 353.0, 584.090026855, -35.363261, 149.1652299, 0.998134791851, 0.0, 0.0, -0.0610486753285
2019-04-03 20:28:15.49,109716096, 0.0, 0.0, 353.0, 584.090026855, -35.363261, 149.1652299, 0.998134791851, 0.0, 0.0, -0.0610486641526
2019-04-03 20:28:15.59,109816056, 0.0, 0.0, 353.0, 584.090026855, -35.363261, 149.1652299, 0.998134791851, 0.0, 0.0, -0.0610486753285
2019-04-03 20:28:15.69,109916016, 0.0, 0.0, 353.0, 584.090026855, -35.363261, 149.1652299, 0.998134791851, 0.0, 0.0, -0.0610486753285
2019-04-03 20:28:15.79,110015976, 0.0, 0.0, 353.0, 584.090026855, -35.363261, 149.1652299, 0.998134791851, 0.0, 0.0, -0.0610486753285
2019-04-03 20:28:15.89,110115936, 0.0, 0.0, 353.0, 584.099975586, -35.363261, 149.1652299, 0.998134791851, 0.0, 0.0, -0.0610486753285
2019-04-03 20:28:15.99,110215896, 0.0, 0.0, 353.0, 584.099975586, -35.363261, 149.1652299, 0.998134791851, 0.0, 0.0, -0.0610486753285
2019-04-03 20:28:16.09,110315856, 0.0, 0.0, 353.0, 584.119995117, -35.363261, 149.1652299, 0.998134791851, 0.0, 0.0, -0.0610486753285
2019-04-03 20:28:16.19,110415816, 0.0, 0.0, 353.0, 584.140014648, -35.363261, 149.1652299, 0.998134791851, 0.0, 0.0, -0.0610486753285
2019-04-03 20:28:16.29,110515776, 0.0, 0.0, 353.0, 584.16998291, -35.363261, 149.1652299, 0.998134791851, 0.0, 0.0, -0.0610486753285
2019-04-03 20:28:16.39,110615736, 0.0, 0.0, 353.0, 584.200012207, -35.363261, 149.1652299, 0.998134791851, 0.0, 0.0, -0.0610486753285
2019-04-03 20:28:16.49,110715696, -0.03, -0.02, 352.99, 584.260009766, -35.363261, 149.1652299, 0.998134315014, -0.000348926230799, -0.000178234928171, -0.0610550418496
2019-04-03 20:28:16.60,110816489, -0.12, -0.08, 352.99, 584.359985352, -35.363261, 149.1652299, 0.998132169247, -0.00111481116619, -0.000711308966856, -0.0610774345696
2019-04-03 20:28:16.70,110916449, -0.22, -0.15, 352.99, 584.510009766, -35.363261, 149.1652299, 0.998127818108, -0.00200791587122, -0.00127114448696, -0.0611164830625
2019-04-03 20:28:16.80,111016409, -0.29, -0.2, 352.98, 584.66998291, -35.363261, 149.1652299, 0.99812233448, -0.00269254366867, -0.00161361438222, -0.0611710697412
2019-04-03 20:28:16.90,111116369, -0.29, -0.2, 352.97, 584.820007324, -35.363261, 149.1652299, 0.998118638992, -0.00270488602109, -0.00163623190019, -0.0612312108278
2019-04-03 20:28:17.00,111216329, -0.23, -0.18, 352.97, 584.969970703, -35.363261, 149.1652299, 0.998116791248, -0.00212610466406, -0.00149231043179, -0.0612874813378
2019-04-03 20:28:17.09,111316289, -0.14, -0.14, 352.96, 585.119995117, -35.363261, 149.1652299, 0.998115539551, -0.00133469456341, -0.00117915554438, -0.0613364726305
2019-04-03 20:28:17.19,111416249, -0.08, -0.11, 352.96, 585.280029297, -35.363261, 149.1652298, 0.998114287853, -0.000800161971711, -0.000957083422691, -0.0613709017634
2019-04-03 20:28:17.29,111516209, -0.03, -0.09, 352.96, 585.440002441, -35.363261, 149.1652298, 0.998113512993, -0.000345567095792, -0.000822667265311, -0.0613889507949
2019-04-03 20:28:17.39,111616169, 0.0, -0.09, 352.96, 585.609985352, -35.363261, 149.1652298, 0.998113393784, 5.62936384085e-06, -0.000855269026943, -0.0613919943571
2019-04-03 20:28:17.49,111716129, 0.04, -0.09, 352.96, 585.780029297, -35.363261, 149.1652298, 0.998113751411, 0.000300943327602, -0.000855835853145, -0.0613847672939
2019-04-03 20:28:17.59,111816089, 0.04, -0.06, 352.96, 585.940002441, -35.363261, 149.1652298, 0.99811476469, 0.000339999241987, -0.000605072185863, -0.0613717809319
2019-04-03 20:28:17.69,111916049, -0.06, -0.03, 352.96, 586.090026855, -35.363261, 149.1652298, 0.998115599155, -0.000609528098721, -0.000267667812295, -0.061358705163
2019-04-03 20:28:17.79,112016009, -0.41, -0.07, 352.96, 586.229980469, -35.363261, 149.1652298, 0.998109579086, -0.0036872588098, -0.000443088501925, -0.0613477900624
2019-04-03 20:28:17.89,112115969, -1.03, -0.19, 352.96, 586.359985352, -35.3632609, 149.1652298, 0.99807459116, -0.0091463457793, -0.0011373704765, -0.0613370835781
2019-04-03 20:28:17.99,112215929, -1.89, -0.38, 352.97, 586.479980469, -35.3632609, 149.1652297, 0.997974872589, -0.0167231112719, -0.00237057521008, -0.0613263174891
2019-04-03 20:28:18.09,112315889, -2.89, -0.6, 352.98, 586.58001709, -35.3632609, 149.1652297, 0.997784495354, -0.0255232211202, -0.00373708968982, -0.0613256171346
2019-04-03 20:28:18.19,112415849, -3.88, -0.83, 352.99, 586.679992676, -35.3632609, 149.1652296, 0.997513890266, -0.0343100056052, -0.0052045006305, -0.0613334476948
2019-04-03 20:28:18.29,112515809, -4.72, -1.04, 352.99, 586.760009766, -35.3632609, 149.1652293, 0.997222781181, -0.0416831448674, -0.00655099842697, -0.061370100826
2019-04-03 20:28:18.39,112615769, -5.37, -1.22, 353.0, 586.83001709, -35.3632609, 149.1652291, 0.996951460838, -0.0474527031183, -0.00782683398575, -0.0614391006529
2019-04-03 20:28:18.49,112715729, -5.85, -1.36, 353.0, 586.890014648, -35.3632608, 149.1652288, 0.996724903584, -0.0517168529332, -0.0087691899389, -0.0615470148623
2019-04-03 20:28:18.59,112815689, -6.22, -1.47, 352.99, 586.940002441, -35.3632608, 149.1652284, 0.996535181999, -0.0549858547747, -0.00947347935289, -0.0616805329919
2019-04-03 20:28:18.70,112916482, -6.54, -1.56, 352.98, 586.989990234, -35.3632607, 149.1652279, 0.996359944344, -0.0578182972968, -0.0100796334445, -0.0618244931102
2019-04-03 20:28:18.80,113016442, -6.87, -1.66, 352.98, 587.030029297, -35.3632607, 149.1652273, 0.99617177248, -0.0607079826295, -0.0107911415398, -0.061967715621
2019-04-03 20:28:18.90,113116402, -7.23, -1.77, 352.97, 587.059997559, -35.3632605, 149.1652265, 0.995954573154, -0.0639028176665, -0.0115394275635, -0.0621113367379
2019-04-03 20:28:19.00,113216362, -7.6, -1.88, 352.97, 587.099975586, -35.3632605, 149.1652258, 0.995722353458, -0.0671528801322, -0.0123509140685, -0.0622492991388
2019-04-03 20:28:19.10,113316322, -7.88, -1.99, 352.96, 587.119995117, -35.3632604, 149.165225, 0.995529353619, -0.0696894824505, -0.0131555246189, -0.0623830966651
2019-04-03 20:28:19.19,113416282, -8.07, -2.09, 352.96, 587.150024414, -35.3632604, 149.165224, 0.995390892029, -0.0713852345943, -0.0138809466735, -0.0625182688236
2019-04-03 20:28:19.29,113516242, -8.2, -2.15, 352.94, 587.16998291, -35.3632603, 149.165223, 0.995292842388, -0.072539255023, -0.0142830992118, -0.0626593902707
2019-04-03 20:28:19.39,113616202, -8.32, -2.18, 352.93, 587.190002441, -35.3632602, 149.1652217, 0.995204806328, -0.0735804140568, -0.0144931096584, -0.0627950504422
2019-04-03 20:28:19.49,113716162, -8.45, -2.2, 352.92, 587.210021973, -35.3632601, 149.1652206, 0.995109081268, -0.0747360214591, -0.0146362902597, -0.0629149973392
2019-04-03 20:28:19.59,113816122, -8.62, -2.22, 352.91, 587.229980469, -35.3632598, 149.1652193, 0.994989454746, -0.0762155726552, -0.0146960960701, -0.0630173385143
2019-04-03 20:28:19.69,113916082, -8.91, -2.09, 352.77, 587.239990234, -35.3632598, 149.1652178, 0.994736552238, -0.0787393078208, -0.0132711073384, -0.0642125532031
2019-04-03 20:28:19.79,114016042, -9.4, -1.75, 351.95, 587.260009766, -35.3632596, 149.1652164, 0.993973255157, -0.0828231945634, -0.00945279747248, -0.071190841496
2019-04-03 20:28:19.89,114116002, -9.97, -1.49, 349.75, 587.280029297, -35.3632595, 149.1652149, 0.992053925991, -0.0877046659589, -0.00515055423602, -0.0900573432446
2019-04-03 20:28:19.99,114215962, -10.45, -1.68, 345.92, 587.289978027, -35.3632593, 149.1652133, 0.988061308861, -0.0922164022923, -0.00339718093164, -0.123367324471
2019-04-03 20:28:20.09,114315922, -10.67, -2.5, 340.57, 587.309997559, -35.3632592, 149.1652115, 0.980821609497, -0.0952924489975, -0.00573956873268, -0.169927492738
2019-04-03 20:28:20.19,114415882, -10.49, -3.93, 333.99, 587.320007324, -35.3632592, 149.1652097, 0.968996882439, -0.096754424274, -0.0127576151863, -0.226982027292
2019-04-03 20:28:20.29,114515842, -9.86, -5.83, 326.45, 587.340026855, -35.3632591, 149.1652078, 0.95142185688, -0.0968219712377, -0.0237802322954, -0.29130128026
2019-04-03 20:28:20.39,114615802, -8.74, -7.96, 318.22, 587.359985352, -35.3632591, 149.1652058, 0.927424430847, -0.0957622155547, -0.0375302992761, -0.359590113163
2019-04-03 20:28:20.49,114715762, -7.19, -10.03, 309.54, 587.380004883, -35.363259, 149.1652037, 0.897049248219, -0.0937115103006, -0.0523232594132, -0.428699374199
2019-04-03 20:28:20.59,114815722, -5.21, -11.81, 300.69, 587.400024414, -35.363259, 149.1652015, 0.861209630966, -0.0901805385947, -0.0669660717249, -0.495682388544
2019-04-03 20:28:20.69,114915682, -2.97, -13.1, 291.97, 587.41998291, -35.3632589, 149.1651991, 0.821553528309, -0.0851841196418, -0.080167286098, -0.558002412319
2019-04-03 20:28:20.80,115016475, -0.67, -13.86, 283.61, 587.440002441, -35.3632587, 149.1651967, 0.779740035534, -0.0792003124952, -0.0912523344159, -0.614333629608
2019-04-03 20:28:20.90,115116435, 1.68, -14.15, 276.06, 587.460021973, -35.3632586, 149.1651942, 0.738994717598, -0.0715387165546, -0.101332746446, -0.662193894386
2019-04-03 20:28:21.00,115216395, 4.05, -14.09, 269.81, 587.479980469, -35.3632585, 149.1651915, 0.703257620335, -0.0620494261384, -0.111406505108, -0.699404895306
2019-04-03 20:28:21.10,115316355, 6.02, -13.81, 265.36, 587.5, -35.3632582, 149.1651887, 0.676758348942, -0.0529174394906, -0.119765333831, -0.724468171597
2019-04-03 20:28:21.20,115416315, 7.28, -13.5, 262.86, 587.530029297, -35.3632579, 149.165186, 0.661437392235, -0.0462495870888, -0.124937705696, -0.738073289394
2019-04-03 20:28:21.29,115516275, 7.65, -13.33, 262.13, 587.549987793, -35.3632576, 149.1651831, 0.656874001026, -0.0437986478209, -0.126052826643, -0.7420976758
2019-04-03 20:28:21.39,115616235, 7.15, -13.4, 262.83, 587.570007324, -35.3632572, 149.16518, 0.661226391792, -0.0463258363307, -0.123536482453, -0.738493263721
2019-04-03 20:28:21.49,115716195, 5.92, -13.72, 264.62, 587.599975586, -35.3632567, 149.165177, 0.67205619812, -0.0536749437451, -0.118274562061, -0.729020297527
2019-04-03 20:28:21.59,115816155, 4.19, -14.23, 267.16, 587.619995117, -35.3632561, 149.1651738, 0.686890363693, -0.064655251801, -0.111697643995, -0.715209782124
2019-04-03 20:28:21.69,115916115, 2.24, -14.8, 270.11, 587.650024414, -35.3632555, 149.1651705, 0.703533887863, -0.0772607028484, -0.104941546917, -0.698611557484
2019-04-03 20:28:21.79,116016075, 0.35, -15.32, 273.14, 587.679992676, -35.3632549, 149.1651673, 0.720054686069, -0.0894493684173, -0.0989091396332, -0.680982470512
2019-04-03 20:28:21.89,116116035, -1.28, -15.66, 275.93, 587.710021973, -35.3632544, 149.1651638, 0.734771728516, -0.0994535535574, -0.0937774777412, -0.664398431778
2019-04-03 20:28:21.99,116215995, -2.49, -15.82, 278.18, 587.729980469, -35.363254, 149.1651604, 0.74642676115, -0.106391005218, -0.0898678973317, -0.650731801987
2019-04-03 20:28:22.09,116315955, -3.22, -15.81, 279.71, 587.760009766, -35.3632535, 149.1651568, 0.75436013937, -0.109978713095, -0.0871323719621, -0.641290426254
2019-04-03 20:28:22.19,116415915, -3.46, -15.71, 280.46, 587.789978027, -35.3632531, 149.1651532, 0.758433163166, -0.110472746193, -0.0858879759908, -0.63655179739
2019-04-03 20:28:22.29,116515875, -3.29, -15.63, 280.49, 587.820007324, -35.3632526, 149.1651494, 0.758851349354, -0.108874805272, -0.0862985029817, -0.636273145676
2019-04-03 20:28:22.39,116615835, -2.8, -15.65, 279.93, 587.849975586, -35.3632523, 149.1651456, 0.756150305271, -0.106124021113, -0.0886307582259, -0.63962417841
2019-04-03 20:28:22.49,116715795, -2.08, -15.73, 278.93, 587.869995117, -35.3632519, 149.1651417, 0.751144647598, -0.10265455395, -0.0923145487905, -0.645539999008
2019-04-03 20:28:22.59,116815755, -1.26, -15.85, 277.7, 587.900024414, -35.3632516, 149.1651379, 0.744756877422, -0.0989612340927, -0.0966253578663, -0.652845621109
2019-04-03 20:28:22.69,116915715, -0.48, -15.98, 276.4, 587.929992676, -35.3632513, 149.1651339, 0.73788523674, -0.0957622751594, -0.100852973759, -0.660442054272
2019-04-03 20:28:22.79,117015675, 0.19, -16.08, 275.21, 587.960021973, -35.363251, 149.1651298, 0.731427550316, -0.0930874124169, -0.104465276003, -0.667409539223
2019-04-03 20:28:22.90,117116468, 0.72, -16.15, 274.22, 587.989990234, -35.3632507, 149.1651258, 0.72603726387, -0.0910266935825, -0.107189513743, -0.673123002052
2019-04-03 20:28:23.00,117216428, 1.05, -16.19, 273.54, 588.020019531, -35.3632503, 149.1651216, 0.722230672836, -0.0898493081331, -0.108865380287, -0.677095532417
2019-04-03 20:28:23.10,117316388, 1.19, -16.22, 273.17, 588.039978027, -35.36325, 149.1651174, 0.720135211945, -0.0895005092025, -0.109586849809, -0.679253816605
2019-04-03 20:28:23.20,117416348, 1.16, -16.24, 273.1, 588.070007324, -35.3632495, 149.1651131, 0.719698548317, -0.0898084565997, -0.109512202442, -0.679687798023
2019-04-03 20:28:23.29,117516308, 0.99, -16.24, 273.29, 588.099975586, -35.3632493, 149.165109, 0.720651507378, -0.0907361283898, -0.108681581914, -0.678687512875
2019-04-03 20:28:23.39,117616268, 0.73, -16.25, 273.66, 588.130004883, -35.3632488, 149.1651047, 0.722619771957, -0.09209125489, -0.107446745038, -0.676605582237
2019-04-03 20:28:23.49,117716228, 0.42, -16.26, 274.14, 588.159973145, -35.3632485, 149.1651003, 0.725178182125, -0.0936860889196, -0.106112480164, -0.673854351044
2019-04-03 20:28:23.59,117816188, 0.1, -16.29, 274.65, 588.190002441, -35.3632481, 149.165096, 0.727915585041, -0.0953388512135, -0.104808397591, -0.670868515968
2019-04-03 20:28:23.69,117916148, -0.16, -16.31, 275.14, 588.219970703, -35.3632476, 149.1650915, 0.730491518974, -0.0968251377344, -0.103772521019, -0.668010771275
2019-04-03 20:28:23.79,118016108, -0.39, -16.37, 275.54, 588.239990234, -35.3632474, 149.1650871, 0.732616782188, -0.0982232987881, -0.103139147162, -0.665572822094
2019-04-03 20:28:23.89,118116068, -0.55, -16.43, 275.84, 588.270019531, -35.363247, 149.1650826, 0.734144687653, -0.0993332341313, -0.10282868892, -0.663770139217
2019-04-03 20:28:23.99,118216028, -0.6, -16.49, 276.01, 588.299987793, -35.3632465, 149.1650781, 0.735054731369, -0.0998504683375, -0.10307867825, -0.662645637989
2019-04-03 20:28:24.09,118315988, -0.58, -16.53, 276.07, 588.33001709, -35.3632463, 149.1650736, 0.735359489918, -0.0998915508389, -0.103571593761, -0.662224411964
2019-04-03 20:28:24.19,118415948, -0.51, -16.56, 276.02, 588.359985352, -35.3632458, 149.165069, 0.735124528408, -0.0996681451797, -0.104138359427, -0.66242992878
2019-04-03 20:28:24.29,118515908, -0.41, -16.59, 275.9, 588.390014648, -35.3632456, 149.1650645, 0.734477102757, -0.0992774292827, -0.104740187526, -0.663111507893
2019-04-03 20:28:24.39,118615868, -0.3, -16.61, 275.73, 588.41998291, -35.3632452, 149.1650598, 0.733562409878, -0.0988836884499, -0.105396866798, -0.664078116417
2019-04-03 20:28:24.49,118715828, -0.19, -16.66, 275.54, 588.450012207, -35.3632449, 149.1650551, 0.73253262043, -0.0985972434282, -0.106180436909, -0.665131807327
2019-04-03 20:28:24.59,118815788, -0.07, -16.7, 275.37, 588.479980469, -35.3632445, 149.1650505, 0.73156452179, -0.0982780456543, -0.10698261112, -0.666115283966
2019-04-03 20:28:24.69,118915748, 0.01, -16.72, 275.22, 588.5, -35.363244, 149.1650459, 0.730774283409, -0.0979454964399, -0.10753878206, -0.666941523552
2019-04-03 20:28:24.79,119015708, 0.08, -16.73, 275.12, 588.530029297, -35.3632438, 149.1650412, 0.730223536491, -0.0976789221168, -0.107874535024, -0.667529404163
2019-04-03 20:28:24.89,119115668, 0.11, -16.73, 275.07, 588.559997559, -35.3632434, 149.1650364, 0.72994530201, -0.0975167676806, -0.108016692102, -0.667834341526
2019-04-03 20:28:25.00,119216461, 0.11, -16.73, 275.06, 588.590026855, -35.3632431, 149.1650316, 0.729925870895, -0.0974678397179, -0.108013413846, -0.667863309383
2019-04-03 20:28:25.10,119316421, 0.1, -16.73, 275.1, 588.619995117, -35.3632427, 149.1650268, 0.730127751827, -0.0975841879845, -0.108011752367, -0.667625844479
2019-04-03 20:28:25.20,119416381, 0.06, -16.76, 275.17, 588.650024414, -35.3632422, 149.165022, 0.730486631393, -0.0979149341583, -0.107966668904, -0.667191982269
2019-04-03 20:28:25.30,119516341, -0.01, -16.78, 275.26, 588.679992676, -35.363242, 149.1650173, 0.730943024158, -0.098421677947, -0.107762612402, -0.666650354862
2019-04-03 20:28:25.39,119616301, -0.08, -16.81, 275.36, 588.710021973, -35.3632415, 149.1650125, 0.731434941292, -0.0989393815398, -0.107600413263, -0.66606014967
2019-04-03 20:28:25.49,119716261, -0.12, -16.84, 275.46, 588.739990234, -35.3632412, 149.1650076, 0.731924653053, -0.0993166640401, -0.107668377459, -0.665454745293
2019-04-03 20:28:25.59,119816221, -0.14, -16.89, 275.55, 588.770019531, -35.3632409, 149.1650028, 0.732362389565, -0.0996411591768, -0.107929490507, -0.664882063866
2019-04-03 20:28:25.69,119916181, -0.15, -16.92, 275.62, 588.789978027, -35.3632404, 149.1649979, 0.73273396492, -0.0998595505953, -0.108138412237, -0.664405882359
2019-04-03 20:28:25.79,120016141, -0.16, -16.95, 275.67, 588.820007324, -35.3632401, 149.1649929, 0.733010113239, -0.100024335086, -0.108320392668, -0.664046645164
2019-04-03 20:28:25.89,120116101, -0.16, -16.97, 275.71, 588.849975586, -35.3632397, 149.164988, 0.73319041729, -0.100109651685, -0.108510479331, -0.663803756237
2019-04-03 20:28:25.99,120216061, -0.15, -17.0, 275.72, 588.880004883, -35.3632394, 149.1649832, 0.733284056187, -0.100146487355, -0.108764328063, -0.6636531353
2019-04-03 20:28:26.09,120316021, -0.13, -17.02, 275.73, 588.909973145, -35.363239, 149.1649783, 0.733291864395, -0.100205585361, -0.108969867229, -0.66360193491
2019-04-03 20:28:26.19,120415981, -0.13, -17.05, 275.72, 588.940002441, -35.3632385, 149.1649733, 0.733233988285, -0.100344628096, -0.109238363802, -0.663600683212
2019-04-03 20:28:26.29,120515941, -0.13, -17.09, 275.71, 588.969970703, -35.3632383, 149.1649684, 0.733143806458, -0.100566342473, -0.109445996583, -0.663632571697
2019-04-03 20:28:26.39,120615901, -0.1, -17.13, 275.7, 589.0, -35.3632379, 149.1649635, 0.733066082001, -0.100681953132, -0.109848879278, -0.663634359837
2019-04-03 20:28:26.49,120715861, -0.07, -17.16, 275.7, 589.030029297, -35.3632374, 149.1649584, 0.733037650585, -0.100597694516, -0.110187552869, -0.663622379303
2019-04-03 20:28:26.59,120815821, -0.03, -17.17, 275.7, 589.059997559, -35.3632371, 149.1649535, 0.733055770397, -0.100433208048, -0.11044985801, -0.663583636284
2019-04-03 20:28:26.69,120915781, -0.02, -17.18, 275.7, 589.08001709, -35.3632367, 149.1649484, 0.733089923859, -0.100406706333, -0.110626250505, -0.663520514965
2019-04-03 20:28:26.79,121015741, -0.02, -17.2, 275.72, 589.109985352, -35.3632364, 149.1649435, 0.733143270016, -0.100547909737, -0.110743038356, -0.663420677185
2019-04-03 20:28:26.89,121115701, -0.04, -17.23, 275.74, 589.140014648, -35.363236, 149.1649385, 0.733217597008, -0.100783422589, -0.110881343484, -0.6632797122
2019-04-03 20:28:26.99,121215661, -0.05, -17.25, 275.76, 589.16998291, -35.3632355, 149.1649334, 0.733329772949, -0.100958712399, -0.110995367169, -0.663109958172
2019-04-03 20:28:27.10,121316454, -0.07, -17.26, 275.79, 589.200012207, -35.3632352, 149.1649282, 0.733460426331, -0.101106353104, -0.110964328051, -0.662948131561
2019-04-03 20:28:27.20,121416414, -0.09, -17.27, 275.81, 589.229980469, -35.3632348, 149.1649233, 0.733583152294, -0.10129018873, -0.110905945301, -0.662794113159
2019-04-03 20:28:27.30,121516374, -0.09, -17.28, 275.84, 589.260009766, -35.3632343, 149.1649182, 0.733713448048, -0.10135871917, -0.110990233719, -0.662625253201
2019-04-03 20:28:27.40,121616334, -0.07, -17.29, 275.86, 589.289978027, -35.363234, 149.1649131, 0.733871221542, -0.10121615231, -0.111192025244, -0.662438511848
2019-04-03 20:28:27.49,121716294, -0.04, -17.3, 275.89, 589.320007324, -35.3632336, 149.164908, 0.734024465084, -0.101016953588, -0.111452892423, -0.662255227566
2019-04-03 20:28:27.59,121816254, -0.03, -17.33, 275.91, 589.340026855, -35.3632333, 149.1649028, 0.734121739864, -0.101114660501, -0.111710034311, -0.662089109421
2019-04-03 20:28:27.69,121916214, -0.03, -17.35, 275.93, 589.369995117, -35.3632329, 149.1648978, 0.73420715332, -0.101265847683, -0.111833386123, -0.661950469017
2019-04-03 20:28:27.79,122016174, -0.03, -17.38, 275.94, 589.400024414, -35.3632324, 149.1648927, 0.734278738499, -0.101449266076, -0.112058065832, -0.661804974079
2019-04-03 20:28:27.89,122116134, -0.05, -17.42, 275.96, 589.429992676, -35.3632321, 149.1648875, 0.73432636261, -0.101780235767, -0.112223803997, -0.66167318821
2019-04-03 20:28:27.99,122216094, -0.08, -17.47, 275.98, 589.460021973, -35.3632317, 149.1648825, 0.734351277351, -0.102202199399, -0.112354099751, -0.661558389664
2019-04-03 20:28:28.09,122316054, -0.09, -17.49, 275.99, 589.489990234, -35.3632312, 149.1648773, 0.734396636486, -0.10239341855, -0.112482585013, -0.66145658493
2019-04-03 20:28:28.19,122416014, -0.07, -17.51, 276.0, 589.520019531, -35.3632309, 149.1648722, 0.734468579292, -0.102333948016, -0.11267927289, -0.661352455616
2019-04-03 20:28:28.29,122515974, -0.03, -17.51, 276.01, 589.549987793, -35.3632305, 149.1648669, 0.734553515911, -0.102123595774, -0.112953260541, -0.661243915558
2019-04-03 20:28:28.39,122615934, -0.02, -17.53, 276.02, 589.58001709, -35.36323, 149.1648617, 0.73460406065, -0.102121308446, -0.113107860088, -0.661161661148
2019-04-03 20:28:28.49,122715894, -0.05, -17.54, 276.03, 589.599975586, -35.3632295, 149.1648567, 0.734615623951, -0.102338179946, -0.113067418337, -0.661122202873
2019-04-03 20:28:28.59,122815854, -0.08, -17.54, 276.04, 589.630004883, -35.3632292, 149.1648515, 0.73461920023, -0.102597512305, -0.11289370805, -0.661107778549
2019-04-03 20:28:28.69,122915814, -0.11, -17.55, 276.04, 589.659973145, -35.3632288, 149.1648463, 0.734621345997, -0.102823339403, -0.112814858556, -0.661083698273
2019-04-03 20:28:28.79,123015774, -0.13, -17.57, 276.05, 589.690002441, -35.3632283, 149.1648411, 0.734623491764, -0.103018976748, -0.112808376551, -0.661051988602
2019-04-03 20:28:28.89,123115734, -0.11, -17.58, 276.06, 589.719970703, -35.363228, 149.1648358, 0.734653174877, -0.102992594242, -0.112984023988, -0.660993158817
2019-04-03 20:28:28.99,123215694, -0.08, -17.59, 276.06, 589.75, -35.3632276, 149.1648306, 0.734711289406, -0.10279969126, -0.113236322999, -0.660915315151
2019-04-03 20:28:29.10,123316487, -0.04, -17.59, 276.07, 589.780029297, -35.363227, 149.1648253, 0.734771847725, -0.102590367198, -0.113477542996, -0.66083920002
2019-04-03 20:28:29.20,123416447, -0.01, -17.58, 276.07, 589.809997559, -35.3632267, 149.1648201, 0.7348498106, -0.102319628, -0.113614231348, -0.660771012306
2019-04-03 20:28:29.30,123516407, 0.0, -17.57, 276.08, 589.840026855, -35.3632263, 149.164815, 0.734933614731, -0.102080531418, -0.11366661638, -0.66070574522
2019-04-03 20:28:29.40,123616367, 0.0, -17.58, 276.09, 589.869995117, -35.3632258, 149.1648097, 0.734974324703, -0.102134592831, -0.113683730364, -0.660649180412
2019-04-03 20:28:29.50,123716327, -0.01, -17.61, 276.1, 589.900024414, -35.3632255, 149.1648045, 0.734970927238, -0.102461546659, -0.113754168153, -0.660590171814
2019-04-03 20:28:29.59,123816287, -0.04, -17.64, 276.11, 589.929992676, -35.363225, 149.1647992, 0.734962046146, -0.102832689881, -0.113812632859, -0.660532295704
2019-04-03 20:28:29.69,123916247, -0.07, -17.67, 276.12, 589.960021973, -35.3632245, 149.164794, 0.734959542751, -0.10315386951, -0.113800562918, -0.660487115383
2019-04-03 20:28:29.79,124016207, -0.08, -17.69, 276.12, 589.979980469, -35.3632242, 149.1647887, 0.734972834587, -0.103312730789, -0.113944590092, -0.660422623158
2019-04-03 20:28:29.89,124116167, -0.07, -17.69, 276.13, 590.010009766, -35.3632237, 149.1647835, 0.735008895397, -0.10330928117, -0.113994367421, -0.660374522209
2019-04-03 20:28:29.99,124216127, -0.07, -17.7, 276.14, 590.039978027, -35.3632233, 149.1647782, 0.735047638416, -0.103264302015, -0.114062823355, -0.66032654047
2019-04-03 20:28:30.09,124316087, -0.05, -17.71, 276.14, 590.070007324, -35.3632228, 149.1647729, 0.735075891018, -0.10324960947, -0.114262193441, -0.66026288271
2019-04-03 20:28:30.19,124416047, -0.04, -17.75, 276.15, 590.099975586, -35.3632224, 149.1647677, 0.735077798367, -0.10334995389, -0.114548273385, -0.660195529461
2019-04-03 20:28:30.29,124516007, -0.04, -17.76, 276.15, 590.130004883, -35.363222, 149.1647624, 0.735078454018, -0.103458471596, -0.114678651094, -0.660155177116
2019-04-03 20:28:30.39,124615967, -0.05, -17.77, 276.15, 590.159973145, -35.3632215, 149.1647571, 0.735074996948, -0.103590242565, -0.114602796733, -0.660151541233
2019-04-03 20:28:30.49,124715927, -0.08, -17.78, 276.15, 590.190002441, -35.363221, 149.1647518, 0.735051929951, -0.103842332959, -0.114564746618, -0.660144209862
2019-04-03 20:28:30.59,124815887, -0.1, -17.8, 276.16, 590.219970703, -35.3632207, 149.1647465, 0.735025107861, -0.104095734656, -0.11457066983, -0.660133123398
2019-04-03 20:28:30.69,124915847, -0.11, -17.82, 276.16, 590.239990234, -35.3632202, 149.1647411, 0.735013306141, -0.104215495288, -0.114611618221, -0.660120248795
2019-04-03 20:28:30.79,125015807, -0.12, -17.82, 276.16, 590.270019531, -35.3632197, 149.1647358, 0.734997034073, -0.104286439717, -0.114535696805, -0.66014033556
2019-04-03 20:28:30.89,125115767, -0.11, -17.8, 276.15, 590.299987793, -35.3632193, 149.1647305, 0.735003650188, -0.104126766324, -0.114460609853, -0.660171210766
2019-04-03 20:28:30.99,125215727, -0.11, -17.79, 276.15, 590.33001709, -35.3632189, 149.1647252, 0.734991252422, -0.104056298733, -0.114453673363, -0.6601973176
2019-04-03 20:28:31.09,125315687, -0.12, -17.79, 276.15, 590.359985352, -35.3632184, 149.1647199, 0.734962463379, -0.104111805558, -0.114366412163, -0.660235702991
2019-04-03 20:28:31.20,125416480, -0.13, -17.81, 276.14, 590.390014648, -35.3632179, 149.1647146, 0.734907627106, -0.104306437075, -0.114444032311, -0.660252571106
2019-04-03 20:28:31.30,125516440, -0.13, -17.84, 276.14, 590.41998291, -35.3632175, 149.1647092, 0.73484647274, -0.104515582323, -0.114619463682, -0.660257160664
2019-04-03 20:28:31.40,125616400, -0.11, -17.87, 276.13, 590.450012207, -35.3632171, 149.1647039, 0.734806478024, -0.104561567307, -0.114950872958, -0.66023683548
2019-04-03 20:28:31.50,125716360, -0.07, -17.9, 276.13, 590.479980469, -35.3632166, 149.1646985, 0.734790444374, -0.104475706816, -0.115308664739, -0.660205841064
2019-04-03 20:28:31.60,125816320, -0.06, -17.92, 276.13, 590.510009766, -35.3632161, 149.1646931, 0.734765052795, -0.104521237314, -0.115532159805, -0.660187840462
2019-04-03 20:28:31.69,125916280, -0.05, -17.94, 276.12, 590.530029297, -35.3632158, 149.1646879, 0.734743773937, -0.104614175856, -0.115715041757, -0.660164833069
2019-04-03 20:28:31.79,126016240, -0.04, -17.96, 276.13, 590.559997559, -35.3632153, 149.1646825, 0.734746336937, -0.104604773223, -0.115875929594, -0.660135149956
2019-04-03 20:28:31.89,126116200, -0.03, -17.96, 276.13, 590.590026855, -35.3632148, 149.1646772, 0.734763979912, -0.104523487389, -0.115933068097, -0.660118401051
2019-04-03 20:28:31.99,126216160, -0.03, -17.95, 276.13, 590.619995117, -35.3632143, 149.1646717, 0.73477691412, -0.104523941875, -0.115845181048, -0.66011941433
2019-04-03 20:28:32.09,126316120, -0.06, -17.93, 276.13, 590.650024414, -35.3632139, 149.1646664, 0.734772920609, -0.104612156749, -0.115587547421, -0.660154998302
2019-04-03 20:28:32.19,126416080, -0.09, -17.9, 276.13, 590.679992676, -35.3632135, 149.1646611, 0.73478448391, -0.104598172009, -0.115246862173, -0.660203874111
2019-04-03 20:28:32.29,126516040, -0.09, -17.89, 276.13, 590.710021973, -35.363213, 149.1646557, 0.734803557396, -0.104520119727, -0.115180775523, -0.66020655632
2019-04-03 20:28:32.39,126616000, -0.08, -17.91, 276.13, 590.739990234, -35.3632126, 149.1646503, 0.73479861021, -0.104558065534, -0.115355908871, -0.6601755023
2019-04-03 20:28:32.49,126715960, -0.06, -17.94, 276.13, 590.770019531, -35.3632121, 149.164645, 0.734795689583, -0.10459664464, -0.11563809216, -0.660123229027
2019-04-03 20:28:32.59,126815920, -0.05, -17.97, 276.13, 590.789978027, -35.3632116, 149.1646395, 0.7347702384, -0.104749530554, -0.115941114724, -0.660074174404
2019-04-03 20:28:32.69,126915880, -0.06, -18.0, 276.13, 590.820007324, -35.3632111, 149.1646342, 0.734726965427, -0.104989878833, -0.116085909307, -0.660058736801
2019-04-03 20:28:32.79,127015840, -0.07, -18.02, 276.13, 590.849975586, -35.3632106, 149.1646288, 0.734693408012, -0.105156332254, -0.116126410663, -0.660062432289
2019-04-03 20:28:32.89,127115800, -0.06, -18.0, 276.13, 590.880004883, -35.3632103, 149.1646235, 0.734709620476, -0.105005972087, -0.11606606096, -0.660078942776
2019-04-03 20:28:32.99,127215760, -0.03, -17.98, 276.13, 590.909973145, -35.3632098, 149.164618, 0.734745919704, -0.104684449732, -0.116025574505, -0.66009670496
2019-04-03 20:28:33.09,127315720, -0.01, -17.95, 276.13, 590.940002441, -35.3632093, 149.1646127, 0.734775602818, -0.104410372674, -0.116000168025, -0.660111546516
2019-04-03 20:28:33.19,127415680, 0.0, -17.96, 276.12, 590.960021973, -35.3632088, 149.1646073, 0.734763383865, -0.104374200106, -0.116067774594, -0.660119056702
2019-04-03 20:28:33.30,127516473, 0.0, -17.97, 276.12, 590.989990234, -35.3632084, 149.1646017, 0.734721660614, -0.104479931295, -0.116176202893, -0.660129606724
2019-04-03 20:28:33.40,127616433, -0.02, -17.99, 276.11, 591.020019531, -35.363208, 149.1645964, 0.734668076038, -0.104677304626, -0.116180367768, -0.660157322884
2019-04-03 20:28:33.50,127716393, -0.03, -18.0, 276.11, 591.049987793, -35.3632075, 149.164591, 0.734622120857, -0.104797914624, -0.116193048656, -0.660187065601
2019-04-03 20:28:33.60,127816353, -0.02, -18.0, 276.1, 591.08001709, -35.3632069, 149.1645855, 0.734603464603, -0.104738585651, -0.116205610335, -0.66021502018
2019-04-03 20:28:33.70,127916313, 0.0, -17.98, 276.1, 591.109985352, -35.3632066, 149.1645802, 0.734621524811, -0.10446254909, -0.116267159581, -0.660227835178
2019-04-03 20:28:33.79,128016273, 0.01, -17.97, 276.1, 591.140014648, -35.3632061, 149.1645748, 0.734624028206, -0.104301854968, -0.116248644888, -0.660253703594
2019-04-03 20:28:33.89,128116233, 0.02, -17.96, 276.09, 591.16998291, -35.3632056, 149.1645694, 0.734612226486, -0.104250952601, -0.11624275893, -0.660275995731
2019-04-03 20:28:33.99,128216193, 0.02, -17.96, 276.09, 591.200012207, -35.3632051, 149.1645639, 0.734598815441, -0.104223072529, -0.116305284202, -0.660284221172
2019-04-03 20:28:34.09,128316153, 0.04, -17.98, 276.09, 591.219970703, -35.3632047, 149.1645586, 0.73457890749, -0.104220122099, -0.116543449461, -0.660264849663
2019-04-03 20:28:34.19,128416113, 0.06, -18.01, 276.08, 591.25, -35.3632042, 149.1645532, 0.734559357166, -0.104208059609, -0.116790547967, -0.660244762897
2019-04-03 20:28:34.29,128516073, 0.07, -18.01, 276.08, 591.280029297, -35.3632038, 149.1645477, 0.734544098377, -0.104210287333, -0.116900116205, -0.660242080688
2019-04-03 20:28:34.39,128616033, 0.06, -18.01, 276.08, 591.309997559, -35.3632032, 149.1645423, 0.734517037868, -0.104288868606, -0.1168134287, -0.660275101662
2019-04-03 20:28:34.49,128715993, 0.05, -18.0, 276.08, 591.340026855, -35.3632027, 149.164537, 0.734502792358, -0.104284137487, -0.116631858051, -0.660323798656
2019-04-03 20:28:34.59,128815953, 0.04, -18.01, 276.07, 591.369995117, -35.3632024, 149.1645316, 0.734472572803, -0.104344315827, -0.11668112874, -0.660339176655
2019-04-03 20:28:34.69,128915913, 0.05, -18.02, 276.07, 591.400024414, -35.3632019, 149.1645261, 0.734437167645, -0.104385003448, -0.116845883429, -0.660343050957
2019-04-03 20:28:34.79,129015873, 0.04, -18.04, 276.06, 591.429992676, -35.3632014, 149.1645207, 0.734377563, -0.104591079056, -0.116843447089, -0.660377144814
2019-04-03 20:28:34.89,129115833, 0.02, -18.05, 276.06, 591.450012207, -35.3632008, 149.1645153, 0.734320759773, -0.104799628258, -0.116809472442, -0.660413205624
2019-04-03 20:28:34.99,129215793, 0.02, -18.07, 276.05, 591.479980469, -35.3632005, 149.1645098, 0.734280526638, -0.104876980186, -0.116887196898, -0.660431921482
2019-04-03 20:28:35.09,129315753, 0.05, -18.07, 276.05, 591.510009766, -35.3632, 149.1645045, 0.734277784824, -0.104672320187, -0.117084026337, -0.660432517529
2019-04-03 20:28:35.19,129415713, 0.08, -18.07, 276.04, 591.539978027, -35.3631995, 149.164499, 0.734267115593, -0.104485876858, -0.117254033685, -0.660443842411
2019-04-03 20:28:35.29,129515673, 0.1, -18.07, 276.03, 591.570007324, -35.363199, 149.1644935, 0.734240889549, -0.104374952614, -0.117340162396, -0.660475254059
2019-04-03 20:28:35.40,129616466, 0.11, -18.07, 276.03, 591.599975586, -35.3631985, 149.1644881, 0.734205067158, -0.104329258204, -0.117415688932, -0.660508811474
2019-04-03 20:28:35.50,129716426, 0.11, -18.07, 276.02, 591.619995117, -35.3631981, 149.1644826, 0.73416274786, -0.104336120188, -0.117460377514, -0.660546839237
2019-04-03 20:28:35.60,129816386, 0.13, -18.08, 276.01, 591.650024414, -35.3631976, 149.1644772, 0.734131217003, -0.104270860553, -0.117558754981, -0.660574734211
2019-04-03 20:28:35.70,129916346, 0.16, -18.07, 276.0, 591.679992676, -35.3631972, 149.1644719, 0.734131038189, -0.104013904929, -0.117661237717, -0.660597205162
2019-04-03 20:28:35.79,130016306, 0.18, -18.06, 276.0, 591.710021973, -35.3631966, 149.1644663, 0.734117925167, -0.103857196867, -0.117690846324, -0.6606310606
2019-04-03 20:28:35.89,130116266, 0.16, -18.05, 275.99, 591.739990234, -35.3631962, 149.164461, 0.734073162079, -0.103941045702, -0.11757261306, -0.660688698292
2019-04-03 20:28:35.99,130216226, 0.13, -18.05, 275.99, 591.770019531, -35.3631957, 149.1644556, 0.734021663666, -0.104099586606, -0.117386966944, -0.660753965378
2019-04-03 20:28:36.09,130316186, 0.1, -18.03, 275.98, 591.789978027, -35.3631953, 149.16445, 0.733977854252, -0.104218900204, -0.117068752646, -0.660840332508
2019-04-03 20:28:36.19,130416146, 0.08, -17.99, 275.98, 591.820007324, -35.3631947, 149.1644447, 0.733965277672, -0.104159153998, -0.1166883111, -0.660930991173
2019-04-03 20:28:36.29,130516106, 0.08, -17.96, 275.97, 591.849975586, -35.3631942, 149.1644392, 0.733973801136, -0.103959091008, -0.116511881351, -0.660984098911
2019-04-03 20:28:36.39,130616066, 0.09, -17.95, 275.97, 591.880004883, -35.3631938, 149.1644337, 0.733971238136, -0.103816136718, -0.116508238018, -0.661010086536
2019-04-03 20:28:36.49,130716026, 0.11, -17.97, 275.96, 591.909973145, -35.3631933, 149.1644284, 0.733933389187, -0.103848494589, -0.116688206792, -0.661015272141
2019-04-03 20:28:36.59,130815986, 0.12, -18.01, 275.96, 591.940002441, -35.3631929, 149.1644229, 0.733859241009, -0.104032866657, -0.117007993162, -0.66101205349
2019-04-03 20:28:36.69,130915946, 0.11, -18.02, 275.95, 591.960021973, -35.3631923, 149.1644174, 0.733797907829, -0.104173503816, -0.117051452398, -0.661050319672
2019-04-03 20:28:36.79,131015906, 0.11, -18.01, 275.94, 591.989990234, -35.3631918, 149.164412, 0.73376595974, -0.104116126895, -0.116973549128, -0.661108613014
2019-04-03 20:28:36.89,131115866, 0.09, -18.01, 275.93, 592.020019531, -35.3631914, 149.1644066, 0.733702600002, -0.104222409427, -0.116872400045, -0.661180019379
2019-04-03 20:28:36.99,131215826, 0.06, -18.01, 275.92, 592.049987793, -35.3631909, 149.1644011, 0.733615994453, -0.104439809918, -0.116663761437, -0.661278665066
2019-04-03 20:28:37.09,131315786, 0.04, -18.01, 275.91, 592.08001709, -35.3631904, 149.1643957, 0.733535349369, -0.104578301311, -0.116503149271, -0.661374568939
2019-04-03 20:28:37.19,131415746, 0.02, -18.02, 275.9, 592.109985352, -35.3631899, 149.1643902, 0.733447730541, -0.104734040797, -0.11647195369, -0.661452591419
2019-04-03 20:28:37.29,131515706, 0.04, -18.02, 275.89, 592.140014648, -35.3631895, 149.1643848, 0.733400225639, -0.104656510055, -0.116572447121, -0.661499857903
2019-04-03 20:28:37.39,131615666, 0.06, -18.02, 275.88, 592.16998291, -35.363189, 149.1643794, 0.733365952969, -0.104505173862, -0.116708688438, -0.661537766457
2019-04-03 20:28:37.50,131716459, 0.09, -18.03, 275.87, 592.190002441, -35.3631885, 149.1643738, 0.733328700066, -0.104397185147, -0.116903148592, -0.661561787128
2019-04-03 20:28:37.60,131816419, 0.11, -18.05, 275.86, 592.219970703, -35.363188, 149.1643684, 0.733278214931, -0.104415513575, -0.11715965718, -0.661569416523
2019-04-03 20:28:37.70,131916379, 0.11, -18.06, 275.86, 592.25, -35.3631874, 149.1643629, 0.733226180077, -0.104474410415, -0.117245666683, -0.661602556705
2019-04-03 20:28:37.80,132016339, 0.11, -18.05, 275.85, 592.280029297, -35.3631869, 149.1643575, 0.733205854893, -0.104396492243, -0.117122128606, -0.661659300327
2019-04-03 20:28:37.89,132116299, 0.1, -18.02, 275.84, 592.309997559, -35.3631866, 149.1643521, 0.733183324337, -0.104287065566, -0.116881236434, -0.661744058132
2019-04-03 20:28:37.99,132216259, 0.09, -17.99, 275.83, 592.340026855, -35.3631861, 149.1643465, 0.733154594898, -0.104184858501, -0.116659842432, -0.661831080914
2019-04-03 20:28:38.09,132316219, 0.1, -17.99, 275.82, 592.369995117, -35.3631856, 149.1643412, 0.733106613159, -0.104139529169, -0.116686806083, -0.661886632442
2019-04-03 20:28:38.19,132416179, 0.1, -18.01, 275.81, 592.400024414, -35.363185, 149.1643358, 0.733024954796, -0.104254111648, -0.116782382131, -0.661942124367
2019-04-03 20:28:38.29,132516139, 0.07, -18.03, 275.8, 592.429992676, -35.3631845, 149.1643303, 0.732912838459, -0.104563817382, -0.116750150919, -0.662023127079
2019-04-03 20:28:38.39,132616099, 0.06, -18.06, 275.79, 592.450012207, -35.3631841, 149.1643249, 0.732804775238, -0.104818157852, -0.11685577035, -0.662083864212
2019-04-03 20:28:38.49,132716059, 0.06, -18.08, 275.78, 592.479980469, -35.3631837, 149.1643193, 0.732707679272, -0.104975894094, -0.116992861032, -0.662142157555
2019-04-03 20:28:38.59,132816019, 0.06, -18.08, 275.76, 592.510009766, -35.3631832, 149.164314, 0.732632517815, -0.105008259416, -0.116943866014, -0.662228882313
2019-04-03 20:28:38.69,132915979, 0.04, -18.06, 275.75, 592.539978027, -35.3631826, 149.1643085, 0.732572734356, -0.104998797178, -0.116711303592, -0.66233754158
2019-04-03 20:28:38.79,133015939, 0.02, -18.03, 275.74, 592.570007324, -35.3631822, 149.164303, 0.732521057129, -0.10495840013, -0.116409674287, -0.662454128265
2019-04-03 20:28:38.89,133115899, 0.02, -18.02, 275.73, 592.599975586, -35.3631817, 149.1642976, 0.732465684414, -0.104916058481, -0.11632783711, -0.66253644228
2019-04-03 20:28:38.99,133215859, 0.02, -18.03, 275.72, 592.630004883, -35.3631813, 149.164292, 0.732392966747, -0.10498636961, -0.116390109062, -0.662594735622
2019-04-03 20:28:39.09,133315819, 0.04, -18.04, 275.71, 592.659973145, -35.3631807, 149.1642867, 0.732340812683, -0.104907058179, -0.116542227566, -0.662638187408
2019-04-03 20:28:39.19,133415779, 0.06, -18.04, 275.7, 592.690002441, -35.3631802, 149.1642812, 0.73229008913, -0.104814261198, -0.116662427783, -0.662687778473
2019-04-03 20:28:39.29,133515739, 0.08, -18.04, 275.69, 592.719970703, -35.3631798, 149.1642757, 0.732243359089, -0.104724094272, -0.116723917425, -0.662742853165
2019-04-03 20:28:39.39,133615699, 0.09, -18.03, 275.68, 592.75, -35.3631793, 149.1642703, 0.73220205307, -0.104629911482, -0.116714291275, -0.662805020809
2019-04-03 20:28:39.49,133715659, 0.1, -18.01, 275.67, 592.770019531, -35.3631789, 149.1642649, 0.732190072536, -0.104388386011, -0.116678267717, -0.662862718105
2019-04-03 20:28:39.60,133816452, 0.11, -18.0, 275.66, 592.799987793, -35.3631783, 149.1642594, 0.732170522213, -0.104250863194, -0.116644144058, -0.662911891937
2019-04-03 20:28:39.70,133916412, 0.11, -18.0, 275.66, 592.83001709, -35.3631778, 149.1642539, 0.732135415077, -0.104324005544, -0.116642974317, -0.662939488888
2019-04-03 20:28:39.80,134016372, 0.1, -18.01, 275.65, 592.859985352, -35.3631774, 149.1642484, 0.732104659081, -0.10440967977, -0.116672612727, -0.662954688072
2019-04-03 20:28:39.90,134116332, 0.1, -18.04, 275.65, 592.890014648, -35.363177, 149.164243, 0.732052385807, -0.104618296027, -0.116862408817, -0.662946105003
2019-04-03 20:28:39.99,134216292, 0.12, -18.08, 275.65, 592.91998291, -35.3631765, 149.1642374, 0.732014775276, -0.104729875922, -0.117155656219, -0.662918269634
2019-04-03 20:28:40.09,134316252, 0.11, -18.11, 275.64, 592.950012207, -35.3631759, 149.1642321, 0.731961071491, -0.104935221374, -0.117306508124, -0.662918388844
2019-04-03 20:28:40.19,134416212, 0.09, -18.12, 275.64, 592.979980469, -35.3631756, 149.1642266, 0.731909275055, -0.105129994452, -0.117274358869, -0.662950456142
2019-04-03 20:28:40.29,134516172, 0.08, -18.12, 275.64, 593.010009766, -35.3631751, 149.1642211, 0.73187738657, -0.105191081762, -0.11722317338, -0.662984967232
2019-04-03 20:28:40.39,134616132, 0.08, -18.11, 275.63, 593.039978027, -35.3631746, 149.1642157, 0.731857299805, -0.105158239603, -0.117169462144, -0.663021862507
2019-04-03 20:28:40.49,134716092, 0.09, -18.1, 275.63, 593.070007324, -35.3631741, 149.1642102, 0.731847822666, -0.105052657425, -0.117138952017, -0.663054406643
2019-04-03 20:28:40.59,134816052, 0.1, -18.09, 275.62, 593.099975586, -35.3631737, 149.1642048, 0.731844425201, -0.10491040349, -0.117108270526, -0.663086175919
2019-04-03 20:28:40.69,134916012, 0.09, -18.08, 275.62, 593.130004883, -35.3631732, 149.1641993, 0.7318161726, -0.104919977486, -0.117025986314, -0.66313034296
2019-04-03 20:28:40.79,135015972, 0.08, -18.08, 275.61, 593.150024414, -35.3631727, 149.1641938, 0.731772840023, -0.104998379946, -0.116975069046, -0.663174748421
2019-04-03 20:28:40.89,135115932, 0.1, -18.09, 275.61, 593.179992676, -35.3631722, 149.1641884, 0.731747865677, -0.104935757816, -0.117095388472, -0.663190960884
2019-04-03 20:28:40.99,135215892, 0.14, -18.11, 275.6, 593.210021973, -35.3631717, 149.1641829, 0.73173636198, -0.10478682816, -0.117451570928, -0.663164258003
2019-04-03 20:28:41.09,135315852, 0.18, -18.11, 275.6, 593.239990234, -35.3631713, 149.1641775, 0.73174226284, -0.104605421424, -0.117683872581, -0.663145184517
2019-04-03 20:28:41.19,135415812, 0.19, -18.12, 275.59, 593.270019531, -35.3631708, 149.1641721, 0.731739044189, -0.104521870613, -0.11779422313, -0.663142323494
2019-04-03 20:28:41.29,135515772, 0.19, -18.11, 275.59, 593.299987793, -35.3631704, 149.1641665, 0.731736004353, -0.104472771287, -0.117722943425, -0.663166046143
2019-04-03 20:28:41.39,135615732, 0.17, -18.09, 275.59, 593.33001709, -35.3631698, 149.1641611, 0.731719374657, -0.10450655967, -0.117466174066, -0.663224577904
2019-04-03 20:28:41.49,135715692, 0.15, -18.07, 275.59, 593.359985352, -35.3631693, 149.1641556, 0.731702029705, -0.104520827532, -0.117252200842, -0.663279354572
2019-04-03 20:28:41.60,135816485, 0.13, -18.07, 275.58, 593.390014648, -35.3631689, 149.1641502, 0.731653392315, -0.104663595557, -0.117167927325, -0.663325369358
2019-04-03 20:28:41.70,135916445, 0.14, -18.08, 275.58, 593.41998291, -35.3631685, 149.1641446, 0.731623291969, -0.104671150446, -0.117195941508, -0.663352489471
2019-04-03 20:28:41.80,136016405, 0.15, -18.07, 275.57, 593.440002441, -35.363168, 149.1641392, 0.731608450413, -0.104579240084, -0.117239542305, -0.663375616074
2019-04-03 20:28:41.90,136116365, 0.15, -18.06, 275.57, 593.469970703, -35.3631674, 149.1641338, 0.731593430042, -0.104491509497, -0.117223739624, -0.663408756256
2019-04-03 20:28:42.00,136216325, 0.15, -18.05, 275.56, 593.5, -35.363167, 149.1641282, 0.731572031975, -0.104453369975, -0.117091082036, -0.66346180439
2019-04-03 20:28:42.09,136316285, 0.14, -18.03, 275.56, 593.530029297, -35.3631666, 149.1641229, 0.731549441814, -0.104406796396, -0.116942226887, -0.663520336151
2019-04-03 20:28:42.19,136416245, 0.14, -18.05, 275.55, 593.559997559, -35.3631661, 149.1641173, 0.731504976749, -0.104512579739, -0.117004588246, -0.663541674614
2019-04-03 20:28:42.29,136516205, 0.14, -18.06, 275.55, 593.590026855, -35.3631655, 149.1641119, 0.731460034847, -0.104626871645, -0.117107912898, -0.663554906845
2019-04-03 20:28:42.39,136616165, 0.15, -18.09, 275.54, 593.619995117, -35.3631652, 149.1641065, 0.731420636177, -0.104702606797, -0.117289476097, -0.663554370403
2019-04-03 20:28:42.49,136716125, 0.17, -18.09, 275.54, 593.650024414, -35.3631647, 149.1641009, 0.731417536736, -0.10455788672, -0.117450587451, -0.663552165031
2019-04-03 20:28:42.59,136816085, 0.2, -18.1, 275.53, 593.679992676, -35.3631642, 149.1640955, 0.731410086155, -0.104440420866, -0.117634877563, -0.663546204567
2019-04-03 20:28:42.69,136916045, 0.22, -18.11, 275.53, 593.710021973, -35.3631637, 149.16409, 0.731392741203, -0.104390710592, -0.117832176387, -0.66353815794
2019-04-03 20:28:42.79,137016005, 0.21, -18.12, 275.53, 593.739990234, -35.3631632, 149.1640846, 0.731354296207, -0.104492731392, -0.117886692286, -0.663554728031
2019-04-03 20:28:42.89,137115965, 0.19, -18.11, 275.52, 593.770019531, -35.3631628, 149.164079, 0.731321394444, -0.104613006115, -0.117671832442, -0.663610219955
2019-04-03 20:28:42.99,137215925, 0.16, -18.1, 275.52, 593.799987793, -35.3631623, 149.1640737, 0.731289029121, -0.104740425944, -0.117472790182, -0.663661003113
2019-04-03 20:28:43.09,137315885, 0.12, -18.11, 275.52, 593.820007324, -35.3631619, 149.1640682, 0.731237649918, -0.104996718466, -0.117283679545, -0.663710594177
2019-04-03 20:28:43.19,137415845, 0.09, -18.13, 275.51, 593.849975586, -35.3631613, 149.1640627, 0.73116838932, -0.105340510607, -0.117181435227, -0.663750529289
2019-04-03 20:28:43.29,137515805, 0.06, -18.14, 275.51, 593.880004883, -35.3631608, 149.1640573, 0.731116354465, -0.105562806129, -0.117109686136, -0.663785159588
2019-04-03 20:28:43.39,137615765, 0.07, -18.14, 275.51, 593.909973145, -35.3631604, 149.1640517, 0.731098234653, -0.10552278161, -0.117205835879, -0.663794517517
2019-04-03 20:28:43.49,137715725, 0.08, -18.15, 275.5, 593.940002441, -35.36316, 149.1640463, 0.731073737144, -0.105533383787, -0.117334581912, -0.663797020912
2019-04-03 20:28:43.59,137815685, 0.1, -18.17, 275.5, 593.969970703, -35.3631595, 149.1640409, 0.731056153774, -0.105470657349, -0.11751370132, -0.663794696331
2019-04-03 20:28:43.70,137916478, 0.14, -18.17, 275.49, 594.0, -35.3631589, 149.1640354, 0.731042981148, -0.105316191912, -0.117755360901, -0.663790941238
2019-04-03 20:28:43.80,138016438, 0.15, -18.17, 275.49, 594.030029297, -35.3631585, 149.1640299, 0.731019556522, -0.105194993317, -0.1178259179, -0.663823366165
2019-04-03 20:28:43.90,138116398, 0.18, -18.13, 275.48, 594.059997559, -35.3631581, 149.1640244, 0.731037318707, -0.104835189879, -0.117712207139, -0.663880884647
2019-04-03 20:28:44.00,138216358, 0.18, -18.08, 275.47, 594.090026855, -35.3631576, 149.1640189, 0.731051802635, -0.104556187987, -0.117403231561, -0.663963675499
2019-04-03 20:28:44.10,138316318, 0.18, -18.05, 275.47, 594.119995117, -35.363157, 149.1640134, 0.731057107449, -0.10435564816, -0.11722330004, -0.664021253586
2019-04-03 20:28:44.19,138416278, 0.19, -18.06, 275.46, 594.150024414, -35.3631567, 149.164008, 0.731032550335, -0.104352660477, -0.11726783216, -0.664040803909
2019-04-03 20:28:44.29,138516238, 0.2, -18.07, 275.46, 594.179992676, -35.3631562, 149.1640024, 0.731016159058, -0.104331791401, -0.117427930236, -0.664033830166
2019-04-03 20:28:44.39,138616198, 0.2, -18.09, 275.46, 594.200012207, -35.3631557, 149.163997, 0.730988502502, -0.104431629181, -0.117545671761, -0.664027810097
2019-04-03 20:28:44.49,138716158, 0.18, -18.1, 275.46, 594.229980469, -35.3631552, 149.1639916, 0.730946004391, -0.104652173817, -0.117557175457, -0.664037764072
2019-04-03 20:28:44.59,138816118, 0.17, -18.11, 275.46, 594.260009766, -35.3631547, 149.1639861, 0.730920135975, -0.104796864092, -0.117531120777, -0.664048075676
2019-04-03 20:28:44.69,138916078, 0.17, -18.12, 275.46, 594.289978027, -35.3631543, 149.1639806, 0.730915546417, -0.104800567031, -0.117542728782, -0.664050459862
2019-04-03 20:28:44.79,139016038, 0.19, -18.11, 275.45, 594.320007324, -35.3631538, 149.1639751, 0.730929374695, -0.104631192982, -0.117589361966, -0.664053738117
2019-04-03 20:28:44.89,139115998, 0.22, -18.09, 275.45, 594.349975586, -35.3631534, 149.1639697, 0.730951786041, -0.104377739131, -0.117689244449, -0.664051234722
2019-04-03 20:28:44.99,139215958, 0.24, -18.09, 275.45, 594.380004883, -35.3631528, 149.1639641, 0.730965018272, -0.104192905128, -0.11778473109, -0.664048731327
2019-04-03 20:28:45.09,139315918, 0.25, -18.09, 275.45, 594.409973145, -35.3631524, 149.1639587, 0.730967283249, -0.104114376009, -0.117823682725, -0.664051711559
2019-04-03 20:28:45.19,139415878, 0.26, -18.08, 275.45, 594.429992676, -35.363152, 149.1639533, 0.730971813202, -0.104051299393, -0.1177957654, -0.664061546326
2019-04-03 20:28:45.29,139515838, 0.26, -18.07, 275.44, 594.460021973, -35.3631515, 149.1639478, 0.730984985828, -0.10394345969, -0.117777138948, -0.664067268372
2019-04-03 20:28:45.39,139615798, 0.26, -18.07, 275.44, 594.489990234, -35.3631509, 149.1639423, 0.73097628355, -0.103974871337, -0.117724508047, -0.664081215858
2019-04-03 20:28:45.49,139715758, 0.25, -18.07, 275.44, 594.520019531, -35.3631504, 149.1639367, 0.730955302715, -0.104086630046, -0.117701113224, -0.66409099102
2019-04-03 20:28:45.59,139815718, 0.24, -18.09, 275.44, 594.549987793, -35.3631501, 149.1639314, 0.730932235718, -0.104227699339, -0.117746897042, -0.664086103439
2019-04-03 20:28:45.69,139915678, 0.21, -18.08, 275.44, 594.58001709, -35.3631496, 149.1639258, 0.730917870998, -0.104344286025, -0.117580480874, -0.664113104343
2019-04-03 20:28:45.80,140016471, 0.18, -18.07, 275.44, 594.609985352, -35.3631491, 149.1639204, 0.73089581728, -0.104468546808, -0.117320783436, -0.664163768291
2019-04-03 20:28:45.90,140116431, 0.17, -18.07, 275.44, 594.640014648, -35.3631485, 149.1639148, 0.730870723724, -0.104552991688, -0.117230959237, -0.664193987846
2019-04-03 20:28:46.00,140216391, 0.16, -18.08, 275.44, 594.659973145, -35.363148, 149.1639094, 0.730841457844, -0.104635111988, -0.11723202467, -0.664213001728
2019-04-03 20:28:46.10,140316351, 0.16, -18.09, 275.43, 594.690002441, -35.3631477, 149.163904, 0.7307985425, -0.104768551886, -0.117275498807, -0.664231538773
2019-04-03 20:28:46.20,140416311, 0.15, -18.11, 275.43, 594.719970703, -35.3631472, 149.1638984, 0.730734288692, -0.104924030602, -0.117394261062, -0.664256751537
2019-04-03 20:28:46.29,140516271, 0.16, -18.11, 275.42, 594.75, -35.3631467, 149.163893, 0.730686485767, -0.10491450876, -0.117397002876, -0.664310336113
2019-04-03 20:28:46.39,140616231, 0.16, -18.11, 275.41, 594.780029297, -35.3631461, 149.1638875, 0.730629622936, -0.10488678515, -0.117385551333, -0.664379239082
2019-04-03 20:28:46.49,140716191, 0.17, -18.12, 275.4, 594.809997559, -35.3631456, 149.1638821, 0.730567216873, -0.104860603809, -0.117498897016, -0.664431989193
2019-04-03 20:28:46.59,140816151, 0.2, -18.14, 275.38, 594.840026855, -35.3631453, 149.1638765, 0.730502784252, -0.104835532606, -0.117813669145, -0.664451062679
2019-04-03 20:28:46.69,140916111, 0.22, -18.17, 275.37, 594.859985352, -35.3631448, 149.1638712, 0.730434119701, -0.104885339737, -0.11810015142, -0.664467811584
2019-04-03 20:28:46.79,141016071, 0.21, -18.18, 275.37, 594.890014648, -35.3631443, 149.1638657, 0.730361759663, -0.105022460222, -0.1181351915, -0.664519429207
2019-04-03 20:28:46.89,141116031, 0.21, -18.17, 275.36, 594.91998291, -35.3631437, 149.1638601, 0.730335235596, -0.104948692024, -0.118066929281, -0.664572358131
2019-04-03 20:28:46.99,141215991, 0.23, -18.16, 275.35, 594.950012207, -35.3631433, 149.1638548, 0.73033362627, -0.104759283364, -0.118052005768, -0.664606630802
2019-04-03 20:28:47.09,141315951, 0.24, -18.12, 275.35, 594.979980469, -35.3631429, 149.1638492, 0.730357944965, -0.10449436307, -0.117904677987, -0.664647877216
2019-04-03 20:28:47.19,141415911, 0.24, -18.09, 275.35, 595.0, -35.3631424, 149.1638438, 0.730374634266, -0.104295641184, -0.117720037699, -0.664693415165
2019-04-03 20:28:47.29,141515871, 0.24, -18.08, 275.34, 595.030029297, -35.3631418, 149.1638382, 0.730356931686, -0.104284316301, -0.117648400366, -0.664727270603
2019-04-03 20:28:47.39,141615831, 0.24, -18.1, 275.34, 595.059997559, -35.3631413, 149.1638329, 0.73032104969, -0.104345448315, -0.117722973228, -0.664743959904
2019-04-03 20:28:47.49,141715791, 0.26, -18.11, 275.33, 595.090026855, -35.363141, 149.1638274, 0.730294346809, -0.104331441224, -0.1179170385, -0.664741098881
2019-04-03 20:28:47.59,141815751, 0.28, -18.13, 275.33, 595.119995117, -35.3631405, 149.1638218, 0.730268895626, -0.104325853288, -0.118187129498, -0.66472196579
2019-04-03 20:28:47.69,141915711, 0.29, -18.16, 275.33, 595.150024414, -35.36314, 149.1638165, 0.730237722397, -0.104401320219, -0.118409752846, -0.664704799652
2019-04-03 20:28:47.79,142015671, 0.29, -18.17, 275.33, 595.16998291, -35.3631394, 149.1638109, 0.730216085911, -0.10448987782, -0.118455335498, -0.664706468582
2019-04-03 20:28:47.90,142116464, 0.27, -18.15, 275.33, 595.200012207, -35.3631391, 149.1638055, 0.73022454977, -0.104461736977, -0.118238456547, -0.664740204811
2019-04-03 20:28:48.00,142216424, 0.26, -18.12, 275.33, 595.229980469, -35.3631386, 149.1637999, 0.730233430862, -0.104416750371, -0.117955602705, -0.664787769318
2019-04-03 20:28:48.10,142316384, 0.25, -18.1, 275.32, 595.260009766, -35.3631381, 149.1637945, 0.73023712635, -0.104371473193, -0.11779434979, -0.664819419384
2019-04-03 20:28:48.20,142416344, 0.23, -18.1, 275.32, 595.289978027, -35.3631376, 149.1637891, 0.730210721493, -0.10446549207, -0.117728516459, -0.664845347404
2019-04-03 20:28:48.29,142516304, 0.23, -18.12, 275.32, 595.320007324, -35.3631372, 149.1637835, 0.730171322823, -0.10458432138, -0.117762796581, -0.664863824844
2019-04-03 20:28:48.39,142616264, 0.21, -18.12, 275.31, 595.340026855, -35.3631367, 149.1637781, 0.73012471199, -0.104692392051, -0.117655806243, -0.664916932583
2019-04-03 20:28:48.49,142716224, 0.2, -18.11, 275.31, 595.369995117, -35.3631362, 149.1637726, 0.730069100857, -0.104772850871, -0.117565460503, -0.664981245995
