Start,TimeUS,Roll,Pitch,Yaw,Alt,Lat,Lng,Q1,Q2,Q3,Q4
2019-04-03 19:10:48.10,59516184, 0.0, 0.0, 353.0, 584.090026855, -35.363261, 149.1652299, 0.998134791851, 0.0, 0.0, -0.0610485821962
2019-04-03 19:10:48.20,59616144, 0.0, 0.0, 353.0, 584.090026855, -35.363261, 149.1652299, 0.998134791851, 0.0, 0.0, -0.0610485821962
2019-04-03 19:10:48.29,59716104, 0.0, 0.0, 353.0, 584.090026855, -35.363261, 149.1652299, 0.998134791851, 0.0, 0.0, -0.0610485821962
2019-04-03 19:10:48.39,59816064, 0.0, 0.0, 353.0, 584.090026855, -35.363261, 149.1652299, 0.998134791851, 0.0, 0.0, -0.0610485821962
2019-04-03 19:10:48.49,59916024, 0.0, 0.0, 353.0, 584.090026855, -35.363261, 149.1652299, 0.998134791851, 0.0, 0.0, -0.0610485821962
2019-04-03 19:10:48.59,60015984, 0.0, 0.0, 353.0, 584.090026855, -35.363261, 149.1652299, 0.998134791851, 0.0, 0.0, -0.0610485821962
2019-04-03 19:10:48.69,60115944, 0.0, 0.0, 353.0, 584.090026855, -35.363261, 149.1652299, 0.998134791851, 0.0, 0.0, -0.0610485821962
2019-04-03 19:10:48.79,60215904, 0.0, 0.0, 353.0, 584.090026855, -35.363261, 149.1652299, 0.998134791851, 0.0, 0.0, -0.0610485821962
2019-04-03 19:10:48.89,60315864, 0.0, 0.0, 353.0, 584.090026855, -35.363261, 149.1652299, 0.998134791851, 0.0, 0.0, -0.0610485821962
2019-04-03 19:10:48.99,60415824, 0.0, 0.0, 353.0, 584.090026855, -35.363261, 149.1652299, 0.998134791851, 0.0, 0.0, -0.0610485821962
2019-04-03 19:10:49.09,60515784, 0.0, 0.0, 353.0, 584.090026855, -35.363261, 149.1652299, 0.998134791851, 0.0, 0.0, -0.0610485821962
2019-04-03 19:10:49.19,60615744, 0.0, 0.0, 353.0, 584.090026855, -35.363261, 149.1652299, 0.998134791851, 0.0, 0.0, -0.0610485821962
2019-04-03 19:10:49.29,60715704, 0.0, 0.0, 353.0, 584.090026855, -35.363261, 149.1652299, 0.998134791851, 0.0, 0.0, -0.0610485821962
2019-04-03 19:10:49.39,60815664, 0.0, 0.0, 353.0, 584.090026855, -35.363261, 149.1652299, 0.998134791851, 0.0, 0.0, -0.0610485821962
2019-04-03 19:10:49.50,60916457, 0.0, 0.0, 353.0, 584.090026855, -35.363261, 149.1652299, 0.998134791851, 0.0, 0.0, -0.0610485821962
2019-04-03 19:10:49.60,61016417, 0.0, 0.0, 353.0, 584.090026855, -35.363261, 149.1652299, 0.998134791851, 0.0, 0.0, -0.0610485821962
2019-04-03 19:10:49.70,61116377, 0.0, 0.0, 353.0, 584.090026855, -35.363261, 149.1652299, 0.998134791851, 0.0, 0.0, -0.0610485821962
2019-04-03 19:10:49.80,61216337, 0.0, 0.0, 353.0, 584.090026855, -35.363261, 149.1652299, 0.998134791851, 0.0, 0.0, -0.0610485821962
2019-04-03 19:10:49.90,61316297, 0.0, 0.0, 353.0, 584.090026855, -35.363261, 149.1652299, 0.998134791851, 0.0, 0.0, -0.0610485821962
2019-04-03 19:10:50.00,61416257, 0.0, 0.0, 353.0, 584.090026855, -35.363261, 149.1652299, 0.998134791851, 0.0, 0.0, -0.0610485821962
2019-04-03 19:10:50.10,61516217, 0.0, 0.0, 353.0, 584.090026855, -35.363261, 149.1652299, 0.998134791851, 0.0, 0.0, -0.0610485821962
2019-04-03 19:10:50.20,61616177, 0.0, 0.0, 353.0, 584.090026855, -35.363261, 149.1652299, 0.998134791851, 0.0, 0.0, -0.0610485821962
2019-04-03 19:10:50.29,61716137, 0.0, 0.0, 353.0, 584.090026855, -35.363261, 149.1652299, 0.998134791851, 0.0, 0.0, -0.0610485821962
2019-04-03 19:10:50.39,61816097, 0.0, 0.0, 353.0, 584.090026855, -35.363261, 149.1652299, 0.998134791851, 0.0, 0.0, -0.0610485821962
2019-04-03 19:10:50.49,61916057, 0.0, 0.0, 353.0, 584.090026855, -35.363261, 149.1652299, 0.998134791851, 0.0, 0.0, -0.0610485821962
2019-04-03 19:10:50.59,62016017, 0.0, 0.0, 353.0, 584.090026855, -35.363261, 149.1652299, 0.998134791851, 0.0, 0.0, -0.0610485821962
2019-04-03 19:10:50.69,62115977, 0.0, 0.0, 353.0, 584.090026855, -35.363261, 149.1652299, 0.998134791851, 0.0, 0.0, -0.0610485821962
2019-04-03 19:10:50.79,62215937, 0.0, 0.0, 353.0, 584.090026855, -35.363261, 149.1652299, 0.998134791851, 0.0, 0.0, -0.0610485821962
2019-04-03 19:10:50.89,62315897, 0.0, 0.0, 353.0, 584.090026855, -35.363261, 149.1652299, 0.998134791851, 0.0, 0.0, -0.0610485821962
2019-04-03 19:10:50.99,62415857, 0.0, 0.0, 353.0, 584.090026855, -35.363261, 149.1652299, 0.998134791851, 0.0, 0.0, -0.0610485821962
2019-04-03 19:10:51.09,62515817, 0.0, 0.0, 353.0, 584.090026855, -35.363261, 149.1652299, 0.998134791851, 0.0, 0.0, -0.0610485821962
2019-04-03 19:10:51.19,62615777, 0.0, 0.0, 353.0, 584.090026855, -35.363261, 149.1652299, 0.998134791851, 0.0, 0.0, -0.0610485821962
2019-04-03 19:10:51.29,62715737, 0.0, 0.0, 353.0, 584.090026855, -35.363261, 149.1652299, 0.998134791851, 0.0, 0.0, -0.0610485821962
2019-04-03 19:10:51.39,62815697, 0.0, 0.0, 353.0, 584.090026855, -35.363261, 149.1652299, 0.998134791851, 0.0, 0.0, -0.0610485821962
2019-04-03 19:10:51.50,62916490, 0.0, 0.0, 353.0, 584.090026855, -35.363261, 149.1652299, 0.998134791851, 0.0, 0.0, -0.0610486604273
2019-04-03 19:10:51.60,63016450, 0.0, 0.0, 353.0, 584.090026855, -35.363261, 149.1652299, 0.998134791851, 0.0, 0.0, -0.0610486641526
2019-04-03 19:10:51.70,63116410, 0.0, 0.0, 353.0, 584.090026855, -35.363261, 149.1652299, 0.998134791851, 0.0, 0.0, -0.0610486641526
2019-04-03 19:10:51.80,63216370, 0.0, 0.0, 353.0, 584.090026855, -35.363261, 149.1652299, 0.998134791851, 0.0, 0.0, -0.0610486753285
2019-04-03 19:10:51.90,63316330, 0.0, 0.0, 353.0, 584.090026855, -35.363261, 149.1652299, 0.998134791851, 0.0, 0.0, -0.0610486753285
2019-04-03 19:10:52.00,63416290, 0.0, 0.0, 353.0, 584.090026855, -35.363261, 149.1652299, 0.998134791851, 0.0, 0.0, -0.0610486753285
2019-04-03 19:10:52.10,63516250, 0.0, 0.0, 353.0, 584.090026855, -35.363261, 149.1652299, 0.998134791851, 0.0, 0.0, -0.0610486753285
2019-04-03 19:10:52.20,63616210, 0.0, 0.0, 353.0, 584.090026855, -35.363261, 149.1652299, 0.998134791851, 0.0, 0.0, -0.0610486753285
2019-04-03 19:10:52.30,63716170, 0.0, 0.0, 353.0, 584.099975586, -35.363261, 149.1652299, 0.998134791851, 0.0, 0.0, -0.0610486753285
2019-04-03 19:10:52.39,63816130, 0.0, 0.0, 353.0, 584.099975586, -35.363261, 149.1652299, 0.998134791851, 0.0, 0.0, -0.0610486753285
2019-04-03 19:10:52.49,63916090, 0.0, 0.0, 353.0, 584.119995117, -35.363261, 149.1652299, 0.998134791851, 0.0, 0.0, -0.0610486641526
2019-04-03 19:10:52.59,64016050, 0.0, 0.0, 353.0, 584.140014648, -35.363261, 149.1652299, 0.998134791851, 0.0, 0.0, -0.0610486753285
2019-04-03 19:10:52.69,64116010, 0.0, 0.0, 353.0, 584.16998291, -35.363261, 149.1652299, 0.998134791851, 0.0, 0.0, -0.0610486753285
2019-04-03 19:10:52.79,64215970, 0.0, 0.0, 353.0, 584.210021973, -35.363261, 149.1652299, 0.998134791851, 0.0, 0.0, -0.0610486418009
2019-04-03 19:10:52.89,64315930, -0.03, -0.03, 352.99, 584.270019531, -35.363261, 149.1652299, 0.998134434223, -0.000281933171209, -0.000257847219473, -0.0610528737307
2019-04-03 19:10:52.99,64415890, -0.1, -0.09, 352.99, 584.380004883, -35.363261, 149.1652299, 0.99813324213, -0.0010062106885, -0.000804925453849, -0.0610607862473
2019-04-03 19:10:53.09,64515850, -0.16, -0.14, 352.99, 584.530029297, -35.363261, 149.1652299, 0.998131215572, -0.00154949445277, -0.00113249779679, -0.0610776990652
2019-04-03 19:10:53.19,64615810, -0.18, -0.13, 352.99, 584.690002441, -35.363261, 149.1652299, 0.998129785061, -0.00166617298964, -0.00108317134436, -0.0610986500978
2019-04-03 19:10:53.29,64715770, -0.15, -0.1, 352.99, 584.840026855, -35.363261, 149.1652299, 0.99812912941, -0.00142930494621, -0.000794835912529, -0.0611199550331
2019-04-03 19:10:53.39,64815730, -0.12, -0.06, 352.98, 584.989990234, -35.363261, 149.1652299, 0.998128294945, -0.00113290501758, -0.000482215924421, -0.0611431747675
2019-04-03 19:10:53.49,64915690, -0.1, -0.04, 352.98, 585.140014648, -35.363261, 149.1652299, 0.998127162457, -0.000921041762922, -0.000352799805114, -0.0611657723784
2019-04-03 19:10:53.60,65016483, -0.08, -0.02, 352.98, 585.299987793, -35.363261, 149.1652299, 0.998126208782, -0.000736602814868, -0.00014350960555, -0.0611851401627
2019-04-03 19:10:53.70,65116443, -0.05, 0.02, 352.98, 585.469970703, -35.363261, 149.1652299, 0.998125553131, -0.000477020192193, 0.000225956042414, -0.0611982010305
2019-04-03 19:10:53.80,65216403, -0.02, 0.04, 352.98, 585.640014648, -35.363261, 149.1652299, 0.998124957085, -0.000152994092787, 0.000433785753557, -0.061207421124
2019-04-03 19:10:53.90,65316363, 0.0, 0.06, 352.98, 585.820007324, -35.363261, 149.1652298, 0.998124539852, 6.34126408841e-05, 0.000536773295607, -0.0612139999866
2019-04-03 19:10:54.00,65416323, -0.01, 0.05, 352.98, 586.0, -35.363261, 149.1652298, 0.998124361038, -6.6612403316e-05, 0.000479014182929, -0.0612171888351
2019-04-03 19:10:54.10,65516283, -0.06, 0.03, 352.98, 586.190002441, -35.363261, 149.1652298, 0.998124182224, -0.00052696961211, 0.000330566806952, -0.0612190812826
2019-04-03 19:10:54.20,65616243, -0.1, 0.01, 352.98, 586.380004883, -35.363261, 149.1652298, 0.998123943806, -0.000948378816247, 0.00016552132729, -0.0612179227173
2019-04-03 19:10:54.30,65716203, -0.1, 0.0, 352.98, 586.570007324, -35.363261, 149.1652298, 0.998123764992, -0.000942207348999, 1.32018203658e-06, -0.0612209178507
2019-04-03 19:10:54.40,65816163, -0.08, -0.02, 352.98, 586.760009766, -35.363261, 149.1652298, 0.998124063015, -0.000765962176956, -0.000139710711665, -0.0612190887332
2019-04-03 19:10:54.49,65916123, -0.04, -0.02, 352.98, 586.960021973, -35.363261, 149.1652298, 0.998124837875, -0.000389166525565, -0.000153663975652, -0.0612101852894
2019-04-03 19:10:54.59,66016083, 0.0, -0.02, 352.98, 587.159973145, -35.363261, 149.1652298, 0.998125433922, -5.4770764109e-05, -0.000186774559552, -0.0612019710243
2019-04-03 19:10:54.69,66116043, 0.02, -0.02, 352.98, 587.369995117, -35.363261, 149.1652298, 0.998125612736, 0.000196045279154, -0.000236132720602, -0.0611979886889
2019-04-03 19:10:54.79,66216003, 0.03, -0.02, 352.98, 587.570007324, -35.3632609, 149.1652298, 0.998124599457, 0.000248461321462, -0.000250983546721, -0.0612138323486
2019-04-03 19:10:54.89,66315963, 0.05, -0.02, 352.97, 587.780029297, -35.3632609, 149.1652298, 0.998123168945, 0.000493890664075, -0.000279401661828, -0.0612357892096
2019-04-03 19:10:54.99,66415923, 0.09, -0.04, 352.97, 587.979980469, -35.3632609, 149.1652298, 0.998121857643, 0.000779535563197, -0.000440291623818, -0.0612531192601
2019-04-03 19:10:55.09,66515883, 0.08, -0.04, 352.97, 588.190002441, -35.3632609, 149.1652298, 0.998121738434, 0.000733901862986, -0.00042367138667, -0.0612562559545
2019-04-03 19:10:55.19,66615843, 0.03, -0.05, 352.97, 588.409973145, -35.3632609, 149.1652298, 0.998122155666, 0.000319547136314, -0.000460810464574, -0.0612515583634
2019-04-03 19:10:55.29,66715803, 0.0, -0.07, 352.97, 588.619995117, -35.3632609, 149.1652298, 0.998122155666, -0.000113578920718, -0.000607019173913, -0.0612518675625
2019-04-03 19:10:55.39,66815763, -0.06, -0.06, 352.97, 588.83001709, -35.3632609, 149.1652298, 0.998121917248, -0.00062921771314, -0.000558573578019, -0.0612532272935
2019-04-03 19:10:55.49,66915723, -0.11, -0.05, 352.97, 589.049987793, -35.3632609, 149.1652298, 0.998121142387, -0.000989623833448, -0.000441966112703, -0.0612616725266
2019-04-03 19:10:55.59,67015683, -0.13, -0.04, 352.97, 589.260009766, -35.3632609, 149.1652298, 0.998120188713, -0.00117323629092, -0.000317218276905, -0.0612753778696
2019-04-03 19:10:55.70,67116476, -0.12, -0.02, 352.97, 589.479980469, -35.3632609, 149.1652298, 0.998119235039, -0.00113450339995, -0.000152308071847, -0.0612921230495
2019-04-03 19:10:55.80,67216436, -0.12, -0.01, 352.96, 589.700012207, -35.3632609, 149.1652298, 0.998117744923, -0.00112516386434, -8.1387872342e-05, -0.0613164491951
2019-04-03 19:10:55.90,67316396, -0.13, -0.02, 352.96, 589.91998291, -35.3632609, 149.1652298, 0.998115897179, -0.00120878650341, -0.00015431974316, -0.0613454431295
2019-04-03 19:10:56.00,67416356, -0.14, -0.06, 352.96, 590.140014648, -35.3632609, 149.1652298, 0.998113751411, -0.00133523379918, -0.000464506156277, -0.0613753758371
2019-04-03 19:10:56.10,67516316, -0.17, -0.08, 352.95, 590.349975586, -35.3632609, 149.1652297, 0.998111367226, -0.00154852995183, -0.000624401553068, -0.0614084042609
2019-04-03 19:10:56.20,67616276, -0.18, -0.08, 352.95, 590.570007324, -35.3632609, 149.1652297, 0.998109221458, -0.00165135308634, -0.000668679829687, -0.0614399015903
2019-04-03 19:10:56.30,67716236, -0.17, -0.08, 352.95, 590.770019531, -35.3632609, 149.1652297, 0.998107552528, -0.00159208697733, -0.000674351060297, -0.0614681467414
2019-04-03 19:10:56.40,67816196, -0.15, -0.09, 352.94, 590.960021973, -35.3632609, 149.1652297, 0.998106360435, -0.00141815340612, -0.000729565275833, -0.0614910684526
2019-04-03 19:10:56.50,67916156, -0.12, -0.09, 352.94, 591.140014648, -35.3632609, 149.1652297, 0.998105585575, -0.00110469444189, -0.000788508332334, -0.0615100823343
2019-04-03 19:10:56.59,68016116, -0.08, -0.09, 352.94, 591.309997559, -35.3632609, 149.1652296, 0.998104870319, -0.000793910236098, -0.00081640901044, -0.0615256130695
2019-04-03 19:10:56.69,68116076, 0.0, -0.08, 352.94, 591.469970703, -35.3632609, 149.1652296, 0.998104393482, -9.73538699327e-05, -0.000759024114814, -0.0615390539169
2019-04-03 19:10:56.79,68216036, 0.27, -0.01, 352.94, 591.619995117, -35.3632608, 149.1652296, 0.998101055622, 0.00243090791628, -0.000237454063608, -0.0615493655205
2019-04-03 19:10:56.89,68315996, 0.85, 0.16, 352.94, 591.75, -35.3632608, 149.1652296, 0.998074352741, 0.00756418239325, 0.000995661946945, -0.0615581795573
2019-04-03 19:10:56.99,68415956, 1.69, 0.43, 352.94, 591.869995117, -35.3632608, 149.1652296, 0.997985780239, 0.0150057673454, 0.00286594009958, -0.0615714378655
2019-04-03 19:10:57.09,68515916, 2.7, 0.75, 352.95, 591.979980469, -35.3632608, 149.1652296, 0.997799575329, 0.0239780638367, 0.00515215285122, -0.06159979105
2019-04-03 19:10:57.19,68615876, 3.78, 1.09, 352.96, 592.070007324, -35.3632608, 149.1652297, 0.997504174709, 0.0335837900639, 0.00753001263365, -0.0616510920227
2019-04-03 19:10:57.29,68715836, 4.79, 1.4, 352.97, 592.159973145, -35.3632609, 149.1652298, 0.997137248516, 0.0425458177924, 0.00967936869711, -0.0617530681193
2019-04-03 19:10:57.39,68815796, 5.62, 1.64, 352.97, 592.229980469, -35.3632609, 149.1652299, 0.996771335602, 0.049861934036, 0.0112855723128, -0.0619144663215
2019-04-03 19:10:57.49,68915756, 6.24, 1.81, 352.96, 592.289978027, -35.3632609, 149.1652303, 0.996456444263, 0.0553166382015, 0.0124856894836, -0.0621184930205
2019-04-03 19:10:57.59,69015716, 6.69, 1.94, 352.95, 592.349975586, -35.363261, 149.1652306, 0.996202528477, 0.059291549027, 0.0133342053741, -0.0623480901122
2019-04-03 19:10:57.69,69115676, 7.06, 2.07, 352.93, 592.400024414, -35.363261, 149.1652311, 0.995975613594, 0.0625626891851, 0.0142271835357, -0.0625783503056
2019-04-03 19:10:57.80,69216469, 7.4, 2.18, 352.92, 592.440002441, -35.363261, 149.1652317, 0.995753705502, 0.0656007230282, 0.0150275332853, -0.0628120154142
2019-04-03 19:10:57.90,69316429, 7.69, 2.28, 352.9, 592.479980469, -35.363261, 149.1652323, 0.995553016663, 0.0682295635343, 0.0156912002712, -0.0630294010043
2019-04-03 19:10:58.00,69416389, 7.91, 2.32, 352.89, 592.520019531, -35.3632611, 149.1652332, 0.995402038097, 0.0701590329409, 0.0159386973828, -0.0632332637906
2019-04-03 19:10:58.10,69516349, 8.08, 2.34, 352.87, 592.549987793, -35.3632613, 149.1652341, 0.995289504528, 0.0715787559748, 0.0160315148532, -0.0633900612593
2019-04-03 19:10:58.20,69616309, 8.2, 2.36, 352.86, 592.58001709, -35.3632615, 149.1652351, 0.995205819607, 0.0726343989372, 0.0160586442798, -0.0634961128235
2019-04-03 19:10:58.30,69716269, 8.33, 2.39, 352.86, 592.599975586, -35.3632616, 149.1652361, 0.995110332966, 0.0738427266479, 0.0162716116756, -0.0635444149375
2019-04-03 19:10:58.40,69816229, 8.49, 2.52, 352.9, 592.630004883, -35.3632617, 149.1652373, 0.995000243187, 0.0752555206418, 0.0173735916615, -0.0633187890053
2019-04-03 19:10:58.50,69916189, 8.65, 2.96, 353.32, 592.650024414, -35.3632619, 149.1652385, 0.995010018349, 0.0767915025353, 0.0213507842273, -0.0600198172033
2019-04-03 19:10:58.60,70016149, 8.86, 3.6, 354.79, 592.66998291, -35.3632621, 149.1652399, 0.995373308659, 0.0786160677671, 0.0278249550611, -0.0477208010852
2019-04-03 19:10:58.69,70116109, 9.25, 3.97, 357.83, 592.690002441, -35.3632622, 149.1652413, 0.995908617973, 0.0812700614333, 0.0330578945577, -0.0216420888901
2019-04-03 19:10:58.79,70216069, 9.81, 3.72, 2.47, 592.710021973, -35.3632626, 149.1652427, 0.995638430119, 0.0847487747669, 0.0342310145497, 0.0187063775957
2019-04-03 19:10:58.89,70316029, 10.44, 2.75, 8.47, 592.729980469, -35.3632628, 149.1652444, 0.992996931076, 0.0890010073781, 0.0306066572666, 0.0714082047343
2019-04-03 19:10:58.99,70415989, 10.99, 1.11, 15.54, 592.75, -35.3632632, 149.1652461, 0.986339390278, 0.0935941338539, 0.0225249864161, 0.13366894424
2019-04-03 19:10:59.09,70515949, 11.29, -1.05, 23.37, 592.770019531, -35.3632635, 149.1652479, 0.974295496941, 0.0981886908412, 0.0109627470374, 0.202452674508
2019-04-03 19:10:59.19,70615909, 11.21, -3.52, 31.71, 592.789978027, -35.363264, 149.1652497, 0.95606225729, 0.102335989475, -0.00277325417846, 0.274708271027
2019-04-03 19:10:59.29,70715869, 10.7, -6.05, 40.34, 592.820007324, -35.3632644, 149.1652517, 0.931572318077, 0.105552889407, -0.017206242308, 0.347470223904
2019-04-03 19:10:59.39,70815829, 9.71, -8.4, 49.01, 592.840026855, -35.3632649, 149.1652537, 0.901616334915, 0.107180841267, -0.0314278416336, 0.417866677046
2019-04-03 19:10:59.49,70915789, 8.34, -10.41, 57.48, 592.859985352, -35.3632653, 149.1652559, 0.867687344551, 0.107032299042, -0.044564165175, 0.483401298523
2019-04-03 19:10:59.59,71015749, 6.69, -11.97, 65.52, 592.890014648, -35.3632658, 149.1652581, 0.831631362438, 0.105175301433, -0.056145388633, 0.542379140854
2019-04-03 19:10:59.69,71115709, 4.98, -13.08, 72.95, 592.909973145, -35.3632662, 149.1652605, 0.79512745142, 0.102420404553, -0.0658468231559, 0.59409314394
2019-04-03 19:10:59.79,71215669, 3.38, -13.81, 79.72, 592.940002441, -35.3632665, 149.1652631, 0.759415984154, 0.0995773896575, -0.0735060498118, 0.638724207878
2019-04-03 19:10:59.90,71316462, 1.99, -14.28, 85.86, 592.969970703, -35.363267, 149.1652657, 0.724860608578, 0.0973592698574, -0.0792688801885, 0.677358686924
2019-04-03 19:11:00.00,71416422, 0.83, -14.57, 91.39, 593.0, -35.3632674, 149.1652685, 0.692140102386, 0.0958302915096, -0.0834603235126, 0.710487902164
2019-04-03 19:11:00.10,71516382, -0.27, -14.76, 96.47, 593.020019531, -35.3632677, 149.1652714, 0.660755395889, 0.0942511036992, -0.0873511657119, 0.739519298077
2019-04-03 19:11:00.20,71616342, -1.67, -14.85, 101.01, 593.049987793, -35.3632682, 149.1652743, 0.632026195526, 0.0905281379819, -0.0933933854103, 0.76395368576
2019-04-03 19:11:00.30,71716302, -3.2, -14.82, 104.63, 593.08001709, -35.3632686, 149.1652772, 0.608818590641, 0.0850920602679, -0.100741587579, 0.782272577286
2019-04-03 19:11:00.40,71816262, -4.46, -14.71, 107.02, 593.109985352, -35.3632689, 149.1652805, 0.593291163445, 0.0798794031143, -0.107162080705, 0.793814361095
2019-04-03 19:11:00.50,71916222, -5.17, -14.61, 108.14, 593.140014648, -35.3632693, 149.1652837, 0.586040139198, 0.0766074806452, -0.110823199153, 0.799003481865
2019-04-03 19:11:00.60,72016182, -5.19, -14.58, 108.1, 593.16998291, -35.3632695, 149.165287, 0.586330473423, 0.0762726962566, -0.110816054046, 0.798823475838
2019-04-03 19:11:00.69,72116142, -4.53, -14.67, 107.14, 593.200012207, -35.3632699, 149.1652905, 0.592581391335, 0.0793726369739, -0.107404612005, 0.794362366199
2019-04-03 19:11:00.79,72216102, -3.39, -14.9, 105.5, 593.229980469, -35.3632701, 149.165294, 0.602913618088, 0.0853732451797, -0.101858988404, 0.786658346653
2019-04-03 19:11:00.89,72316062, -2.0, -15.2, 103.49, 593.270019531, -35.3632704, 149.1652974, 0.615417122841, 0.0931603163481, -0.0954833030701, 0.776830673218
2019-04-03 19:11:00.99,72416022, -0.57, -15.5, 101.37, 593.299987793, -35.3632707, 149.1653011, 0.628278195858, 0.101214304566, -0.0892604887486, 0.766194999218
2019-04-03 19:11:01.09,72515982, 0.68, -15.73, 99.41, 593.33001709, -35.363271, 149.1653049, 0.639941692352, 0.108251079917, -0.0839638859034, 0.756112754345
2019-04-03 19:11:01.19,72615942, 1.64, -15.9, 97.83, 593.359985352, -35.3632713, 149.1653086, 0.649274706841, 0.113617390394, -0.0801565647125, 0.74773555994
2019-04-03 19:11:01.29,72715902, 2.23, -15.99, 96.74, 593.390014648, -35.3632717, 149.1653124, 0.655670702457, 0.116822868586, -0.0779897049069, 0.741866528988
2019-04-03 19:11:01.39,72815862, 2.44, -16.01, 96.19, 593.429992676, -35.363272, 149.1653163, 0.658960342407, 0.117758795619, -0.0772598907351, 0.738874256611
2019-04-03 19:11:01.49,72915822, 2.33, -15.99, 96.16, 593.460021973, -35.3632725, 149.1653202, 0.659298062325, 0.116993695498, -0.077910028398, 0.738626241684
2019-04-03 19:11:01.59,73015782, 1.97, -15.99, 96.56, 593.489990234, -35.363273, 149.1653241, 0.65712171793, 0.115199550986, -0.079864025116, 0.740636110306
2019-04-03 19:11:01.69,73115742, 1.46, -16.04, 97.26, 593.520019531, -35.3632735, 149.1653282, 0.653045594692, 0.113075226545, -0.0827464535832, 0.744243621826
2019-04-03 19:11:01.79,73215702, 0.88, -16.13, 98.13, 593.549987793, -35.3632739, 149.1653323, 0.647826611996, 0.111014209688, -0.0861764773726, 0.748712360859
2019-04-03 19:11:01.89,73315662, 0.3, -16.23, 99.06, 593.590026855, -35.3632745, 149.1653364, 0.642253756523, 0.109099261463, -0.0896490886807, 0.753372788429
2019-04-03 19:11:02.00,73416455, -0.22, -16.31, 99.92, 593.619995117, -35.363275, 149.1653405, 0.636989533901, 0.107343189418, -0.0927582606673, 0.757705569267
2019-04-03 19:11:02.10,73516415, -0.64, -16.36, 100.63, 593.650024414, -35.3632756, 149.1653448, 0.632654190063, 0.105968602002, -0.0951373502612, 0.761228084564
2019-04-03 19:11:02.20,73616375, -0.9, -16.38, 101.13, 593.679992676, -35.3632762, 149.165349, 0.629537820816, 0.105117231607, -0.0965154990554, 0.763752102852
2019-04-03 19:11:02.30,73716335, -0.98, -16.39, 101.41, 593.719970703, -35.3632768, 149.1653533, 0.627745449543, 0.104996703565, -0.096897803247, 0.765194237232
2019-04-03 19:11:02.40,73816295, -0.93, -16.42, 101.47, 593.75, -35.3632774, 149.1653577, 0.627237737179, 0.105507709086, -0.0966211855412, 0.765575230122
2019-04-03 19:11:02.50,73916255, -0.79, -16.47, 101.36, 593.780029297, -35.3632779, 149.165362, 0.627842903137, 0.106480166316, -0.0960766971111, 0.765012860298
2019-04-03 19:11:02.60,74016215, -0.6, -16.52, 101.11, 593.820007324, -35.3632785, 149.1653666, 0.629287838936, 0.107706137002, -0.0953201800585, 0.763747572899
2019-04-03 19:11:02.70,74116175, -0.38, -16.57, 100.78, 593.849975586, -35.3632791, 149.165371, 0.631268203259, 0.108882635832, -0.0944431051612, 0.762053489685
2019-04-03 19:11:02.79,74216135, -0.17, -16.59, 100.41, 593.880004883, -35.3632796, 149.1653754, 0.633442163467, 0.10997056216, -0.0935221016407, 0.760204672813
2019-04-03 19:11:02.89,74316095, 0.03, -16.63, 100.07, 593.909973145, -35.3632802, 149.16538, 0.635499894619, 0.111049875617, -0.092679977417, 0.758431494236
2019-04-03 19:11:02.99,74416055, 0.2, -16.66, 99.78, 593.950012207, -35.3632808, 149.1653844, 0.637235820293, 0.111956194043, -0.0919811353087, 0.756925284863
2019-04-03 19:11:03.09,74516015, 0.31, -16.68, 99.56, 593.979980469, -35.3632814, 149.1653891, 0.638530015945, 0.112564511597, -0.0915932059288, 0.755790531635
2019-04-03 19:11:03.19,74615975, 0.36, -16.73, 99.43, 594.010009766, -35.363282, 149.1653936, 0.639291524887, 0.113061606884, -0.0916512906551, 0.755065321922
2019-04-03 19:11:03.29,74715935, 0.36, -16.8, 99.39, 594.039978027, -35.3632826, 149.1653983, 0.639519691467, 0.113503523171, -0.0920838117599, 0.754753053188
2019-04-03 19:11:03.39,74815895, 0.32, -16.87, 99.42, 594.08001709, -35.3632833, 149.165403, 0.639312386513, 0.113729223609, -0.092731975019, 0.754815340042
2019-04-03 19:11:03.49,74915855, 0.22, -16.91, 99.5, 594.109985352, -35.3632839, 149.1654075, 0.638809144497, 0.113542810082, -0.0935548469424, 0.755167841911
2019-04-03 19:11:03.59,75015815, 0.08, -16.93, 99.62, 594.140014648, -35.3632845, 149.1654122, 0.638151228428, 0.112980812788, -0.0944958180189, 0.755690991879
2019-04-03 19:11:03.69,75115775, -0.03, -16.94, 99.75, 594.179992676, -35.3632852, 149.165417, 0.637409508228, 0.112473428249, -0.095174074173, 0.756307303905
2019-04-03 19:11:03.79,75215735, -0.11, -16.96, 99.88, 594.210021973, -35.3632858, 149.1654218, 0.636656999588, 0.112268850207, -0.0956957861781, 0.75690549612
2019-04-03 19:11:03.89,75315695, -0.17, -16.99, 99.98, 594.239990234, -35.3632865, 149.1654265, 0.636008262634, 0.112218528986, -0.0961313173175, 0.75740301609
2019-04-03 19:11:04.00,75416488, -0.2, -17.02, 100.05, 594.280029297, -35.3632871, 149.1654313, 0.635528683662, 0.11230006814, -0.0964429080486, 0.75775372982
2019-04-03 19:11:04.10,75516448, -0.21, -17.03, 100.09, 594.309997559, -35.3632878, 149.1654361, 0.635271012783, 0.112368538976, -0.0965296328068, 0.757948577404
2019-04-03 19:11:04.20,75616408, -0.2, -17.05, 100.1, 594.340026855, -35.3632884, 149.1654409, 0.635218322277, 0.112507373095, -0.0965538546443, 0.757969141006
2019-04-03 19:11:04.30,75716368, -0.18, -17.07, 100.07, 594.380004883, -35.363289, 149.1654457, 0.63534450531, 0.112746186554, -0.0965623110533, 0.75782674551
2019-04-03 19:11:04.40,75816328, -0.17, -17.09, 100.02, 594.409973145, -35.3632897, 149.1654506, 0.635635972023, 0.112893804908, -0.0967032387853, 0.757542312145
2019-04-03 19:11:04.50,75916288, -0.17, -17.13, 99.96, 594.440002441, -35.3632903, 149.1654555, 0.636027872562, 0.11312764883, -0.0969997495413, 0.757140576839
2019-04-03 19:11:04.60,76016248, -0.17, -17.17, 99.88, 594.479980469, -35.3632911, 149.1654604, 0.636488139629, 0.1132972911, -0.0972799733281, 0.756692290306
2019-04-03 19:11:04.70,76116208, -0.15, -17.2, 99.81, 594.510009766, -35.3632918, 149.1654653, 0.636939048767, 0.113548181951, -0.0973707810044, 0.756263434887
2019-04-03 19:11:04.80,76216168, -0.13, -17.23, 99.74, 594.549987793, -35.3632924, 149.1654701, 0.637354433537, 0.113826952875, -0.0974347889423, 0.755863249302
2019-04-03 19:11:04.89,76316128, -0.1, -17.25, 99.68, 594.58001709, -35.3632931, 149.1654752, 0.637700200081, 0.114076972008, -0.0974179059267, 0.755536079407
2019-04-03 19:11:04.99,76416088, -0.06, -17.27, 99.63, 594.609985352, -35.3632938, 149.1654801, 0.637944459915, 0.114373482764, -0.0972908660769, 0.755301296711
2019-04-03 19:11:05.09,76516048, -0.03, -17.28, 99.61, 594.650024414, -35.3632944, 149.165485, 0.638094484806, 0.114589050412, -0.0972339436412, 0.755149245262
2019-04-03 19:11:05.19,76616008, -0.03, -17.3, 99.59, 594.679992676, -35.363295, 149.1654901, 0.638161599636, 0.114719726145, -0.0973842442036, 0.755053341389
2019-04-03 19:11:05.29,76715968, -0.05, -17.32, 99.59, 594.710021973, -35.3632957, 149.165495, 0.638166844845, 0.114707820117, -0.0975895673037, 0.755024194717
2019-04-03 19:11:05.39,76815928, -0.07, -17.33, 99.6, 594.75, -35.3632965, 149.1655001, 0.638124167919, 0.11466204375, -0.0977822989225, 0.75504219532
2019-04-03 19:11:05.49,76915888, -0.09, -17.36, 99.61, 594.780029297, -35.3632972, 149.1655051, 0.638020455837, 0.114820964634, -0.0980304852128, 0.755073606968
2019-04-03 19:11:05.59,77015848, -0.07, -17.4, 99.63, 594.809997559, -35.3632978, 149.1655101, 0.637888431549, 0.115143366158, -0.0981395468116, 0.755121827126
2019-04-03 19:11:05.69,77115808, -0.05, -17.41, 99.64, 594.849975586, -35.3632985, 149.1655151, 0.637788176537, 0.115357674658, -0.0980244874954, 0.755188703537
2019-04-03 19:11:05.79,77215768, -0.04, -17.4, 99.64, 594.880004883, -35.3632992, 149.1655202, 0.637744247913, 0.115357138216, -0.0978694930673, 0.755246043205
2019-04-03 19:11:05.89,77315728, -0.04, -17.38, 99.65, 594.909973145, -35.3632999, 149.1655252, 0.637749969959, 0.115264736116, -0.0977723672986, 0.755267858505
2019-04-03 19:11:05.99,77415688, -0.06, -17.41, 99.64, 594.950012207, -35.3633005, 149.1655304, 0.637780785561, 0.115289382637, -0.0980621129274, 0.755200505257
2019-04-03 19:11:06.10,77516481, -0.08, -17.46, 99.63, 594.979980469, -35.3633012, 149.1655355, 0.637809991837, 0.11553299427, -0.0985290706158, 0.755077838898
2019-04-03 19:11:06.20,77616441, -0.09, -17.52, 99.62, 595.010009766, -35.3633018, 149.1655405, 0.637845695019, 0.115844316781, -0.0989240407944, 0.754948377609
2019-04-03 19:11:06.30,77716401, -0.09, -17.54, 99.61, 595.049987793, -35.3633026, 149.1655457, 0.637914538383, 0.115996718407, -0.0990224555135, 0.754853904247
2019-04-03 19:11:06.40,77816361, -0.08, -17.54, 99.59, 595.08001709, -35.3633033, 149.1655508, 0.638024449348, 0.115966923535, -0.0989962518215, 0.754769086838
2019-04-03 19:11:06.50,77916321, -0.09, -17.51, 99.57, 595.119995117, -35.363304, 149.1655558, 0.638170957565, 0.115743800998, -0.0989725217223, 0.754682540894
2019-04-03 19:11:06.60,78016281, -0.1, -17.5, 99.56, 595.150024414, -35.3633047, 149.165561, 0.638315320015, 0.115573883057, -0.0989591255784, 0.754588186741
2019-04-03 19:11:06.70,78116241, -0.09, -17.49, 99.54, 595.179992676, -35.3633054, 149.1655662, 0.638419449329, 0.115592904389, -0.0988074243069, 0.7545170784
2019-04-03 19:11:06.80,78216201, -0.06, -17.48, 99.52, 595.219970703, -35.363306, 149.1655712, 0.638506531715, 0.115644946694, -0.0986439809203, 0.754456758499
2019-04-03 19:11:06.90,78316161, -0.06, -17.48, 99.51, 595.25, -35.3633067, 149.1655764, 0.638593018055, 0.115656837821, -0.0986538380384, 0.754380464554
2019-04-03 19:11:06.99,78416121, -0.07, -17.51, 99.5, 595.289978027, -35.3633075, 149.1655816, 0.63865506649, 0.11577770859, -0.0988415032625, 0.754284858704
2019-04-03 19:11:07.09,78516081, -0.09, -17.54, 99.49, 595.320007324, -35.3633082, 149.1655868, 0.638708293438, 0.115852400661, -0.0991351529956, 0.754189729691
2019-04-03 19:11:07.19,78616041, -0.11, -17.55, 99.48, 595.349975586, -35.3633089, 149.165592, 0.638764619827, 0.115825936198, -0.0993569195271, 0.754116952419
2019-04-03 19:11:07.29,78716001, -0.14, -17.56, 99.47, 595.390014648, -35.3633096, 149.165597, 0.638832986355, 0.115714892745, -0.0995966270566, 0.754044473171
2019-04-03 19:11:07.39,78815961, -0.15, -17.59, 99.47, 595.41998291, -35.3633102, 149.1656023, 0.638877213001, 0.115804076195, -0.09986589849, 0.753957629204
2019-04-03 19:11:07.49,78915921, -0.15, -17.63, 99.46, 595.450012207, -35.3633109, 149.1656075, 0.638893723488, 0.116068460047, -0.100114375353, 0.753870069981
2019-04-03 19:11:07.59,79015881, -0.15, -17.66, 99.45, 595.489990234, -35.3633115, 149.1656127, 0.638920307159, 0.11627163738, -0.100244253874, 0.753798961639
2019-04-03 19:11:07.69,79115841, -0.13, -17.66, 99.44, 595.520019531, -35.3633122, 149.1656179, 0.638962388039, 0.116380572319, -0.100194662809, 0.753753066063
2019-04-03 19:11:07.79,79215801, -0.11, -17.68, 99.43, 595.559997559, -35.363313, 149.1656231, 0.638983786106, 0.116618178785, -0.100089929998, 0.753712117672
2019-04-03 19:11:07.89,79315761, -0.07, -17.68, 99.42, 595.590026855, -35.3633137, 149.1656284, 0.639006078243, 0.116855844855, -0.0999286621809, 0.753677785397
2019-04-03 19:11:07.99,79415721, -0.05, -17.69, 99.41, 595.619995117, -35.3633144, 149.1656336, 0.639039337635, 0.117010354996, -0.0997932031751, 0.753643631935
2019-04-03 19:11:08.09,79515681, -0.05, -17.68, 99.4, 595.659973145, -35.3633151, 149.1656387, 0.639106750488, 0.116952680051, -0.0997588187456, 0.75359994173
2019-04-03 19:11:08.20,79616474, -0.05, -17.68, 99.39, 595.690002441, -35.3633157, 149.165644, 0.639167249203, 0.11694034934, -0.0998058840632, 0.753544270992
2019-04-03 19:11:08.30,79716434, -0.05, -17.72, 99.39, 595.719970703, -35.3633164, 149.1656492, 0.639184892178, 0.11717967689, -0.0999881178141, 0.753467977047
2019-04-03 19:11:08.40,79816394, -0.05, -17.73, 99.38, 595.760009766, -35.3633172, 149.1656545, 0.639211416245, 0.117261990905, -0.100088313222, 0.753419399261
2019-04-03 19:11:08.50,79916354, -0.07, -17.74, 99.38, 595.789978027, -35.3633179, 149.1656597, 0.639251768589, 0.11714413017, -0.100267380476, 0.753379642963
2019-04-03 19:11:08.60,80016314, -0.1, -17.72, 99.38, 595.83001709, -35.3633186, 149.165665, 0.63929194212, 0.116945825517, -0.100364871323, 0.7533634305
2019-04-03 19:11:08.70,80116274, -0.09, -17.71, 99.37, 595.859985352, -35.3633193, 149.1656703, 0.639312624931, 0.116887710989, -0.100286364555, 0.753365337849
2019-04-03 19:11:08.80,80216234, -0.07, -17.71, 99.37, 595.890014648, -35.36332, 149.1656755, 0.639315843582, 0.116976939142, -0.100076287985, 0.753376662731
2019-04-03 19:11:08.90,80316194, -0.04, -17.72, 99.37, 595.929992676, -35.3633206, 149.1656808, 0.639296472073, 0.117231354117, -0.0999943092465, 0.753364443779
2019-04-03 19:11:09.00,80416154, -0.04, -17.75, 99.36, 595.960021973, -35.3633213, 149.1656861, 0.639300465584, 0.117407031357, -0.10016001761, 0.753311693668
2019-04-03 19:11:09.09,80516114, -0.04, -17.79, 99.36, 596.0, -35.3633221, 149.1656914, 0.639292478561, 0.117680348456, -0.100366868079, 0.753248214722
2019-04-03 19:11:09.19,80616074, -0.03, -17.81, 99.35, 596.030029297, -35.3633228, 149.1656968, 0.639289975166, 0.117886185646, -0.100443348289, 0.753208100796
2019-04-03 19:11:09.29,80716034, -0.02, -17.82, 99.35, 596.059997559, -35.3633235, 149.1657019, 0.639306664467, 0.117980584502, -0.100426182151, 0.753181397915
2019-04-03 19:11:09.39,80815994, -0.01, -17.83, 99.34, 596.099975586, -35.3633242, 149.1657072, 0.639314234257, 0.118120640516, -0.100428201258, 0.753152728081
2019-04-03 19:11:09.49,80915954, -0.01, -17.84, 99.34, 596.130004883, -35.3633248, 149.1657126, 0.6393430233, 0.118137091398, -0.100434236228, 0.753124892712
2019-04-03 19:11:09.59,81015914, -0.01, -17.82, 99.34, 596.16998291, -35.3633255, 149.1657179, 0.63938075304, 0.118022575974, -0.100331276655, 0.753124535084
2019-04-03 19:11:09.69,81115874, 0.0, -17.8, 99.33, 596.200012207, -35.3633263, 149.1657233, 0.639409422874, 0.117952942848, -0.100179001689, 0.753131449223
2019-04-03 19:11:09.79,81215834, 0.0, -17.78, 99.33, 596.229980469, -35.363327, 149.1657286, 0.63943696022, 0.117866396904, -0.100038722157, 0.753140211105
2019-04-03 19:11:09.89,81315794, 0.0, -17.78, 99.33, 596.270019531, -35.3633277, 149.1657339, 0.639459013939, 0.117838300765, -0.100014254451, 0.753129124641
2019-04-03 19:11:09.99,81415754, 0.02, -17.81, 99.32, 596.299987793, -35.3633284, 149.1657392, 0.639430820942, 0.118170768023, -0.100037373602, 0.753097832203
2019-04-03 19:11:10.09,81515714, 0.05, -17.85, 99.32, 596.340026855, -35.3633291, 149.1657445, 0.639395833015, 0.118548259139, -0.100088380277, 0.753061532974
2019-04-03 19:11:10.19,81615674, 0.06, -17.85, 99.32, 596.369995117, -35.3633297, 149.1657497, 0.639383077621, 0.118694074452, -0.100038357079, 0.753055989742
2019-04-03 19:11:10.30,81716467, 0.06, -17.84, 99.32, 596.400024414, -35.3633306, 149.1657552, 0.639407634735, 0.118583641946, -0.0999960824847, 0.753058135509
2019-04-03 19:11:10.40,81816427, 0.04, -17.83, 99.31, 596.440002441, -35.3633313, 149.1657605, 0.639453351498, 0.118402868509, -0.100055932999, 0.753039896488
2019-04-03 19:11:10.50,81916387, 0.04, -17.83, 99.31, 596.469970703, -35.363332, 149.1657659, 0.639479160309, 0.118391372263, -0.100085049868, 0.753015935421
2019-04-03 19:11:10.60,82016347, 0.02, -17.85, 99.31, 596.5, -35.3633327, 149.1657712, 0.639513731003, 0.118382327259, -0.100317999721, 0.752956986427
2019-04-03 19:11:10.70,82116307, 0.0, -17.87, 99.3, 596.539978027, -35.3633334, 149.1657765, 0.639544010162, 0.118418961763, -0.100506573915, 0.752900362015
2019-04-03 19:11:10.80,82216267, 0.0, -17.87, 99.3, 596.570007324, -35.363334, 149.1657818, 0.639576971531, 0.118413485587, -0.100568883121, 0.752864778042
2019-04-03 19:11:10.90,82316227, 0.02, -17.86, 99.29, 596.599975586, -35.3633347, 149.1657871, 0.639592885971, 0.118476159871, -0.100385740399, 0.75286591053
2019-04-03 19:11:11.00,82416187, 0.04, -17.84, 99.29, 596.640014648, -35.3633355, 149.1657926, 0.639626681805, 0.118438646197, -0.100119642913, 0.75287848711
2019-04-03 19:11:11.10,82516147, 0.06, -17.83, 99.28, 596.66998291, -35.3633363, 149.1657979, 0.639651238918, 0.11848308146, -0.0999464690685, 0.752873718739
2019-04-03 19:11:11.19,82616107, 0.07, -17.84, 99.28, 596.700012207, -35.363337, 149.1658033, 0.63967192173, 0.118578836322, -0.0999401509762, 0.752841949463
2019-04-03 19:11:11.29,82716067, 0.07, -17.85, 99.27, 596.739990234, -35.3633376, 149.1658086, 0.63969296217, 0.118685819209, -0.100000366569, 0.752799153328
2019-04-03 19:11:11.39,82816027, 0.05, -17.87, 99.26, 596.770019531, -35.3633383, 149.1658139, 0.639736175537, 0.118697799742, -0.100269548595, 0.752724707127
2019-04-03 19:11:11.49,82915987, 0.04, -17.88, 99.26, 596.809997559, -35.3633391, 149.1658192, 0.639784812927, 0.118645474315, -0.10037330538, 0.752677798271
2019-04-03 19:11:11.59,83015947, 0.05, -17.87, 99.25, 596.840026855, -35.3633399, 149.1658247, 0.639824092388, 0.118647553027, -0.100243449211, 0.752661406994
2019-04-03 19:11:11.69,83115907, 0.07, -17.86, 99.24, 596.869995117, -35.3633406, 149.16583, 0.639855563641, 0.118702501059, -0.100125417113, 0.752641677856
2019-04-03 19:11:11.79,83215867, 0.07, -17.89, 99.24, 596.909973145, -35.3633413, 149.1658354, 0.639875531197, 0.118873037398, -0.100293584168, 0.752575457096
2019-04-03 19:11:11.89,83315827, 0.05, -17.92, 99.23, 596.940002441, -35.3633419, 149.1658407, 0.639911413193, 0.118982389569, -0.100588940084, 0.752488195896
2019-04-03 19:11:11.99,83415787, 0.05, -17.95, 99.22, 596.969970703, -35.3633426, 149.165846, 0.639935493469, 0.119141958654, -0.100769467652, 0.752418339252
2019-04-03 19:11:12.09,83515747, 0.07, -17.96, 99.22, 597.010009766, -35.3633435, 149.1658515, 0.639947474003, 0.119305476546, -0.10065472126, 0.752397596836
2019-04-03 19:11:12.19,83615707, 0.1, -17.95, 99.21, 597.039978027, -35.3633442, 149.1658568, 0.639962017536, 0.119435444474, -0.10048057884, 0.752387881279
2019-04-03 19:11:12.29,83715667, 0.12, -17.95, 99.21, 597.070007324, -35.3633449, 149.1658622, 0.639982104301, 0.119515858591, -0.100317679346, 0.752379715443
2019-04-03 19:11:12.40,83816460, 0.12, -17.95, 99.2, 597.109985352, -35.3633455, 149.1658675, 0.640017747879, 0.119530625641, -0.100283488631, 0.752351641655
2019-04-03 19:11:12.50,83916420, 0.12, -17.94, 99.19, 597.140014648, -35.3633462, 149.165873, 0.640058219433, 0.11951200664, -0.100251786411, 0.752324461937
2019-04-03 19:11:12.60,84016380, 0.12, -17.93, 99.19, 597.16998291, -35.3633471, 149.1658784, 0.640109658241, 0.119414664805, -0.100210830569, 0.752301514149
2019-04-03 19:11:12.70,84116340, 0.11, -17.92, 99.18, 597.210021973, -35.3633478, 149.1658837, 0.640175998211, 0.119268074632, -0.100265085697, 0.7522611022
2019-04-03 19:11:12.80,84216300, 0.1, -17.94, 99.17, 597.239990234, -35.3633485, 149.165889, 0.640218138695, 0.119332201779, -0.100358679891, 0.752202630043
2019-04-03 19:11:12.90,84316260, 0.09, -17.96, 99.17, 597.270019531, -35.3633492, 149.1658945, 0.64026337862, 0.119413025677, -0.100550338626, 0.752125680447
2019-04-03 19:11:13.00,84416220, 0.07, -17.98, 99.16, 597.309997559, -35.3633498, 149.1658999, 0.640323996544, 0.119430422783, -0.100867047906, 0.752028822899
2019-04-03 19:11:13.10,84516180, 0.04, -17.98, 99.15, 597.340026855, -35.3633507, 149.1659052, 0.640407323837, 0.119263790548, -0.101030625403, 0.751962423325
2019-04-03 19:11:13.19,84616140, 0.03, -17.96, 99.14, 597.369995117, -35.3633514, 149.1659106, 0.640488564968, 0.119065530598, -0.101042225957, 0.751923084259
2019-04-03 19:11:13.29,84716100, 0.03, -17.94, 99.13, 597.409973145, -35.3633521, 149.1659159, 0.640563130379, 0.118892513216, -0.100942932069, 0.75190025568
2019-04-03 19:11:13.39,84816060, 0.05, -17.92, 99.13, 597.440002441, -35.3633528, 149.1659214, 0.64059895277, 0.118925988674, -0.100663930178, 0.751901805401
2019-04-03 19:11:13.49,84916020, 0.1, -17.92, 99.12, 597.469970703, -35.3633535, 149.1659268, 0.640607893467, 0.119115576148, -0.100369364023, 0.751903653145
2019-04-03 19:11:13.59,85015980, 0.14, -17.93, 99.11, 597.510009766, -35.3633543, 149.1659321, 0.640603423119, 0.11942370981, -0.100174814463, 0.751884460449
2019-04-03 19:11:13.69,85115940, 0.15, -17.95, 99.1, 597.539978027, -35.363355, 149.1659374, 0.64062577486, 0.119631707668, -0.10021495074, 0.751827001572
2019-04-03 19:11:13.79,85215900, 0.13, -17.98, 99.09, 597.570007324, -35.3633557, 149.1659429, 0.640682399273, 0.119645528495, -0.100529037416, 0.751734554768
2019-04-03 19:11:13.89,85315860, 0.07, -17.98, 99.09, 597.609985352, -35.3633565, 149.1659483, 0.640782773495, 0.11935762316, -0.100872129202, 0.751648902893
2019-04-03 19:11:13.99,85415820, 0.05, -17.97, 99.08, 597.640014648, -35.3633571, 149.1659537, 0.640864729881, 0.119139783084, -0.100994393229, 0.751597166061
2019-04-03 19:11:14.09,85515780, 0.05, -17.96, 99.07, 597.66998291, -35.3633578, 149.165959, 0.640918850899, 0.119110248983, -0.100913882256, 0.751566469669
2019-04-03 19:11:14.19,85615740, 0.05, -17.95, 99.06, 597.710021973, -35.3633586, 149.1659645, 0.640992164612, 0.118985630572, -0.100906260312, 0.751524746418
2019-04-03 19:11:14.29,85715700, 0.04, -17.94, 99.06, 597.739990234, -35.3633594, 149.1659699, 0.641060054302, 0.118894770741, -0.100927561522, 0.7514783144
2019-04-03 19:11:14.39,85815660, 0.05, -17.95, 99.05, 597.770019531, -35.3633601, 149.1659752, 0.641101896763, 0.119001030922, -0.100944027305, 0.751423597336
2019-04-03 19:11:14.50,85916453, 0.05, -17.99, 99.04, 597.809997559, -35.3633607, 149.1659807, 0.641123116016, 0.119285918772, -0.101146034896, 0.75133317709
2019-04-03 19:11:14.60,86016413, 0.05, -18.03, 99.03, 597.840026855, -35.3633614, 149.1659861, 0.641142427921, 0.119554825127, -0.101392261684, 0.751240730286
2019-04-03 19:11:14.70,86116373, 0.05, -18.05, 99.02, 597.869995117, -35.3633623, 149.1659915, 0.641188323498, 0.119619689882, -0.101491086185, 0.751177847385
2019-04-03 19:11:14.80,86216333, 0.04, -18.03, 99.01, 597.909973145, -35.363363, 149.1659968, 0.641265273094, 0.119492687285, -0.10148987174, 0.75113260746
2019-04-03 19:11:14.90,86316293, 0.03, -18.01, 99.0, 597.940002441, -35.3633637, 149.1660023, 0.641359210014, 0.119256660342, -0.101493470371, 0.751089453697
2019-04-03 19:11:15.00,86416253, 0.0, -18.0, 98.99, 597.969970703, -35.3633644, 149.1660077, 0.641453444958, 0.119018949568, -0.101581551135, 0.751034736633
2019-04-03 19:11:15.10,86516213, 0.0, -17.99, 98.98, 598.010009766, -35.3633651, 149.166013, 0.641530394554, 0.118879057467, -0.101623006165, 0.750985562801
2019-04-03 19:11:15.20,86616173, 0.0, -17.98, 98.98, 598.039978027, -35.3633659, 149.1660185, 0.641589403152, 0.118836909533, -0.101532451808, 0.750954091549
2019-04-03 19:11:15.29,86716133, 0.02, -17.98, 98.97, 598.070007324, -35.3633666, 149.1660239, 0.641614377499, 0.118979156017, -0.101328201592, 0.750937759876
2019-04-03 19:11:15.39,86816093, 0.07, -17.98, 98.96, 598.109985352, -35.3633674, 149.1660293, 0.641622304916, 0.119197867811, -0.101063415408, 0.750932097435
2019-04-03 19:11:15.49,86916053, 0.1, -17.98, 98.95, 598.140014648, -35.363368, 149.1660348, 0.641631305218, 0.119408294559, -0.100875660777, 0.75091612339
2019-04-03 19:11:15.59,87016013, 0.13, -18.01, 98.95, 598.16998291, -35.3633687, 149.1660402, 0.641616165638, 0.119742304087, -0.100854806602, 0.750878751278
2019-04-03 19:11:15.69,87115973, 0.15, -18.01, 98.94, 598.210021973, -35.3633695, 149.1660456, 0.641612887383, 0.119911931455, -0.100695572793, 0.750875771046
2019-04-03 19:11:15.79,87215933, 0.17, -18.0, 98.94, 598.239990234, -35.3633702, 149.1660509, 0.641628861427, 0.119879409671, -0.100521601737, 0.750890612602
2019-04-03 19:11:15.89,87315893, 0.16, -17.98, 98.94, 598.270019531, -35.363371, 149.1660564, 0.641662061214, 0.119708187878, -0.100494429469, 0.750893235207
2019-04-03 19:11:15.99,87415853, 0.13, -17.97, 98.94, 598.309997559, -35.3633717, 149.1660618, 0.641702234745, 0.119486831129, -0.10057707876, 0.750883102417
2019-04-03 19:11:16.09,87515813, 0.1, -17.96, 98.94, 598.340026855, -35.3633723, 149.1660671, 0.641751885414, 0.119260601699, -0.100776985288, 0.750849783421
2019-04-03 19:11:16.19,87615773, 0.08, -17.97, 98.94, 598.380004883, -35.363373, 149.1660726, 0.641773879528, 0.119239613414, -0.100967533886, 0.750808775425
2019-04-03 19:11:16.29,87715733, 0.08, -17.98, 98.93, 598.409973145, -35.3633738, 149.1660781, 0.641780018806, 0.119297333062, -0.101060651243, 0.750781834126
2019-04-03 19:11:16.39,87815693, 0.07, -18.0, 98.93, 598.440002441, -35.3633746, 149.1660834, 0.641790449619, 0.119381017983, -0.101176805794, 0.750743985176
2019-04-03 19:11:16.50,87916486, 0.06, -18.02, 98.93, 598.479980469, -35.3633753, 149.1660889, 0.641810834408, 0.119452171028, -0.10135731101, 0.750690817833
2019-04-03 19:11:16.60,88016446, 0.05, -18.03, 98.92, 598.510009766, -35.3633759, 149.1660944, 0.641848802567, 0.119466029108, -0.101496241987, 0.750637412071
2019-04-03 19:11:16.70,88116406, 0.08, -18.04, 98.91, 598.549987793, -35.3633766, 149.1660997, 0.641862630844, 0.119675710797, -0.101400658488, 0.750605106354
2019-04-03 19:11:16.80,88216366, 0.11, -18.06, 98.9, 598.58001709, -35.3633775, 149.1661052, 0.641859591007, 0.119994774461, -0.101304486394, 0.750569760799
2019-04-03 19:11:16.90,88316326, 0.13, -18.08, 98.9, 598.609985352, -35.3633782, 149.1661106, 0.641874909401, 0.12016749382, -0.101316079497, 0.750527501106
2019-04-03 19:11:17.00,88416286, 0.13, -18.09, 98.89, 598.650024414, -35.3633789, 149.166116, 0.641904711723, 0.120231352746, -0.101344518363, 0.750487864017
2019-04-03 19:11:17.10,88516246, 0.12, -18.08, 98.89, 598.679992676, -35.3633796, 149.1661213, 0.641950368881, 0.120141625404, -0.101350218058, 0.750462412834
2019-04-03 19:11:17.20,88616206, 0.12, -18.06, 98.88, 598.710021973, -35.3633802, 149.1661269, 0.642008423805, 0.119948513806, -0.101255632937, 0.75045645237
2019-04-03 19:11:17.30,88716166, 0.12, -18.04, 98.88, 598.75, -35.3633809, 149.1661322, 0.642048597336, 0.119839608669, -0.101109735668, 0.750459134579
2019-04-03 19:11:17.39,88816126, 0.13, -18.02, 98.87, 598.780029297, -35.3633818, 149.1661377, 0.642079651356, 0.119766578078, -0.100988820195, 0.750460445881
2019-04-03 19:11:17.49,88916086, 0.13, -18.0, 98.87, 598.820007324, -35.3633825, 149.1661431, 0.642120480537, 0.11963327229, -0.100917160511, 0.75045645237
2019-04-03 19:11:17.59,89016046, 0.1, -17.99, 98.87, 598.849975586, -35.3633832, 149.1661485, 0.642178118229, 0.119424656034, -0.101000539958, 0.750429213047
2019-04-03 19:11:17.69,89116006, 0.08, -17.99, 98.86, 598.890014648, -35.3633838, 149.1661538, 0.642226815224, 0.119293853641, -0.101163044572, 0.750386416912
2019-04-03 19:11:17.79,89215966, 0.07, -18.01, 98.86, 598.91998291, -35.3633847, 149.1661593, 0.642249643803, 0.11936429888, -0.101330205798, 0.75033313036
2019-04-03 19:11:17.89,89315926, 0.07, -18.05, 98.85, 598.950012207, -35.3633854, 149.1661648, 0.642252087593, 0.119585588574, -0.101524956524, 0.750269472599
2019-04-03 19:11:17.99,89415886, 0.08, -18.08, 98.85, 598.989990234, -35.3633861, 149.1661701, 0.642241895199, 0.119868762791, -0.101662606001, 0.750214338303
2019-04-03 19:11:18.09,89515846, 0.11, -18.09, 98.84, 599.020019531, -35.3633868, 149.1661756, 0.642233848572, 0.120112992823, -0.10156160593, 0.750195920467
2019-04-03 19:11:18.19,89615806, 0.15, -18.1, 98.84, 599.049987793, -35.3633875, 149.166181, 0.642227351665, 0.120338559151, -0.101339749992, 0.750195324421
2019-04-03 19:11:18.29,89715766, 0.19, -18.09, 98.83, 599.090026855, -35.3633882, 149.1661863, 0.642229259014, 0.120501883328, -0.100993335247, 0.750214159489
2019-04-03 19:11:18.39,89815726, 0.21, -18.07, 98.83, 599.119995117, -35.363389, 149.1661918, 0.642259478569, 0.120488859713, -0.10073312372, 0.750225305557
2019-04-03 19:11:18.49,89915686, 0.21, -18.03, 98.82, 599.159973145, -35.3633897, 149.1661973, 0.642323195934, 0.120222650468, -0.100565053523, 0.750236034393
2019-04-03 19:11:18.60,90016479, 0.18, -17.99, 98.82, 599.190002441, -35.3633904, 149.1662026, 0.642403781414, 0.119833104312, -0.100507691503, 0.750237047672
2019-04-03 19:11:18.70,90116439, 0.17, -17.96, 98.82, 599.219970703, -35.3633911, 149.1662082, 0.642464995384, 0.119540035725, -0.100406341255, 0.75024497509
2019-04-03 19:11:18.80,90216399, 0.17, -17.96, 98.82, 599.260009766, -35.3633918, 149.1662136, 0.642479658127, 0.119538605213, -0.1003838256, 0.750235617161
2019-04-03 19:11:18.90,90316359, 0.17, -17.97, 98.81, 599.289978027, -35.3633926, 149.1662189, 0.642484545708, 0.119595572352, -0.1004781425, 0.75020980835
2019-04-03 19:11:19.00,90416319, 0.15, -17.98, 98.81, 599.320007324, -35.3633933, 149.1662244, 0.642494559288, 0.119602635503, -0.1006834656, 0.750172555447
2019-04-03 19:11:19.10,90516279, 0.14, -17.99, 98.81, 599.359985352, -35.363394, 149.1662299, 0.642502129078, 0.119578823447, -0.100820027292, 0.750151515007
2019-04-03 19:11:19.20,90616239, 0.13, -18.0, 98.81, 599.390014648, -35.3633948, 149.1662352, 0.642500340939, 0.119607083499, -0.100896947086, 0.750138223171
2019-04-03 19:11:19.30,90716199, 0.14, -18.0, 98.81, 599.429992676, -35.3633954, 149.1662407, 0.64249920845, 0.119623295963, -0.100880406797, 0.750138759613
2019-04-03 19:11:19.40,90816159, 0.14, -18.0, 98.81, 599.460021973, -35.3633961, 149.1662462, 0.642508804798, 0.119626410306, -0.100869297981, 0.750131547451
2019-04-03 19:11:19.49,90916119, 0.15, -18.01, 98.81, 599.489990234, -35.3633969, 149.1662515, 0.642514407635, 0.119748681784, -0.100881658494, 0.750105619431
2019-04-03 19:11:19.59,91016079, 0.15, -18.03, 98.8, 599.530029297, -35.3633977, 149.166257, 0.642521202564, 0.119875691831, -0.100943908095, 0.750071108341
2019-04-03 19:11:19.69,91116039, 0.13, -18.05, 98.8, 599.559997559, -35.3633984, 149.1662624, 0.642551124096, 0.119887948036, -0.101254589856, 0.75000166893
2019-04-03 19:11:19.79,91215999, 0.1, -18.1, 98.79, 599.599975586, -35.363399, 149.1662677, 0.642575979233, 0.120026499033, -0.10168492049, 0.749899983406
2019-04-03 19:11:19.89,91315959, 0.1, -18.11, 98.79, 599.630004883, -35.3633997, 149.1662733, 0.642602324486, 0.120152004063, -0.101763963699, 0.74984651804
2019-04-03 19:11:19.99,91415919, 0.13, -18.1, 98.78, 599.659973145, -35.3634006, 149.1662787, 0.642643749714, 0.120189018548, -0.101527146995, 0.749837219715
2019-04-03 19:11:20.09,91515879, 0.16, -18.07, 98.77, 599.700012207, -35.3634013, 149.166284, 0.642702698708, 0.120139189065, -0.101182378829, 0.749841332436
2019-04-03 19:11:20.19,91615839, 0.17, -18.05, 98.76, 599.729980469, -35.363402, 149.1662895, 0.642772257328, 0.120059616864, -0.100993104279, 0.749819934368
2019-04-03 19:11:20.29,91715799, 0.18, -18.02, 98.75, 599.770019531, -35.3634027, 149.166295, 0.642841756344, 0.119940981269, -0.100750952959, 0.749811947346
2019-04-03 19:11:20.39,91815759, 0.19, -18.0, 98.74, 599.799987793, -35.3634034, 149.1663003, 0.642880141735, 0.119876697659, -0.100581586361, 0.749812066555
2019-04-03 19:11:20.49,91915719, 0.2, -17.99, 98.74, 599.83001709, -35.3634042, 149.1663058, 0.642901837826, 0.119847886264, -0.100458823144, 0.749814450741
2019-04-03 19:11:20.59,92015679, 0.19, -18.0, 98.74, 599.869995117, -35.3634049, 149.1663112, 0.642925322056, 0.11983872205, -0.100570589304, 0.749780833721
2019-04-03 19:11:20.70,92116472, 0.17, -18.03, 98.74, 599.900024414, -35.3634056, 149.1663166, 0.642934978008, 0.119935303926, -0.100876405835, 0.749716103077
2019-04-03 19:11:20.80,92216432, 0.16, -18.07, 98.73, 599.940002441, -35.3634063, 149.1663221, 0.642930150032, 0.120126187801, -0.101156942546, 0.74965184927
2019-04-03 19:11:20.90,92316392, 0.16, -18.1, 98.73, 599.969970703, -35.363407, 149.1663276, 0.642920434475, 0.120327152312, -0.101332187653, 0.749604225159
2019-04-03 19:11:21.00,92416352, 0.18, -18.12, 98.73, 600.0, -35.3634078, 149.1663329, 0.642897665501, 0.120598860085, -0.101339317858, 0.749579131603
2019-04-03 19:11:21.10,92516312, 0.21, -18.15, 98.72, 600.039978027, -35.3634085, 149.1663384, 0.642874956131, 0.120912581682, -0.101303823292, 0.74955290556
2019-04-03 19:11:21.20,92616272, 0.24, -18.15, 98.72, 600.070007324, -35.3634093, 149.1663438, 0.64287686348, 0.121078692377, -0.101167134941, 0.749542891979
2019-04-03 19:11:21.30,92716232, 0.25, -18.12, 98.71, 600.099975586, -35.36341, 149.1663493, 0.64292126894, 0.120965093374, -0.100955143571, 0.749551713467
2019-04-03 19:11:21.40,92816192, 0.23, -18.07, 98.71, 600.140014648, -35.3634106, 149.1663547, 0.643015027046, 0.120534956455, -0.10077162832, 0.749565303326
2019-04-03 19:11:21.50,92916152, 0.21, -18.01, 98.7, 600.16998291, -35.3634113, 149.1663601, 0.643113136292, 0.120051473379, -0.100565120578, 0.749586462975
2019-04-03 19:11:21.59,93016112, 0.21, -17.99, 98.7, 600.200012207, -35.3634122, 149.1663656, 0.643173336983, 0.11983025074, -0.100447408855, 0.749585926533
2019-04-03 19:11:21.69,93116072, 0.21, -17.99, 98.69, 600.239990234, -35.3634129, 149.166371, 0.643194556236, 0.119887717068, -0.100467085838, 0.749555885792
2019-04-03 19:11:21.79,93216032, 0.22, -18.02, 98.69, 600.270019531, -35.3634136, 149.1663764, 0.643188297749, 0.120109274983, -0.100579313934, 0.74951082468
2019-04-03 19:11:21.89,93315992, 0.22, -18.05, 98.69, 600.299987793, -35.3634143, 149.1663819, 0.643183410168, 0.120303407311, -0.100716032088, 0.749465465546
2019-04-03 19:11:21.99,93415952, 0.22, -18.08, 98.68, 600.340026855, -35.3634151, 149.1663873, 0.643176198006, 0.120486877859, -0.100897721946, 0.749417722225
2019-04-03 19:11:22.09,93515912, 0.22, -18.09, 98.68, 600.369995117, -35.3634158, 149.1663927, 0.643190383911, 0.120562434196, -0.100986197591, 0.749381542206
2019-04-03 19:11:22.19,93615872, 0.22, -18.1, 98.68, 600.409973145, -35.3634165, 149.1663982, 0.643211126328, 0.120605863631, -0.101008921862, 0.749353647232
2019-04-03 19:11:22.29,93715832, 0.21, -18.08, 98.67, 600.440002441, -35.3634173, 149.1664036, 0.643258750439, 0.120484471321, -0.100996933877, 0.74933385849
2019-04-03 19:11:22.39,93815792, 0.2, -18.06, 98.67, 600.469970703, -35.3634179, 149.1664089, 0.643326938152, 0.120227880776, -0.100984983146, 0.749318182468
2019-04-03 19:11:22.49,93915752, 0.18, -18.05, 98.66, 600.510009766, -35.3634186, 149.1664145, 0.643391668797, 0.120047315955, -0.101020433009, 0.749286770821
2019-04-03 19:11:22.59,94015712, 0.18, -18.05, 98.66, 600.539978027, -35.3634195, 149.1664199, 0.643429815769, 0.120055273175, -0.101099997759, 0.749242067337
2019-04-03 19:11:22.69,94115672, 0.18, -18.06, 98.65, 600.570007324, -35.3634202, 149.1664253, 0.64345741272, 0.120120316744, -0.10115005821, 0.749201118946
2019-04-03 19:11:22.80,94216465, 0.18, -18.07, 98.64, 600.609985352, -35.3634209, 149.1664308, 0.643484771252, 0.120178662241, -0.10122076422, 0.749158740044
2019-04-03 19:11:22.90,94316425, 0.16, -18.09, 98.64, 600.640014648, -35.3634216, 149.1664362, 0.643517255783, 0.120225518942, -0.101398572326, 0.749099254608
2019-04-03 19:11:23.00,94416385, 0.16, -18.1, 98.63, 600.679992676, -35.3634224, 149.1664417, 0.643548727036, 0.120268553495, -0.101489186287, 0.749053061008
2019-04-03 19:11:23.10,94516345, 0.17, -18.11, 98.63, 600.710021973, -35.3634231, 149.1664471, 0.643563389778, 0.120371036232, -0.101470731199, 0.749026536942
2019-04-03 19:11:23.20,94616305, 0.2, -18.11, 98.62, 600.739990234, -35.3634238, 149.1664525, 0.643565356731, 0.120521351695, -0.101308584213, 0.749022603035
2019-04-03 19:11:23.30,94716265, 0.23, -18.09, 98.62, 600.780029297, -35.3634246, 149.166458, 0.643572628498, 0.120591282845, -0.100981496274, 0.749049246311
2019-04-03 19:11:23.40,94816225, 0.24, -18.05, 98.62, 600.809997559, -35.3634252, 149.1664635, 0.643624842167, 0.120388872921, -0.100699342787, 0.749074935913
2019-04-03 19:11:23.50,94916185, 0.24, -18.02, 98.61, 600.840026855, -35.3634259, 149.1664688, 0.643681168556, 0.120163023472, -0.100564792752, 0.749080896378
2019-04-03 19:11:23.60,95016145, 0.23, -18.03, 98.61, 600.880004883, -35.3634268, 149.1664743, 0.643708586693, 0.120144590735, -0.100644342601, 0.749049544334
2019-04-03 19:11:23.69,95116105, 0.22, -18.04, 98.6, 600.909973145, -35.3634275, 149.1664798, 0.643733143806, 0.120169989765, -0.100784949958, 0.749005496502
2019-04-03 19:11:23.79,95216065, 0.2, -18.06, 98.6, 600.940002441, -35.3634282, 149.1664851, 0.643765032291, 0.120206981897, -0.101064965129, 0.748934447765
2019-04-03 19:11:23.89,95316025, 0.18, -18.1, 98.59, 600.979980469, -35.3634288, 149.1664906, 0.643779814243, 0.120351240039, -0.10137385875, 0.748856782913
2019-04-03 19:11:23.99,95415985, 0.19, -18.14, 98.59, 601.010009766, -35.3634297, 149.1664961, 0.643763124943, 0.12065821141, -0.10157135129, 0.748794972897
2019-04-03 19:11:24.09,95515945, 0.22, -18.17, 98.59, 601.049987793, -35.3634304, 149.1665014, 0.643745541573, 0.120977349579, -0.101550213993, 0.748761475086
2019-04-03 19:11:24.19,95615905, 0.25, -18.16, 98.58, 601.08001709, -35.3634311, 149.1665069, 0.643741846085, 0.121093742549, -0.101231716573, 0.748788893223
2019-04-03 19:11:24.29,95715865, 0.29, -18.14, 98.58, 601.109985352, -35.3634318, 149.1665123, 0.643734157085, 0.121178053319, -0.100897081196, 0.7488270998
2019-04-03 19:11:24.39,95815825, 0.3, -18.12, 98.58, 601.150024414, -35.3634325, 149.1665177, 0.643737435341, 0.121164947748, -0.100727193058, 0.748849272728
2019-04-03 19:11:24.49,95915785, 0.31, -18.11, 98.58, 601.179992676, -35.3634332, 149.1665232, 0.643745243549, 0.121120892465, -0.100598871708, 0.748866915703
2019-04-03 19:11:24.59,96015745, 0.3, -18.11, 98.58, 601.210021973, -35.363434, 149.1665286, 0.643765091896, 0.121039323509, -0.100678034127, 0.748852431774
2019-04-03 19:11:24.69,96115705, 0.26, -18.1, 98.58, 601.25, -35.3634348, 149.1665341, 0.643823683262, 0.120751000941, -0.100888006389, 0.748820304871
2019-04-03 19:11:24.79,96215665, 0.21, -18.08, 98.57, 601.280029297, -35.3634355, 149.1665396, 0.643905580044, 0.120328329504, -0.101132646203, 0.748784959316
2019-04-03 19:11:24.90,96316458, 0.17, -18.06, 98.57, 601.309997559, -35.3634361, 149.166545, 0.643973171711, 0.119971364737, -0.101249314845, 0.74876832962
2019-04-03 19:11:25.00,96416418, 0.17, -18.04, 98.57, 601.349975586, -35.363437, 149.1665505, 0.644009232521, 0.11985630542, -0.101137958467, 0.748770833015
2019-04-03 19:11:25.10,96516378, 0.21, -18.05, 98.56, 601.380004883, -35.3634377, 149.1665559, 0.643996596336, 0.120130322874, -0.100904732943, 0.74876922369
2019-04-03 19:11:25.20,96616338, 0.26, -18.08, 98.56, 601.409973145, -35.3634384, 149.1665614, 0.643956899643, 0.120609559119, -0.10078343749, 0.748742640018
2019-04-03 19:11:25.30,96716298, 0.28, -18.09, 98.55, 601.450012207, -35.3634391, 149.1665668, 0.643959760666, 0.120807006955, -0.100729316473, 0.748715639114
2019-04-03 19:11:25.40,96816258, 0.27, -18.08, 98.55, 601.479980469, -35.3634398, 149.1665722, 0.644008398056, 0.120683208108, -0.100722551346, 0.748694717884
2019-04-03 19:11:25.50,96916218, 0.26, -18.06, 98.54, 601.510009766, -35.3634405, 149.1665777, 0.644067883492, 0.120450913906, -0.100731007755, 0.748679816723
2019-04-03 19:11:25.60,97016178, 0.23, -18.05, 98.54, 601.549987793, -35.3634414, 149.1665832, 0.644127249718, 0.120205760002, -0.100853979588, 0.748651504517
2019-04-03 19:11:25.69,97116138, 0.19, -18.03, 98.54, 601.58001709, -35.3634421, 149.1665885, 0.644205570221, 0.119859039783, -0.101001314819, 0.748619914055
2019-04-03 19:11:25.79,97216098, 0.18, -18.03, 98.53, 601.609985352, -35.3634428, 149.1665941, 0.644242107868, 0.119837470353, -0.101048596203, 0.748585522175
2019-04-03 19:11:25.89,97316058, 0.19, -18.04, 98.53, 601.640014648, -35.3634435, 149.1665995, 0.644268214703, 0.119911812246, -0.101085461676, 0.748546123505
2019-04-03 19:11:25.99,97416018, 0.18, -18.05, 98.52, 601.679992676, -35.3634443, 149.166605, 0.644313752651, 0.119930438697, -0.101224690676, 0.748485147953
2019-04-03 19:11:26.09,97515978, 0.16, -18.06, 98.51, 601.710021973, -35.363445, 149.1666104, 0.644376516342, 0.119840808213, -0.101366482675, 0.748426318169
2019-04-03 19:11:26.19,97615938, 0.16, -18.05, 98.51, 601.75, -35.3634458, 149.1666158, 0.644430041313, 0.11978122592, -0.101313821971, 0.748396933079
2019-04-03 19:11:26.29,97715898, 0.19, -18.04, 98.5, 601.780029297, -35.3634464, 149.1666213, 0.644462287426, 0.119860842824, -0.101085022092, 0.748387336731
