Start,TimeUS,Roll,Pitch,Yaw,Alt,Lat,Lng,Q1,Q2,Q3,Q4
2019-04-02 21:44:32.90,202916301, 0.0, 0.0, 353.0, 584.090026855, -35.363261, 149.1652299, 0.998134791851, 0.0, 0.0, -0.0610485821962
2019-04-02 21:44:33.01,203035420, 0.0, 0.0, 353.0, 584.090026855, -35.363261, 149.1652299, 0.998134791851, 0.0, 0.0, -0.0610485821962
2019-04-02 21:44:33.11,203135380, 0.0, 0.0, 353.0, 584.090026855, -35.363261, 149.1652299, 0.998134791851, 0.0, 0.0, -0.0610485821962
2019-04-02 21:44:33.21,203235340, 0.0, 0.0, 353.0, 584.090026855, -35.363261, 149.1652299, 0.998134791851, 0.0, 0.0, -0.0610485821962
2019-04-02 21:44:33.31,203335300, 0.0, 0.0, 353.0, 584.090026855, -35.363261, 149.1652299, 0.998134791851, 0.0, 0.0, -0.0610485821962
2019-04-02 21:44:33.41,203435260, 0.0, 0.0, 353.0, 584.090026855, -35.363261, 149.1652299, 0.998134791851, 0.0, 0.0, -0.0610485821962
2019-04-02 21:44:33.51,203535220, 0.0, 0.0, 353.0, 584.090026855, -35.363261, 149.1652299, 0.998134791851, 0.0, 0.0, -0.0610485821962
2019-04-02 21:44:33.61,203635180, 0.0, 0.0, 353.0, 584.090026855, -35.363261, 149.1652299, 0.998134791851, 0.0, 0.0, -0.0610485821962
2019-04-02 21:44:33.71,203735140, 0.0, 0.0, 353.0, 584.090026855, -35.363261, 149.1652299, 0.998134791851, 0.0, 0.0, -0.0610485821962
2019-04-02 21:44:33.81,203835100, 0.0, 0.0, 353.0, 584.090026855, -35.363261, 149.1652299, 0.998134791851, 0.0, 0.0, -0.0610485821962
2019-04-02 21:44:33.91,203935060, 0.0, 0.0, 353.0, 584.090026855, -35.363261, 149.1652299, 0.998134791851, 0.0, 0.0, -0.0610485821962
2019-04-02 21:44:34.01,204035020, 0.0, 0.0, 353.0, 584.090026855, -35.363261, 149.1652299, 0.998134791851, 0.0, 0.0, -0.0610485821962
2019-04-02 21:44:34.11,204134980, 0.0, 0.0, 353.0, 584.090026855, -35.363261, 149.1652299, 0.998134791851, 0.0, 0.0, -0.0610485821962
2019-04-02 21:44:34.21,204234940, 0.0, 0.0, 353.0, 584.090026855, -35.363261, 149.1652299, 0.998134791851, 0.0, 0.0, -0.0610485821962
2019-04-02 21:44:34.31,204334900, 0.0, 0.0, 353.0, 584.090026855, -35.363261, 149.1652299, 0.998134791851, 0.0, 0.0, -0.0610485821962
2019-04-02 21:44:34.41,204434860, 0.0, 0.0, 353.0, 584.090026855, -35.363261, 149.1652299, 0.998134791851, 0.0, 0.0, -0.0610485821962
2019-04-02 21:44:34.51,204534820, 0.0, 0.0, 353.0, 584.090026855, -35.363261, 149.1652299, 0.998134791851, 0.0, 0.0, -0.0610485821962
2019-04-02 21:44:34.61,204634780, 0.0, 0.0, 353.0, 584.090026855, -35.363261, 149.1652299, 0.998134791851, 0.0, 0.0, -0.0610485821962
2019-04-02 21:44:34.71,204734740, 0.0, 0.0, 353.0, 584.090026855, -35.363261, 149.1652299, 0.998134791851, 0.0, 0.0, -0.0610485821962
2019-04-02 21:44:34.81,204834700, 0.0, 0.0, 353.0, 584.090026855, -35.363261, 149.1652299, 0.998134791851, 0.0, 0.0, -0.0610485821962
2019-04-02 21:44:34.91,204934660, 0.0, 0.0, 353.0, 584.090026855, -35.363261, 149.1652299, 0.998134791851, 0.0, 0.0, -0.0610485821962
2019-04-02 21:44:35.02,205035453, 0.0, 0.0, 353.0, 584.090026855, -35.363261, 149.1652299, 0.998134791851, 0.0, 0.0, -0.0610485821962
2019-04-02 21:44:35.11,205135413, 0.0, 0.0, 353.0, 584.090026855, -35.363261, 149.1652299, 0.998134791851, 0.0, 0.0, -0.0610485821962
2019-04-02 21:44:35.21,205235373, 0.0, 0.0, 353.0, 584.090026855, -35.363261, 149.1652299, 0.998134791851, 0.0, 0.0, -0.0610485821962
2019-04-02 21:44:35.31,205335333, 0.0, 0.0, 353.0, 584.090026855, -35.363261, 149.1652299, 0.998134791851, 0.0, 0.0, -0.0610485821962
2019-04-02 21:44:35.41,205435293, 0.0, 0.0, 353.0, 584.090026855, -35.363261, 149.1652299, 0.998134791851, 0.0, 0.0, -0.0610485821962
2019-04-02 21:44:35.51,205535253, 0.0, 0.0, 353.0, 584.090026855, -35.363261, 149.1652299, 0.998134791851, 0.0, 0.0, -0.0610485821962
2019-04-02 21:44:35.61,205635213, 0.0, 0.0, 353.0, 584.090026855, -35.363261, 149.1652299, 0.998134791851, 0.0, 0.0, -0.0610485821962
2019-04-02 21:44:35.71,205735173, 0.0, 0.0, 353.0, 584.090026855, -35.363261, 149.1652299, 0.998134791851, 0.0, 0.0, -0.0610485821962
2019-04-02 21:44:35.81,205835133, 0.0, 0.0, 353.0, 584.090026855, -35.363261, 149.1652299, 0.998134791851, 0.0, 0.0, -0.0610485821962
2019-04-02 21:44:35.91,205935093, 0.0, 0.0, 353.0, 584.090026855, -35.363261, 149.1652299, 0.998134791851, 0.0, 0.0, -0.0610485821962
2019-04-02 21:44:36.01,206035053, 0.0, 0.0, 353.0, 584.090026855, -35.363261, 149.1652299, 0.998134791851, 0.0, 0.0, -0.0610485821962
2019-04-02 21:44:36.11,206135013, 0.0, 0.0, 353.0, 584.090026855, -35.363261, 149.1652299, 0.998134791851, 0.0, 0.0, -0.0610485821962
2019-04-02 21:44:36.21,206234973, 0.0, 0.0, 353.0, 584.090026855, -35.363261, 149.1652299, 0.998134791851, 0.0, 0.0, -0.0610485821962
2019-04-02 21:44:36.31,206334933, 0.0, 0.0, 353.0, 584.090026855, -35.363261, 149.1652299, 0.998134791851, 0.0, 0.0, -0.0610485821962
2019-04-02 21:44:36.41,206434893, 0.0, 0.0, 353.0, 584.090026855, -35.363261, 149.1652299, 0.998134791851, 0.0, 0.0, -0.0610485821962
2019-04-02 21:44:36.51,206534853, 0.0, 0.0, 353.0, 584.090026855, -35.363261, 149.1652299, 0.998134791851, 0.0, 0.0, -0.0610485821962
2019-04-02 21:44:36.61,206634813, 0.0, 0.0, 353.0, 584.090026855, -35.363261, 149.1652299, 0.998134791851, 0.0, 0.0, -0.0610485821962
2019-04-02 21:44:36.71,206734773, 0.0, 0.0, 353.0, 584.090026855, -35.363261, 149.1652299, 0.998134791851, 0.0, 0.0, -0.0610485821962
2019-04-02 21:44:36.81,206834733, 0.0, 0.0, 353.0, 584.090026855, -35.363261, 149.1652299, 0.998134791851, 0.0, 0.0, -0.0610485821962
2019-04-02 21:44:36.91,206934693, 0.0, 0.0, 353.0, 584.090026855, -35.363261, 149.1652299, 0.998134791851, 0.0, 0.0, -0.0610485821962
2019-04-02 21:44:37.01,207034653, 0.0, 0.0, 353.0, 584.090026855, -35.363261, 149.1652299, 0.998134791851, 0.0, 0.0, -0.0610485821962
2019-04-02 21:44:37.12,207135446, 0.0, 0.0, 353.0, 584.090026855, -35.363261, 149.1652299, 0.998134791851, 0.0, 0.0, -0.0610485821962
2019-04-02 21:44:37.21,207235406, 0.0, 0.0, 353.0, 584.090026855, -35.363261, 149.1652299, 0.998134791851, 0.0, 0.0, -0.0610485821962
2019-04-02 21:44:37.31,207335366, 0.0, 0.0, 353.0, 584.090026855, -35.363261, 149.1652299, 0.998134791851, 0.0, 0.0, -0.0610485821962
2019-04-02 21:44:37.41,207435326, 0.0, 0.0, 353.0, 584.090026855, -35.363261, 149.1652299, 0.998134791851, 0.0, 0.0, -0.0610485821962
2019-04-02 21:44:37.51,207535286, 0.0, 0.0, 353.0, 584.090026855, -35.363261, 149.1652299, 0.998134791851, 0.0, 0.0, -0.0610485821962
2019-04-02 21:44:37.61,207635246, 0.0, 0.0, 353.0, 584.090026855, -35.363261, 149.1652299, 0.998134791851, 0.0, 0.0, -0.0610485821962
2019-04-02 21:44:37.71,207735206, 0.0, 0.0, 353.0, 584.090026855, -35.363261, 149.1652299, 0.998134791851, 0.0, 0.0, -0.0610485821962
2019-04-02 21:44:37.81,207835166, 0.0, 0.0, 353.0, 584.090026855, -35.363261, 149.1652299, 0.998134791851, 0.0, 0.0, -0.0610485821962
2019-04-02 21:44:37.91,207935126, 0.0, 0.0, 353.0, 584.090026855, -35.363261, 149.1652299, 0.998134791851, 0.0, 0.0, -0.0610485821962
2019-04-02 21:44:38.01,208035086, 0.0, 0.0, 353.0, 584.090026855, -35.363261, 149.1652299, 0.998134791851, 0.0, 0.0, -0.0610485821962
2019-04-02 21:44:38.11,208135046, 0.0, 0.0, 353.0, 584.090026855, -35.363261, 149.1652299, 0.998134791851, 0.0, 0.0, -0.0610485821962
2019-04-02 21:44:38.21,208235006, 0.0, 0.0, 353.0, 584.090026855, -35.363261, 149.1652299, 0.998134791851, 0.0, 0.0, -0.0610485821962
2019-04-02 21:44:38.31,208334966, 0.0, 0.0, 353.0, 584.090026855, -35.363261, 149.1652299, 0.998134791851, 0.0, 0.0, -0.0610485821962
2019-04-02 21:44:38.41,208434926, 0.0, 0.0, 353.0, 584.090026855, -35.363261, 149.1652299, 0.998134791851, 0.0, 0.0, -0.0610485821962
2019-04-02 21:44:38.51,208534886, 0.0, 0.0, 353.0, 584.090026855, -35.363261, 149.1652299, 0.998134791851, 0.0, 0.0, -0.0610485821962
2019-04-02 21:44:38.61,208634846, 0.0, 0.0, 353.0, 584.090026855, -35.363261, 149.1652299, 0.998134791851, 0.0, 0.0, -0.0610485821962
2019-04-02 21:44:38.71,208734806, 0.0, 0.0, 353.0, 584.090026855, -35.363261, 149.1652299, 0.998134791851, 0.0, 0.0, -0.0610485821962
2019-04-02 21:44:38.81,208834766, 0.0, 0.0, 353.0, 584.090026855, -35.363261, 149.1652299, 0.998134791851, 0.0, 0.0, -0.0610485821962
2019-04-02 21:44:38.91,208934726, 0.0, 0.0, 353.0, 584.090026855, -35.363261, 149.1652299, 0.998134791851, 0.0, 0.0, -0.0610485821962
2019-04-02 21:44:39.01,209034686, 0.0, 0.0, 353.0, 584.090026855, -35.363261, 149.1652299, 0.998134791851, 0.0, 0.0, -0.0610485821962
2019-04-02 21:44:39.11,209134646, 0.0, 0.0, 353.0, 584.090026855, -35.363261, 149.1652299, 0.998134791851, 0.0, 0.0, -0.0610485821962
2019-04-02 21:44:39.22,209235439, 0.0, 0.0, 353.0, 584.090026855, -35.363261, 149.1652299, 0.998134791851, 0.0, 0.0, -0.0610485821962
2019-04-02 21:44:39.31,209335399, 0.0, 0.0, 353.0, 584.090026855, -35.363261, 149.1652299, 0.998134791851, 0.0, 0.0, -0.0610485821962
2019-04-02 21:44:39.41,209435359, 0.0, 0.0, 353.0, 584.090026855, -35.363261, 149.1652299, 0.998134791851, 0.0, 0.0, -0.0610485821962
2019-04-02 21:44:39.51,209535319, 0.0, 0.0, 353.0, 584.090026855, -35.363261, 149.1652299, 0.998134791851, 0.0, 0.0, -0.0610485821962
2019-04-02 21:44:39.61,209635279, 0.0, 0.0, 353.0, 584.090026855, -35.363261, 149.1652299, 0.998134791851, 0.0, 0.0, -0.0610485821962
2019-04-02 21:44:39.71,209735239, 0.0, 0.0, 353.0, 584.090026855, -35.363261, 149.1652299, 0.998134791851, 0.0, 0.0, -0.0610485821962
2019-04-02 21:44:39.81,209835199, 0.0, 0.0, 353.0, 584.090026855, -35.363261, 149.1652299, 0.998134791851, 0.0, 0.0, -0.0610485821962
2019-04-02 21:44:39.91,209935159, 0.0, 0.0, 353.0, 584.090026855, -35.363261, 149.1652299, 0.998134791851, 0.0, 0.0, -0.0610485821962
2019-04-02 21:44:40.01,210035119, 0.0, 0.0, 353.0, 584.090026855, -35.363261, 149.1652299, 0.998134791851, 0.0, 0.0, -0.0610485821962
2019-04-02 21:44:40.11,210135079, 0.0, 0.0, 353.0, 584.090026855, -35.363261, 149.1652299, 0.998134791851, 0.0, 0.0, -0.0610485821962
2019-04-02 21:44:40.21,210235039, 0.0, 0.0, 353.0, 584.090026855, -35.363261, 149.1652299, 0.998134791851, 0.0, 0.0, -0.0610485821962
2019-04-02 21:44:40.31,210334999, 0.0, 0.0, 353.0, 584.090026855, -35.363261, 149.1652299, 0.998134791851, 0.0, 0.0, -0.0610485821962
2019-04-02 21:44:40.41,210434959, 0.0, 0.0, 353.0, 584.090026855, -35.363261, 149.1652299, 0.998134791851, 0.0, 0.0, -0.0610485821962
2019-04-02 21:44:40.51,210534919, 0.0, 0.0, 353.0, 584.090026855, -35.363261, 149.1652299, 0.998134791851, 0.0, 0.0, -0.0610485821962
2019-04-02 21:44:40.61,210634879, 0.0, 0.0, 353.0, 584.090026855, -35.363261, 149.1652299, 0.998134791851, 0.0, 0.0, -0.0610485821962
2019-04-02 21:44:40.71,210734839, 0.0, 0.0, 353.0, 584.090026855, -35.363261, 149.1652299, 0.998134791851, 0.0, 0.0, -0.0610485821962
2019-04-02 21:44:40.81,210834799, 0.0, 0.0, 353.0, 584.090026855, -35.363261, 149.1652299, 0.998134791851, 0.0, 0.0, -0.0610485821962
2019-04-02 21:44:40.91,210934759, 0.0, 0.0, 353.0, 584.090026855, -35.363261, 149.1652299, 0.998134791851, 0.0, 0.0, -0.0610485821962
2019-04-02 21:44:41.01,211034719, 0.0, 0.0, 353.0, 584.090026855, -35.363261, 149.1652299, 0.998134791851, 0.0, 0.0, -0.0610485821962
2019-04-02 21:44:41.11,211134679, 0.0, 0.0, 353.0, 584.090026855, -35.363261, 149.1652299, 0.998134791851, 0.0, 0.0, -0.0610485821962
2019-04-02 21:44:41.21,211234639, 0.0, 0.0, 353.0, 584.090026855, -35.363261, 149.1652299, 0.998134791851, 0.0, 0.0, -0.0610485821962
2019-04-02 21:44:41.32,211335432, 0.0, 0.0, 353.0, 584.090026855, -35.363261, 149.1652299, 0.998134791851, 0.0, 0.0, -0.0610485821962
2019-04-02 21:44:41.41,211435392, 0.0, 0.0, 353.0, 584.090026855, -35.363261, 149.1652299, 0.998134791851, 0.0, 0.0, -0.0610485821962
2019-04-02 21:44:41.51,211535352, 0.0, 0.0, 353.0, 584.090026855, -35.363261, 149.1652299, 0.998134791851, 0.0, 0.0, -0.0610485821962
2019-04-02 21:44:41.61,211635312, 0.0, 0.0, 353.0, 584.090026855, -35.363261, 149.1652299, 0.998134791851, 0.0, 0.0, -0.0610485821962
2019-04-02 21:44:41.71,211735272, 0.0, 0.0, 353.0, 584.090026855, -35.363261, 149.1652299, 0.998134791851, 0.0, 0.0, -0.0610485821962
2019-04-02 21:44:41.81,211835232, 0.0, 0.0, 353.0, 584.090026855, -35.363261, 149.1652299, 0.998134791851, 0.0, 0.0, -0.0610485821962
2019-04-02 21:44:41.91,211935192, 0.0, 0.0, 353.0, 584.090026855, -35.363261, 149.1652299, 0.998134791851, 0.0, 0.0, -0.0610485821962
2019-04-02 21:44:42.01,212035152, 0.0, 0.0, 353.0, 584.090026855, -35.363261, 149.1652299, 0.998134791851, 0.0, 0.0, -0.0610485821962
2019-04-02 21:44:42.11,212135112, 0.0, 0.0, 353.0, 584.090026855, -35.363261, 149.1652299, 0.998134791851, 0.0, 0.0, -0.0610485821962
2019-04-02 21:44:42.21,212235072, 0.0, 0.0, 353.0, 584.090026855, -35.363261, 149.1652299, 0.998134791851, 0.0, 0.0, -0.0610485821962
2019-04-02 21:44:42.31,212335032, 0.0, 0.0, 353.0, 584.090026855, -35.363261, 149.1652299, 0.998134791851, 0.0, 0.0, -0.0610485821962
2019-04-02 21:44:42.41,212434992, 0.0, 0.0, 353.0, 584.090026855, -35.363261, 149.1652299, 0.998134791851, 0.0, 0.0, -0.0610485821962
2019-04-02 21:44:42.51,212534952, 0.0, 0.0, 353.0, 584.090026855, -35.363261, 149.1652299, 0.998134791851, 0.0, 0.0, -0.0610485821962
2019-04-02 21:44:42.61,212634912, 0.0, 0.0, 353.0, 584.090026855, -35.363261, 149.1652299, 0.998134791851, 0.0, 0.0, -0.0610485821962
2019-04-02 21:44:42.71,212734872, 0.0, 0.0, 353.0, 584.090026855, -35.363261, 149.1652299, 0.998134791851, 0.0, 0.0, -0.0610485821962
2019-04-02 21:44:45.11,215134745, 0.0, 0.0, 353.0, 584.090026855, -35.363261, 149.1652299, 0.998134791851, 0.0, 0.0, -0.0610485821962
2019-04-02 21:44:45.21,215234705, 0.0, 0.0, 353.0, 584.090026855, -35.363261, 149.1652299, 0.998134791851, 0.0, 0.0, -0.0610485821962
2019-04-02 21:44:45.31,215334665, 0.0, 0.0, 353.0, 584.090026855, -35.363261, 149.1652299, 0.998134791851, 0.0, 0.0, -0.0610485821962
2019-04-02 21:44:45.42,215435458, 0.0, 0.0, 353.0, 584.090026855, -35.363261, 149.1652299, 0.998134791851, 0.0, 0.0, -0.0610485821962
2019-04-02 21:44:45.51,215535418, 0.0, 0.0, 353.0, 584.090026855, -35.363261, 149.1652299, 0.998134791851, 0.0, 0.0, -0.0610485821962
2019-04-02 21:44:45.61,215635378, 0.0, 0.0, 353.0, 584.090026855, -35.363261, 149.1652299, 0.998134791851, 0.0, 0.0, -0.0610485821962
2019-04-02 21:44:45.71,215735338, 0.0, 0.0, 353.0, 584.090026855, -35.363261, 149.1652299, 0.998134791851, 0.0, 0.0, -0.0610485821962
2019-04-02 21:44:45.81,215835298, 0.0, 0.0, 353.0, 584.090026855, -35.363261, 149.1652299, 0.998134791851, 0.0, 0.0, -0.0610485821962
2019-04-02 21:44:45.91,215935258, 0.0, 0.0, 353.0, 584.090026855, -35.363261, 149.1652299, 0.998134791851, 0.0, 0.0, -0.0610485821962
2019-04-02 21:44:46.01,216035218, 0.0, 0.0, 353.0, 584.090026855, -35.363261, 149.1652299, 0.998134791851, 0.0, 0.0, -0.0610485821962
2019-04-02 21:44:46.11,216135178, 0.0, 0.0, 353.0, 584.090026855, -35.363261, 149.1652299, 0.998134791851, 0.0, 0.0, -0.0610485821962
2019-04-02 21:44:46.21,216235138, 0.0, 0.0, 353.0, 584.090026855, -35.363261, 149.1652299, 0.998134791851, 0.0, 0.0, -0.0610485821962
2019-04-02 21:44:46.31,216335098, 0.0, 0.0, 353.0, 584.090026855, -35.363261, 149.1652299, 0.998134791851, 0.0, 0.0, -0.0610485821962
2019-04-02 21:44:46.41,216435058, 0.0, 0.0, 353.0, 584.090026855, -35.363261, 149.1652299, 0.998134791851, 0.0, 0.0, -0.0610485821962
2019-04-02 21:44:46.51,216535018, 0.0, 0.0, 353.0, 584.090026855, -35.363261, 149.1652299, 0.998134791851, 0.0, 0.0, -0.0610485821962
2019-04-02 21:44:46.61,216634978, 0.0, 0.0, 353.0, 584.090026855, -35.363261, 149.1652299, 0.998134791851, 0.0, 0.0, -0.0610485821962
2019-04-02 21:44:46.71,216734938, 0.0, 0.0, 353.0, 584.090026855, -35.363261, 149.1652299, 0.998134791851, 0.0, 0.0, -0.0610485821962
2019-04-02 21:44:46.81,216834898, 0.0, 0.0, 353.0, 584.090026855, -35.363261, 149.1652299, 0.998134791851, 0.0, 0.0, -0.0610485821962
2019-04-02 21:44:46.91,216934858, 0.0, 0.0, 353.0, 584.090026855, -35.363261, 149.1652299, 0.998134791851, 0.0, 0.0, -0.0610485821962
2019-04-02 21:44:47.01,217034818, 0.0, 0.0, 353.0, 584.090026855, -35.363261, 149.1652299, 0.998134791851, 0.0, 0.0, -0.0610485821962
2019-04-02 21:44:47.11,217134778, 0.0, 0.0, 353.0, 584.090026855, -35.363261, 149.1652299, 0.998134791851, 0.0, 0.0, -0.0610485821962
2019-04-02 21:44:47.21,217234738, 0.0, 0.0, 353.0, 584.090026855, -35.363261, 149.1652299, 0.998134791851, 0.0, 0.0, -0.0610485821962
2019-04-02 21:44:47.31,217334698, 0.0, 0.0, 353.0, 584.090026855, -35.363261, 149.1652299, 0.998134791851, 0.0, 0.0, -0.0610485821962
2019-04-02 21:44:47.41,217434658, 0.0, 0.0, 353.0, 584.090026855, -35.363261, 149.1652299, 0.998134791851, 0.0, 0.0, -0.0610485821962
2019-04-02 21:44:47.52,217535451, 0.0, 0.0, 353.0, 584.090026855, -35.363261, 149.1652299, 0.998134791851, 0.0, 0.0, -0.0610485821962
2019-04-02 21:44:47.61,217635411, 0.0, 0.0, 353.0, 584.090026855, -35.363261, 149.1652299, 0.998134791851, 0.0, 0.0, -0.0610485821962
2019-04-02 21:44:47.71,217735371, 0.0, 0.0, 353.0, 584.090026855, -35.363261, 149.1652299, 0.998134791851, 0.0, 0.0, -0.0610485821962
2019-04-02 21:44:47.81,217835331, 0.0, 0.0, 353.0, 584.090026855, -35.363261, 149.1652299, 0.998134791851, 0.0, 0.0, -0.0610485821962
2019-04-02 21:44:47.91,217935291, 0.0, 0.0, 353.0, 584.090026855, -35.363261, 149.1652299, 0.998134791851, 0.0, 0.0, -0.0610485821962
2019-04-02 21:44:48.01,218035251, 0.0, 0.0, 353.0, 584.090026855, -35.363261, 149.1652299, 0.998134791851, 0.0, 0.0, -0.0610485821962
2019-04-02 21:44:48.11,218135211, 0.0, 0.0, 353.0, 584.090026855, -35.363261, 149.1652299, 0.998134791851, 0.0, 0.0, -0.0610485821962
2019-04-02 21:44:48.21,218235171, 0.0, 0.0, 353.0, 584.090026855, -35.363261, 149.1652299, 0.998134791851, 0.0, 0.0, -0.0610485821962
2019-04-02 21:44:48.31,218335131, 0.0, 0.0, 353.0, 584.090026855, -35.363261, 149.1652299, 0.998134791851, 0.0, 0.0, -0.0610485821962
2019-04-02 21:44:48.41,218435091, 0.0, 0.0, 353.0, 584.090026855, -35.363261, 149.1652299, 0.998134791851, 0.0, 0.0, -0.0610485821962
2019-04-02 21:44:48.51,218535051, 0.0, 0.0, 353.0, 584.090026855, -35.363261, 149.1652299, 0.998134791851, 0.0, 0.0, -0.0610485821962
2019-04-02 21:44:48.61,218635011, 0.0, 0.0, 353.0, 584.090026855, -35.363261, 149.1652299, 0.998134791851, 0.0, 0.0, -0.0610485821962
2019-04-02 21:44:48.71,218734971, 0.0, 0.0, 353.0, 584.090026855, -35.363261, 149.1652299, 0.998134791851, 0.0, 0.0, -0.0610485821962
2019-04-02 21:44:48.81,218834931, 0.0, 0.0, 353.0, 584.090026855, -35.363261, 149.1652299, 0.998134791851, 0.0, 0.0, -0.0610485821962
2019-04-02 21:44:48.91,218934891, 0.0, 0.0, 353.0, 584.090026855, -35.363261, 149.1652299, 0.998134791851, 0.0, 0.0, -0.0610486753285
2019-04-02 21:44:49.01,219034851, 0.0, 0.0, 353.0, 584.090026855, -35.363261, 149.1652299, 0.998134791851, 0.0, 0.0, -0.0610486753285
2019-04-02 21:44:49.11,219134811, 0.0, 0.0, 353.0, 584.090026855, -35.363261, 149.1652299, 0.998134791851, 0.0, 0.0, -0.0610486753285
2019-04-02 21:44:49.21,219234771, 0.0, 0.0, 353.0, 584.090026855, -35.363261, 149.1652299, 0.998134791851, 0.0, 0.0, -0.0610486753285
2019-04-02 21:44:49.31,219334731, 0.0, 0.0, 353.0, 584.090026855, -35.363261, 149.1652299, 0.998134791851, 0.0, 0.0, -0.0610486753285
2019-04-02 21:44:49.41,219434691, 0.0, 0.0, 353.0, 584.090026855, -35.363261, 149.1652299, 0.998134791851, 0.0, 0.0, -0.0610486753285
2019-04-02 21:44:49.51,219534651, 0.0, 0.0, 353.0, 584.090026855, -35.363261, 149.1652299, 0.998134791851, 0.0, 0.0, -0.0610486753285
2019-04-02 21:44:49.62,219635444, 0.0, 0.0, 353.0, 584.090026855, -35.363261, 149.1652299, 0.998134791851, 0.0, 0.0, -0.0610486753285
2019-04-02 21:44:49.71,219735404, 0.0, 0.0, 353.0, 584.099975586, -35.363261, 149.1652299, 0.998134791851, 0.0, 0.0, -0.0610486753285
2019-04-02 21:44:49.81,219835364, 0.0, 0.0, 353.0, 584.099975586, -35.363261, 149.1652299, 0.998134791851, 0.0, 0.0, -0.0610486753285
2019-04-02 21:44:49.91,219935324, 0.0, 0.0, 353.0, 584.109985352, -35.363261, 149.1652299, 0.998134791851, 0.0, 0.0, -0.0610486753285
2019-04-02 21:44:50.01,220035284, 0.0, 0.0, 353.0, 584.130004883, -35.363261, 149.1652299, 0.998134791851, 0.0, 0.0, -0.0610486753285
2019-04-02 21:44:50.11,220135244, 0.0, 0.0, 353.0, 584.159973145, -35.363261, 149.1652299, 0.998134791851, 0.0, 0.0, -0.0610486827791
2019-04-02 21:44:50.21,220235204, 0.0, 0.0, 353.0, 584.190002441, -35.363261, 149.1652299, 0.998134791851, 0.0, 0.0, -0.0610486865044
2019-04-02 21:44:50.31,220335164, -0.01, -0.02, 352.99, 584.229980469, -35.363261, 149.1652299, 0.998134613037, -0.000176961329998, -0.000173885404365, -0.0610519349575
2019-04-02 21:44:50.41,220435124, -0.12, -0.13, 352.99, 584.309997559, -35.363261, 149.1652299, 0.998131513596, -0.00120018061716, -0.00112303451169, -0.0610808879137
2019-04-02 21:44:50.51,220535084, -0.27, -0.29, 352.99, 584.450012207, -35.363261, 149.1652299, 0.998123049736, -0.00253667146899, -0.00245550624095, -0.0611385814846
2019-04-02 21:44:50.61,220635044, -0.38, -0.43, 352.98, 584.599975586, -35.363261, 149.1652299, 0.998111605644, -0.00356725626625, -0.00356312771328, -0.0612195916474
2019-04-02 21:44:50.71,220735004, -0.43, -0.47, 352.97, 584.760009766, -35.363261, 149.1652299, 0.99810230732, -0.00403921259567, -0.00389994750731, -0.0613207034767
2019-04-02 21:44:50.81,220834964, -0.41, -0.43, 352.95, 584.909973145, -35.363261, 149.1652299, 0.99809807539, -0.00383720500395, -0.00360066653229, -0.0614214763045
2019-04-02 21:44:50.91,220934924, -0.32, -0.33, 352.94, 585.059997559, -35.363261, 149.1652299, 0.998098194599, -0.00300795724615, -0.00271954387426, -0.0615108311176
2019-04-02 21:44:51.01,221034884, -0.2, -0.19, 352.93, 585.219970703, -35.363261, 149.1652298, 0.99809885025, -0.0018998895539, -0.00154409115203, -0.0615853331983
2019-04-02 21:44:51.11,221134844, -0.1, -0.06, 352.93, 585.380004883, -35.3632609, 149.1652298, 0.998097598553, -0.000970078224782, -0.000494114647154, -0.0616441220045
2019-04-02 21:44:51.21,221234804, -0.04, 0.0, 352.92, 585.549987793, -35.3632609, 149.1652298, 0.998095750809, -0.000369512155885, -5.82091706747e-05, -0.0616827793419
2019-04-02 21:44:51.31,221334764, -0.01, 0.0, 352.92, 585.719970703, -35.3632609, 149.1652298, 0.99809473753, -0.000145518570207, -5.41832159797e-05, -0.0617000944912
2019-04-02 21:44:51.41,221434724, -0.01, -0.02, 352.92, 585.900024414, -35.3632609, 149.1652298, 0.998094558716, -0.00014725861547, -0.000251032935921, -0.0617026314139
2019-04-02 21:44:51.51,221534684, -0.03, -0.03, 352.92, 586.090026855, -35.3632608, 149.1652298, 0.998095154762, -0.000315080105793, -0.000319441052852, -0.0616926960647
2019-04-02 21:44:51.61,221634644, -0.06, -0.04, 352.92, 586.270019531, -35.3632608, 149.1652298, 0.998096525669, -0.000590326439124, -0.000372885202523, -0.0616677068174
2019-04-02 21:44:51.72,221735437, -0.08, -0.05, 352.93, 586.469970703, -35.3632608, 149.1652297, 0.998098134995, -0.000736972258892, -0.000443702243501, -0.0616398230195
2019-04-02 21:44:51.81,221835397, -0.06, -0.04, 352.93, 586.659973145, -35.3632608, 149.1652297, 0.998100042343, -0.000623323081527, -0.000376176205464, -0.0616097562015
2019-04-02 21:44:51.91,221935357, -0.01, -0.02, 352.93, 586.859985352, -35.3632607, 149.1652297, 0.998101949692, -0.000166802899912, -0.000185742523172, -0.0615827925503
2019-04-02 21:44:52.01,222035317, 0.02, 0.0, 352.94, 587.059997559, -35.3632607, 149.1652296, 0.998103201389, 0.000215389780351, 6.02354884904e-05, -0.061563141644
2019-04-02 21:44:52.11,222135277, 0.03, 0.03, 352.94, 587.260009766, -35.3632607, 149.1652296, 0.998103439808, 0.000347830849933, 0.000294422818115, -0.0615573488176
2019-04-02 21:44:52.21,222235237, 0.02, 0.03, 352.94, 587.460021973, -35.3632607, 149.1652296, 0.998103201389, 0.000244730937993, 0.000318681879435, -0.0615619458258
2019-04-02 21:44:52.31,222335197, 0.01, 0.0, 352.93, 587.66998291, -35.3632605, 149.1652296, 0.998101353645, 0.00011263180204, 1.78372956725e-05, -0.0615930594504
2019-04-02 21:44:52.41,222435157, 0.0, -0.04, 352.93, 587.869995117, -35.3632605, 149.1652294, 0.998098611832, -7.51359621063e-05, -0.000401437282562, -0.0616358667612
2019-04-02 21:44:52.51,222535117, -0.02, -0.06, 352.92, 588.08001709, -35.3632605, 149.1652294, 0.99809551239, -0.000266500894213, -0.000534797203727, -0.0616853907704
2019-04-02 21:44:52.61,222635077, -0.05, -0.06, 352.92, 588.289978027, -35.3632605, 149.1652294, 0.998091995716, -0.00048580172006, -0.000510618439876, -0.0617404915392
2019-04-02 21:44:52.71,222735037, -0.07, -0.05, 352.91, 588.5, -35.3632605, 149.1652294, 0.998088717461, -0.000679927761666, -0.000405387399951, -0.0617927126586
2019-04-02 21:44:52.81,222834997, -0.09, -0.04, 352.9, 588.719970703, -35.3632605, 149.1652293, 0.998085021973, -0.000838828447741, -0.000369995075744, -0.0618500038981
2019-04-02 21:44:52.91,222934957, -0.09, -0.05, 352.9, 588.929992676, -35.3632604, 149.1652293, 0.998081386089, -0.000885081943125, -0.000433297624113, -0.0619081482291
2019-04-02 21:44:53.01,223034917, -0.1, -0.08, 352.89, 589.150024414, -35.3632604, 149.1652293, 0.998076915741, -0.000944855040871, -0.000651301699691, -0.0619771704078
2019-04-02 21:44:53.11,223134877, -0.11, -0.1, 352.88, 589.359985352, -35.3632604, 149.1652293, 0.998072147369, -0.00103754759766, -0.000880738371052, -0.0620499253273
2019-04-02 21:44:53.21,223234837, -0.12, -0.13, 352.87, 589.58001709, -35.3632604, 149.1652293, 0.998066842556, -0.00117618241347, -0.00109219562728, -0.0621290281415
2019-04-02 21:44:53.31,223334797, -0.13, -0.15, 352.86, 589.799987793, -35.3632604, 149.1652293, 0.998060822487, -0.00127928482834, -0.00128452421632, -0.0622192174196
2019-04-02 21:44:53.41,223434757, -0.17, -0.18, 352.85, 590.020019531, -35.3632604, 149.1652293, 0.998053133488, -0.00159342517145, -0.00148304016329, -0.0623313263059
2019-04-02 21:44:53.51,223534717, -0.21, -0.22, 352.83, 590.229980469, -35.3632604, 149.1652292, 0.998044312, -0.00202811113559, -0.0018641493516, -0.0624500885606
2019-04-02 21:44:53.61,223634677, -0.26, -0.28, 352.82, 590.460021973, -35.3632604, 149.1652292, 0.998035609722, -0.00244752014987, -0.00234386487864, -0.0625574961305
2019-04-02 21:44:53.71,223734637, -0.27, -0.3, 352.81, 590.679992676, -35.3632604, 149.1652291, 0.998029112816, -0.00253557856195, -0.0025034788996, -0.0626517161727
2019-04-02 21:44:53.82,223835430, -0.27, -0.29, 352.8, 590.900024414, -35.3632604, 149.1652291, 0.998024344444, -0.0025859917514, -0.00239954865538, -0.0627292618155
2019-04-02 21:44:53.91,223935390, -0.26, -0.25, 352.79, 591.119995117, -35.3632603, 149.1652289, 0.998021245003, -0.00245777587406, -0.00204581255093, -0.0627960860729
2019-04-02 21:44:54.01,224035350, -0.25, -0.2, 352.79, 591.349975586, -35.3632603, 149.1652289, 0.998018503189, -0.00229964894243, -0.00161778787151, -0.0628590807319
2019-04-02 21:44:54.11,224135310, -0.25, -0.16, 352.78, 591.570007324, -35.3632603, 149.1652289, 0.998014748096, -0.00232305750251, -0.00125354563352, -0.0629251524806
2019-04-02 21:44:54.21,224235270, -0.26, -0.13, 352.77, 591.799987793, -35.3632603, 149.1652289, 0.998010694981, -0.00234080618247, -0.0010132874595, -0.0629932209849
2019-04-02 21:44:54.31,224335230, -0.23, -0.11, 352.76, 592.020019531, -35.3632602, 149.1652288, 0.998006463051, -0.00208827131428, -0.000851203396451, -0.0630719438195
2019-04-02 21:44:54.41,224435190, -0.2, -0.1, 352.75, 592.25, -35.3632602, 149.1652288, 0.998002052307, -0.00180229579564, -0.000820149609353, -0.0631510987878
2019-04-02 21:44:54.51,224535150, -0.14, -0.07, 352.74, 592.469970703, -35.3632601, 149.1652287, 0.997997999191, -0.0013142490061, -0.000578202714678, -0.0632293522358
2019-04-02 21:44:54.61,224635110, -0.08, -0.04, 352.74, 592.700012207, -35.3632601, 149.1652286, 0.997993707657, -0.000734444125555, -0.000342163053574, -0.0633077546954
2019-04-02 21:44:54.71,224735070, -0.04, -0.03, 352.73, 592.929992676, -35.3632601, 149.1652286, 0.997989237309, -0.000371681322576, -0.000264464470092, -0.0633821561933
2019-04-02 21:44:54.81,224835030, -0.03, -0.03, 352.72, 593.159973145, -35.3632599, 149.1652284, 0.997984230518, -0.000333224452334, -0.000243442016654, -0.0634612068534
2019-04-02 21:44:54.91,224934990, -0.02, -0.01, 352.71, 593.380004883, -35.3632599, 149.1652284, 0.997978925705, -0.000197113564354, -0.000139918920468, -0.063545152545
2019-04-02 21:44:55.01,225034950, 0.02, 0.01, 352.7, 593.609985352, -35.3632599, 149.1652284, 0.997973442078, 0.000213573031942, 0.000125459133415, -0.0636313706636
2019-04-02 21:44:55.11,225134910, 0.07, 0.07, 352.69, 593.840026855, -35.3632598, 149.1652283, 0.997967541218, 0.000720740412362, 0.000586936657783, -0.0637179985642
2019-04-02 21:44:55.21,225234870, 0.14, 0.14, 352.68, 594.049987793, -35.3632598, 149.1652283, 0.997960984707, 0.00130896340124, 0.00121214741375, -0.0638023167849
2019-04-02 21:44:55.31,225334830, 0.2, 0.22, 352.67, 594.260009766, -35.3632598, 149.1652282, 0.99795383215, 0.00186893180944, 0.00184462883044, -0.0638847053051
2019-04-02 21:44:55.41,225434790, 0.23, 0.28, 352.66, 594.460021973, -35.3632598, 149.1652282, 0.997947096825, 0.00218887580559, 0.00233339099213, -0.0639643520117
2019-04-02 21:44:55.51,225534750, 0.23, 0.33, 352.65, 594.640014648, -35.3632598, 149.1652282, 0.997940957546, 0.0022108592093, 0.00278589408845, -0.0640406385064
2019-04-02 21:44:55.61,225634710, 0.19, 0.34, 352.64, 594.809997559, -35.3632598, 149.1652282, 0.997936725616, 0.00187787180766, 0.00287021347322, -0.0641140118241
2019-04-02 21:44:55.71,225734670, 0.17, 0.27, 352.63, 594.979980469, -35.3632598, 149.1652281, 0.997933506966, 0.00172344257589, 0.00233123986982, -0.0641899704933
2019-04-02 21:44:55.81,225834630, 0.25, 0.09, 352.63, 595.119995117, -35.3632598, 149.1652281, 0.997929751873, 0.00231491797604, 0.000658893026412, -0.0642683506012
2019-04-02 21:44:55.91,225935423, 0.49, -0.31, 352.62, 595.260009766, -35.3632598, 149.1652281, 0.997914969921, 0.00414568698034, -0.00302947335877, -0.064337991178
2019-04-02 21:44:56.01,226035383, 0.86, -0.95, 352.6, 595.390014648, -35.3632598, 149.1652281, 0.997861504555, 0.00696762092412, -0.00883912481368, -0.0643877312541
2019-04-02 21:44:56.11,226135343, 1.31, -1.76, 352.59, 595.5, -35.3632598, 149.1652282, 0.997739911079, 0.0104238893837, -0.0160868354142, -0.0644026696682
2019-04-02 21:44:56.21,226235303, 1.78, -2.66, 352.57, 595.599975586, -35.3632597, 149.1652282, 0.99753421545, 0.0139992823824, -0.0242410413921, -0.0643571391702
2019-04-02 21:44:56.31,226335263, 2.22, -3.53, 352.56, 595.679992676, -35.3632596, 149.1652283, 0.9972692132, 0.0173439513892, -0.032050833106, -0.0642344281077
2019-04-02 21:44:56.41,226435223, 2.56, -4.24, 352.55, 595.760009766, -35.3632595, 149.1652284, 0.997009038925, 0.0199540313333, -0.0383950583637, -0.0640365183353
2019-04-02 21:44:56.51,226535183, 2.83, -4.78, 352.55, 595.83001709, -35.3632592, 149.1652284, 0.99678581953, 0.0219151657075, -0.0432165674865, -0.0637967363
2019-04-02 21:44:56.61,226635143, 3.01, -5.2, 352.56, 595.880004883, -35.3632591, 149.1652286, 0.996602535248, 0.0232480540872, -0.0469597689807, -0.0635428652167
2019-04-02 21:44:56.71,226735103, 3.15, -5.52, 352.57, 595.929992676, -35.3632586, 149.1652288, 0.996451973915, 0.0243385713547, -0.0498590804636, -0.0632860809565
2019-04-02 21:44:56.81,226835063, 3.3, -5.83, 352.59, 595.979980469, -35.3632584, 149.1652289, 0.996297478676, 0.0254827700555, -0.0526071600616, -0.0630435794592
2019-04-02 21:44:56.91,226935023, 3.48, -6.15, 352.59, 596.010009766, -35.3632579, 149.1652293, 0.996118783951, 0.0267972014844, -0.0555060021579, -0.0628361180425
2019-04-02 21:44:57.01,227034983, 3.64, -6.51, 352.59, 596.049987793, -35.3632574, 149.1652294, 0.995912015438, 0.0280392114073, -0.0586898736656, -0.062678463757
2019-04-02 21:44:57.11,227134943, 3.79, -6.85, 352.58, 596.070007324, -35.3632567, 149.1652298, 0.99570196867, 0.0290986876935, -0.0617845952511, -0.0625587105751
2019-04-02 21:44:57.21,227234903, 3.87, -7.13, 352.57, 596.099975586, -35.3632561, 149.1652301, 0.995535075665, 0.0296614635736, -0.0642373785377, -0.0624796934426
2019-04-02 21:44:57.31,227334863, 3.9, -7.33, 352.57, 596.119995117, -35.3632555, 149.1652303, 0.995418906212, 0.029825842008, -0.0659737884998, -0.0624429173768
2019-04-02 21:44:57.41,227434823, 3.91, -7.48, 352.56, 596.140014648, -35.3632547, 149.1652308, 0.995331048965, 0.0297542791814, -0.0673091858625, -0.0624528005719
2019-04-02 21:44:57.51,227534783, 3.9, -7.6, 352.55, 596.159973145, -35.3632537, 149.1652312, 0.995260357857, 0.0296202395111, -0.0683552324772, -0.0625069066882
2019-04-02 21:44:57.61,227634743, 3.9, -7.71, 352.54, 596.179992676, -35.3632529, 149.1652317, 0.995194375515, 0.0295508857816, -0.0692743062973, -0.0625777393579
2019-04-02 21:44:57.71,227734703, 4.02, -7.82, 352.54, 596.190002441, -35.3632519, 149.1652322, 0.995096445084, 0.0305263437331, -0.070348739624, -0.0624682977796
2019-04-02 21:44:57.81,227834663, 4.42, -7.9, 352.83, 596.210021973, -35.3632507, 149.1652327, 0.995092451572, 0.0341467745602, -0.0711726546288, -0.0596617162228
2019-04-02 21:44:57.92,227935456, 5.04, -8.0, 354.1, 596.219970703, -35.3632497, 149.1652332, 0.995431125164, 0.0402462370694, -0.0719335749745, -0.0481939166784
2019-04-02 21:44:58.01,228035416, 5.47, -8.35, 356.94, 596.229980469, -35.3632485, 149.1652337, 0.995945215225, 0.0456709451973, -0.0739792063832, -0.0231165196747
2019-04-02 21:44:58.11,228135376, 5.4, -8.98, 1.45, 596.239990234, -35.3632473, 149.1652345, 0.995690226555, 0.0480129420757, -0.0776437297463, 0.0163479503244
2019-04-02 21:44:58.21,228235336, 4.52, -9.84, 7.4, 596.25, -35.3632459, 149.1652351, 0.993233263493, 0.0447951517999, -0.0830548852682, 0.06769785285
2019-04-02 21:44:58.31,228335296, 2.6, -10.73, 14.14, 596.260009766, -35.3632446, 149.1652359, 0.987522900105, 0.0339770205319, -0.0899936109781, 0.124680817127
2019-04-02 21:44:58.41,228435256, -0.05, -11.4, 20.77, 596.270019531, -35.3632433, 149.1652366, 0.978743553162, 0.0174679197371, -0.0978517830372, 0.179390743375
2019-04-02 21:44:58.51,228535216, -2.84, -11.79, 26.49, 596.289978027, -35.3632418, 149.1652375, 0.968527674675, -0.000492559862323, -0.105621747673, 0.225384041667
2019-04-02 21:44:58.61,228635176, -5.13, -11.94, 30.7, 596.299987793, -35.3632402, 149.1652384, 0.959339022636, -0.0154507812113, -0.112067222595, 0.2585940063
2019-04-02 21:44:58.71,228735136, -6.53, -12.01, 33.16, 596.309997559, -35.3632385, 149.1652392, 0.953291594982, -0.0244909431785, -0.11634323746, 0.277668058872
2019-04-02 21:44:58.81,228835096, -6.93, -12.14, 33.94, 596.320007324, -35.3632367, 149.1652399, 0.951206862926, -0.0266772955656, -0.118510842323, 0.283635377884
2019-04-02 21:44:58.91,228935056, -6.49, -12.43, 33.32, 596.33001709, -35.3632349, 149.1652408, 0.952605128288, -0.0229182299227, -0.119711585343, 0.278724491596
2019-04-02 21:44:59.01,229035016, -5.44, -12.92, 31.65, 596.349975586, -35.3632329, 149.1652414, 0.956363320351, -0.0147472890094, -0.121005550027, 0.265536099672
2019-04-02 21:44:59.11,229134976, -4.02, -13.56, 29.26, 596.359985352, -35.3632309, 149.1652422, 0.961240589619, -0.00394248496741, -0.123038195074, 0.246703401208
2019-04-02 21:44:59.21,229234936, -2.46, -14.25, 26.5, 596.369995117, -35.3632287, 149.165243, 0.966245114803, 0.00764066679403, -0.125605508685, 0.224800556898
2019-04-02 21:44:59.31,229334896, -0.92, -14.83, 23.68, 596.390014648, -35.3632264, 149.1652437, 0.970698773861, 0.0186379756778, -0.128032833338, 0.202494829893
2019-04-02 21:44:59.41,229434856, 0.41, -15.24, 21.14, 596.400024414, -35.3632242, 149.1652445, 0.974238455296, 0.0278891846538, -0.129767611623, 0.182324156165
2019-04-02 21:44:59.51,229534816, 1.43, -15.45, 19.12, 596.41998291, -35.3632219, 149.1652454, 0.976794719696, 0.0345461927354, -0.130535587668, 0.166250213981
2019-04-02 21:44:59.61,229634776, 2.02, -15.52, 17.77, 596.429992676, -35.3632194, 149.1652463, 0.978422880173, 0.03812212497, -0.130748361349, 0.155371367931
2019-04-02 21:44:59.71,229734736, 2.2, -15.53, 17.11, 596.450012207, -35.3632169, 149.1652474, 0.979221701622, 0.0389551892877, -0.130781844258, 0.15001142025
2019-04-02 21:44:59.81,229834696, 2.03, -15.54, 17.1, 596.460021973, -35.3632143, 149.1652484, 0.97927570343, 0.0375096425414, -0.131128370762, 0.149724930525
2019-04-02 21:44:59.91,229934656, 1.58, -15.59, 17.61, 596.479980469, -35.3632117, 149.1652494, 0.978683650494, 0.0343289300799, -0.131991460919, 0.153551444411
2019-04-02 21:45:00.02,230035449, 0.94, -15.67, 18.49, 596.489990234, -35.3632091, 149.1652507, 0.977575480938, 0.0300053805113, -0.133243471384, 0.160287469625
2019-04-02 21:45:00.11,230135409, 0.25, -15.76, 19.55, 596.510009766, -35.3632063, 149.1652518, 0.976113438606, 0.0254648830742, -0.13478012383, 0.168488666415
2019-04-02 21:45:00.21,230235369, -0.4, -15.87, 20.63, 596.520019531, -35.3632036, 149.1652532, 0.974480867386, 0.021305244416, -0.136498168111, 0.176922261715
2019-04-02 21:45:00.31,230335329, -0.96, -15.99, 21.61, 596.539978027, -35.3632007, 149.1652543, 0.9728962183, 0.0178819242865, -0.138227298856, 0.184516787529
2019-04-02 21:45:00.41,230435289, -1.38, -16.09, 22.38, 596.549987793, -35.3631978, 149.1652557, 0.971578478813, 0.015405902639, -0.139664456248, 0.190504029393
2019-04-02 21:45:00.51,230535249, -1.62, -16.16, 22.88, 596.570007324, -35.3631948, 149.165257, 0.970683991909, 0.0140984933823, -0.140545457602, 0.194475963712
2019-04-02 21:45:00.61,230635209, -1.69, -16.19, 23.11, 596.590026855, -35.3631918, 149.1652583, 0.970266222954, 0.0138760320842, -0.140891060233, 0.196317866445
2019-04-02 21:45:00.71,230735169, -1.6, -16.22, 23.09, 596.599975586, -35.3631889, 149.1652595, 0.970264673233, 0.0146593488753, -0.140998005867, 0.19619166851
2019-04-02 21:45:00.81,230835129, -1.39, -16.25, 22.85, 596.619995117, -35.3631857, 149.1652609, 0.970603883266, 0.016190038994, -0.140911489725, 0.194447696209
2019-04-02 21:45:00.91,230935089, -1.1, -16.29, 22.47, 596.630004883, -35.3631826, 149.1652622, 0.971152603626, 0.0182653348893, -0.14081735909, 0.191571116447
2019-04-02 21:45:01.01,231035049, -0.8, -16.34, 22.01, 596.650024414, -35.3631794, 149.1652636, 0.971793353558, 0.0203196927905, -0.140866920352, 0.188046053052
2019-04-02 21:45:01.11,231135009, -0.52, -16.4, 21.54, 596.66998291, -35.3631762, 149.1652648, 0.972437500954, 0.0222513806075, -0.140952676535, 0.184397727251
2019-04-02 21:45:01.21,231234969, -0.28, -16.46, 21.12, 596.679992676, -35.3631728, 149.1652662, 0.972990036011, 0.0238425228745, -0.141244888306, 0.181030005217
2019-04-02 21:45:01.31,231334929, -0.1, -16.54, 20.77, 596.700012207, -35.3631697, 149.1652676, 0.973408937454, 0.0250808410347, -0.141654580832, 0.1782694906
2019-04-02 21:45:01.41,231434889, 0.02, -16.61, 20.52, 596.710021973, -35.3631662, 149.1652691, 0.973670303822, 0.0259707197547, -0.142153948545, 0.176306426525
2019-04-02 21:45:01.51,231534849, 0.07, -16.66, 20.38, 596.729980469, -35.363163, 149.1652705, 0.973813533783, 0.0262807570398, -0.142487853765, 0.175196439028
2019-04-02 21:45:01.61,231634809, 0.07, -16.68, 20.35, 596.75, -35.3631595, 149.1652719, 0.973837018013, 0.0262473691255, -0.142689332366, 0.174906373024
2019-04-02 21:45:01.71,231734769, 0.02, -16.71, 20.4, 596.760009766, -35.3631562, 149.1652734, 0.97373342514, 0.0259902589023, -0.142976969481, 0.175286278129
2019-04-02 21:45:01.81,231834729, -0.05, -16.74, 20.51, 596.780029297, -35.3631527, 149.1652749, 0.97353386879, 0.0255023185164, -0.143394231796, 0.176123455167
2019-04-02 21:45:01.91,231934689, -0.15, -16.77, 20.66, 596.799987793, -35.3631492, 149.1652765, 0.973298668861, 0.0248310361058, -0.143748655915, 0.177227184176
2019-04-02 21:45:02.01,232034649, -0.27, -16.8, 20.81, 596.809997559, -35.3631458, 149.165278, 0.973048388958, 0.0240775160491, -0.144143179059, 0.178381219506
2019-04-02 21:45:02.12,232135442, -0.38, -16.83, 20.95, 596.83001709, -35.3631423, 149.1652796, 0.972812175751, 0.0233924202621, -0.144558414817, 0.179421782494
2019-04-02 21:45:02.21,232235402, -0.48, -16.87, 21.06, 596.849975586, -35.3631387, 149.165281, 0.972619593143, 0.0227406751364, -0.145006850362, 0.180186152458
2019-04-02 21:45:02.31,232335362, -0.53, -16.9, 21.12, 596.869995117, -35.3631351, 149.1652827, 0.97249019146, 0.0223992522806, -0.145319029689, 0.180675238371
2019-04-02 21:45:02.41,232435322, -0.53, -16.92, 21.15, 596.880004883, -35.3631315, 149.1652842, 0.972432732582, 0.0224792100489, -0.145471811295, 0.180851370096
2019-04-02 21:45:02.51,232535282, -0.49, -16.96, 21.12, 596.900024414, -35.3631279, 149.1652858, 0.972404181957, 0.0228088330477, -0.145800083876, 0.180699408054
2019-04-02 21:45:02.61,232635242, -0.46, -17.02, 21.07, 596.91998291, -35.3631242, 149.1652873, 0.972410857677, 0.0231430511922, -0.146266520023, 0.180243343115
2019-04-02 21:45:02.71,232735202, -0.42, -17.07, 20.98, 596.929992676, -35.3631206, 149.1652889, 0.972477436066, 0.0233881790191, -0.146628066897, 0.179557517171
2019-04-02 21:45:02.81,232835162, -0.39, -17.11, 20.88, 596.950012207, -35.3631169, 149.1652905, 0.97257578373, 0.0235761851072, -0.14695943892, 0.178727403283
2019-04-02 21:45:02.91,232935122, -0.36, -17.12, 20.78, 596.969970703, -35.3631133, 149.165292, 0.972720682621, 0.0237805470824, -0.147001057863, 0.177875339985
2019-04-02 21:45:03.01,233035082, -0.31, -17.12, 20.67, 596.989990234, -35.3631096, 149.1652937, 0.97286003828, 0.0240540020168, -0.146995693445, 0.177079170942
2019-04-02 21:45:03.11,233135042, -0.27, -17.13, 20.59, 597.0, -35.3631059, 149.1652953, 0.972976386547, 0.0243299398571, -0.147019684315, 0.176380828023
2019-04-02 21:45:03.21,233235002, -0.22, -17.15, 20.51, 597.020019531, -35.3631022, 149.1652968, 0.973051726818, 0.0246335435659, -0.147139623761, 0.175822526217
2019-04-02 21:45:03.31,233334962, -0.18, -17.19, 20.46, 597.039978027, -35.3630985, 149.1652986, 0.973077714443, 0.0249489080161, -0.147394284606, 0.175420314074
2019-04-02 21:45:03.41,233434922, -0.16, -17.25, 20.43, 597.059997559, -35.3630947, 149.1653002, 0.973052740097, 0.0252308808267, -0.14784283936, 0.175140932202
2019-04-02 21:45:03.51,233534882, -0.15, -17.3, 20.4, 597.08001709, -35.3630908, 149.1653019, 0.973018109798, 0.0253695566207, -0.148268297315, 0.174953430891
2019-04-02 21:45:03.61,233634842, -0.14, -17.34, 20.39, 597.090026855, -35.3630871, 149.1653035, 0.972983777523, 0.0254442095757, -0.148599371314, 0.174852624536
2019-04-02 21:45:03.71,233734802, -0.15, -17.36, 20.39, 597.109985352, -35.3630833, 149.1653052, 0.972960591316, 0.0254171006382, -0.148807242513, 0.174808785319
2019-04-02 21:45:03.81,233834762, -0.16, -17.39, 20.39, 597.130004883, -35.3630795, 149.1653068, 0.97292548418, 0.0253369063139, -0.149070426822, 0.174791261554
2019-04-02 21:45:03.91,233934722, -0.17, -17.42, 20.39, 597.150024414, -35.3630756, 149.1653084, 0.972888231277, 0.0252897683531, -0.149341717362, 0.174774199724
2019-04-02 21:45:04.01,234034682, -0.19, -17.44, 20.39, 597.159973145, -35.3630718, 149.1653102, 0.972859859467, 0.0252259708941, -0.149584725499, 0.174733638763
2019-04-02 21:45:04.11,234134642, -0.21, -17.45, 20.38, 597.179992676, -35.363068, 149.1653119, 0.972869813442, 0.0250503215939, -0.149661228061, 0.174637690187
2019-04-02 21:45:04.22,234235435, -0.23, -17.44, 20.37, 597.200012207, -35.363064, 149.1653136, 0.972915589809, 0.0247994791716, -0.149595707655, 0.174474537373
2019-04-02 21:45:04.31,234335395, -0.25, -17.41, 20.34, 597.219970703, -35.3630602, 149.1653153, 0.972987115383, 0.0245831310749, -0.149415016174, 0.174261078238
2019-04-02 21:45:04.41,234435355, -0.27, -17.41, 20.31, 597.239990234, -35.3630562, 149.1653169, 0.973043441772, 0.0243653859943, -0.149407446384, 0.173983082175
2019-04-02 21:45:04.51,234535315, -0.27, -17.43, 20.28, 597.25, -35.3630524, 149.1653187, 0.973063647747, 0.0243785772473, -0.149622559547, 0.173683449626
2019-04-02 21:45:04.61,234635275, -0.22, -17.47, 20.24, 597.270019531, -35.3630485, 149.1653203, 0.973066985607, 0.0247647352517, -0.149861305952, 0.173404097557
2019-04-02 21:45:04.71,234735235, -0.17, -17.49, 20.2, 597.289978027, -35.3630445, 149.1653221, 0.97307986021, 0.0251925047487, -0.150025904179, 0.173127621412
2019-04-02 21:45:04.81,234835195, -0.14, -17.53, 20.16, 597.309997559, -35.3630407, 149.1653237, 0.973084032536, 0.0254936274141, -0.150298565626, 0.172823101282
2019-04-02 21:45:04.91,234935155, -0.12, -17.56, 20.12, 597.33001709, -35.3630366, 149.1653255, 0.973101079464, 0.0256453622133, -0.150510415435, 0.172520190477
2019-04-02 21:45:05.01,235035115, -0.13, -17.56, 20.08, 597.340026855, -35.3630328, 149.1653272, 0.97315788269, 0.0254736542702, -0.150555983186, 0.172185257077
2019-04-02 21:45:05.11,235135075, -0.14, -17.54, 20.05, 597.359985352, -35.3630287, 149.1653289, 0.973243176937, 0.0252875909209, -0.150395065546, 0.171870872378
2019-04-02 21:45:05.21,235235035, -0.14, -17.52, 20.01, 597.380004883, -35.3630249, 149.1653307, 0.973311901093, 0.0252409465611, -0.150276213884, 0.171592235565
2019-04-02 21:45:05.31,235334995, -0.12, -17.53, 19.98, 597.400024414, -35.3630208, 149.1653323, 0.973343193531, 0.0253603924066, -0.150328189135, 0.17135155201
2019-04-02 21:45:05.41,235434955, -0.12, -17.57, 19.96, 597.41998291, -35.3630169, 149.1653342, 0.973334491253, 0.0253848116845, -0.150660768151, 0.171105071902
2019-04-02 21:45:05.51,235534915, -0.12, -17.62, 19.93, 597.429992676, -35.3630129, 149.1653359, 0.973301231861, 0.02545722574, -0.151118248701, 0.17087982595
2019-04-02 21:45:05.61,235634875, -0.12, -17.67, 19.91, 597.450012207, -35.363009, 149.1653375, 0.97327631712, 0.0255412664264, -0.151496440172, 0.170674175024
2019-04-02 21:45:05.71,235734835, -0.1, -17.7, 19.88, 597.469970703, -35.363005, 149.1653394, 0.973264396191, 0.0257208533585, -0.151742845774, 0.170496284962
2019-04-02 21:45:05.81,235834795, -0.05, -17.73, 19.86, 597.489990234, -35.363001, 149.1653411, 0.973254323006, 0.0260922741145, -0.151898756623, 0.170358344913
2019-04-02 21:45:05.91,235934755, -0.03, -17.76, 19.84, 597.510009766, -35.362997, 149.1653428, 0.973239719868, 0.0263300985098, -0.152130737901, 0.170198395848
2019-04-02 21:45:06.01,236034715, -0.02, -17.79, 19.82, 597.520019531, -35.3629929, 149.1653446, 0.973233222961, 0.0263844802976, -0.152373865247, 0.170009344816
2019-04-02 21:45:06.11,236134675, -0.04, -17.79, 19.79, 597.539978027, -35.3629889, 149.1653464, 0.973260521889, 0.0261901766062, -0.152474164963, 0.169792979956
2019-04-02 21:45:06.21,236234635, -0.05, -17.78, 19.77, 597.559997559, -35.3629849, 149.1653481, 0.973310291767, 0.026066923514, -0.152410373092, 0.169583857059
2019-04-02 21:45:06.32,236335428, -0.04, -17.77, 19.75, 597.58001709, -35.3629808, 149.1653499, 0.973360240459, 0.0261437892914, -0.152283385396, 0.169399440289
2019-04-02 21:45:06.41,236435388, -0.02, -17.77, 19.72, 597.599975586, -35.3629768, 149.1653517, 0.973400056362, 0.026240516454, -0.152213916183, 0.169218242168
2019-04-02 21:45:06.51,236535348, -0.02, -17.76, 19.7, 597.609985352, -35.3629728, 149.1653533, 0.973447144032, 0.0262412112206, -0.152130514383, 0.16902205348
2019-04-02 21:45:06.61,236635308, -0.01, -17.75, 19.67, 597.630004883, -35.3629686, 149.1653552, 0.973490178585, 0.0262071639299, -0.152083232999, 0.168821647763
2019-04-02 21:45:06.71,236735268, -0.02, -17.77, 19.65, 597.650024414, -35.3629647, 149.165357, 0.973496079445, 0.0261758416891, -0.152283594012, 0.168611824512
2019-04-02 21:45:06.81,236835228, -0.01, -17.81, 19.63, 597.66998291, -35.3629606, 149.1653586, 0.973474979401, 0.0263018608093, -0.152603387833, 0.168424531817
2019-04-02 21:45:06.91,236935188, 0.01, -17.85, 19.61, 597.690002441, -35.3629565, 149.1653605, 0.973446249962, 0.0265329796821, -0.152937144041, 0.168251901865
2019-04-02 21:45:07.01,237035148, 0.03, -17.88, 19.58, 597.700012207, -35.3629525, 149.1653623, 0.97344827652, 0.026697255671, -0.153092637658, 0.168072581291
2019-04-02 21:45:07.11,237135108, 0.03, -17.86, 19.56, 597.719970703, -35.3629484, 149.1653641, 0.973497927189, 0.0267204344273, -0.152979299426, 0.167884364724
2019-04-02 21:45:07.21,237235068, 0.03, -17.85, 19.54, 597.739990234, -35.3629443, 149.1653658, 0.973544001579, 0.026597654447, -0.152931541204, 0.167680338025
2019-04-02 21:45:07.31,237335028, 0.01, -17.85, 19.51, 597.760009766, -35.3629403, 149.1653676, 0.97358751297, 0.0264465529472, -0.15289901197, 0.167480647564
2019-04-02 21:45:07.41,237434988, 0.0, -17.87, 19.49, 597.770019531, -35.3629362, 149.1653694, 0.973599851131, 0.026348920539, -0.153062686324, 0.167274713516
2019-04-02 21:45:07.51,237534948, 0.01, -17.89, 19.47, 597.789978027, -35.3629321, 149.1653711, 0.973591983318, 0.0264203269035, -0.153311192989, 0.167081594467
2019-04-02 21:45:07.61,237634908, 0.01, -17.91, 19.44, 597.809997559, -35.3629279, 149.165373, 0.973607122898, 0.0264079496264, -0.153451636434, 0.166866660118
2019-04-02 21:45:07.71,237734868, 0.02, -17.93, 19.42, 597.83001709, -35.3629239, 149.1653748, 0.973618090153, 0.026470657438, -0.153599336743, 0.166656285524
2019-04-02 21:45:07.81,237834828, 0.03, -17.95, 19.39, 597.840026855, -35.3629198, 149.1653766, 0.973623156548, 0.0265990439802, -0.153763577342, 0.16645501554
2019-04-02 21:45:07.91,237934788, 0.04, -17.95, 19.37, 597.859985352, -35.3629156, 149.1653783, 0.973652720451, 0.0266321655363, -0.153788089752, 0.166253805161
2019-04-02 21:45:08.01,238034748, 0.04, -17.95, 19.34, 597.880004883, -35.3629115, 149.1653801, 0.973690807819, 0.0266234055161, -0.153762772679, 0.166055470705
2019-04-02 21:45:08.11,238134708, 0.05, -17.94, 19.32, 597.890014648, -35.3629075, 149.1653819, 0.973737001419, 0.0266039185226, -0.15367731452, 0.165866866708
2019-04-02 21:45:08.21,238234668, 0.04, -17.93, 19.3, 597.909973145, -35.3629034, 149.1653837, 0.973778009415, 0.0265615768731, -0.153628155589, 0.165678367019
2019-04-02 21:45:08.31,238334628, 0.04, -17.94, 19.28, 597.929992676, -35.3628992, 149.1653854, 0.973802030087, 0.0265106018633, -0.153684720397, 0.165492638946
2019-04-02 21:45:08.41,238435421, 0.03, -17.95, 19.26, 597.950012207, -35.3628951, 149.1653873, 0.973827183247, 0.026357581839, -0.153768792748, 0.165290892124
2019-04-02 21:45:08.51,238535381, 0.0, -17.94, 19.24, 597.960021973, -35.362891, 149.1653892, 0.973870992661, 0.0261247642338, -0.15375483036, 0.165082544088
2019-04-02 21:45:08.61,238635341, 0.0, -17.93, 19.22, 597.979980469, -35.3628869, 149.165391, 0.973916351795, 0.0260320417583, -0.153673127294, 0.164905637503
2019-04-02 21:45:08.71,238735301, 0.02, -17.93, 19.2, 598.0, -35.3628828, 149.1653928, 0.973931193352, 0.0262503810227, -0.153675019741, 0.164781391621
2019-04-02 21:45:08.81,238835261, 0.05, -17.95, 19.18, 598.020019531, -35.3628786, 149.1653945, 0.97392386198, 0.0264999568462, -0.153812199831, 0.164657071233
2019-04-02 21:45:08.91,238935221, 0.07, -17.98, 19.16, 598.030029297, -35.3628744, 149.1653963, 0.973917424679, 0.0266633499414, -0.153975993395, 0.164515271783
2019-04-02 21:45:09.01,239035181, 0.09, -18.0, 19.14, 598.049987793, -35.3628704, 149.1653981, 0.973908007145, 0.0267940182239, -0.154188245535, 0.164351090789
2019-04-02 21:45:09.11,239135141, 0.11, -18.03, 19.12, 598.070007324, -35.3628663, 149.1653998, 0.97389370203, 0.0269897170365, -0.154407575727, 0.164198055863
2019-04-02 21:45:09.21,239235101, 0.11, -18.05, 19.1, 598.08001709, -35.3628621, 149.1654017, 0.973891198635, 0.0270429514349, -0.154592141509, 0.164030537009
2019-04-02 21:45:09.31,239335061, 0.12, -18.05, 19.08, 598.099975586, -35.3628579, 149.1654035, 0.973928630352, 0.027032436803, -0.154528722167, 0.163869187236
2019-04-02 21:45:09.41,239435021, 0.12, -18.05, 19.06, 598.119995117, -35.3628537, 149.1654053, 0.973945856094, 0.0270178318024, -0.154602631927, 0.163699492812
2019-04-02 21:45:09.51,239534981, 0.12, -18.07, 19.04, 598.140014648, -35.3628497, 149.165407, 0.973952889442, 0.0270166173577, -0.154734134674, 0.163533687592
2019-04-02 21:45:09.61,239634941, 0.13, -18.09, 19.02, 598.150024414, -35.3628455, 149.1654089, 0.973952233791, 0.0270902421325, -0.154884293675, 0.163383111358
2019-04-02 21:45:09.71,239734901, 0.15, -18.08, 19.0, 598.16998291, -35.3628414, 149.1654107, 0.9739844203, 0.0272373948246, -0.154783368111, 0.163262352347
2019-04-02 21:45:09.81,239834861, 0.17, -18.07, 18.98, 598.190002441, -35.3628372, 149.1654125, 0.974013864994, 0.027428008616, -0.154680237174, 0.163152426481
2019-04-02 21:45:09.91,239934821, 0.19, -18.09, 18.97, 598.210021973, -35.362833, 149.1654142, 0.974011063576, 0.0276015307754, -0.154787227511, 0.163038387895
2019-04-02 21:45:10.01,240034781, 0.18, -18.11, 18.95, 598.219970703, -35.3628288, 149.165416, 0.974005758762, 0.0275374371558, -0.154995426536, 0.16288292408
2019-04-02 21:45:10.11,240134741, 0.17, -18.12, 18.94, 598.239990234, -35.3628248, 149.165418, 0.974013328552, 0.027379270643, -0.15514241159, 0.162724539638
2019-04-02 21:45:10.21,240234701, 0.15, -18.12, 18.92, 598.260009766, -35.3628206, 149.1654198, 0.974039852619, 0.0272419434041, -0.155145227909, 0.162586152554
2019-04-02 21:45:10.31,240334661, 0.16, -18.1, 18.91, 598.270019531, -35.3628164, 149.1654216, 0.974088788033, 0.0272653270513, -0.154946878552, 0.162477999926
2019-04-02 21:45:10.42,240435454, 0.17, -18.07, 18.89, 598.289978027, -35.3628122, 149.1654233, 0.974152505398, 0.027259580791, -0.154666662216, 0.162363827229
2019-04-02 21:45:10.51,240535414, 0.18, -18.06, 18.88, 598.309997559, -35.362808, 149.1654251, 0.974183320999, 0.027341928333, -0.154578998685, 0.162248805165
2019-04-02 21:45:10.61,240635374, 0.21, -18.08, 18.86, 598.33001709, -35.3628038, 149.165427, 0.97417485714, 0.0275555010885, -0.154707849026, 0.162140473723
2019-04-02 21:45:10.71,240735334, 0.22, -18.11, 18.84, 598.340026855, -35.3627996, 149.1654288, 0.974152445793, 0.0276594683528, -0.154970705509, 0.162006467581
2019-04-02 21:45:10.81,240835294, 0.22, -18.15, 18.83, 598.359985352, -35.3627956, 149.1654305, 0.974118590355, 0.0277341045439, -0.155317738652, 0.16186478734
2019-04-02 21:45:10.91,240935254, 0.23, -18.16, 18.81, 598.380004883, -35.3627914, 149.1654323, 0.974120616913, 0.027791025117, -0.155429169536, 0.161735743284
2019-04-02 21:45:11.01,241035214, 0.24, -18.14, 18.8, 598.400024414, -35.3627872, 149.1654342, 0.974168002605, 0.0278042815626, -0.155258387327, 0.161612272263
2019-04-02 21:45:11.11,241135174, 0.25, -18.12, 18.78, 598.409973145, -35.362783, 149.1654361, 0.974213957787, 0.0278785508126, -0.155069485307, 0.161503434181
2019-04-02 21:45:11.21,241235134, 0.26, -18.12, 18.77, 598.429992676, -35.3627788, 149.1654379, 0.974229156971, 0.0279871299863, -0.155054837465, 0.161407142878
2019-04-02 21:45:11.31,241335094, 0.28, -18.13, 18.75, 598.450012207, -35.3627746, 149.1654397, 0.97424197197, 0.0280633214861, -0.155055001378, 0.161316469312
2019-04-02 21:45:11.41,241435054, 0.27, -18.12, 18.74, 598.469970703, -35.3627704, 149.1654414, 0.97426700592, 0.0280047822744, -0.155016094446, 0.161212608218
2019-04-02 21:45:11.51,241535014, 0.26, -18.11, 18.73, 598.479980469, -35.3627662, 149.1654433, 0.974295854568, 0.0279087703675, -0.154963448644, 0.16110560298
2019-04-02 21:45:11.61,241634974, 0.27, -18.12, 18.72, 598.5, -35.3627621, 149.1654451, 0.974297046661, 0.0279475133866, -0.155057832599, 0.161000907421
2019-04-02 21:45:11.71,241734934, 0.27, -18.14, 18.7, 598.520019531, -35.3627579, 149.1654469, 0.974284946918, 0.0280098095536, -0.155236318707, 0.160891130567
2019-04-02 21:45:11.81,241834894, 0.27, -18.16, 18.69, 598.539978027, -35.3627537, 149.1654488, 0.974285721779, 0.0279928967357, -0.155359342694, 0.160770639777
2019-04-02 21:45:11.91,241934854, 0.25, -18.16, 18.68, 598.549987793, -35.3627496, 149.1654505, 0.974316120148, 0.0277886334807, -0.155363172293, 0.160618245602
2019-04-02 21:45:12.01,242034814, 0.22, -18.13, 18.66, 598.570007324, -35.3627454, 149.1654524, 0.974378585815, 0.0274548288435, -0.155205577612, 0.160449057817
2019-04-02 21:45:12.11,242134774, 0.19, -18.08, 18.65, 598.590026855, -35.3627411, 149.1654542, 0.974470555782, 0.0271157287061, -0.154859349132, 0.160282582045
2019-04-02 21:45:12.21,242234734, 0.19, -18.05, 18.63, 598.609985352, -35.3627369, 149.1654561, 0.974538683891, 0.0270883906633, -0.154576420784, 0.160145998001
2019-04-02 21:45:12.31,242334694, 0.21, -18.05, 18.61, 598.619995117, -35.3627327, 149.1654579, 0.974559545517, 0.0272479560226, -0.154553547502, 0.160014107823
2019-04-02 21:45:12.41,242434654, 0.24, -18.07, 18.59, 598.640014648, -35.3627285, 149.1654596, 0.974556386471, 0.0274477954954, -0.154682725668, 0.159874111414
2019-04-02 21:45:12.52,242535447, 0.27, -18.09, 18.57, 598.659973145, -35.3627244, 149.1654615, 0.974543690681, 0.0276819784194, -0.154851675034, 0.159747257829
2019-04-02 21:45:12.61,242635407, 0.29, -18.11, 18.55, 598.679992676, -35.3627202, 149.1654634, 0.974540531635, 0.0278890226036, -0.154953986406, 0.159631624818
2019-04-02 21:45:12.71,242735367, 0.31, -18.11, 18.54, 598.700012207, -35.362716, 149.1654652, 0.974559664726, 0.0280489530414, -0.15490424633, 0.159534990788
2019-04-02 21:45:12.81,242835327, 0.32, -18.1, 18.53, 598.710021973, -35.3627118, 149.165467, 0.974592268467, 0.0280883014202, -0.154793471098, 0.159436449409
2019-04-02 21:45:12.91,242935287, 0.33, -18.07, 18.51, 598.729980469, -35.3627076, 149.1654687, 0.974637508392, 0.028090428561, -0.154607862234, 0.159339383245
2019-04-02 21:45:13.01,243035247, 0.32, -18.07, 18.5, 598.75, -35.3627034, 149.1654706, 0.974661886692, 0.0280596893281, -0.154571428895, 0.159231245518
2019-04-02 21:45:13.11,243135207, 0.31, -18.07, 18.49, 598.770019531, -35.3626992, 149.1654725, 0.97467559576, 0.027903277427, -0.154641851783, 0.159106224775
2019-04-02 21:45:13.21,243235167, 0.29, -18.08, 18.48, 598.780029297, -35.3626949, 149.1654743, 0.974694669247, 0.027712052688, -0.154691323638, 0.158974573016
2019-04-02 21:45:13.31,243335127, 0.28, -18.09, 18.46, 598.799987793, -35.3626907, 149.1654761, 0.974697709084, 0.0276434738189, -0.154813960195, 0.158848896623
2019-04-02 21:45:13.41,243435087, 0.29, -18.1, 18.45, 598.820007324, -35.3626865, 149.1654778, 0.974696815014, 0.0277250539511, -0.15492156148, 0.158735081553
2019-04-02 21:45:13.51,243535047, 0.29, -18.12, 18.43, 598.840026855, -35.3626824, 149.1654797, 0.974689781666, 0.0277225784957, -0.155099451542, 0.158604815602
2019-04-02 21:45:13.61,243635007, 0.26, -18.14, 18.42, 598.849975586, -35.3626782, 149.1654816, 0.974692344666, 0.0275183916092, -0.155286505818, 0.158441454172
2019-04-02 21:45:13.71,243734967, 0.24, -18.16, 18.4, 598.869995117, -35.362674, 149.1654834, 0.974693357944, 0.0273140463978, -0.155480012298, 0.158280730247
2019-04-02 21:45:13.81,243834927, 0.24, -18.18, 18.39, 598.890014648, -35.3626698, 149.1654852, 0.974680006504, 0.0273649673909, -0.155675396323, 0.15816193819
2019-04-02 21:45:13.91,243934887, 0.27, -18.21, 18.38, 598.900024414, -35.3626656, 149.1654869, 0.97464877367, 0.0276238638908, -0.155910566449, 0.158077761531
2019-04-02 21:45:14.01,244034847, 0.31, -18.25, 18.36, 598.91998291, -35.3626614, 149.1654888, 0.974613428116, 0.0279940534383, -0.156140059233, 0.158004358411
2019-04-02 21:45:14.11,244134807, 0.35, -18.27, 18.35, 598.940002441, -35.3626572, 149.1654907, 0.974585950375, 0.0283487215638, -0.156320407987, 0.157932072878
2019-04-02 21:45:14.21,244234767, 0.38, -18.28, 18.33, 598.950012207, -35.362653, 149.1654925, 0.974592924118, 0.0286075361073, -0.156308233738, 0.157854378223
2019-04-02 21:45:14.31,244334727, 0.41, -18.27, 18.32, 598.969970703, -35.3626487, 149.1654943, 0.97461694479, 0.0287886615843, -0.156206160784, 0.15777413547
2019-04-02 21:45:14.41,244434687, 0.43, -18.24, 18.31, 598.989990234, -35.3626445, 149.165496, 0.97466391325, 0.0289023630321, -0.155960336328, 0.157706409693
2019-04-02 21:45:14.51,244534647, 0.43, -18.19, 18.3, 599.010009766, -35.3626403, 149.1654979, 0.974747598171, 0.0288642924279, -0.155512556434, 0.157638370991
2019-04-02 21:45:14.62,244635440, 0.41, -18.13, 18.29, 599.020019531, -35.3626362, 149.1654998, 0.974846363068, 0.0286170318723, -0.155027016997, 0.157550677657
2019-04-02 21:45:14.71,244735400, 0.39, -18.08, 18.28, 599.039978027, -35.362632, 149.1655016, 0.974932610989, 0.0282960403711, -0.154649063945, 0.157446727157
