Start,TimeUS,Roll,Pitch,Yaw,Alt,Lat,Lng,Q1,Q2,Q3,Q4
2019-04-03 23:42:03.40,70815829, 0.0, 0.0, 353.0, 584.090026855, -35.363261, 149.1652299, 0.998134791851, 0.0, 0.0, -0.0610485821962
2019-04-03 23:42:03.51,70934948, 0.0, 0.0, 353.0, 584.090026855, -35.363261, 149.1652299, 0.998134791851, 0.0, 0.0, -0.0610485821962
2019-04-03 23:42:03.61,71034908, 0.0, 0.0, 353.0, 584.090026855, -35.363261, 149.1652299, 0.998134791851, 0.0, 0.0, -0.0610485821962
2019-04-03 23:42:03.71,71134868, 0.0, 0.0, 353.0, 584.090026855, -35.363261, 149.1652299, 0.998134791851, 0.0, 0.0, -0.0610485821962
2019-04-03 23:42:03.81,71234828, 0.0, 0.0, 353.0, 584.090026855, -35.363261, 149.1652299, 0.998134791851, 0.0, 0.0, -0.0610485821962
2019-04-03 23:42:03.91,71334788, 0.0, 0.0, 353.0, 584.090026855, -35.363261, 149.1652299, 0.998134791851, 0.0, 0.0, -0.0610485821962
2019-04-03 23:42:04.01,71434748, 0.0, 0.0, 353.0, 584.090026855, -35.363261, 149.1652299, 0.998134791851, 0.0, 0.0, -0.0610485821962
2019-04-03 23:42:04.11,71534708, 0.0, 0.0, 353.0, 584.090026855, -35.363261, 149.1652299, 0.998134791851, 0.0, 0.0, -0.0610485821962
2019-04-03 23:42:04.21,71634668, 0.0, 0.0, 353.0, 584.090026855, -35.363261, 149.1652299, 0.998134791851, 0.0, 0.0, -0.0610485821962
2019-04-03 23:42:04.31,71734628, 0.0, 0.0, 353.0, 584.090026855, -35.363261, 149.1652299, 0.998134791851, 0.0, 0.0, -0.0610485821962
2019-04-03 23:42:04.41,71834588, 0.0, 0.0, 353.0, 584.090026855, -35.363261, 149.1652299, 0.998134791851, 0.0, 0.0, -0.0610485821962
2019-04-03 23:42:04.51,71934548, 0.0, 0.0, 353.0, 584.090026855, -35.363261, 149.1652299, 0.998134791851, 0.0, 0.0, -0.0610485821962
2019-04-03 23:42:04.61,72034508, 0.0, 0.0, 353.0, 584.090026855, -35.363261, 149.1652299, 0.998134791851, 0.0, 0.0, -0.0610485821962
2019-04-03 23:42:04.71,72134468, 0.0, 0.0, 353.0, 584.090026855, -35.363261, 149.1652299, 0.998134791851, 0.0, 0.0, -0.0610485821962
2019-04-03 23:42:04.81,72234428, 0.0, 0.0, 353.0, 584.090026855, -35.363261, 149.1652299, 0.998134791851, 0.0, 0.0, -0.0610485821962
2019-04-03 23:42:04.91,72334388, 0.0, 0.0, 353.0, 584.090026855, -35.363261, 149.1652299, 0.998134791851, 0.0, 0.0, -0.0610485821962
2019-04-03 23:42:05.01,72434348, 0.0, 0.0, 353.0, 584.090026855, -35.363261, 149.1652299, 0.998134791851, 0.0, 0.0, -0.0610485821962
2019-04-03 23:42:05.11,72534308, 0.0, 0.0, 353.0, 584.090026855, -35.363261, 149.1652299, 0.998134791851, 0.0, 0.0, -0.0610485821962
2019-04-03 23:42:05.21,72634268, 0.0, 0.0, 353.0, 584.090026855, -35.363261, 149.1652299, 0.998134791851, 0.0, 0.0, -0.0610485821962
2019-04-03 23:42:05.31,72734228, 0.0, 0.0, 353.0, 584.090026855, -35.363261, 149.1652299, 0.998134791851, 0.0, 0.0, -0.0610485821962
2019-04-03 23:42:05.41,72834188, 0.0, 0.0, 353.0, 584.090026855, -35.363261, 149.1652299, 0.998134791851, 0.0, 0.0, -0.0610485821962
2019-04-03 23:42:05.51,72934981, 0.0, 0.0, 353.0, 584.090026855, -35.363261, 149.1652299, 0.998134791851, 0.0, 0.0, -0.0610485821962
2019-04-03 23:42:05.61,73034941, 0.0, 0.0, 353.0, 584.090026855, -35.363261, 149.1652299, 0.998134791851, 0.0, 0.0, -0.0610485821962
2019-04-03 23:42:05.71,73134901, 0.0, 0.0, 353.0, 584.090026855, -35.363261, 149.1652299, 0.998134791851, 0.0, 0.0, -0.0610485821962
2019-04-03 23:42:05.81,73234861, 0.0, 0.0, 353.0, 584.090026855, -35.363261, 149.1652299, 0.998134791851, 0.0, 0.0, -0.0610485821962
2019-04-03 23:42:05.91,73334821, 0.0, 0.0, 353.0, 584.090026855, -35.363261, 149.1652299, 0.998134791851, 0.0, 0.0, -0.0610485821962
2019-04-03 23:42:06.01,73434781, 0.0, 0.0, 353.0, 584.090026855, -35.363261, 149.1652299, 0.998134791851, 0.0, 0.0, -0.0610485821962
2019-04-03 23:42:06.11,73534741, 0.0, 0.0, 353.0, 584.090026855, -35.363261, 149.1652299, 0.998134791851, 0.0, 0.0, -0.0610485821962
2019-04-03 23:42:06.21,73634701, 0.0, 0.0, 353.0, 584.090026855, -35.363261, 149.1652299, 0.998134791851, 0.0, 0.0, -0.0610485821962
2019-04-03 23:42:06.31,73734661, 0.0, 0.0, 353.0, 584.090026855, -35.363261, 149.1652299, 0.998134791851, 0.0, 0.0, -0.0610485821962
2019-04-03 23:42:06.41,73834621, 0.0, 0.0, 353.0, 584.090026855, -35.363261, 149.1652299, 0.998134791851, 0.0, 0.0, -0.0610485821962
2019-04-03 23:42:06.51,73934581, 0.0, 0.0, 353.0, 584.090026855, -35.363261, 149.1652299, 0.998134791851, 0.0, 0.0, -0.0610485821962
2019-04-03 23:42:06.61,74034541, 0.0, 0.0, 353.0, 584.090026855, -35.363261, 149.1652299, 0.998134791851, 0.0, 0.0, -0.0610485821962
2019-04-03 23:42:06.71,74134501, 0.0, 0.0, 353.0, 584.090026855, -35.363261, 149.1652299, 0.998134791851, 0.0, 0.0, -0.0610485821962
2019-04-03 23:42:06.81,74234461, 0.0, 0.0, 353.0, 584.090026855, -35.363261, 149.1652299, 0.998134791851, 0.0, 0.0, -0.0610485821962
2019-04-03 23:42:06.91,74334421, 0.0, 0.0, 353.0, 584.090026855, -35.363261, 149.1652299, 0.998134791851, 0.0, 0.0, -0.0610485821962
2019-04-03 23:42:07.01,74434381, 0.0, 0.0, 353.0, 584.090026855, -35.363261, 149.1652299, 0.998134791851, 0.0, 0.0, -0.0610485821962
2019-04-03 23:42:07.11,74534341, 0.0, 0.0, 353.0, 584.090026855, -35.363261, 149.1652299, 0.998134791851, 0.0, 0.0, -0.0610485821962
2019-04-03 23:42:07.21,74634301, 0.0, 0.0, 353.0, 584.090026855, -35.363261, 149.1652299, 0.998134791851, 0.0, 0.0, -0.0610485821962
2019-04-03 23:42:07.31,74734261, 0.0, 0.0, 353.0, 584.090026855, -35.363261, 149.1652299, 0.998134791851, 0.0, 0.0, -0.0610485821962
2019-04-03 23:42:07.41,74834221, 0.0, 0.0, 353.0, 584.090026855, -35.363261, 149.1652299, 0.998134791851, 0.0, 0.0, -0.0610485821962
2019-04-03 23:42:07.51,74934181, 0.0, 0.0, 353.0, 584.090026855, -35.363261, 149.1652299, 0.998134791851, 0.0, 0.0, -0.0610485821962
2019-04-03 23:42:07.61,75034974, 0.0, 0.0, 353.0, 584.090026855, -35.363261, 149.1652299, 0.998134791851, 0.0, 0.0, -0.0610485821962
2019-04-03 23:42:07.71,75134934, 0.0, 0.0, 353.0, 584.090026855, -35.363261, 149.1652299, 0.998134791851, 0.0, 0.0, -0.0610485821962
2019-04-03 23:42:07.81,75234894, 0.0, 0.0, 353.0, 584.090026855, -35.363261, 149.1652299, 0.998134791851, 0.0, 0.0, -0.0610485821962
2019-04-03 23:42:07.91,75334854, 0.0, 0.0, 353.0, 584.090026855, -35.363261, 149.1652299, 0.998134791851, 0.0, 0.0, -0.0610485821962
2019-04-03 23:42:08.01,75434814, 0.0, 0.0, 353.0, 584.090026855, -35.363261, 149.1652299, 0.998134791851, 0.0, 0.0, -0.0610485821962
2019-04-03 23:42:08.11,75534774, 0.0, 0.0, 353.0, 584.090026855, -35.363261, 149.1652299, 0.998134791851, 0.0, 0.0, -0.0610485821962
2019-04-03 23:42:08.21,75634734, 0.0, 0.0, 353.0, 584.090026855, -35.363261, 149.1652299, 0.998134791851, 0.0, 0.0, -0.0610485821962
2019-04-03 23:42:08.31,75734694, 0.0, 0.0, 353.0, 584.090026855, -35.363261, 149.1652299, 0.998134791851, 0.0, 0.0, -0.0610485821962
2019-04-03 23:42:08.41,75834654, 0.0, 0.0, 353.0, 584.090026855, -35.363261, 149.1652299, 0.998134791851, 0.0, 0.0, -0.0610485821962
2019-04-03 23:42:08.51,75934614, 0.0, 0.0, 353.0, 584.090026855, -35.363261, 149.1652299, 0.998134791851, 0.0, 0.0, -0.0610485821962
2019-04-03 23:42:08.61,76034574, 0.0, 0.0, 353.0, 584.090026855, -35.363261, 149.1652299, 0.998134791851, 0.0, 0.0, -0.0610485821962
2019-04-03 23:42:08.71,76134534, 0.0, 0.0, 353.0, 584.090026855, -35.363261, 149.1652299, 0.998134791851, 0.0, 0.0, -0.0610485821962
2019-04-03 23:42:08.81,76234494, 0.0, 0.0, 353.0, 584.090026855, -35.363261, 149.1652299, 0.998134791851, 0.0, 0.0, -0.0610485821962
2019-04-03 23:42:08.91,76334454, 0.0, 0.0, 353.0, 584.090026855, -35.363261, 149.1652299, 0.998134791851, 0.0, 0.0, -0.0610485821962
2019-04-03 23:42:09.01,76434414, 0.0, 0.0, 353.0, 584.090026855, -35.363261, 149.1652299, 0.998134791851, 0.0, 0.0, -0.0610485821962
2019-04-03 23:42:09.11,76534374, 0.0, 0.0, 353.0, 584.090026855, -35.363261, 149.1652299, 0.998134791851, 0.0, 0.0, -0.0610485821962
2019-04-03 23:42:09.21,76634334, 0.0, 0.0, 353.0, 584.090026855, -35.363261, 149.1652299, 0.998134791851, 0.0, 0.0, -0.0610485821962
2019-04-03 23:42:09.31,76734294, 0.0, 0.0, 353.0, 584.090026855, -35.363261, 149.1652299, 0.998134791851, 0.0, 0.0, -0.0610485821962
2019-04-03 23:42:09.41,76834254, 0.0, 0.0, 353.0, 584.090026855, -35.363261, 149.1652299, 0.998134791851, 0.0, 0.0, -0.0610485821962
2019-04-03 23:42:09.51,76934214, 0.0, 0.0, 353.0, 584.090026855, -35.363261, 149.1652299, 0.998134791851, 0.0, 0.0, -0.0610485821962
2019-04-03 23:42:09.61,77034174, 0.0, 0.0, 353.0, 584.090026855, -35.363261, 149.1652299, 0.998134791851, 0.0, 0.0, -0.0610485821962
2019-04-03 23:42:09.71,77134967, 0.0, 0.0, 353.0, 584.090026855, -35.363261, 149.1652299, 0.998134791851, 0.0, 0.0, -0.0610485821962
2019-04-03 23:42:09.81,77234927, 0.0, 0.0, 353.0, 584.090026855, -35.363261, 149.1652299, 0.998134791851, 0.0, 0.0, -0.0610485821962
2019-04-03 23:42:09.91,77334887, 0.0, 0.0, 353.0, 584.090026855, -35.363261, 149.1652299, 0.998134791851, 0.0, 0.0, -0.0610485821962
2019-04-03 23:42:10.01,77434847, 0.0, 0.0, 353.0, 584.090026855, -35.363261, 149.1652299, 0.998134791851, 0.0, 0.0, -0.0610485821962
2019-04-03 23:42:10.11,77534807, 0.0, 0.0, 353.0, 584.090026855, -35.363261, 149.1652299, 0.998134791851, 0.0, 0.0, -0.0610485821962
2019-04-03 23:42:10.21,77634767, 0.0, 0.0, 353.0, 584.090026855, -35.363261, 149.1652299, 0.998134791851, 0.0, 0.0, -0.0610485821962
2019-04-03 23:42:10.31,77734727, 0.0, 0.0, 353.0, 584.090026855, -35.363261, 149.1652299, 0.998134791851, 0.0, 0.0, -0.0610485821962
2019-04-03 23:42:10.41,77834687, 0.0, 0.0, 353.0, 584.090026855, -35.363261, 149.1652299, 0.998134791851, 0.0, 0.0, -0.0610485821962
2019-04-03 23:42:10.51,77934647, 0.0, 0.0, 353.0, 584.090026855, -35.363261, 149.1652299, 0.998134791851, 0.0, 0.0, -0.0610485821962
2019-04-03 23:42:10.61,78034607, 0.0, 0.0, 353.0, 584.090026855, -35.363261, 149.1652299, 0.998134791851, 0.0, 0.0, -0.0610485821962
2019-04-03 23:42:10.71,78134567, 0.0, 0.0, 353.0, 584.090026855, -35.363261, 149.1652299, 0.998134791851, 0.0, 0.0, -0.0610485821962
2019-04-03 23:42:10.81,78234527, 0.0, 0.0, 353.0, 584.090026855, -35.363261, 149.1652299, 0.998134791851, 0.0, 0.0, -0.0610485821962
2019-04-03 23:42:10.91,78334487, 0.0, 0.0, 353.0, 584.090026855, -35.363261, 149.1652299, 0.998134791851, 0.0, 0.0, -0.0610485821962
2019-04-03 23:42:11.01,78434447, 0.0, 0.0, 353.0, 584.090026855, -35.363261, 149.1652299, 0.998134791851, 0.0, 0.0, -0.0610485821962
2019-04-03 23:42:11.11,78534407, 0.0, 0.0, 353.0, 584.090026855, -35.363261, 149.1652299, 0.998134791851, 0.0, 0.0, -0.0610485821962
2019-04-03 23:42:11.21,78634367, 0.0, 0.0, 353.0, 584.090026855, -35.363261, 149.1652299, 0.998134791851, 0.0, 0.0, -0.0610485821962
2019-04-03 23:42:11.31,78734327, 0.0, 0.0, 353.0, 584.090026855, -35.363261, 149.1652299, 0.998134791851, 0.0, 0.0, -0.0610485821962
2019-04-03 23:42:11.41,78834287, 0.0, 0.0, 353.0, 584.090026855, -35.363261, 149.1652299, 0.998134791851, 0.0, 0.0, -0.0610485821962
2019-04-03 23:42:11.51,78934247, 0.0, 0.0, 353.0, 584.090026855, -35.363261, 149.1652299, 0.998134791851, 0.0, 0.0, -0.0610485821962
2019-04-03 23:42:11.61,79034207, 0.0, 0.0, 353.0, 584.090026855, -35.363261, 149.1652299, 0.998134791851, 0.0, 0.0, -0.0610485821962
2019-04-03 23:42:11.71,79134167, 0.0, 0.0, 353.0, 584.090026855, -35.363261, 149.1652299, 0.998134791851, 0.0, 0.0, -0.0610485821962
2019-04-03 23:42:11.81,79234960, 0.0, 0.0, 353.0, 584.090026855, -35.363261, 149.1652299, 0.998134791851, 0.0, 0.0, -0.0610485821962
2019-04-03 23:42:11.91,79334920, 0.0, 0.0, 353.0, 584.090026855, -35.363261, 149.1652299, 0.998134791851, 0.0, 0.0, -0.0610485821962
2019-04-03 23:42:12.01,79434880, 0.0, 0.0, 353.0, 584.090026855, -35.363261, 149.1652299, 0.998134791851, 0.0, 0.0, -0.0610485821962
2019-04-03 23:42:12.11,79534840, 0.0, 0.0, 353.0, 584.090026855, -35.363261, 149.1652299, 0.998134791851, 0.0, 0.0, -0.0610485821962
2019-04-03 23:42:12.21,79634800, 0.0, 0.0, 353.0, 584.090026855, -35.363261, 149.1652299, 0.998134791851, 0.0, 0.0, -0.0610485821962
2019-04-03 23:42:12.31,79734760, 0.0, 0.0, 353.0, 584.090026855, -35.363261, 149.1652299, 0.998134791851, 0.0, 0.0, -0.0610485821962
2019-04-03 23:42:12.41,79834720, 0.0, 0.0, 353.0, 584.090026855, -35.363261, 149.1652299, 0.998134791851, 0.0, 0.0, -0.0610485821962
2019-04-03 23:42:12.51,79934680, 0.0, 0.0, 353.0, 584.090026855, -35.363261, 149.1652299, 0.998134791851, 0.0, 0.0, -0.0610485821962
2019-04-03 23:42:12.61,80034640, 0.0, 0.0, 353.0, 584.090026855, -35.363261, 149.1652299, 0.998134791851, 0.0, 0.0, -0.0610485821962
2019-04-03 23:42:12.71,80134600, 0.0, 0.0, 353.0, 584.090026855, -35.363261, 149.1652299, 0.998134791851, 0.0, 0.0, -0.0610485821962
2019-04-03 23:42:12.81,80234560, 0.0, 0.0, 353.0, 584.090026855, -35.363261, 149.1652299, 0.998134791851, 0.0, 0.0, -0.0610485821962
2019-04-03 23:42:12.91,80334520, 0.0, 0.0, 353.0, 584.090026855, -35.363261, 149.1652299, 0.998134791851, 0.0, 0.0, -0.0610485821962
2019-04-03 23:42:13.01,80434480, 0.0, 0.0, 353.0, 584.090026855, -35.363261, 149.1652299, 0.998134791851, 0.0, 0.0, -0.0610485821962
2019-04-03 23:42:13.11,80534440, 0.0, 0.0, 353.0, 584.090026855, -35.363261, 149.1652299, 0.998134791851, 0.0, 0.0, -0.0610485821962
2019-04-03 23:42:13.21,80634400, 0.0, 0.0, 353.0, 584.090026855, -35.363261, 149.1652299, 0.998134791851, 0.0, 0.0, -0.0610485821962
2019-04-03 23:42:15.51,82934313, 0.0, 0.0, 353.0, 584.090026855, -35.363261, 149.1652299, 0.998134791851, 0.0, 0.0, -0.0610485821962
2019-04-03 23:42:15.61,83034273, 0.0, 0.0, 353.0, 584.090026855, -35.363261, 149.1652299, 0.998134791851, 0.0, 0.0, -0.0610485821962
2019-04-03 23:42:15.71,83134233, 0.0, 0.0, 353.0, 584.090026855, -35.363261, 149.1652299, 0.998134791851, 0.0, 0.0, -0.0610485821962
2019-04-03 23:42:15.81,83234193, 0.0, 0.0, 353.0, 584.090026855, -35.363261, 149.1652299, 0.998134791851, 0.0, 0.0, -0.0610485821962
2019-04-03 23:42:15.91,83334986, 0.0, 0.0, 353.0, 584.090026855, -35.363261, 149.1652299, 0.998134791851, 0.0, 0.0, -0.0610485821962
2019-04-03 23:42:16.01,83434946, 0.0, 0.0, 353.0, 584.090026855, -35.363261, 149.1652299, 0.998134791851, 0.0, 0.0, -0.0610485821962
2019-04-03 23:42:16.11,83534906, 0.0, 0.0, 353.0, 584.090026855, -35.363261, 149.1652299, 0.998134791851, 0.0, 0.0, -0.0610485821962
2019-04-03 23:42:16.21,83634866, 0.0, 0.0, 353.0, 584.090026855, -35.363261, 149.1652299, 0.998134791851, 0.0, 0.0, -0.0610485821962
2019-04-03 23:42:16.31,83734826, 0.0, 0.0, 353.0, 584.090026855, -35.363261, 149.1652299, 0.998134791851, 0.0, 0.0, -0.0610485821962
2019-04-03 23:42:16.41,83834786, 0.0, 0.0, 353.0, 584.090026855, -35.363261, 149.1652299, 0.998134791851, 0.0, 0.0, -0.0610485821962
2019-04-03 23:42:16.51,83934746, 0.0, 0.0, 353.0, 584.090026855, -35.363261, 149.1652299, 0.998134791851, 0.0, 0.0, -0.0610485821962
2019-04-03 23:42:16.61,84034706, 0.0, 0.0, 353.0, 584.090026855, -35.363261, 149.1652299, 0.998134791851, 0.0, 0.0, -0.0610485821962
2019-04-03 23:42:16.71,84134666, 0.0, 0.0, 353.0, 584.090026855, -35.363261, 149.1652299, 0.998134791851, 0.0, 0.0, -0.0610485821962
2019-04-03 23:42:16.81,84234626, 0.0, 0.0, 353.0, 584.090026855, -35.363261, 149.1652299, 0.998134791851, 0.0, 0.0, -0.0610485821962
2019-04-03 23:42:16.91,84334586, 0.0, 0.0, 353.0, 584.090026855, -35.363261, 149.1652299, 0.998134791851, 0.0, 0.0, -0.0610485821962
2019-04-03 23:42:17.01,84434546, 0.0, 0.0, 353.0, 584.090026855, -35.363261, 149.1652299, 0.998134791851, 0.0, 0.0, -0.0610485821962
2019-04-03 23:42:17.11,84534506, 0.0, 0.0, 353.0, 584.090026855, -35.363261, 149.1652299, 0.998134791851, 0.0, 0.0, -0.0610485821962
2019-04-03 23:42:17.21,84634466, 0.0, 0.0, 353.0, 584.090026855, -35.363261, 149.1652299, 0.998134791851, 0.0, 0.0, -0.0610485821962
2019-04-03 23:42:17.31,84734426, 0.0, 0.0, 353.0, 584.090026855, -35.363261, 149.1652299, 0.998134791851, 0.0, 0.0, -0.0610485821962
2019-04-03 23:42:17.41,84834386, 0.0, 0.0, 353.0, 584.090026855, -35.363261, 149.1652299, 0.998134791851, 0.0, 0.0, -0.0610485821962
2019-04-03 23:42:17.51,84934346, 0.0, 0.0, 353.0, 584.090026855, -35.363261, 149.1652299, 0.998134791851, 0.0, 0.0, -0.0610485821962
2019-04-03 23:42:17.61,85034306, 0.0, 0.0, 353.0, 584.090026855, -35.363261, 149.1652299, 0.998134791851, 0.0, 0.0, -0.0610485821962
2019-04-03 23:42:17.71,85134266, 0.0, 0.0, 353.0, 584.090026855, -35.363261, 149.1652299, 0.998134791851, 0.0, 0.0, -0.0610485821962
2019-04-03 23:42:17.81,85234226, 0.0, 0.0, 353.0, 584.090026855, -35.363261, 149.1652299, 0.998134791851, 0.0, 0.0, -0.0610485821962
2019-04-03 23:42:17.91,85334186, 0.0, 0.0, 353.0, 584.090026855, -35.363261, 149.1652299, 0.998134791851, 0.0, 0.0, -0.0610485821962
2019-04-03 23:42:18.01,85434979, 0.0, 0.0, 353.0, 584.090026855, -35.363261, 149.1652299, 0.998134791851, 0.0, 0.0, -0.0610485821962
2019-04-03 23:42:18.11,85534939, 0.0, 0.0, 353.0, 584.090026855, -35.363261, 149.1652299, 0.998134791851, 0.0, 0.0, -0.0610485821962
2019-04-03 23:42:18.21,85634899, 0.0, 0.0, 353.0, 584.090026855, -35.363261, 149.1652299, 0.998134791851, 0.0, 0.0, -0.0610486157238
2019-04-03 23:42:18.31,85734859, 0.0, 0.0, 353.0, 584.090026855, -35.363261, 149.1652299, 0.998134791851, 0.0, 0.0, -0.0610486753285
2019-04-03 23:42:18.41,85834819, 0.0, 0.0, 353.0, 584.090026855, -35.363261, 149.1652299, 0.998134791851, 0.0, 0.0, -0.0610486753285
2019-04-03 23:42:18.51,85934779, 0.0, 0.0, 353.0, 584.090026855, -35.363261, 149.1652299, 0.998134791851, 0.0, 0.0, -0.0610486753285
2019-04-03 23:42:18.61,86034739, 0.0, 0.0, 353.0, 584.090026855, -35.363261, 149.1652299, 0.998134791851, 0.0, 0.0, -0.0610486753285
2019-04-03 23:42:18.71,86134699, 0.0, 0.0, 353.0, 584.090026855, -35.363261, 149.1652299, 0.998134791851, 0.0, 0.0, -0.0610486753285
2019-04-03 23:42:18.81,86234659, 0.0, 0.0, 353.0, 584.090026855, -35.363261, 149.1652299, 0.998134791851, 0.0, 0.0, -0.0610486753285
2019-04-03 23:42:18.91,86334619, 0.0, 0.0, 353.0, 584.090026855, -35.363261, 149.1652299, 0.998134791851, 0.0, 0.0, -0.0610486753285
2019-04-03 23:42:19.01,86434579, 0.0, 0.0, 353.0, 584.099975586, -35.363261, 149.1652299, 0.998134791851, 0.0, 0.0, -0.0610486753285
2019-04-03 23:42:19.11,86534539, 0.0, 0.0, 353.0, 584.099975586, -35.363261, 149.1652299, 0.998134791851, 0.0, 0.0, -0.0610486753285
2019-04-03 23:42:19.21,86634499, 0.0, 0.0, 353.0, 584.109985352, -35.363261, 149.1652299, 0.998134791851, 0.0, 0.0, -0.0610486753285
2019-04-03 23:42:19.31,86734459, 0.0, 0.0, 353.0, 584.130004883, -35.363261, 149.1652299, 0.998134791851, 0.0, 0.0, -0.0610486753285
2019-04-03 23:42:19.41,86834419, 0.0, 0.0, 353.0, 584.150024414, -35.363261, 149.1652299, 0.998134791851, 0.0, 0.0, -0.0610486827791
2019-04-03 23:42:19.51,86934379, 0.0, 0.0, 353.0, 584.179992676, -35.363261, 149.1652299, 0.998134791851, 0.0, 0.0, -0.0610486753285
2019-04-03 23:42:19.61,87034339, 0.0, 0.0, 352.99, 584.219970703, -35.363261, 149.1652299, 0.998134732246, -6.61790836602e-05, -4.71424245916e-05, -0.0610495731235
2019-04-03 23:42:19.71,87134299, -0.09, -0.07, 352.99, 584.299987793, -35.363261, 149.1652299, 0.998133540154, -0.000877114362083, -0.000583659333643, -0.0610606782138
2019-04-03 23:42:19.81,87234259, -0.23, -0.15, 352.99, 584.41998291, -35.363261, 149.1652299, 0.99812990427, -0.00209426530637, -0.00122262991499, -0.0610809288919
2019-04-03 23:42:19.91,87334219, -0.32, -0.22, 352.99, 584.58001709, -35.363261, 149.1652299, 0.998125076294, -0.00297533115372, -0.00174194748979, -0.061110984534
2019-04-03 23:42:20.01,87434179, -0.35, -0.24, 352.98, 584.729980469, -35.363261, 149.1652299, 0.998121678829, -0.00322305108421, -0.00194370548707, -0.0611464791
2019-04-03 23:42:20.11,87534972, -0.32, -0.22, 352.98, 584.890014648, -35.363261, 149.1652299, 0.99812066555, -0.00294783432037, -0.00176532310434, -0.0611825846136
2019-04-03 23:42:20.21,87634932, -0.24, -0.17, 352.98, 585.039978027, -35.363261, 149.1652299, 0.998121142387, -0.00222008652054, -0.00136330665555, -0.0612159818411
2019-04-03 23:42:20.31,87734892, -0.15, -0.11, 352.97, 585.190002441, -35.363261, 149.1652298, 0.998122155666, -0.00136922113597, -0.00087897881167, -0.0612338371575
2019-04-03 23:42:20.41,87834852, -0.07, -0.06, 352.97, 585.349975586, -35.363261, 149.1652298, 0.998122572899, -0.000693552370649, -0.000485488038976, -0.0612418949604
2019-04-03 23:42:20.51,87934812, -0.03, -0.01, 352.97, 585.520019531, -35.363261, 149.1652298, 0.998122632504, -0.000273436744465, -0.000120880125905, -0.0612465068698
2019-04-03 23:42:20.61,88034772, 0.0, 0.02, 352.97, 585.690002441, -35.3632609, 149.1652298, 0.998122572899, 3.35201002599e-05, 0.000259287888184, -0.0612469092011
2019-04-03 23:42:20.71,88134732, 0.02, 0.03, 352.97, 585.849975586, -35.3632609, 149.1652298, 0.998122572899, 0.000274104677374, 0.000268363393843, -0.0612465888262
2019-04-03 23:42:20.81,88234692, -0.08, -0.06, 352.97, 586.0, -35.3632609, 149.1652298, 0.998122096062, -0.000753847125452, -0.000541547022294, -0.0612484551966
2019-04-03 23:42:20.91,88334652, -0.44, -0.32, 352.97, 586.140014648, -35.3632609, 149.1652298, 0.998111128807, -0.00402003573254, -0.00257188617252, -0.0612487345934
2019-04-03 23:42:21.01,88434612, -1.03, -0.73, 352.98, 586.270019531, -35.3632609, 149.1652297, 0.998061239719, -0.00939329713583, -0.00582071486861, -0.0612511634827
2019-04-03 23:42:21.11,88534572, -1.81, -1.24, 352.99, 586.380004883, -35.3632609, 149.1652297, 0.997937142849, -0.0164521131665, -0.0098638702184, -0.0612663775682
2019-04-03 23:42:21.21,88634532, -2.68, -1.81, 353.0, 586.489990234, -35.3632609, 149.1652296, 0.997718453407, -0.0243592150509, -0.0143345789984, -0.0613113343716
2019-04-03 23:42:21.31,88734492, -3.53, -2.36, 353.02, 586.58001709, -35.3632608, 149.1652294, 0.997425019741, -0.0319952219725, -0.0187269430608, -0.0613920502365
2019-04-03 23:42:21.41,88834452, -4.24, -2.82, 353.04, 586.659973145, -35.3632607, 149.1652293, 0.997115552425, -0.0384142808616, -0.0223028827459, -0.0615425035357
2019-04-03 23:42:21.51,88934412, -4.77, -3.14, 353.04, 586.729980469, -35.3632605, 149.1652289, 0.996844470501, -0.0432526879013, -0.0248306952417, -0.061756003648
2019-04-03 23:42:21.61,89034372, -5.17, -3.39, 353.03, 586.789978027, -35.3632604, 149.1652287, 0.996615052223, -0.0468796901405, -0.0267572347075, -0.062006816268
2019-04-03 23:42:21.71,89134332, -5.49, -3.61, 353.02, 586.849975586, -35.3632603, 149.1652283, 0.996410012245, -0.0497629754245, -0.0285275392234, -0.0622649043798
2019-04-03 23:42:21.81,89234292, -5.78, -3.84, 353.01, 586.900024414, -35.3632601, 149.1652278, 0.996205627918, -0.0523762851954, -0.030372204259, -0.0625187531114
2019-04-03 23:42:21.91,89334252, -6.07, -4.1, 353.0, 586.940002441, -35.3632598, 149.1652273, 0.995982289314, -0.0550257228315, -0.0324286445975, -0.0627680122852
2019-04-03 23:42:22.01,89434212, -6.37, -4.35, 352.99, 586.969970703, -35.3632597, 149.1652265, 0.995739817619, -0.0578057132661, -0.0344777815044, -0.0630240961909
2019-04-03 23:42:22.11,89534172, -6.65, -4.57, 352.99, 587.010009766, -35.3632593, 149.1652259, 0.995513141155, -0.0603161454201, -0.0361980423331, -0.0632872730494
2019-04-03 23:42:22.21,89634965, -6.85, -4.72, 352.97, 587.030029297, -35.363259, 149.165225, 0.995337426662, -0.0621492639184, -0.0374503321946, -0.0635482296348
2019-04-03 23:42:22.31,89734925, -6.97, -4.82, 352.96, 587.059997559, -35.3632586, 149.1652241, 0.995224893093, -0.0632511675358, -0.0381880998611, -0.0637841969728
2019-04-03 23:42:22.41,89834885, -7.06, -4.86, 352.94, 587.08001709, -35.3632583, 149.1652231, 0.995149850845, -0.0640216693282, -0.0385291986167, -0.0639803931117
2019-04-03 23:42:22.51,89934845, -7.14, -4.89, 352.93, 587.109985352, -35.3632578, 149.1652222, 0.995087146759, -0.0647357553244, -0.0387355163693, -0.0641128197312
2019-04-03 23:42:22.61,90034805, -7.24, -4.93, 352.93, 587.130004883, -35.3632574, 149.165221, 0.995012521744, -0.0656556785107, -0.038983989507, -0.0641851946712
2019-04-03 23:42:22.71,90134765, -7.45, -4.95, 352.9, 587.150024414, -35.3632568, 149.1652198, 0.994864404202, -0.0675211176276, -0.0390760824084, -0.0644885152578
2019-04-03 23:42:22.81,90234725, -7.9, -4.86, 352.5, 587.16998291, -35.3632562, 149.1652184, 0.994399249554, -0.071528442204, -0.0377412438393, -0.0680394619703
2019-04-03 23:42:22.91,90334685, -8.56, -4.72, 351.04, 587.190002441, -35.3632558, 149.1652172, 0.993078947067, -0.0775606632233, -0.0351549647748, -0.0808868631721
2019-04-03 23:42:23.01,90434645, -9.11, -4.86, 347.97, 587.210021973, -35.3632552, 149.1652158, 0.990109503269, -0.0834045112133, -0.033781748265, -0.10763669014
2019-04-03 23:42:23.11,90534605, -9.29, -5.48, 343.29, 587.229980469, -35.3632546, 149.1652141, 0.984454989433, -0.0869706049562, -0.0353993959725, -0.148429572582
2019-04-03 23:42:23.21,90634565, -8.92, -6.58, 337.21, 587.239990234, -35.3632541, 149.1652126, 0.97483164072, -0.0874510109425, -0.0408342704177, -0.200968131423
2019-04-03 23:42:23.31,90734525, -7.95, -8.05, 330.01, 587.270019531, -35.3632535, 149.1652109, 0.960001766682, -0.0849567651749, -0.0498098917305, -0.262102872133
2019-04-03 23:42:23.41,90834485, -6.4, -9.68, 321.98, 587.289978027, -35.3632529, 149.165209, 0.939096033573, -0.08010455966, -0.0615786351264, -0.328465998173
2019-04-03 23:42:23.51,90934445, -4.35, -11.23, 313.39, 587.309997559, -35.3632523, 149.1652071, 0.911887943745, -0.0734528452158, -0.0748485922813, -0.39681583643
2019-04-03 23:42:23.61,91034405, -1.76, -12.45, 304.6, 587.33001709, -35.3632516, 149.165205, 0.879312038422, -0.0639424324036, -0.0888957381248, -0.463486015797
2019-04-03 23:42:23.71,91134365, 1.27, -13.13, 296.38, 587.359985352, -35.363251, 149.165203, 0.844841837883, -0.0508827008307, -0.103052735329, -0.522525966167
2019-04-03 23:42:23.81,91234325, 4.22, -13.27, 289.63, 587.380004883, -35.3632501, 149.1652007, 0.813754558563, -0.036666482687, -0.115509070456, -0.568433582783
2019-04-03 23:42:23.91,91334285, 6.51, -13.03, 284.96, 587.409973145, -35.3632494, 149.1651986, 0.790696382523, -0.0242094509304, -0.124265834689, -0.598975121975
2019-04-03 23:42:24.01,91434245, 7.81, -12.72, 282.44, 587.429992676, -35.3632483, 149.1651963, 0.777698159218, -0.0164913479239, -0.128603026271, -0.615121841431
2019-04-03 23:42:24.11,91534205, 8.02, -12.6, 281.8, 587.460021973, -35.3632474, 149.1651939, 0.774361431599, -0.0150731485337, -0.128901809454, -0.619291186333
2019-04-03 23:42:24.21,91634165, 7.29, -12.78, 282.68, 587.489990234, -35.3632462, 149.1651915, 0.778874099255, -0.02003476955, -0.126293122768, -0.614006400108
2019-04-03 23:42:24.31,91734958, 5.85, -13.22, 284.69, 587.520019531, -35.363245, 149.165189, 0.789021611214, -0.0300501920283, -0.122049331665, -0.601369976997
2019-04-03 23:42:24.41,91834918, 4.01, -13.82, 287.44, 587.549987793, -35.3632437, 149.1651863, 0.802302479744, -0.0431424863636, -0.117527417839, -0.583640992641
2019-04-03 23:42:24.51,91934878, 2.02, -14.45, 290.6, 587.58001709, -35.3632424, 149.1651838, 0.816791832447, -0.0571992248297, -0.113435424864, -0.562771499157
2019-04-03 23:42:24.61,92034838, 0.11, -15.0, 293.84, 587.619995117, -35.3632409, 149.165181, 0.830839157104, -0.0704255327582, -0.109974913299, -0.540973246098
2019-04-03 23:42:24.71,92134798, -1.5, -15.38, 296.8, 587.650024414, -35.3632397, 149.1651782, 0.843100667, -0.0812489464879, -0.107167109847, -0.520667910576
2019-04-03 23:42:24.81,92234758, -2.7, -15.56, 299.19, 587.679992676, -35.3632383, 149.1651755, 0.852677762508, -0.0886759832501, -0.104922086, -0.50405216217
2019-04-03 23:42:24.91,92334718, -3.39, -15.58, 300.81, 587.719970703, -35.363237, 149.1651724, 0.859149992466, -0.092468701303, -0.103360816836, -0.492572247982
2019-04-03 23:42:25.01,92434678, -3.59, -15.54, 301.61, 587.75, -35.3632355, 149.1651694, 0.862464904785, -0.0930509567261, -0.102824933827, -0.48674723506
2019-04-03 23:42:25.11,92534638, -3.37, -15.51, 301.65, 587.789978027, -35.3632342, 149.1651661, 0.862842619419, -0.0912058874965, -0.103567384183, -0.486269414425
2019-04-03 23:42:25.21,92634598, -2.82, -15.51, 301.06, 587.820007324, -35.3632329, 149.1651628, 0.860743403435, -0.0876703411341, -0.105486534536, -0.490211516619
2019-04-03 23:42:25.31,92734558, -2.08, -15.56, 300.02, 587.859985352, -35.3632316, 149.1651595, 0.856765568256, -0.0833026617765, -0.108231268823, -0.497292131186
2019-04-03 23:42:25.41,92834518, -1.27, -15.63, 298.73, 587.890014648, -35.3632301, 149.1651561, 0.851622343063, -0.0787742212415, -0.111398346722, -0.506087422371
2019-04-03 23:42:25.51,92934478, -0.47, -15.71, 297.38, 587.929992676, -35.3632288, 149.1651527, 0.846073031425, -0.074510961771, -0.114671394229, -0.515227198601
2019-04-03 23:42:25.61,93034438, 0.23, -15.8, 296.14, 587.960021973, -35.3632275, 149.1651492, 0.8408010602, -0.0709845274687, -0.117811687291, -0.52357929945
2019-04-03 23:42:25.71,93134398, 0.79, -15.9, 295.13, 588.0, -35.3632261, 149.1651456, 0.836391985416, -0.0683913975954, -0.120450586081, -0.530342102051
2019-04-03 23:42:25.81,93234358, 1.15, -15.97, 294.42, 588.030029297, -35.3632245, 149.165142, 0.83324277401, -0.0668364614248, -0.122259631753, -0.535062611103
2019-04-03 23:42:25.91,93334318, 1.3, -16.01, 294.04, 588.070007324, -35.3632231, 149.1651383, 0.831524133682, -0.0663351267576, -0.123008497059, -0.537620961666
2019-04-03 23:42:26.01,93434278, 1.25, -16.04, 293.98, 588.109985352, -35.3632216, 149.1651345, 0.831152915955, -0.066937610507, -0.122945047915, -0.538134455681
2019-04-03 23:42:26.11,93534238, 1.05, -16.07, 294.17, 588.140014648, -35.3632201, 149.1651308, 0.831936895847, -0.068285793066, -0.122310079634, -0.536896944046
2019-04-03 23:42:26.21,93634198, 0.76, -16.09, 294.56, 588.179992676, -35.3632185, 149.1651271, 0.833557188511, -0.0701103881001, -0.12138812989, -0.534351825714
2019-04-03 23:42:26.31,93734158, 0.42, -16.11, 295.07, 588.210021973, -35.363217, 149.1651233, 0.83566147089, -0.0721804350615, -0.120234556496, -0.531040072441
2019-04-03 23:42:26.41,93834951, 0.07, -16.14, 295.61, 588.25, -35.3632154, 149.1651193, 0.837914943695, -0.0742763057351, -0.119127236307, -0.527437508106
2019-04-03 23:42:26.51,93934911, -0.24, -16.17, 296.11, 588.289978027, -35.3632137, 149.1651156, 0.839979588985, -0.076193138957, -0.118274562061, -0.524061083794
2019-04-03 23:42:26.61,94034871, -0.48, -16.22, 296.53, 588.320007324, -35.3632122, 149.1651116, 0.841662764549, -0.0777488127351, -0.117822274566, -0.521226286888
2019-04-03 23:42:26.71,94134831, -0.63, -16.26, 296.82, 588.359985352, -35.3632105, 149.1651077, 0.842865049839, -0.0787524655461, -0.117638133466, -0.519170343876
2019-04-03 23:42:26.81,94234791, -0.7, -16.3, 296.99, 588.400024414, -35.363209, 149.1651037, 0.843532800674, -0.0792651101947, -0.117718346417, -0.517988324165
2019-04-03 23:42:26.91,94334751, -0.69, -16.35, 297.03, 588.429992676, -35.3632074, 149.1650996, 0.843668341637, -0.079383701086, -0.118177682161, -0.517644703388
2019-04-03 23:42:27.01,94434711, -0.61, -16.4, 296.96, 588.469970703, -35.3632057, 149.1650956, 0.843371033669, -0.0790705606341, -0.118851475418, -0.518022656441
2019-04-03 23:42:27.11,94534671, -0.47, -16.44, 296.82, 588.5, -35.3632042, 149.1650915, 0.842755377293, -0.0784348249435, -0.119646020234, -0.518937528133
2019-04-03 23:42:27.21,94634631, -0.3, -16.46, 296.62, 588.539978027, -35.3632026, 149.1650875, 0.841969966888, -0.0774824768305, -0.120478153229, -0.520161628723
2019-04-03 23:42:27.31,94734591, -0.13, -16.48, 296.42, 588.58001709, -35.3632008, 149.1650833, 0.841127574444, -0.0764690935612, -0.121236771345, -0.521496474743
2019-04-03 23:42:27.41,94834551, 0.0, -16.47, 296.22, 588.609985352, -35.3631993, 149.1650791, 0.840330064297, -0.0757014527917, -0.121648840606, -0.522796571255
2019-04-03 23:42:27.51,94934511, 0.06, -16.48, 296.06, 588.650024414, -35.3631976, 149.165075, 0.839635670185, -0.0753903687, -0.121942207217, -0.523887753487
2019-04-03 23:42:27.61,95034471, 0.1, -16.51, 295.95, 588.690002441, -35.3631959, 149.1650708, 0.839112222195, -0.0753944069147, -0.122290477157, -0.524644076824
2019-04-03 23:42:27.71,95134431, 0.12, -16.56, 295.89, 588.719970703, -35.3631942, 149.1650666, 0.838797271252, -0.0755621343851, -0.122684665024, -0.525031447411
2019-04-03 23:42:27.81,95234391, 0.11, -16.61, 295.88, 588.760009766, -35.3631926, 149.1650623, 0.838693320751, -0.075871989131, -0.123010493815, -0.525076627731
2019-04-03 23:42:27.91,95334351, 0.09, -16.67, 295.91, 588.799987793, -35.3631909, 149.165058, 0.838772535324, -0.0762594714761, -0.123367480934, -0.52481007576
2019-04-03 23:42:28.01,95434311, 0.07, -16.74, 295.98, 588.83001709, -35.3631892, 149.1650537, 0.838998019695, -0.0766226500273, -0.123802654445, -0.524294018745
2019-04-03 23:42:28.11,95534271, 0.05, -16.78, 296.07, 588.869995117, -35.3631874, 149.1650494, 0.839339315891, -0.0768357515335, -0.124093696475, -0.523647367954
2019-04-03 23:42:28.21,95634231, 0.03, -16.79, 296.16, 588.909973145, -35.3631857, 149.1650451, 0.839747667313, -0.0769381821156, -0.124127440155, -0.522969186306
2019-04-03 23:42:28.31,95734191, 0.0, -16.8, 296.25, 588.940002441, -35.3631841, 149.1650408, 0.840132176876, -0.0771200656891, -0.124153114855, -0.522318303585
2019-04-03 23:42:28.41,95834984, -0.02, -16.82, 296.34, 588.979980469, -35.3631823, 149.1650364, 0.840460181236, -0.0773788839579, -0.12417974323, -0.521745681763
2019-04-03 23:42:28.51,95934944, -0.06, -16.84, 296.4, 589.020019531, -35.3631806, 149.1650321, 0.840718209743, -0.0776547640562, -0.12418141216, -0.521288454533
2019-04-03 23:42:28.61,96034904, -0.1, -16.87, 296.45, 589.049987793, -35.3631788, 149.1650278, 0.840869069099, -0.078026458621, -0.124234475195, -0.520976781845
2019-04-03 23:42:28.71,96134864, -0.14, -16.88, 296.47, 589.090026855, -35.3631771, 149.1650234, 0.840932846069, -0.0783820450306, -0.12417049706, -0.52083581686
2019-04-03 23:42:28.81,96234824, -0.18, -16.89, 296.48, 589.130004883, -35.3631753, 149.165019, 0.840922951698, -0.078663431108, -0.124066442251, -0.520834207535
2019-04-03 23:42:28.91,96334784, -0.18, -16.9, 296.47, 589.159973145, -35.3631735, 149.1650146, 0.840863466263, -0.0787147060037, -0.124095849693, -0.520915389061
2019-04-03 23:42:29.01,96434744, -0.15, -16.91, 296.45, 589.200012207, -35.3631717, 149.1650101, 0.840776622295, -0.0785539895296, -0.124330572784, -0.521023869514
2019-04-03 23:42:29.11,96534704, -0.08, -16.95, 296.42, 589.229980469, -35.3631699, 149.1650057, 0.840659677982, -0.0782762765884, -0.124893054366, -0.521119832993
2019-04-03 23:42:29.21,96634664, -0.03, -17.0, 296.39, 589.270019531, -35.3631681, 149.1650013, 0.840512096882, -0.078181155026, -0.125491529703, -0.521228373051
2019-04-03 23:42:29.31,96734624, -0.02, -17.04, 296.37, 589.309997559, -35.3631665, 149.1649967, 0.840376317501, -0.078254789114, -0.125805228949, -0.521360635757
2019-04-03 23:42:29.41,96834584, -0.02, -17.05, 296.35, 589.340026855, -35.3631647, 149.1649923, 0.840287864208, -0.0783344507217, -0.125866830349, -0.521476328373
2019-04-03 23:42:29.51,96934544, -0.02, -17.05, 296.34, 589.380004883, -35.3631629, 149.1649878, 0.840246498585, -0.0783825367689, -0.125832468271, -0.521544098854
2019-04-03 23:42:29.61,97034504, -0.05, -17.05, 296.34, 589.41998291, -35.3631611, 149.1649833, 0.840225577354, -0.0785678103566, -0.125728830695, -0.521574854851
2019-04-03 23:42:29.71,97134464, -0.09, -17.06, 296.35, 589.450012207, -35.3631593, 149.1649788, 0.840217113495, -0.078881546855, -0.125620678067, -0.521567165852
2019-04-03 23:42:29.81,97234424, -0.1, -17.08, 296.36, 589.489990234, -35.3631574, 149.1649742, 0.840221881866, -0.0791192427278, -0.125753164291, -0.521491646767
2019-04-03 23:42:29.91,97334384, -0.1, -17.11, 296.37, 589.530029297, -35.3631556, 149.1649698, 0.84024477005, -0.0792548209429, -0.125988647342, -0.521377265453
2019-04-03 23:42:30.01,97434344, -0.11, -17.15, 296.39, 589.559997559, -35.3631538, 149.1649651, 0.840267837048, -0.0794663727283, -0.126188248396, -0.521259665489
2019-04-03 23:42:30.11,97534304, -0.13, -17.17, 296.4, 589.599975586, -35.363152, 149.1649607, 0.840291380882, -0.079692736268, -0.126296490431, -0.521160900593
2019-04-03 23:42:30.21,97634264, -0.13, -17.19, 296.41, 589.640014648, -35.3631502, 149.164956, 0.840329647064, -0.0797007903457, -0.126454293728, -0.521059751511
2019-04-03 23:42:30.31,97734224, -0.11, -17.21, 296.42, 589.66998291, -35.3631483, 149.1649516, 0.840362548828, -0.079636245966, -0.126702278852, -0.520956277847
2019-04-03 23:42:30.41,97834184, -0.07, -17.23, 296.43, 589.710021973, -35.3631465, 149.1649469, 0.840392351151, -0.079494677484, -0.127010509372, -0.520854711533
2019-04-03 23:42:30.51,97934977, -0.06, -17.25, 296.43, 589.75, -35.3631447, 149.1649424, 0.840405344963, -0.0794700607657, -0.127240300179, -0.520781457424
2019-04-03 23:42:30.61,98034937, -0.05, -17.29, 296.44, 589.780029297, -35.3631428, 149.1649378, 0.840376853943, -0.0796065479517, -0.127590835094, -0.520720779896
2019-04-03 23:42:30.71,98134897, -0.04, -17.34, 296.44, 589.820007324, -35.363141, 149.1649332, 0.840334653854, -0.0797626450658, -0.127965271473, -0.520673155785
2019-04-03 23:42:30.81,98234857, -0.04, -17.36, 296.44, 589.859985352, -35.3631391, 149.1649286, 0.840313434601, -0.0798651203513, -0.128107756376, -0.520656645298
2019-04-03 23:42:30.91,98334817, -0.05, -17.36, 296.44, 589.890014648, -35.3631373, 149.1649239, 0.840322732925, -0.0798568055034, -0.128058925271, -0.520654916763
2019-04-03 23:42:31.01,98434777, -0.05, -17.34, 296.44, 589.929992676, -35.3631354, 149.1649192, 0.84034383297, -0.0798044130206, -0.127960309386, -0.520653128624
2019-04-03 23:42:31.11,98534737, -0.04, -17.34, 296.44, 589.969970703, -35.3631336, 149.1649147, 0.84036719799, -0.0797233879566, -0.127945706248, -0.520631492138
2019-04-03 23:42:31.21,98634697, -0.03, -17.33, 296.45, 590.0, -35.3631316, 149.16491, 0.840386748314, -0.0796512961388, -0.127968683839, -0.520605266094
2019-04-03 23:42:31.31,98734657, -0.04, -17.34, 296.45, 590.039978027, -35.3631297, 149.1649053, 0.840387880802, -0.0797049030662, -0.128026157618, -0.520581126213
2019-04-03 23:42:31.41,98834617, -0.05, -17.37, 296.45, 590.070007324, -35.3631279, 149.1649007, 0.840370118618, -0.0799177065492, -0.128143280745, -0.520548284054
2019-04-03 23:42:31.51,98934577, -0.05, -17.4, 296.46, 590.109985352, -35.363126, 149.1648961, 0.840357720852, -0.0800795704126, -0.128343045712, -0.520494163036
2019-04-03 23:42:31.61,99034537, -0.05, -17.43, 296.46, 590.150024414, -35.3631242, 149.1648913, 0.840344130993, -0.0802163109183, -0.128616705537, -0.520427525043
2019-04-03 23:42:31.71,99134497, -0.06, -17.46, 296.47, 590.179992676, -35.3631224, 149.1648868, 0.840326428413, -0.0803872793913, -0.128805100918, -0.520383119583
2019-04-03 23:42:31.81,99234457, -0.06, -17.49, 296.47, 590.219970703, -35.3631205, 149.1648821, 0.840303063393, -0.0805386826396, -0.129022240639, -0.520343661308
2019-04-03 23:42:31.91,99334417, -0.08, -17.51, 296.47, 590.260009766, -35.3631186, 149.1648774, 0.840272426605, -0.0807953774929, -0.129078432918, -0.520339488983
2019-04-03 23:42:32.01,99434377, -0.11, -17.52, 296.47, 590.289978027, -35.3631167, 149.1648727, 0.840252280235, -0.0809835270047, -0.129009082913, -0.520359933376
2019-04-03 23:42:32.11,99534337, -0.13, -17.52, 296.47, 590.33001709, -35.3631148, 149.1648679, 0.840231239796, -0.081163674593, -0.128960609436, -0.520377874374
2019-04-03 23:42:32.21,99634297, -0.12, -17.52, 296.47, 590.369995117, -35.3631129, 149.1648632, 0.840238451958, -0.081121109426, -0.128978475928, -0.520368456841
2019-04-03 23:42:32.31,99734257, -0.09, -17.52, 296.47, 590.400024414, -35.3631109, 149.1648586, 0.84026247263, -0.0808964893222, -0.129121005535, -0.520329236984
2019-04-03 23:42:32.41,99834217, -0.06, -17.53, 296.47, 590.440002441, -35.363109, 149.1648539, 0.840280652046, -0.0806744098663, -0.129306465387, -0.520288348198
2019-04-03 23:42:32.51,99934177, -0.03, -17.54, 296.47, 590.469970703, -35.3631072, 149.1648492, 0.840281605721, -0.0805386677384, -0.129521504045, -0.520254254341
2019-04-03 23:42:32.61,100034970, -0.03, -17.57, 296.47, 590.510009766, -35.3631053, 149.1648444, 0.840245008469, -0.0806309878826, -0.12973216176, -0.520246624947
2019-04-03 23:42:32.71,100134930, -0.04, -17.58, 296.47, 590.549987793, -35.3631034, 149.1648396, 0.840204000473, -0.0808013156056, -0.129803299904, -0.52026873827
2019-04-03 23:42:32.81,100234890, -0.06, -17.59, 296.47, 590.58001709, -35.3631015, 149.1648349, 0.840163230896, -0.0810336917639, -0.129758328199, -0.520309627056
2019-04-03 23:42:32.91,100334850, -0.09, -17.61, 296.46, 590.619995117, -35.3630996, 149.1648301, 0.840117156506, -0.0813265517354, -0.129737988114, -0.520343363285
2019-04-03 23:42:33.01,100434810, -0.1, -17.62, 296.46, 590.650024414, -35.3630977, 149.1648255, 0.840100347996, -0.0813972279429, -0.129757627845, -0.520354568958
2019-04-03 23:42:33.11,100534770, -0.08, -17.61, 296.46, 590.690002441, -35.3630957, 149.1648207, 0.84010964632, -0.0812619701028, -0.129795610905, -0.520351231098
2019-04-03 23:42:33.21,100634730, -0.06, -17.61, 296.46, 590.729980469, -35.3630938, 149.164816, 0.840116620064, -0.0811346694827, -0.129879981279, -0.520338773727
2019-04-03 23:42:33.31,100734690, -0.04, -17.62, 296.46, 590.760009766, -35.363092, 149.1648112, 0.840119898319, -0.0809949412942, -0.130061715841, -0.52030980587
2019-04-03 23:42:33.41,100834650, 0.0, -17.65, 296.46, 590.799987793, -35.3630901, 149.1648065, 0.840119242668, -0.0808188170195, -0.130424365401, -0.520247578621
2019-04-03 23:42:33.51,100934610, 0.0, -17.68, 296.46, 590.840026855, -35.3630881, 149.1648017, 0.840088844299, -0.0809012949467, -0.130731493235, -0.520206689835
2019-04-03 23:42:33.61,101034570, -0.01, -17.71, 296.46, 590.869995117, -35.3630862, 149.1647969, 0.840050578117, -0.0811541900039, -0.130869179964, -0.520194470882
2019-04-03 23:42:33.71,101134530, -0.03, -17.74, 296.46, 590.909973145, -35.3630843, 149.1647922, 0.840009629726, -0.0814352780581, -0.130998551846, -0.520184159279
2019-04-03 23:42:33.81,101234490, -0.03, -17.76, 296.46, 590.940002441, -35.3630823, 149.1647874, 0.839992821217, -0.0815611332655, -0.131070390344, -0.520173490047
2019-04-03 23:42:33.91,101334450, -0.02, -17.76, 296.47, 590.979980469, -35.3630804, 149.1647826, 0.840012550354, -0.0814479514956, -0.131184533238, -0.520130515099
2019-04-03 23:42:34.01,101434410, 0.0, -17.76, 296.47, 591.020019531, -35.3630785, 149.1647778, 0.840044915676, -0.0812456384301, -0.131310150027, -0.520078241825
2019-04-03 23:42:34.11,101534370, 0.05, -17.75, 296.47, 591.049987793, -35.3630766, 149.164773, 0.840093672276, -0.0808752179146, -0.131470650434, -0.520016610622
2019-04-03 23:42:34.21,101634330, 0.09, -17.74, 296.47, 591.090026855, -35.3630746, 149.1647682, 0.840135753155, -0.0805192217231, -0.131584316492, -0.51997512579
2019-04-03 23:42:34.31,101734290, 0.1, -17.74, 296.47, 591.119995117, -35.3630726, 149.1647634, 0.840152382851, -0.0803717747331, -0.131618484855, -0.51996243
2019-04-03 23:42:34.41,101834250, 0.09, -17.74, 296.47, 591.159973145, -35.3630707, 149.1647586, 0.840139508247, -0.0805239230394, -0.131545886397, -0.519978046417
2019-04-03 23:42:34.51,101934210, 0.05, -17.75, 296.47, 591.200012207, -35.3630688, 149.1647538, 0.840104937553, -0.0808208957314, -0.131438955665, -0.520014941692
2019-04-03 23:42:34.61,102034170, 0.02, -17.75, 296.47, 591.229980469, -35.3630669, 149.164749, 0.840080857277, -0.0810420066118, -0.131309553981, -0.520052134991
2019-04-03 23:42:34.71,102134963, 0.01, -17.74, 296.47, 591.270019531, -35.3630649, 149.1647442, 0.840081214905, -0.0810721591115, -0.131208270788, -0.52007240057
2019-04-03 23:42:34.81,102234923, 0.03, -17.74, 296.47, 591.309997559, -35.3630629, 149.1647394, 0.840085566044, -0.0809581205249, -0.131276413798, -0.520065963268
2019-04-03 23:42:34.91,102334883, 0.05, -17.74, 296.47, 591.340026855, -35.363061, 149.1647346, 0.840091049671, -0.0808094590902, -0.131357774138, -0.520059645176
2019-04-03 23:42:35.01,102434843, 0.04, -17.77, 296.47, 591.380004883, -35.3630591, 149.1647296, 0.840040504932, -0.0809839442372, -0.131574869156, -0.520059227943
2019-04-03 23:42:35.11,102534803, 0.03, -17.78, 296.46, 591.409973145, -35.3630571, 149.1647248, 0.83999979496, -0.0811514407396, -0.13160443306, -0.520091474056
2019-04-03 23:42:35.21,102634763, 0.01, -17.79, 296.46, 591.450012207, -35.363055, 149.16472, 0.839967727661, -0.0812900364399, -0.131543144584, -0.520137071609
2019-04-03 23:42:35.31,102734723, 0.0, -17.8, 296.45, 591.489990234, -35.3630531, 149.1647152, 0.839924812317, -0.0814507305622, -0.131550490856, -0.520179331303
2019-04-03 23:42:35.41,102834683, 0.0, -17.81, 296.45, 591.520019531, -35.3630512, 149.1647104, 0.839878737926, -0.0815923810005, -0.131627544761, -0.520212113857
2019-04-03 23:42:35.51,102934643, 0.0, -17.85, 296.44, 591.559997559, -35.3630493, 149.1647056, 0.839816749096, -0.0817580968142, -0.13187019527, -0.520224690437
2019-04-03 23:42:35.61,103034603, -0.02, -17.89, 296.44, 591.590026855, -35.3630473, 149.1647008, 0.839730739594, -0.0820590481162, -0.132096096873, -0.520258903503
2019-04-03 23:42:35.71,103134563, -0.02, -17.91, 296.43, 591.630004883, -35.3630452, 149.164696, 0.839674651623, -0.0821636766195, -0.132246106863, -0.5202947855
2019-04-03 23:42:35.81,103234523, -0.02, -17.91, 296.42, 591.66998291, -35.3630433, 149.1646911, 0.839638113976, -0.0821999013424, -0.132254064083, -0.520345926285
2019-04-03 23:42:35.91,103334483, -0.02, -17.89, 296.42, 591.700012207, -35.3630414, 149.1646863, 0.839628040791, -0.0821321234107, -0.132041335106, -0.520426928997
2019-04-03 23:42:36.01,103434443, -0.03, -17.85, 296.41, 591.739990234, -35.3630394, 149.1646815, 0.839626073837, -0.0820421874523, -0.131763726473, -0.52051460743
2019-04-03 23:42:36.11,103534403, -0.03, -17.83, 296.4, 591.780029297, -35.3630375, 149.1646766, 0.839612364769, -0.0819777473807, -0.131577819586, -0.520593941212
2019-04-03 23:42:36.21,103634363, -0.04, -17.84, 296.39, 591.809997559, -35.3630354, 149.1646717, 0.839555323124, -0.0821013897657, -0.1315985322, -0.520661175251
2019-04-03 23:42:36.31,103734323, -0.07, -17.86, 296.38, 591.849975586, -35.3630335, 149.1646668, 0.839480221272, -0.0823682621121, -0.131628870964, -0.520732402802
2019-04-03 23:42:36.41,103834283, -0.07, -17.88, 296.38, 591.890014648, -35.3630316, 149.164662, 0.839420318604, -0.0824580565095, -0.131785959005, -0.520775079727
2019-04-03 23:42:36.51,103934243, -0.04, -17.89, 296.37, 591.91998291, -35.3630296, 149.1646572, 0.839385509491, -0.0823549479246, -0.131973966956, -0.520799934864
2019-04-03 23:42:36.61,104034203, 0.0, -17.89, 296.36, 591.960021973, -35.3630275, 149.1646523, 0.839382231236, -0.0820559412241, -0.132119491696, -0.520815432072
2019-04-03 23:42:36.71,104134163, 0.02, -17.88, 296.35, 592.0, -35.3630257, 149.1646475, 0.839383244514, -0.0817707926035, -0.132198348641, -0.520838618279
2019-04-03 23:42:36.81,104234956, 0.02, -17.86, 296.34, 592.030029297, -35.3630237, 149.1646425, 0.839374303818, -0.0817095041275, -0.132016807795, -0.520908772945
2019-04-03 23:42:36.91,104334916, 0.0, -17.83, 296.34, 592.070007324, -35.3630217, 149.1646376, 0.839357972145, -0.0817886143923, -0.13171339035, -0.52099943161
2019-04-03 23:42:37.01,104434876, -0.03, -17.83, 296.33, 592.109985352, -35.3630196, 149.1646328, 0.839324057102, -0.0819860771298, -0.131513699889, -0.521073520184
2019-04-03 23:42:37.11,104534836, -0.06, -17.84, 296.33, 592.140014648, -35.3630178, 149.164628, 0.83927321434, -0.0822580829263, -0.131476536393, -0.52112185955
2019-04-03 23:42:37.21,104634796, -0.06, -17.86, 296.33, 592.179992676, -35.3630158, 149.1646231, 0.839232206345, -0.0823609605432, -0.131665438414, -0.521124064922
2019-04-03 23:42:37.31,104734756, -0.04, -17.89, 296.33, 592.219970703, -35.3630138, 149.1646182, 0.839197039604, -0.0823936462402, -0.131920844316, -0.521110773087
2019-04-03 23:42:37.41,104834716, -0.03, -17.92, 296.32, 592.25, -35.3630118, 149.1646132, 0.839160859585, -0.0824426338077, -0.132152035832, -0.521102786064
2019-04-03 23:42:37.51,104934676, -0.03, -17.92, 296.32, 592.289978027, -35.3630099, 149.1646084, 0.839145541191, -0.0824228152633, -0.132245004177, -0.521107017994
2019-04-03 23:42:37.61,105034636, -0.03, -17.91, 296.32, 592.33001709, -35.3630079, 149.1646036, 0.83914488554, -0.0823882967234, -0.132144197822, -0.521139144897
2019-04-03 23:42:37.71,105134596, -0.05, -17.88, 296.31, 592.359985352, -35.3630059, 149.1645987, 0.83915156126, -0.0824022144079, -0.131829559803, -0.521205842495
2019-04-03 23:42:37.81,105234556, -0.06, -17.86, 296.31, 592.400024414, -35.3630039, 149.1645938, 0.839151442051, -0.0824120342731, -0.131626084447, -0.521255970001
2019-04-03 23:42:37.91,105334516, -0.05, -17.84, 296.31, 592.429992676, -35.363002, 149.1645888, 0.839173257351, -0.08222515136, -0.131541997194, -0.521271586418
2019-04-03 23:42:38.01,105434476, -0.01, -17.83, 296.31, 592.469970703, -35.363, 149.164584, 0.839206516743, -0.0818966329098, -0.131604894996, -0.521253764629
2019-04-03 23:42:38.11,105534436, 0.02, -17.83, 296.3, 592.510009766, -35.3629981, 149.1645792, 0.839224934578, -0.0816107913852, -0.131793692708, -0.521221220493
2019-04-03 23:42:38.21,105634396, 0.04, -17.86, 296.3, 592.539978027, -35.362996, 149.1645743, 0.839206874371, -0.0815713778138, -0.132087871432, -0.521182119846
2019-04-03 23:42:38.31,105734356, 0.04, -17.87, 296.3, 592.58001709, -35.3629941, 149.1645694, 0.839186668396, -0.0816216617823, -0.132218748331, -0.521173596382
2019-04-03 23:42:38.41,105834316, 0.06, -17.89, 296.3, 592.619995117, -35.3629921, 149.1645644, 0.839168488979, -0.0816323235631, -0.132403865457, -0.521154105663
2019-04-03 23:42:38.51,105934276, 0.06, -17.91, 296.3, 592.650024414, -35.3629902, 149.1645596, 0.839148461819, -0.0816723033786, -0.132596462965, -0.52113109827
2019-04-03 23:42:38.61,106034236, 0.06, -17.93, 296.3, 592.690002441, -35.3629881, 149.1645547, 0.839129030704, -0.081763215363, -0.132714092731, -0.521118283272
2019-04-03 23:42:38.71,106134196, 0.05, -17.95, 296.3, 592.729980469, -35.3629862, 149.1645498, 0.839103639126, -0.0819280445576, -0.132792964578, -0.521113216877
2019-04-03 23:42:38.81,106234156, 0.04, -17.95, 296.3, 592.760009766, -35.3629842, 149.1645448, 0.839092314243, -0.0820469483733, -0.132779762149, -0.521116018295
2019-04-03 23:42:38.91,106334949, 0.03, -17.95, 296.3, 592.799987793, -35.3629822, 149.16454, 0.839097082615, -0.0820719301701, -0.13270996511, -0.521122217178
2019-04-03 23:42:39.01,106434909, 0.05, -17.94, 296.3, 592.840026855, -35.3629802, 149.1645351, 0.839126825333, -0.0818336457014, -0.132727637887, -0.521107316017
2019-04-03 23:42:39.11,106534869, 0.08, -17.92, 296.3, 592.869995117, -35.3629783, 149.1645302, 0.839165687561, -0.081523604691, -0.132709443569, -0.521097958088
2019-04-03 23:42:39.21,106634829, 0.12, -17.89, 296.3, 592.909973145, -35.3629763, 149.1645252, 0.839222550392, -0.081142231822, -0.13267044723, -0.521075904369
2019-04-03 23:42:39.31,106734789, 0.13, -17.87, 296.3, 592.950012207, -35.3629743, 149.1645203, 0.839249849319, -0.0810079947114, -0.13260447979, -0.521069526672
2019-04-03 23:42:39.41,106834749, 0.1, -17.9, 296.31, 592.979980469, -35.3629722, 149.1645155, 0.839209616184, -0.081306822598, -0.132676750422, -0.521069407463
2019-04-03 23:42:39.51,106934709, 0.08, -17.93, 296.31, 593.020019531, -35.3629704, 149.1645107, 0.839158296585, -0.0816352516413, -0.132839247584, -0.521059274673
2019-04-03 23:42:39.61,107034669, 0.08, -17.97, 296.31, 593.059997559, -35.3629684, 149.1645058, 0.839112699032, -0.0818352624774, -0.13308404386, -0.52103883028
2019-04-03 23:42:39.71,107134629, 0.09, -18.0, 296.31, 593.090026855, -35.3629664, 149.1645009, 0.839086055756, -0.0818536132574, -0.133369192481, -0.521006047726
2019-04-03 23:42:39.81,107234589, 0.12, -18.01, 296.3, 593.130004883, -35.3629643, 149.1644959, 0.839089989662, -0.081719301641, -0.133529350162, -0.520979702473
2019-04-03 23:42:39.91,107334549, 0.12, -18.0, 296.3, 593.16998291, -35.3629624, 149.1644911, 0.83909624815, -0.0816273763776, -0.133523717523, -0.520985484123
2019-04-03 23:42:40.01,107434509, 0.1, -17.99, 296.3, 593.200012207, -35.3629604, 149.1644862, 0.839084267616, -0.0817293152213, -0.133351370692, -0.52103292942
2019-04-03 23:42:40.11,107534469, 0.07, -18.0, 296.3, 593.239990234, -35.3629583, 149.1644813, 0.839034020901, -0.0820323079824, -0.133273407817, -0.521086156368
2019-04-03 23:42:40.21,107634429, 0.06, -18.01, 296.29, 593.280029297, -35.3629564, 149.1644763, 0.838996231556, -0.0821513906121, -0.13330899179, -0.521119117737
2019-04-03 23:42:40.31,107734389, 0.06, -18.02, 296.29, 593.309997559, -35.3629545, 149.1644715, 0.838974177837, -0.0821548625827, -0.133334040642, -0.521147787571
2019-04-03 23:42:40.41,107834349, 0.08, -18.0, 296.28, 593.349975586, -35.3629525, 149.1644666, 0.838975548744, -0.0819843262434, -0.13332682848, -0.521174252033
2019-04-03 23:42:40.51,107934309, 0.12, -17.98, 296.28, 593.390014648, -35.3629504, 149.1644617, 0.838996767998, -0.0816165208817, -0.13334415853, -0.521193385124
2019-04-03 23:42:40.61,108034269, 0.15, -17.97, 296.27, 593.41998291, -35.3629485, 149.1644567, 0.839005172253, -0.081313341856, -0.13339099288, -0.521215260029
2019-04-03 23:42:40.71,108134229, 0.15, -17.96, 296.26, 593.460021973, -35.3629465, 149.1644519, 0.838975608349, -0.0813223421574, -0.133318811655, -0.521279871464
2019-04-03 23:42:40.81,108234189, 0.14, -17.97, 296.26, 593.5, -35.3629445, 149.164447, 0.838930785656, -0.0814405083656, -0.13328628242, -0.52134180069
2019-04-03 23:42:40.91,108334982, 0.11, -17.96, 296.25, 593.530029297, -35.3629424, 149.1644421, 0.838892638683, -0.0816010832787, -0.133134111762, -0.521417021751
2019-04-03 23:42:41.01,108434942, 0.07, -17.96, 296.24, 593.570007324, -35.3629405, 149.1644371, 0.838841736317, -0.0818829238415, -0.132917240262, -0.521510064602
2019-04-03 23:42:41.11,108534902, 0.04, -17.96, 296.24, 593.609985352, -35.3629385, 149.1644322, 0.838790416718, -0.0821199268103, -0.132788106799, -0.521588146687
2019-04-03 23:42:41.21,108634862, 0.03, -17.96, 296.23, 593.650024414, -35.3629364, 149.1644274, 0.83875399828, -0.0821978673339, -0.132786631584, -0.521634936333
2019-04-03 23:42:41.31,108734822, 0.05, -17.96, 296.23, 593.679992676, -35.3629345, 149.1644224, 0.838748455048, -0.0820567309856, -0.132789388299, -0.521665275097
2019-04-03 23:42:41.41,108834782, 0.08, -17.94, 296.22, 593.719970703, -35.3629325, 149.1644174, 0.838759064674, -0.0817785263062, -0.132781371474, -0.521694004536
2019-04-03 23:42:41.51,108934742, 0.11, -17.92, 296.21, 593.760009766, -35.3629305, 149.1644126, 0.838768362999, -0.0814494937658, -0.132818698883, -0.521721065044
2019-04-03 23:42:41.61,109034702, 0.14, -17.91, 296.21, 593.789978027, -35.3629284, 149.1644077, 0.838759899139, -0.0812534093857, -0.132869794965, -0.521752238274
2019-04-03 23:42:41.71,109134662, 0.15, -17.92, 296.2, 593.83001709, -35.3629265, 149.1644028, 0.838727474213, -0.0811896547675, -0.133011624217, -0.521778106689
2019-04-03 23:42:41.81,109234622, 0.16, -17.94, 296.19, 593.869995117, -35.3629245, 149.1643978, 0.838688611984, -0.0811718031764, -0.133158862591, -0.521805763245
2019-04-03 23:42:41.91,109334582, 0.16, -17.95, 296.19, 593.900024414, -35.3629224, 149.164393, 0.838637650013, -0.0813004299998, -0.133248642087, -0.521844744682
2019-04-03 23:42:42.01,109434542, 0.14, -17.99, 296.18, 593.940002441, -35.3629205, 149.1643881, 0.838565587997, -0.0815776214004, -0.133427515626, -0.521871626377
2019-04-03 23:42:42.11,109534502, 0.12, -18.03, 296.18, 593.979980469, -35.3629184, 149.1643832, 0.838478267193, -0.0819602012634, -0.133608907461, -0.52190554142
2019-04-03 23:42:42.21,109634462, 0.09, -18.05, 296.17, 594.020019531, -35.3629163, 149.1643782, 0.838414549828, -0.0822673812509, -0.133599385619, -0.521962046623
2019-04-03 23:42:42.31,109734422, 0.06, -18.05, 296.17, 594.049987793, -35.3629144, 149.1643734, 0.838368177414, -0.0824825689197, -0.13347864151, -0.522033393383
2019-04-03 23:42:42.41,109834382, 0.03, -18.03, 296.16, 594.090026855, -35.3629124, 149.1643685, 0.83834195137, -0.0826068371534, -0.133203849196, -0.522126078606
2019-04-03 23:42:42.51,109934342, 0.03, -17.99, 296.15, 594.130004883, -35.3629103, 149.1643636, 0.838356494904, -0.0824019312859, -0.132889196277, -0.522215247154
2019-04-03 23:42:42.61,110034302, 0.06, -17.95, 296.14, 594.159973145, -35.3629083, 149.1643586, 0.838376581669, -0.0820305496454, -0.132716715336, -0.522285342216
2019-04-03 23:42:42.71,110134262, 0.09, -17.93, 296.13, 594.200012207, -35.3629064, 149.1643537, 0.838369607925, -0.0817434564233, -0.132762044668, -0.522329986095
2019-04-03 23:42:42.81,110234222, 0.12, -17.95, 296.12, 594.239990234, -35.3629044, 149.1643488, 0.838312864304, -0.0816465318203, -0.133027821779, -0.52236866951
2019-04-03 23:42:42.91,110334182, 0.14, -17.98, 296.11, 594.270019531, -35.3629023, 149.1643439, 0.838243126869, -0.0816321521997, -0.133327633142, -0.522406339645
2019-04-03 23:42:43.01,110434975, 0.15, -18.01, 296.1, 594.309997559, -35.3629004, 149.1643389, 0.838161051273, -0.081733494997, -0.133572265506, -0.522459745407
2019-04-03 23:42:43.11,110534935, 0.14, -18.04, 296.09, 594.349975586, -35.3628984, 149.1643341, 0.838076353073, -0.0819486901164, -0.133670136333, -0.522536814213
2019-04-03 23:42:43.21,110634895, 0.11, -18.02, 296.08, 594.380004883, -35.3628963, 149.1643291, 0.8380433321, -0.0820405110717, -0.133448734879, -0.522632002831
2019-04-03 23:42:43.31,110734855, 0.09, -17.98, 296.07, 594.41998291, -35.3628944, 149.1643241, 0.838043749332, -0.0820481330156, -0.132994219661, -0.522745966911
2019-04-03 23:42:43.41,110834815, 0.08, -17.94, 296.06, 594.460021973, -35.3628924, 149.1643193, 0.838046014309, -0.081944078207, -0.132743477821, -0.522822380066
2019-04-03 23:42:43.51,110934775, 0.08, -17.94, 296.06, 594.489990234, -35.3628904, 149.1643144, 0.838023900986, -0.0819413587451, -0.132678925991, -0.522874653339
2019-04-03 23:42:43.61,111034735, 0.08, -17.95, 296.05, 594.530029297, -35.3628883, 149.1643095, 0.837994754314, -0.0819662958384, -0.132744640112, -0.522900760174
2019-04-03 23:42:43.71,111134695, 0.1, -17.96, 296.05, 594.570007324, -35.3628864, 149.1643045, 0.83796697855, -0.0819176509976, -0.132961928844, -0.522897720337
2019-04-03 23:42:43.81,111234655, 0.14, -17.99, 296.05, 594.599975586, -35.3628844, 149.1642996, 0.837947547436, -0.0817810297012, -0.133295074105, -0.522865414619
2019-04-03 23:42:43.91,111334615, 0.16, -18.02, 296.04, 594.640014648, -35.3628823, 149.1642948, 0.837918281555, -0.0817580670118, -0.133598536253, -0.52283847332
2019-04-03 23:42:44.01,111434575, 0.16, -18.05, 296.04, 594.679992676, -35.3628804, 149.1642898, 0.837875366211, -0.0819008722901, -0.133798107505, -0.522833824158
2019-04-03 23:42:44.11,111534535, 0.15, -18.07, 296.04, 594.710021973, -35.3628784, 149.1642848, 0.837838113308, -0.0820445567369, -0.133914247155, -0.522841215134
2019-04-03 23:42:44.21,111634495, 0.15, -18.06, 296.04, 594.75, -35.3628764, 149.16428, 0.837830662727, -0.082012064755, -0.133918106556, -0.522857308388
2019-04-03 23:42:44.31,111734455, 0.16, -18.05, 296.03, 594.780029297, -35.3628743, 149.1642751, 0.837832510471, -0.0819298923016, -0.13383346796, -0.522888898849
2019-04-03 23:42:44.41,111834415, 0.14, -18.02, 296.03, 594.820007324, -35.3628725, 149.1642702, 0.837842345238, -0.0818626731634, -0.133519023657, -0.522964119911
2019-04-03 23:42:44.51,111934375, 0.13, -17.97, 296.02, 594.859985352, -35.3628704, 149.1642652, 0.837849974632, -0.0818001180887, -0.133144199848, -0.523057162762
2019-04-03 23:42:44.61,112034335, 0.12, -17.97, 296.01, 594.890014648, -35.3628683, 149.1642604, 0.837819039822, -0.0818370059133, -0.133021861315, -0.523132026196
2019-04-03 23:42:44.71,112134295, 0.11, -17.97, 296.01, 594.929992676, -35.3628664, 149.1642554, 0.837761938572, -0.0819748938084, -0.133022382855, -0.523201823235
2019-04-03 23:42:44.81,112234255, 0.09, -18.0, 296.0, 594.969970703, -35.3628644, 149.1642504, 0.837689042091, -0.0821812078357, -0.133112072945, -0.523263335228
