Start,TimeUS,Roll,Pitch,Yaw,Alt,Lat,Lng,Q1,Q2,Q3,Q4
2019-04-03 23:49:41.40,41415927, 0.0, 0.0, 353.0, 584.090026855, -35.363261, 149.1652299, 0.998134791851, 0.0, 0.0, -0.0610485821962
2019-04-03 23:49:41.51,41535046, 0.0, 0.0, 353.0, 584.090026855, -35.363261, 149.1652299, 0.998134791851, 0.0, 0.0, -0.0610485821962
2019-04-03 23:49:41.61,41635006, 0.0, 0.0, 353.0, 584.090026855, -35.363261, 149.1652299, 0.998134791851, 0.0, 0.0, -0.0610485821962
2019-04-03 23:49:41.71,41734966, 0.0, 0.0, 353.0, 584.090026855, -35.363261, 149.1652299, 0.998134791851, 0.0, 0.0, -0.0610485821962
2019-04-03 23:49:41.81,41834926, 0.0, 0.0, 353.0, 584.090026855, -35.363261, 149.1652299, 0.998134791851, 0.0, 0.0, -0.0610485821962
2019-04-03 23:49:41.91,41934886, 0.0, 0.0, 353.0, 584.090026855, -35.363261, 149.1652299, 0.998134791851, 0.0, 0.0, -0.0610485821962
2019-04-03 23:49:42.01,42034846, 0.0, 0.0, 353.0, 584.090026855, -35.363261, 149.1652299, 0.998134791851, 0.0, 0.0, -0.0610485821962
2019-04-03 23:49:42.11,42134806, 0.0, 0.0, 353.0, 584.090026855, -35.363261, 149.1652299, 0.998134791851, 0.0, 0.0, -0.0610485821962
2019-04-03 23:49:42.21,42234766, 0.0, 0.0, 353.0, 584.090026855, -35.363261, 149.1652299, 0.998134791851, 0.0, 0.0, -0.0610485821962
2019-04-03 23:49:42.31,42334726, 0.0, 0.0, 353.0, 584.090026855, -35.363261, 149.1652299, 0.998134791851, 0.0, 0.0, -0.0610485821962
2019-04-03 23:49:42.41,42434686, 0.0, 0.0, 353.0, 584.090026855, -35.363261, 149.1652299, 0.998134791851, 0.0, 0.0, -0.0610485821962
2019-04-03 23:49:42.51,42534646, 0.0, 0.0, 353.0, 584.090026855, -35.363261, 149.1652299, 0.998134791851, 0.0, 0.0, -0.0610485821962
2019-04-03 23:49:42.61,42634606, 0.0, 0.0, 353.0, 584.090026855, -35.363261, 149.1652299, 0.998134791851, 0.0, 0.0, -0.0610485821962
2019-04-03 23:49:42.71,42734566, 0.0, 0.0, 353.0, 584.090026855, -35.363261, 149.1652299, 0.998134791851, 0.0, 0.0, -0.0610485821962
2019-04-03 23:49:42.81,42834526, 0.0, 0.0, 353.0, 584.090026855, -35.363261, 149.1652299, 0.998134791851, 0.0, 0.0, -0.0610485821962
2019-04-03 23:49:42.91,42934486, 0.0, 0.0, 353.0, 584.090026855, -35.363261, 149.1652299, 0.998134791851, 0.0, 0.0, -0.0610485821962
2019-04-03 23:49:43.01,43034446, 0.0, 0.0, 353.0, 584.090026855, -35.363261, 149.1652299, 0.998134791851, 0.0, 0.0, -0.0610485821962
2019-04-03 23:49:43.11,43134406, 0.0, 0.0, 353.0, 584.090026855, -35.363261, 149.1652299, 0.998134791851, 0.0, 0.0, -0.0610485821962
2019-04-03 23:49:43.21,43234366, 0.0, 0.0, 353.0, 584.090026855, -35.363261, 149.1652299, 0.998134791851, 0.0, 0.0, -0.0610485821962
2019-04-03 23:49:43.31,43334326, 0.0, 0.0, 353.0, 584.090026855, -35.363261, 149.1652299, 0.998134791851, 0.0, 0.0, -0.0610485821962
2019-04-03 23:49:43.41,43434286, 0.0, 0.0, 353.0, 584.090026855, -35.363261, 149.1652299, 0.998134791851, 0.0, 0.0, -0.0610485821962
2019-04-03 23:49:43.51,43535079, 0.0, 0.0, 353.0, 584.090026855, -35.363261, 149.1652299, 0.998134791851, 0.0, 0.0, -0.0610485821962
2019-04-03 23:49:43.61,43635039, 0.0, 0.0, 353.0, 584.090026855, -35.363261, 149.1652299, 0.998134791851, 0.0, 0.0, -0.0610485821962
2019-04-03 23:49:43.71,43734999, 0.0, 0.0, 353.0, 584.090026855, -35.363261, 149.1652299, 0.998134791851, 0.0, 0.0, -0.0610485821962
2019-04-03 23:49:43.81,43834959, 0.0, 0.0, 353.0, 584.090026855, -35.363261, 149.1652299, 0.998134791851, 0.0, 0.0, -0.0610485821962
2019-04-03 23:49:43.91,43934919, 0.0, 0.0, 353.0, 584.090026855, -35.363261, 149.1652299, 0.998134791851, 0.0, 0.0, -0.0610485821962
2019-04-03 23:49:44.01,44034879, 0.0, 0.0, 353.0, 584.090026855, -35.363261, 149.1652299, 0.998134791851, 0.0, 0.0, -0.0610485821962
2019-04-03 23:49:44.11,44134839, 0.0, 0.0, 353.0, 584.090026855, -35.363261, 149.1652299, 0.998134791851, 0.0, 0.0, -0.0610485821962
2019-04-03 23:49:44.21,44234799, 0.0, 0.0, 353.0, 584.090026855, -35.363261, 149.1652299, 0.998134791851, 0.0, 0.0, -0.0610485821962
2019-04-03 23:49:44.31,44334759, 0.0, 0.0, 353.0, 584.090026855, -35.363261, 149.1652299, 0.998134791851, 0.0, 0.0, -0.0610485821962
2019-04-03 23:49:44.41,44434719, 0.0, 0.0, 353.0, 584.090026855, -35.363261, 149.1652299, 0.998134791851, 0.0, 0.0, -0.0610485821962
2019-04-03 23:49:44.51,44534679, 0.0, 0.0, 353.0, 584.090026855, -35.363261, 149.1652299, 0.998134791851, 0.0, 0.0, -0.0610485821962
2019-04-03 23:49:44.61,44634639, 0.0, 0.0, 353.0, 584.090026855, -35.363261, 149.1652299, 0.998134791851, 0.0, 0.0, -0.0610485821962
2019-04-03 23:49:44.71,44734599, 0.0, 0.0, 353.0, 584.090026855, -35.363261, 149.1652299, 0.998134791851, 0.0, 0.0, -0.0610485821962
2019-04-03 23:49:44.81,44834559, 0.0, 0.0, 353.0, 584.090026855, -35.363261, 149.1652299, 0.998134791851, 0.0, 0.0, -0.0610485821962
2019-04-03 23:49:44.91,44934519, 0.0, 0.0, 353.0, 584.090026855, -35.363261, 149.1652299, 0.998134791851, 0.0, 0.0, -0.0610485821962
2019-04-03 23:49:45.01,45034479, 0.0, 0.0, 353.0, 584.090026855, -35.363261, 149.1652299, 0.998134791851, 0.0, 0.0, -0.0610485821962
2019-04-03 23:49:45.11,45134439, 0.0, 0.0, 353.0, 584.090026855, -35.363261, 149.1652299, 0.998134791851, 0.0, 0.0, -0.0610485821962
2019-04-03 23:49:45.21,45234399, 0.0, 0.0, 353.0, 584.090026855, -35.363261, 149.1652299, 0.998134791851, 0.0, 0.0, -0.0610485821962
2019-04-03 23:49:45.31,45334359, 0.0, 0.0, 353.0, 584.090026855, -35.363261, 149.1652299, 0.998134791851, 0.0, 0.0, -0.0610485821962
2019-04-03 23:49:45.41,45434319, 0.0, 0.0, 353.0, 584.090026855, -35.363261, 149.1652299, 0.998134791851, 0.0, 0.0, -0.0610485821962
2019-04-03 23:49:45.51,45534279, 0.0, 0.0, 353.0, 584.090026855, -35.363261, 149.1652299, 0.998134791851, 0.0, 0.0, -0.0610485821962
2019-04-03 23:49:45.61,45635072, 0.0, 0.0, 353.0, 584.090026855, -35.363261, 149.1652299, 0.998134791851, 0.0, 0.0, -0.0610485821962
2019-04-03 23:49:45.71,45735032, 0.0, 0.0, 353.0, 584.090026855, -35.363261, 149.1652299, 0.998134791851, 0.0, 0.0, -0.0610485821962
2019-04-03 23:49:45.81,45834992, 0.0, 0.0, 353.0, 584.090026855, -35.363261, 149.1652299, 0.998134791851, 0.0, 0.0, -0.0610485821962
2019-04-03 23:49:45.91,45934952, 0.0, 0.0, 353.0, 584.090026855, -35.363261, 149.1652299, 0.998134791851, 0.0, 0.0, -0.0610485821962
2019-04-03 23:49:46.01,46034912, 0.0, 0.0, 353.0, 584.090026855, -35.363261, 149.1652299, 0.998134791851, 0.0, 0.0, -0.0610485821962
2019-04-03 23:49:46.11,46134872, 0.0, 0.0, 353.0, 584.090026855, -35.363261, 149.1652299, 0.998134791851, 0.0, 0.0, -0.0610485821962
2019-04-03 23:49:46.21,46234832, 0.0, 0.0, 353.0, 584.090026855, -35.363261, 149.1652299, 0.998134791851, 0.0, 0.0, -0.0610485821962
2019-04-03 23:49:46.31,46334792, 0.0, 0.0, 353.0, 584.090026855, -35.363261, 149.1652299, 0.998134791851, 0.0, 0.0, -0.0610485821962
2019-04-03 23:49:46.41,46434752, 0.0, 0.0, 353.0, 584.090026855, -35.363261, 149.1652299, 0.998134791851, 0.0, 0.0, -0.0610485821962
2019-04-03 23:49:46.51,46534712, 0.0, 0.0, 353.0, 584.090026855, -35.363261, 149.1652299, 0.998134791851, 0.0, 0.0, -0.0610485821962
2019-04-03 23:49:46.61,46634672, 0.0, 0.0, 353.0, 584.090026855, -35.363261, 149.1652299, 0.998134791851, 0.0, 0.0, -0.0610485821962
2019-04-03 23:49:46.71,46734632, 0.0, 0.0, 353.0, 584.090026855, -35.363261, 149.1652299, 0.998134791851, 0.0, 0.0, -0.0610485821962
2019-04-03 23:49:46.81,46834592, 0.0, 0.0, 353.0, 584.090026855, -35.363261, 149.1652299, 0.998134791851, 0.0, 0.0, -0.0610485821962
2019-04-03 23:49:46.91,46934552, 0.0, 0.0, 353.0, 584.090026855, -35.363261, 149.1652299, 0.998134791851, 0.0, 0.0, -0.0610485821962
2019-04-03 23:49:47.01,47034512, 0.0, 0.0, 353.0, 584.090026855, -35.363261, 149.1652299, 0.998134791851, 0.0, 0.0, -0.0610485821962
2019-04-03 23:49:47.11,47134472, 0.0, 0.0, 353.0, 584.090026855, -35.363261, 149.1652299, 0.998134791851, 0.0, 0.0, -0.0610485821962
2019-04-03 23:49:47.21,47234432, 0.0, 0.0, 353.0, 584.090026855, -35.363261, 149.1652299, 0.998134791851, 0.0, 0.0, -0.0610485821962
2019-04-03 23:49:47.31,47334392, 0.0, 0.0, 353.0, 584.090026855, -35.363261, 149.1652299, 0.998134791851, 0.0, 0.0, -0.0610485821962
2019-04-03 23:49:47.41,47434352, 0.0, 0.0, 353.0, 584.090026855, -35.363261, 149.1652299, 0.998134791851, 0.0, 0.0, -0.0610485821962
2019-04-03 23:49:47.51,47534312, 0.0, 0.0, 353.0, 584.090026855, -35.363261, 149.1652299, 0.998134791851, 0.0, 0.0, -0.0610485821962
2019-04-03 23:49:47.61,47634272, 0.0, 0.0, 353.0, 584.090026855, -35.363261, 149.1652299, 0.998134791851, 0.0, 0.0, -0.0610485821962
2019-04-03 23:49:47.71,47735065, 0.0, 0.0, 353.0, 584.090026855, -35.363261, 149.1652299, 0.998134791851, 0.0, 0.0, -0.0610485821962
2019-04-03 23:49:47.81,47835025, 0.0, 0.0, 353.0, 584.090026855, -35.363261, 149.1652299, 0.998134791851, 0.0, 0.0, -0.0610485821962
2019-04-03 23:49:47.91,47934985, 0.0, 0.0, 353.0, 584.090026855, -35.363261, 149.1652299, 0.998134791851, 0.0, 0.0, -0.0610485821962
2019-04-03 23:49:48.01,48034945, 0.0, 0.0, 353.0, 584.090026855, -35.363261, 149.1652299, 0.998134791851, 0.0, 0.0, -0.0610485821962
2019-04-03 23:49:48.11,48134905, 0.0, 0.0, 353.0, 584.090026855, -35.363261, 149.1652299, 0.998134791851, 0.0, 0.0, -0.0610485821962
2019-04-03 23:49:48.21,48234865, 0.0, 0.0, 353.0, 584.090026855, -35.363261, 149.1652299, 0.998134791851, 0.0, 0.0, -0.0610485821962
2019-04-03 23:49:48.31,48334825, 0.0, 0.0, 353.0, 584.090026855, -35.363261, 149.1652299, 0.998134791851, 0.0, 0.0, -0.0610485821962
2019-04-03 23:49:48.41,48434785, 0.0, 0.0, 353.0, 584.090026855, -35.363261, 149.1652299, 0.998134791851, 0.0, 0.0, -0.0610485821962
2019-04-03 23:49:48.51,48534745, 0.0, 0.0, 353.0, 584.090026855, -35.363261, 149.1652299, 0.998134791851, 0.0, 0.0, -0.0610485821962
2019-04-03 23:49:48.61,48634705, 0.0, 0.0, 353.0, 584.090026855, -35.363261, 149.1652299, 0.998134791851, 0.0, 0.0, -0.0610485821962
2019-04-03 23:49:48.71,48734665, 0.0, 0.0, 353.0, 584.090026855, -35.363261, 149.1652299, 0.998134791851, 0.0, 0.0, -0.0610485821962
2019-04-03 23:49:48.81,48834625, 0.0, 0.0, 353.0, 584.090026855, -35.363261, 149.1652299, 0.998134791851, 0.0, 0.0, -0.0610485821962
2019-04-03 23:49:48.91,48934585, 0.0, 0.0, 353.0, 584.090026855, -35.363261, 149.1652299, 0.998134791851, 0.0, 0.0, -0.0610485821962
2019-04-03 23:49:49.01,49034545, 0.0, 0.0, 353.0, 584.090026855, -35.363261, 149.1652299, 0.998134791851, 0.0, 0.0, -0.0610485821962
2019-04-03 23:49:49.11,49134505, 0.0, 0.0, 353.0, 584.090026855, -35.363261, 149.1652299, 0.998134791851, 0.0, 0.0, -0.0610485821962
2019-04-03 23:49:49.21,49234465, 0.0, 0.0, 353.0, 584.090026855, -35.363261, 149.1652299, 0.998134791851, 0.0, 0.0, -0.0610485821962
2019-04-03 23:49:49.31,49334425, 0.0, 0.0, 353.0, 584.090026855, -35.363261, 149.1652299, 0.998134791851, 0.0, 0.0, -0.0610485821962
2019-04-03 23:49:49.41,49434385, 0.0, 0.0, 353.0, 584.090026855, -35.363261, 149.1652299, 0.998134791851, 0.0, 0.0, -0.0610485821962
2019-04-03 23:49:49.51,49534345, 0.0, 0.0, 353.0, 584.090026855, -35.363261, 149.1652299, 0.998134791851, 0.0, 0.0, -0.0610485821962
2019-04-03 23:49:49.61,49634305, 0.0, 0.0, 353.0, 584.090026855, -35.363261, 149.1652299, 0.998134791851, 0.0, 0.0, -0.0610485821962
2019-04-03 23:49:49.71,49734265, 0.0, 0.0, 353.0, 584.090026855, -35.363261, 149.1652299, 0.998134791851, 0.0, 0.0, -0.0610485821962
2019-04-03 23:49:49.81,49835058, 0.0, 0.0, 353.0, 584.090026855, -35.363261, 149.1652299, 0.998134791851, 0.0, 0.0, -0.0610485821962
2019-04-03 23:49:49.91,49935018, 0.0, 0.0, 353.0, 584.090026855, -35.363261, 149.1652299, 0.998134791851, 0.0, 0.0, -0.0610485821962
2019-04-03 23:49:50.01,50034978, 0.0, 0.0, 353.0, 584.090026855, -35.363261, 149.1652299, 0.998134791851, 0.0, 0.0, -0.0610485821962
2019-04-03 23:49:50.11,50134938, 0.0, 0.0, 353.0, 584.090026855, -35.363261, 149.1652299, 0.998134791851, 0.0, 0.0, -0.0610485821962
2019-04-03 23:49:50.21,50234898, 0.0, 0.0, 353.0, 584.090026855, -35.363261, 149.1652299, 0.998134791851, 0.0, 0.0, -0.0610485821962
2019-04-03 23:49:50.31,50334858, 0.0, 0.0, 353.0, 584.090026855, -35.363261, 149.1652299, 0.998134791851, 0.0, 0.0, -0.0610485821962
2019-04-03 23:49:50.41,50434818, 0.0, 0.0, 353.0, 584.090026855, -35.363261, 149.1652299, 0.998134791851, 0.0, 0.0, -0.0610485821962
2019-04-03 23:49:50.51,50534778, 0.0, 0.0, 353.0, 584.090026855, -35.363261, 149.1652299, 0.998134791851, 0.0, 0.0, -0.0610485821962
2019-04-03 23:49:50.61,50634738, 0.0, 0.0, 353.0, 584.090026855, -35.363261, 149.1652299, 0.998134791851, 0.0, 0.0, -0.0610485821962
2019-04-03 23:49:50.71,50734698, 0.0, 0.0, 353.0, 584.090026855, -35.363261, 149.1652299, 0.998134791851, 0.0, 0.0, -0.0610485821962
2019-04-03 23:49:50.81,50834658, 0.0, 0.0, 353.0, 584.090026855, -35.363261, 149.1652299, 0.998134791851, 0.0, 0.0, -0.0610485821962
2019-04-03 23:49:50.91,50934618, 0.0, 0.0, 353.0, 584.090026855, -35.363261, 149.1652299, 0.998134791851, 0.0, 0.0, -0.0610485821962
2019-04-03 23:49:51.01,51034578, 0.0, 0.0, 353.0, 584.090026855, -35.363261, 149.1652299, 0.998134791851, 0.0, 0.0, -0.0610485821962
2019-04-03 23:49:51.11,51134538, 0.0, 0.0, 353.0, 584.090026855, -35.363261, 149.1652299, 0.998134791851, 0.0, 0.0, -0.0610485821962
2019-04-03 23:49:51.21,51234498, 0.0, 0.0, 353.0, 584.090026855, -35.363261, 149.1652299, 0.998134791851, 0.0, 0.0, -0.0610485821962
2019-04-03 23:49:52.31,52334891, 0.0, 0.0, 353.0, 584.090026855, -35.363261, 149.1652299, 0.998134791851, 0.0, 0.0, -0.0610485821962
2019-04-03 23:49:52.41,52434851, 0.0, 0.0, 353.0, 584.090026855, -35.363261, 149.1652299, 0.998134791851, 0.0, 0.0, -0.0610485821962
2019-04-03 23:49:52.51,52534811, 0.0, 0.0, 353.0, 584.090026855, -35.363261, 149.1652299, 0.998134791851, 0.0, 0.0, -0.0610485821962
2019-04-03 23:49:52.61,52634771, 0.0, 0.0, 353.0, 584.090026855, -35.363261, 149.1652299, 0.998134791851, 0.0, 0.0, -0.0610485821962
2019-04-03 23:49:52.71,52734731, 0.0, 0.0, 353.0, 584.090026855, -35.363261, 149.1652299, 0.998134791851, 0.0, 0.0, -0.0610485821962
2019-04-03 23:49:52.81,52834691, 0.0, 0.0, 353.0, 584.090026855, -35.363261, 149.1652299, 0.998134791851, 0.0, 0.0, -0.0610485821962
2019-04-03 23:49:52.91,52934651, 0.0, 0.0, 353.0, 584.090026855, -35.363261, 149.1652299, 0.998134791851, 0.0, 0.0, -0.0610485821962
2019-04-03 23:49:53.01,53034611, 0.0, 0.0, 353.0, 584.090026855, -35.363261, 149.1652299, 0.998134791851, 0.0, 0.0, -0.0610485821962
2019-04-03 23:49:53.11,53134571, 0.0, 0.0, 353.0, 584.090026855, -35.363261, 149.1652299, 0.998134791851, 0.0, 0.0, -0.0610485821962
2019-04-03 23:49:53.21,53234531, 0.0, 0.0, 353.0, 584.090026855, -35.363261, 149.1652299, 0.998134791851, 0.0, 0.0, -0.0610485821962
2019-04-03 23:49:53.31,53334491, 0.0, 0.0, 353.0, 584.090026855, -35.363261, 149.1652299, 0.998134791851, 0.0, 0.0, -0.0610485821962
2019-04-03 23:49:53.41,53434451, 0.0, 0.0, 353.0, 584.090026855, -35.363261, 149.1652299, 0.998134791851, 0.0, 0.0, -0.0610485821962
2019-04-03 23:49:53.51,53534411, 0.0, 0.0, 353.0, 584.090026855, -35.363261, 149.1652299, 0.998134791851, 0.0, 0.0, -0.0610485821962
2019-04-03 23:49:53.61,53634371, 0.0, 0.0, 353.0, 584.090026855, -35.363261, 149.1652299, 0.998134791851, 0.0, 0.0, -0.0610485821962
2019-04-03 23:49:53.71,53734331, 0.0, 0.0, 353.0, 584.090026855, -35.363261, 149.1652299, 0.998134791851, 0.0, 0.0, -0.0610485821962
2019-04-03 23:49:53.81,53834291, 0.0, 0.0, 353.0, 584.090026855, -35.363261, 149.1652299, 0.998134791851, 0.0, 0.0, -0.0610485821962
2019-04-03 23:49:53.91,53935084, 0.0, 0.0, 353.0, 584.090026855, -35.363261, 149.1652299, 0.998134791851, 0.0, 0.0, -0.0610485821962
2019-04-03 23:49:54.01,54035044, 0.0, 0.0, 353.0, 584.090026855, -35.363261, 149.1652299, 0.998134791851, 0.0, 0.0, -0.0610485821962
2019-04-03 23:49:54.11,54135004, 0.0, 0.0, 353.0, 584.090026855, -35.363261, 149.1652299, 0.998134791851, 0.0, 0.0, -0.0610485821962
2019-04-03 23:49:54.21,54234964, 0.0, 0.0, 353.0, 584.090026855, -35.363261, 149.1652299, 0.998134791851, 0.0, 0.0, -0.0610485821962
2019-04-03 23:49:54.31,54334924, 0.0, 0.0, 353.0, 584.090026855, -35.363261, 149.1652299, 0.998134791851, 0.0, 0.0, -0.0610485821962
2019-04-03 23:49:54.41,54434884, 0.0, 0.0, 353.0, 584.090026855, -35.363261, 149.1652299, 0.998134791851, 0.0, 0.0, -0.0610485821962
2019-04-03 23:49:54.51,54534844, 0.0, 0.0, 353.0, 584.090026855, -35.363261, 149.1652299, 0.998134791851, 0.0, 0.0, -0.0610485821962
2019-04-03 23:49:54.61,54634804, 0.0, 0.0, 353.0, 584.090026855, -35.363261, 149.1652299, 0.998134791851, 0.0, 0.0, -0.0610485821962
2019-04-03 23:49:54.71,54734764, 0.0, 0.0, 353.0, 584.090026855, -35.363261, 149.1652299, 0.998134791851, 0.0, 0.0, -0.0610485821962
2019-04-03 23:49:54.81,54834724, 0.0, 0.0, 353.0, 584.090026855, -35.363261, 149.1652299, 0.998134791851, 0.0, 0.0, -0.0610486380756
2019-04-03 23:49:54.91,54934684, 0.0, 0.0, 353.0, 584.090026855, -35.363261, 149.1652299, 0.998134791851, 0.0, 0.0, -0.0610486753285
2019-04-03 23:49:55.01,55034644, 0.0, 0.0, 353.0, 584.090026855, -35.363261, 149.1652299, 0.998134791851, 0.0, 0.0, -0.0610486753285
2019-04-03 23:49:55.11,55134604, 0.0, 0.0, 353.0, 584.090026855, -35.363261, 149.1652299, 0.998134791851, 0.0, 0.0, -0.0610486753285
2019-04-03 23:49:55.21,55234564, 0.0, 0.0, 353.0, 584.090026855, -35.363261, 149.1652299, 0.998134791851, 0.0, 0.0, -0.0610486753285
2019-04-03 23:49:55.31,55334524, 0.0, 0.0, 353.0, 584.090026855, -35.363261, 149.1652299, 0.998134791851, 0.0, 0.0, -0.0610486641526
2019-04-03 23:49:55.41,55434484, 0.0, 0.0, 353.0, 584.099975586, -35.363261, 149.1652299, 0.998134791851, 0.0, 0.0, -0.0610486753285
2019-04-03 23:49:55.51,55534444, 0.0, 0.0, 353.0, 584.099975586, -35.363261, 149.1652299, 0.998134791851, 0.0, 0.0, -0.0610486753285
2019-04-03 23:49:55.61,55634404, 0.0, 0.0, 353.0, 584.119995117, -35.363261, 149.1652299, 0.998134791851, 0.0, 0.0, -0.0610486753285
2019-04-03 23:49:55.71,55734364, 0.0, 0.0, 353.0, 584.140014648, -35.363261, 149.1652299, 0.998134791851, 0.0, 0.0, -0.0610486753285
2019-04-03 23:49:55.81,55834324, 0.0, 0.0, 353.0, 584.16998291, -35.363261, 149.1652299, 0.998134791851, 0.0, 0.0, -0.0610486753285
2019-04-03 23:49:55.91,55934284, 0.0, 0.0, 353.0, 584.200012207, -35.363261, 149.1652299, 0.998134791851, 0.0, 0.0, -0.0610486753285
2019-04-03 23:49:56.01,56035077, -0.03, -0.02, 352.99, 584.25, -35.363261, 149.1652299, 0.998134732246, -0.000310221512336, -0.000183906944585, -0.0610487945378
2019-04-03 23:49:56.11,56135037, -0.11, -0.08, 352.99, 584.359985352, -35.363261, 149.1652299, 0.998133659363, -0.00102447788231, -0.000683848338667, -0.0610550455749
2019-04-03 23:49:56.21,56234997, -0.17, -0.15, 352.99, 584.5, -35.363261, 149.1652299, 0.998131394386, -0.00162476336118, -0.00127687759232, -0.0610698349774
2019-04-03 23:49:56.31,56334957, -0.22, -0.2, 352.99, 584.659973145, -35.363261, 149.1652299, 0.998128652573, -0.00203635171056, -0.00170860008802, -0.0610915198922
2019-04-03 23:49:56.41,56434917, -0.23, -0.21, 352.99, 584.809997559, -35.363261, 149.1652299, 0.998126983643, -0.00214434764348, -0.00178794900421, -0.0611131079495
2019-04-03 23:49:56.51,56534877, -0.19, -0.2, 352.99, 584.960021973, -35.363261, 149.1652299, 0.99812656641, -0.00184256606735, -0.00167702906765, -0.0611327402294
2019-04-03 23:49:56.61,56634837, -0.13, -0.16, 352.98, 585.119995117, -35.363261, 149.1652299, 0.998126983643, -0.00124957796652, -0.00138973328285, -0.0611479505897
2019-04-03 23:49:56.71,56734797, -0.05, -0.13, 352.98, 585.270019531, -35.363261, 149.1652299, 0.998127400875, -0.000536334817298, -0.00112960068509, -0.0611574016511
2019-04-03 23:49:56.81,56834757, 0.01, -0.11, 352.98, 585.440002441, -35.363261, 149.1652299, 0.998127281666, 3.91770845454e-05, -0.000973333604634, -0.0611639730632
2019-04-03 23:49:56.91,56934717, 0.03, -0.06, 352.98, 585.609985352, -35.363261, 149.1652298, 0.998127639294, 0.000272341858363, -0.000622856139671, -0.0611622296274
2019-04-03 23:49:57.01,57034677, 0.06, -0.02, 352.98, 585.789978027, -35.363261, 149.1652298, 0.998128175735, 0.000555155274924, -0.000272932637017, -0.061154037714
2019-04-03 23:49:57.11,57134637, 0.08, 0.0, 352.98, 585.960021973, -35.363261, 149.1652298, 0.998128294945, 0.000739483220968, 3.52353454218e-05, -0.0611502863467
2019-04-03 23:49:57.21,57234597, 0.07, 0.04, 352.98, 586.130004883, -35.3632609, 149.1652298, 0.998128354549, 0.000718972994946, 0.000375128234737, -0.0611485131085
2019-04-03 23:49:57.31,57334557, 0.04, 0.03, 352.98, 586.289978027, -35.3632609, 149.1652298, 0.998128414154, 0.000430855288869, 0.0003017525014, -0.0611508302391
2019-04-03 23:49:57.41,57434517, -0.07, -0.18, 352.98, 586.440002441, -35.3632609, 149.1652298, 0.998126447201, -0.000746911566239, -0.00158324395306, -0.0611598305404
2019-04-03 23:49:57.51,57534477, -0.29, -0.69, 352.98, 586.570007324, -35.3632609, 149.1652298, 0.998105585575, -0.0029667802155, -0.00587997538969, -0.0611710585654
2019-04-03 23:49:57.61,57634437, -0.61, -1.45, 352.99, 586.700012207, -35.3632609, 149.1652298, 0.998031079769, -0.006141055841, -0.0123748052865, -0.0611812397838
2019-04-03 23:49:57.71,57734397, -0.99, -2.39, 353.0, 586.809997559, -35.3632608, 149.1652298, 0.997868776321, -0.00992201827466, -0.0203593950719, -0.0611965283751
2019-04-03 23:49:57.81,57834357, -1.37, -3.41, 353.01, 586.909973145, -35.3632608, 149.1652298, 0.997606694698, -0.0138118918985, -0.0289873071015, -0.0612361244857
2019-04-03 23:49:57.91,57934317, -1.71, -4.35, 353.02, 587.0, -35.3632605, 149.1652297, 0.99728167057, -0.0172796025872, -0.0370409823954, -0.0613080337644
2019-04-03 23:49:58.01,58034277, -1.99, -5.12, 353.03, 587.08001709, -35.3632604, 149.1652296, 0.996958196163, -0.0200375970453, -0.043580558151, -0.0614296644926
2019-04-03 23:49:58.11,58135070, -2.2, -5.7, 353.03, 587.140014648, -35.3632603, 149.1652294, 0.996675670147, -0.022194897756, -0.0484759025276, -0.0616041123867
2019-04-03 23:49:58.21,58235030, -2.36, -6.1, 353.02, 587.200012207, -35.3632599, 149.1652293, 0.996454060078, -0.0238306373358, -0.0518675744534, -0.0618159025908
2019-04-03 23:49:58.31,58334990, -2.49, -6.41, 353.01, 587.25, -35.3632596, 149.1652291, 0.996268451214, -0.0250784698874, -0.0545175932348, -0.0620330832899
2019-04-03 23:49:58.41,58434950, -2.63, -6.72, 353.0, 587.299987793, -35.3632592, 149.1652288, 0.996073007584, -0.0264703128487, -0.0571239106357, -0.0622481331229
2019-04-03 23:49:58.51,58534910, -2.77, -7.06, 352.99, 587.340026855, -35.3632586, 149.1652284, 0.995854794979, -0.0278705768287, -0.0599693283439, -0.062450863421
2019-04-03 23:49:58.61,58634870, -2.88, -7.37, 352.98, 587.369995117, -35.3632582, 149.1652281, 0.995646595955, -0.0289831124246, -0.062649384141, -0.0626331791282
2019-04-03 23:49:58.71,58734830, -2.97, -7.62, 352.97, 587.400024414, -35.3632574, 149.1652277, 0.995474636555, -0.0298953838646, -0.0647510364652, -0.062800347805
2019-04-03 23:49:58.81,58834790, -3.05, -7.8, 352.97, 587.429992676, -35.3632567, 149.1652272, 0.995336472988, -0.0307504590601, -0.0663164779544, -0.0629436820745
2019-04-03 23:49:58.91,58934750, -3.13, -7.95, 352.96, 587.450012207, -35.3632561, 149.1652267, 0.995226144791, -0.0314651504159, -0.0675152614713, -0.0630601271987
2019-04-03 23:49:59.01,59034710, -3.19, -8.07, 352.96, 587.479980469, -35.3632553, 149.1652262, 0.995129287243, -0.0320487804711, -0.0685752779245, -0.0631500408053
2019-04-03 23:49:59.11,59134670, -3.25, -8.19, 352.96, 587.5, -35.3632543, 149.1652255, 0.995035588741, -0.0326617956161, -0.0695775449276, -0.0632171183825
2019-04-03 23:49:59.21,59234630, -3.41, -8.33, 352.93, 587.520019531, -35.3632534, 149.165225, 0.994880735874, -0.034151121974, -0.0707016661763, -0.0636187419295
2019-04-03 23:49:59.31,59334590, -3.86, -8.47, 352.5, 587.539978027, -35.3632524, 149.1652243, 0.994402706623, -0.0383873768151, -0.0715118646622, -0.0676441863179
2019-04-03 23:49:59.41,59434550, -4.48, -8.68, 350.97, 587.559997559, -35.3632513, 149.1652236, 0.993044555187, -0.0448769181967, -0.0723152309656, -0.0813578516245
2019-04-03 23:49:59.51,59534510, -4.7, -9.09, 347.85, 587.58001709, -35.3632503, 149.1652227, 0.990074038506, -0.0490555875003, -0.0744707509875, -0.108633078635
2019-04-03 23:49:59.61,59634470, -4.03, -9.74, 343.43, 587.599975586, -35.3632491, 149.165222, 0.984949111938, -0.0469284877181, -0.0789612159133, -0.14641751349
2019-04-03 23:49:59.71,59734430, -2.55, -10.47, 338.43, 587.619995117, -35.3632479, 149.1652211, 0.977625608444, -0.0388415940106, -0.0854936763644, -0.188229426742
2019-04-03 23:49:59.81,59834390, -0.6, -11.12, 333.55, 587.640014648, -35.3632465, 149.1652201, 0.9687718153, -0.027257880196, -0.0931270346045, -0.22817863524
2019-04-03 23:49:59.91,59934350, 1.36, -11.61, 329.35, 587.66998291, -35.3632452, 149.1652191, 0.959752857685, -0.0152645502239, -0.10068488121, -0.261732667685
2019-04-03 23:50:00.01,60034310, 2.95, -11.94, 326.23, 587.690002441, -35.3632439, 149.1652179, 0.952181339264, -0.00565377110615, -0.106995485723, -0.286130547523
2019-04-03 23:50:00.11,60134270, 3.89, -12.18, 324.39, 587.710021973, -35.3632424, 149.1652169, 0.947301447392, -0.00026088199229, -0.111323751509, -0.300377935171
2019-04-03 23:50:00.21,60235063, 4.11, -12.41, 323.79, 587.739990234, -35.3632407, 149.1652159, 0.945530474186, 0.000385599443689, -0.113825932145, -0.304984778166
2019-04-03 23:50:00.31,60335023, 3.71, -12.7, 324.25, 587.760009766, -35.363239, 149.1652148, 0.946512639523, -0.00331493862905, -0.115147016943, -0.301403462887
2019-04-03 23:50:00.41,60434983, 2.86, -13.1, 325.51, 587.789978027, -35.3632373, 149.1652136, 0.9493688941, -0.01008926332, -0.116318784654, -0.291662365198
2019-04-03 23:50:00.51,60534943, 1.78, -13.58, 327.28, 587.820007324, -35.3632354, 149.1652126, 0.953183948994, -0.0184854324907, -0.117834575474, -0.277873426676
2019-04-03 23:50:00.61,60634903, 0.65, -14.08, 329.27, 587.849975586, -35.3632334, 149.1652115, 0.957165658474, -0.0270415842533, -0.11972694844, -0.262236833572
2019-04-03 23:50:00.71,60734863, -0.38, -14.51, 331.22, 587.880004883, -35.3632313, 149.1652102, 0.960763812065, -0.0346004515886, -0.121552191675, -0.246902301908
2019-04-03 23:50:00.81,60834823, -1.22, -14.8, 332.89, 587.909973145, -35.3632294, 149.165209, 0.963680028915, -0.0405100174248, -0.122781798244, -0.233675971627
2019-04-03 23:50:00.91,60934783, -1.82, -14.95, 334.14, 587.940002441, -35.3632272, 149.1652076, 0.965788245201, -0.0444622673094, -0.123271517456, -0.223786443472
2019-04-03 23:50:01.01,61034743, -2.13, -14.99, 334.89, 587.969970703, -35.363225, 149.1652062, 0.967055082321, -0.0463999658823, -0.123330332339, -0.217809945345
2019-04-03 23:50:01.11,61134703, -2.15, -15.0, 335.14, 588.010009766, -35.3632227, 149.1652047, 0.967512309551, -0.0463360399008, -0.123446151614, -0.215717300773
2019-04-03 23:50:01.21,61234663, -1.93, -15.03, 334.96, 588.039978027, -35.3632203, 149.1652031, 0.967218399048, -0.0447167344391, -0.124038212001, -0.217033445835
2019-04-03 23:50:01.31,61334623, -1.52, -15.11, 334.44, 588.070007324, -35.3632179, 149.1652016, 0.96628934145, -0.0419806018472, -0.125302299857, -0.220956787467
2019-04-03 23:50:01.41,61434583, -1.02, -15.24, 333.7, 588.109985352, -35.3632155, 149.1651999, 0.964883804321, -0.0388011410832, -0.127145141363, -0.226556509733
2019-04-03 23:50:01.51,61534543, -0.51, -15.36, 332.88, 588.140014648, -35.363213, 149.1651982, 0.963252842426, -0.0357072874904, -0.128941193223, -0.232901617885
2019-04-03 23:50:01.61,61634503, -0.05, -15.45, 332.08, 588.179992676, -35.3632105, 149.1651964, 0.961633205414, -0.0329100042582, -0.130404308438, -0.239109173417
2019-04-03 23:50:01.71,61734463, 0.31, -15.53, 331.38, 588.210021973, -35.363208, 149.1651947, 0.960179924965, -0.0307479016483, -0.13167206943, -0.244482114911
2019-04-03 23:50:01.81,61834423, 0.56, -15.62, 330.86, 588.25, -35.3632053, 149.1651929, 0.959018051624, -0.029481658712, -0.132785275578, -0.248562380672
2019-04-03 23:50:01.91,61934383, 0.69, -15.69, 330.53, 588.280029297, -35.3632026, 149.165191, 0.958261966705, -0.0289218574762, -0.133573457599, -0.251108914614
2019-04-03 23:50:02.01,62034343, 0.71, -15.75, 330.41, 588.320007324, -35.3631999, 149.1651891, 0.957921683788, -0.0290367063135, -0.134093523026, -0.252114832401
2019-04-03 23:50:02.11,62134303, 0.63, -15.8, 330.46, 588.359985352, -35.3631971, 149.1651873, 0.957964301109, -0.0297108925879, -0.134329676628, -0.251748412848
2019-04-03 23:50:02.21,62234263, 0.49, -15.84, 330.65, 588.390014648, -35.3631942, 149.1651855, 0.958301186562, -0.030742879957, -0.134417340159, -0.250291407108
2019-04-03 23:50:02.31,62335056, 0.31, -15.87, 330.94, 588.429992676, -35.3631914, 149.1651836, 0.958837509155, -0.032011218369, -0.134361192584, -0.248098701239
2019-04-03 23:50:02.41,62435016, 0.12, -15.91, 331.26, 588.469970703, -35.3631885, 149.1651817, 0.959444284439, -0.0332861542702, -0.134345039725, -0.245581120253
2019-04-03 23:50:02.51,62534976, -0.05, -15.95, 331.59, 588.5, -35.3631856, 149.1651796, 0.96003049612, -0.0344953872263, -0.134414419532, -0.243072628975
2019-04-03 23:50:02.61,62634936, -0.21, -16.01, 331.87, 588.539978027, -35.3631826, 149.1651776, 0.960498809814, -0.0356951989233, -0.134705170989, -0.240878373384
2019-04-03 23:50:02.71,62734896, -0.36, -16.09, 332.09, 588.58001709, -35.3631795, 149.1651757, 0.960813581944, -0.0368098057806, -0.135137528181, -0.239207312465
2019-04-03 23:50:02.81,62834856, -0.45, -16.17, 332.22, 588.609985352, -35.3631765, 149.1651737, 0.960980594158, -0.0375464260578, -0.135638996959, -0.238135665655
2019-04-03 23:50:02.91,62934816, -0.46, -16.23, 332.28, 588.650024414, -35.3631734, 149.1651717, 0.961028814316, -0.0376732312143, -0.136106744409, -0.237653896213
2019-04-03 23:50:03.01,63034776, -0.4, -16.25, 332.26, 588.690002441, -35.3631704, 149.1651695, 0.960987746716, -0.0372984074056, -0.136368393898, -0.237728893757
2019-04-03 23:50:03.11,63134736, -0.32, -16.23, 332.19, 588.719970703, -35.3631672, 149.1651675, 0.960873126984, -0.0366403199732, -0.136424303055, -0.238261848688
2019-04-03 23:50:03.21,63234696, -0.23, -16.23, 332.07, 588.760009766, -35.3631641, 149.1651654, 0.960661172867, -0.0360441580415, -0.1365775913, -0.239118203521
2019-04-03 23:50:03.31,63334656, -0.14, -16.24, 331.94, 588.799987793, -35.3631608, 149.1651632, 0.960401713848, -0.0355041027069, -0.13676546514, -0.240131601691
2019-04-03 23:50:03.41,63434616, -0.07, -16.25, 331.81, 588.83001709, -35.3631576, 149.1651611, 0.960129618645, -0.0350844711065, -0.136975824833, -0.241159290075
2019-04-03 23:50:03.51,63534576, -0.02, -16.29, 331.69, 588.869995117, -35.3631545, 149.1651589, 0.959859371185, -0.034814555198, -0.137335076928, -0.242068350315
2019-04-03 23:50:03.61,63634536, 0.02, -16.34, 331.6, 588.909973145, -35.3631513, 149.1651568, 0.959612488747, -0.0346543230116, -0.13784134388, -0.242781251669
2019-04-03 23:50:03.71,63734496, 0.03, -16.41, 331.53, 588.940002441, -35.3631479, 149.1651546, 0.959399282932, -0.0347872674465, -0.138441115618, -0.243263185024
2019-04-03 23:50:03.81,63834456, 0.03, -16.49, 331.5, 588.979980469, -35.3631447, 149.1651523, 0.959238052368, -0.0349706858397, -0.139134570956, -0.243476897478
2019-04-03 23:50:03.91,63934416, 0.04, -16.54, 331.51, 589.020019531, -35.3631413, 149.1651502, 0.959184408188, -0.0350389964879, -0.139552205801, -0.243439406157
2019-04-03 23:50:04.01,64034376, 0.02, -16.58, 331.53, 589.059997559, -35.3631381, 149.1651479, 0.959182858467, -0.0352550894022, -0.139867737889, -0.243233069777
2019-04-03 23:50:04.11,64134336, 0.0, -16.61, 331.57, 589.090026855, -35.3631346, 149.1651456, 0.959225356579, -0.0355456061661, -0.140044748783, -0.242921233177
2019-04-03 23:50:04.21,64234296, -0.02, -16.61, 331.62, 589.130004883, -35.3631314, 149.1651435, 0.959318578243, -0.0356621854007, -0.140039712191, -0.242538705468
2019-04-03 23:50:04.31,64334256, -0.04, -16.62, 331.67, 589.16998291, -35.3631279, 149.1651412, 0.959405124187, -0.0357619225979, -0.140098616481, -0.242147326469
2019-04-03 23:50:04.41,64435049, -0.06, -16.65, 331.71, 589.210021973, -35.3631246, 149.1651389, 0.959450662136, -0.0359613522887, -0.140317574143, -0.241810306907
2019-04-03 23:50:04.51,64535009, -0.08, -16.68, 331.75, 589.239990234, -35.3631212, 149.1651367, 0.959476530552, -0.0361299030483, -0.140539765358, -0.24155330658
2019-04-03 23:50:04.61,64634969, -0.08, -16.7, 331.77, 589.280029297, -35.3631178, 149.1651344, 0.959495723248, -0.0361448079348, -0.140699982643, -0.241381585598
2019-04-03 23:50:04.71,64734929, -0.08, -16.72, 331.77, 589.320007324, -35.3631143, 149.1651321, 0.95948266983, -0.0361592136323, -0.140903949738, -0.24131244421
2019-04-03 23:50:04.81,64834889, -0.09, -16.76, 331.77, 589.359985352, -35.3631108, 149.1651298, 0.959420323372, -0.0363448373973, -0.14121298492, -0.241351604462
2019-04-03 23:50:04.91,64934849, -0.11, -16.82, 331.75, 589.390014648, -35.3631073, 149.1651274, 0.959319233894, -0.0366082154214, -0.141621261835, -0.241474404931
2019-04-03 23:50:05.01,65034809, -0.11, -16.84, 331.73, 589.429992676, -35.3631039, 149.1651252, 0.95924526453, -0.0367356799543, -0.141781553626, -0.241654664278
2019-04-03 23:50:05.11,65134769, -0.1, -16.83, 331.71, 589.469970703, -35.3631004, 149.1651229, 0.959205210209, -0.0366240404546, -0.141747280955, -0.241850689054
2019-04-03 23:50:05.21,65234729, -0.06, -16.83, 331.68, 589.510009766, -35.3630968, 149.1651205, 0.959164738655, -0.036319360137, -0.141797348857, -0.242027834058
2019-04-03 23:50:05.31,65334689, -0.03, -16.84, 331.65, 589.539978027, -35.3630933, 149.1651182, 0.959098041058, -0.0361955501139, -0.141965061426, -0.242212161422
2019-04-03 23:50:05.41,65434649, -0.04, -16.88, 331.63, 589.58001709, -35.3630899, 149.1651158, 0.959005773067, -0.0363513417542, -0.142243146896, -0.242391094565
2019-04-03 23:50:05.51,65534609, -0.06, -16.92, 331.62, 589.619995117, -35.3630864, 149.1651135, 0.958906292915, -0.0366563871503, -0.142564401031, -0.242549806833
2019-04-03 23:50:05.61,65634569, -0.08, -16.96, 331.6, 589.659973145, -35.3630828, 149.1651111, 0.958827793598, -0.0368881635368, -0.142849549651, -0.242657423019
2019-04-03 23:50:05.71,65734529, -0.08, -16.99, 331.59, 589.700012207, -35.3630792, 149.1651087, 0.95877122879, -0.0369875095785, -0.143089815974, -0.242724046111
2019-04-03 23:50:05.81,65834489, -0.07, -17.02, 331.59, 589.729980469, -35.3630756, 149.1651063, 0.958729982376, -0.0369339361787, -0.143335461617, -0.242750003934
2019-04-03 23:50:05.91,65934449, -0.05, -17.05, 331.59, 589.770019531, -35.363072, 149.1651039, 0.958693802357, -0.0368307381868, -0.143634304404, -0.242732062936
2019-04-03 23:50:06.01,66034409, -0.03, -17.08, 331.59, 589.809997559, -35.3630686, 149.1651015, 0.958658874035, -0.0367739088833, -0.143949896097, -0.242691755295
2019-04-03 23:50:06.11,66134369, -0.03, -17.12, 331.59, 589.849975586, -35.363065, 149.1650991, 0.958624482155, -0.0367856360972, -0.14423827827, -0.242654472589
2019-04-03 23:50:06.21,66234329, -0.02, -17.14, 331.59, 589.880004883, -35.3630614, 149.1650967, 0.958603680134, -0.0367447435856, -0.144457414746, -0.24261251092
2019-04-03 23:50:06.31,66334289, 0.0, -17.16, 331.59, 589.91998291, -35.3630578, 149.1650943, 0.958593189716, -0.0365354306996, -0.144655108452, -0.242567971349
2019-04-03 23:50:06.41,66435082, 0.03, -17.18, 331.59, 589.960021973, -35.3630541, 149.1650919, 0.958567380905, -0.0363599583507, -0.144925296307, -0.242535024881
2019-04-03 23:50:06.51,66535042, 0.02, -17.18, 331.59, 590.0, -35.3630505, 149.1650895, 0.958557546139, -0.0364712513983, -0.144900605083, -0.242572054267
2019-04-03 23:50:06.61,66635002, 0.0, -17.2, 331.59, 590.030029297, -35.3630469, 149.1650871, 0.958522975445, -0.0367755703628, -0.144944414496, -0.242636486888
2019-04-03 23:50:06.71,66734962, -0.03, -17.23, 331.58, 590.070007324, -35.3630432, 149.1650847, 0.95846503973, -0.0370971634984, -0.145136073232, -0.242701619864
2019-04-03 23:50:06.81,66834922, -0.06, -17.25, 331.58, 590.109985352, -35.3630396, 149.1650823, 0.958417654037, -0.0373802818358, -0.145241320133, -0.242782503366
2019-04-03 23:50:06.91,66934882, -0.08, -17.26, 331.57, 590.150024414, -35.3630359, 149.1650798, 0.958375096321, -0.0375835187733, -0.145340561867, -0.242859825492
2019-04-03 23:50:07.01,67034842, -0.08, -17.28, 331.56, 590.179992676, -35.3630322, 149.1650774, 0.958343327045, -0.0375956110656, -0.145473137498, -0.242903679609
2019-04-03 23:50:07.11,67134802, -0.05, -17.29, 331.55, 590.219970703, -35.3630286, 149.1650748, 0.958323121071, -0.0374267809093, -0.145601019263, -0.242932826281
2019-04-03 23:50:07.21,67234762, -0.04, -17.31, 331.55, 590.260009766, -35.3630249, 149.1650724, 0.958287358284, -0.0373609513044, -0.145773932338, -0.242980271578
2019-04-03 23:50:07.31,67334722, -0.04, -17.35, 331.54, 590.299987793, -35.3630212, 149.1650699, 0.958209991455, -0.0374984368682, -0.146124005318, -0.243054121733
2019-04-03 23:50:07.41,67434682, -0.04, -17.39, 331.53, 590.33001709, -35.3630175, 149.1650675, 0.958136320114, -0.0375984683633, -0.146472722292, -0.243119105697
2019-04-03 23:50:07.51,67534642, -0.03, -17.4, 331.52, 590.369995117, -35.3630138, 149.1650651, 0.958104074001, -0.0375175178051, -0.146620392799, -0.243169739842
2019-04-03 23:50:07.61,67634602, -0.02, -17.4, 331.51, 590.409973145, -35.36301, 149.1650627, 0.9580976367, -0.0374005548656, -0.146606385708, -0.243221357465
2019-04-03 23:50:07.71,67734562, 0.0, -17.4, 331.5, 590.450012207, -35.3630063, 149.1650602, 0.958092212677, -0.0372711010277, -0.146612107754, -0.243259429932
2019-04-03 23:50:07.81,67834522, 0.0, -17.41, 331.5, 590.479980469, -35.3630026, 149.1650577, 0.958062291145, -0.0372037254274, -0.146774172783, -0.24328969419
2019-04-03 23:50:07.91,67934482, 0.02, -17.44, 331.49, 590.520019531, -35.3629989, 149.1650551, 0.958019018173, -0.037141405046, -0.147057712078, -0.243298456073
2019-04-03 23:50:08.01,68034442, 0.03, -17.47, 331.49, 590.559997559, -35.3629952, 149.1650527, 0.957980453968, -0.0371371172369, -0.147295206785, -0.243307322264
2019-04-03 23:50:08.11,68134402, 0.03, -17.5, 331.49, 590.599975586, -35.3629915, 149.1650503, 0.957934737206, -0.0371390394866, -0.147583395243, -0.243312433362
2019-04-03 23:50:08.21,68234362, 0.03, -17.53, 331.48, 590.640014648, -35.3629878, 149.1650478, 0.957887709141, -0.0372851379216, -0.147810027003, -0.243337452412
2019-04-03 23:50:08.31,68334322, 0.0, -17.54, 331.48, 590.66998291, -35.362984, 149.1650453, 0.957860291004, -0.0375341400504, -0.14783975482, -0.243389070034
2019-04-03 23:50:08.41,68434282, -0.01, -17.53, 331.48, 590.710021973, -35.3629802, 149.1650427, 0.95785844326, -0.0376980938017, -0.147722572088, -0.243442207575
2019-04-03 23:50:08.51,68535075, -0.03, -17.52, 331.47, 590.75, -35.3629764, 149.1650402, 0.957860410213, -0.0378281362355, -0.147591248155, -0.243493944407
2019-04-03 23:50:08.61,68635035, -0.02, -17.51, 331.47, 590.789978027, -35.3629727, 149.1650378, 0.957864761353, -0.0377513989806, -0.147539392114, -0.243520185351
2019-04-03 23:50:08.71,68734995, 0.0, -17.52, 331.47, 590.820007324, -35.362969, 149.1650353, 0.957855641842, -0.0375658012927, -0.147636979818, -0.243525803089
2019-04-03 23:50:08.81,68834955, 0.03, -17.54, 331.46, 590.859985352, -35.3629652, 149.1650328, 0.957829356194, -0.0372937507927, -0.147903174162, -0.243509218097
2019-04-03 23:50:08.91,68934915, 0.06, -17.57, 331.46, 590.900024414, -35.3629615, 149.1650302, 0.957792341709, -0.0371331274509, -0.148193493485, -0.243502855301
2019-04-03 23:50:09.01,69034875, 0.06, -17.6, 331.45, 590.929992676, -35.3629576, 149.1650277, 0.957742631435, -0.0371555238962, -0.148475751281, -0.243523180485
2019-04-03 23:50:09.11,69134835, 0.06, -17.62, 331.45, 590.969970703, -35.3629539, 149.1650252, 0.957713484764, -0.0372514277697, -0.148581236601, -0.243558719754
2019-04-03 23:50:09.21,69234795, 0.04, -17.63, 331.44, 591.010009766, -35.3629501, 149.1650226, 0.957681953907, -0.0374010130763, -0.14867092669, -0.243605077267
2019-04-03 23:50:09.31,69334755, 0.03, -17.64, 331.44, 591.049987793, -35.3629463, 149.1650201, 0.957655787468, -0.0375418066978, -0.148718386889, -0.243657410145
2019-04-03 23:50:09.41,69434715, 0.01, -17.67, 331.44, 591.08001709, -35.3629424, 149.1650177, 0.957606911659, -0.0377311445773, -0.148924544454, -0.243694290519
2019-04-03 23:50:09.51,69534675, 0.0, -17.7, 331.43, 591.119995117, -35.3629387, 149.1650151, 0.957560896873, -0.0378994271159, -0.149113371968, -0.243733331561
2019-04-03 23:50:09.61,69634635, 0.0, -17.71, 331.43, 591.159973145, -35.362935, 149.1650125, 0.957528412342, -0.037952106446, -0.149253502488, -0.243767023087
2019-04-03 23:50:09.71,69734595, 0.02, -17.72, 331.42, 591.190002441, -35.3629312, 149.1650101, 0.957514822483, -0.037805724889, -0.14935003221, -0.243784040213
2019-04-03 23:50:09.81,69834555, 0.04, -17.72, 331.42, 591.229980469, -35.3629273, 149.1650075, 0.957511246204, -0.0376072339714, -0.149394288659, -0.243801802397
2019-04-03 23:50:09.91,69934515, 0.06, -17.7, 331.41, 591.270019531, -35.3629235, 149.1650049, 0.957524299622, -0.037453237921, -0.149301245809, -0.243831157684
2019-04-03 23:50:10.01,70034475, 0.06, -17.69, 331.41, 591.309997559, -35.3629197, 149.1650024, 0.957533240318, -0.0374160632491, -0.14917743206, -0.243877440691
2019-04-03 23:50:10.11,70134435, 0.05, -17.68, 331.4, 591.340026855, -35.3629159, 149.1649999, 0.957527399063, -0.0375077575445, -0.149089396, -0.243940278888
2019-04-03 23:50:10.21,70234395, 0.04, -17.68, 331.4, 591.380004883, -35.362912, 149.1649974, 0.957515001297, -0.0376262106001, -0.149037510157, -0.244002401829
2019-04-03 23:50:10.31,70334355, 0.03, -17.68, 331.39, 591.41998291, -35.3629082, 149.1649948, 0.957504451275, -0.0377098433673, -0.149002358317, -0.244052246213
2019-04-03 23:50:10.41,70434315, 0.02, -17.68, 331.39, 591.460021973, -35.3629044, 149.1649923, 0.957489430904, -0.0378072746098, -0.148993402719, -0.244101643562
2019-04-03 23:50:10.51,70534275, 0.0, -17.7, 331.38, 591.489990234, -35.3629005, 149.1649897, 0.957449376583, -0.0379587635398, -0.149120241404, -0.244157642126
2019-04-03 23:50:10.61,70635068, 0.01, -17.73, 331.38, 591.530029297, -35.3628967, 149.1649871, 0.957404375076, -0.0379406362772, -0.14936940372, -0.244184672832
2019-04-03 23:50:10.71,70735028, 0.04, -17.74, 331.37, 591.570007324, -35.3628929, 149.1649846, 0.957386732101, -0.0377204455435, -0.14952506125, -0.244192823768
2019-04-03 23:50:10.81,70834988, 0.08, -17.74, 331.36, 591.609985352, -35.3628889, 149.1649819, 0.95737683773, -0.0374676696956, -0.149648845196, -0.244194626808
2019-04-03 23:50:10.91,70934948, 0.09, -17.75, 331.36, 591.640014648, -35.3628852, 149.1649794, 0.957367360592, -0.0373231247067, -0.149715453386, -0.244212955236
2019-04-03 23:50:11.01,71034908, 0.08, -17.75, 331.35, 591.679992676, -35.3628813, 149.1649769, 0.957353830338, -0.0374579690397, -0.149669751525, -0.244273513556
2019-04-03 23:50:11.11,71134868, 0.04, -17.74, 331.35, 591.719970703, -35.3628774, 149.1649742, 0.957338750362, -0.037753418088, -0.149561032653, -0.244353711605
2019-04-03 23:50:11.21,71234828, 0.02, -17.74, 331.35, 591.760009766, -35.3628736, 149.1649718, 0.957332551479, -0.0379324965179, -0.149462416768, -0.24441061914
2019-04-03 23:50:11.31,71334788, 0.02, -17.75, 331.34, 591.799987793, -35.3628698, 149.1649692, 0.957313776016, -0.0379635207355, -0.149536982179, -0.24443371594
2019-04-03 23:50:11.41,71434748, 0.02, -17.78, 331.34, 591.83001709, -35.3628658, 149.1649666, 0.95726531744, -0.0380103215575, -0.149822473526, -0.244441345334
2019-04-03 23:50:11.51,71534708, 0.01, -17.82, 331.34, 591.869995117, -35.3628621, 149.1649641, 0.957200527191, -0.0382240787148, -0.150124177337, -0.244476616383
2019-04-03 23:50:11.61,71634668, 0.0, -17.83, 331.33, 591.909973145, -35.3628582, 149.1649615, 0.957166314125, -0.0383996367455, -0.150211140513, -0.244529724121
2019-04-03 23:50:11.71,71734628, 0.0, -17.82, 331.33, 591.950012207, -35.3628542, 149.1649589, 0.957172870636, -0.0383531935513, -0.150110021234, -0.244573384523
2019-04-03 23:50:11.81,71834588, 0.02, -17.8, 331.32, 591.979980469, -35.3628505, 149.1649564, 0.957196414471, -0.038121368736, -0.149969920516, -0.244603544474
2019-04-03 23:50:11.91,71934548, 0.03, -17.77, 331.31, 592.020019531, -35.3628466, 149.1649538, 0.957220435143, -0.0379538312554, -0.1497797966, -0.244651913643
2019-04-03 23:50:12.01,72034508, 0.04, -17.74, 331.31, 592.059997559, -35.3628427, 149.1649512, 0.957246422768, -0.0378605350852, -0.149533241987, -0.244715556502
2019-04-03 23:50:12.11,72134468, 0.05, -17.73, 331.3, 592.099975586, -35.3628388, 149.1649486, 0.957254946232, -0.0377242602408, -0.149442285299, -0.244758784771
2019-04-03 23:50:12.21,72234428, 0.06, -17.74, 331.29, 592.130004883, -35.3628349, 149.164946, 0.957233786583, -0.037664886564, -0.149524301291, -0.244800597429
2019-04-03 23:50:12.31,72334388, 0.07, -17.76, 331.29, 592.16998291, -35.3628311, 149.1649435, 0.957194924355, -0.0376471616328, -0.149727955461, -0.244830951095
2019-04-03 23:50:12.41,72434348, 0.08, -17.78, 331.28, 592.210021973, -35.3628272, 149.1649409, 0.957159996033, -0.0376044921577, -0.149918198586, -0.244857549667
2019-04-03 23:50:12.51,72534308, 0.09, -17.8, 331.28, 592.25, -35.3628232, 149.1649383, 0.957129061222, -0.037546787411, -0.150090947747, -0.244881346822
2019-04-03 23:50:12.61,72634268, 0.1, -17.83, 331.27, 592.280029297, -35.3628195, 149.1649357, 0.95707732439, -0.0375669188797, -0.15037791431, -0.244904622436
2019-04-03 23:50:12.71,72735061, 0.1, -17.86, 331.27, 592.320007324, -35.3628156, 149.164933, 0.957028627396, -0.0376042425632, -0.150637209415, -0.244929760695
2019-04-03 23:50:12.81,72835021, 0.1, -17.85, 331.26, 592.359985352, -35.3628117, 149.1649305, 0.957030534744, -0.0376028083265, -0.150561287999, -0.244969189167
2019-04-03 23:50:12.91,72934981, 0.11, -17.82, 331.26, 592.400024414, -35.3628078, 149.164928, 0.957062065601, -0.0375233441591, -0.150335937738, -0.244996696711
2019-04-03 23:50:13.01,73034941, 0.11, -17.81, 331.26, 592.429992676, -35.3628038, 149.1649253, 0.957080662251, -0.0374253727496, -0.150237321854, -0.244999542832
2019-04-03 23:50:13.11,73134901, 0.13, -17.81, 331.26, 592.469970703, -35.3628, 149.1649228, 0.957086741924, -0.0372817702591, -0.150267481804, -0.244979009032
2019-04-03 23:50:13.21,73234861, 0.14, -17.82, 331.26, 592.510009766, -35.3627961, 149.1649201, 0.957073867321, -0.03720407933, -0.15040050447, -0.244959518313
2019-04-03 23:50:13.31,73334821, 0.13, -17.84, 331.26, 592.539978027, -35.3627922, 149.1649176, 0.957045912743, -0.0373789183795, -0.150515899062, -0.244971424341
2019-04-03 23:50:13.41,73434781, 0.09, -17.85, 331.26, 592.58001709, -35.3627883, 149.1649149, 0.957015752792, -0.0376830995083, -0.150577709079, -0.245004564524
2019-04-03 23:50:13.51,73534741, 0.06, -17.86, 331.26, 592.619995117, -35.3627844, 149.1649124, 0.957000017166, -0.0379774272442, -0.150535389781, -0.245046466589
2019-04-03 23:50:13.61,73634701, 0.04, -17.85, 331.26, 592.650024414, -35.3627806, 149.1649099, 0.957005739212, -0.0380950495601, -0.150412291288, -0.245081707835
2019-04-03 23:50:13.71,73734661, 0.07, -17.83, 331.26, 592.690002441, -35.3627767, 149.1649072, 0.957032501698, -0.0378640070558, -0.150294736028, -0.245084926486
2019-04-03 23:50:13.81,73834621, 0.1, -17.81, 331.25, 592.729980469, -35.3627728, 149.1649047, 0.957049965858, -0.037586197257, -0.150255188346, -0.2450838238
2019-04-03 23:50:13.91,73934581, 0.13, -17.82, 331.25, 592.770019531, -35.3627689, 149.1649021, 0.957041144371, -0.0373463928699, -0.150375559926, -0.245081111789
2019-04-03 23:50:14.01,74034541, 0.15, -17.83, 331.24, 592.799987793, -35.3627649, 149.1648995, 0.95702278614, -0.0371997840703, -0.150519400835, -0.245086684823
2019-04-03 23:50:14.11,74134501, 0.15, -17.84, 331.24, 592.840026855, -35.3627611, 149.1648969, 0.9570068717, -0.0372115522623, -0.150574073195, -0.245113357902
2019-04-03 23:50:14.21,74234461, 0.15, -17.85, 331.23, 592.880004883, -35.3627572, 149.1648942, 0.956984221935, -0.0372464805841, -0.150662079453, -0.245142713189
2019-04-03 23:50:14.31,74334421, 0.15, -17.87, 331.23, 592.91998291, -35.3627533, 149.1648917, 0.956950306892, -0.0372685343027, -0.15083605051, -0.245164588094
2019-04-03 23:50:14.41,74434381, 0.16, -17.87, 331.23, 592.950012207, -35.3627494, 149.164889, 0.956945717335, -0.0372193865478, -0.15083758533, -0.245188981295
2019-04-03 23:50:14.51,74534341, 0.16, -17.87, 331.22, 592.989990234, -35.3627454, 149.1648865, 0.956937849522, -0.0372238606215, -0.150831148028, -0.245223149657
2019-04-03 23:50:14.61,74634301, 0.16, -17.89, 331.22, 593.030029297, -35.3627416, 149.1648839, 0.956906020641, -0.0372466109693, -0.150983557105, -0.245249927044
2019-04-03 23:50:14.71,74734261, 0.17, -17.92, 331.21, 593.059997559, -35.3627376, 149.1648813, 0.956849694252, -0.0372434556484, -0.151320785284, -0.245262250304
2019-04-03 23:50:14.81,74835054, 0.17, -17.95, 331.21, 593.099975586, -35.3627338, 149.1648787, 0.956809043884, -0.0373103320599, -0.151517063379, -0.245289698243
2019-04-03 23:50:14.91,74935014, 0.16, -17.95, 331.21, 593.140014648, -35.3627297, 149.164876, 0.956792116165, -0.0374547056854, -0.151510551572, -0.245337709785
2019-04-03 23:50:15.01,75034974, 0.12, -17.94, 331.2, 593.179992676, -35.3627259, 149.1648735, 0.956790268421, -0.0377504900098, -0.151327371597, -0.24541258812
2019-04-03 23:50:15.11,75134934, 0.1, -17.93, 331.2, 593.210021973, -35.362722, 149.1648708, 0.956793546677, -0.0378973595798, -0.151173949242, -0.245471805334
2019-04-03 23:50:15.21,75234894, 0.1, -17.93, 331.2, 593.25, -35.362718, 149.1648683, 0.956785321236, -0.0378416776657, -0.151198983192, -0.245496973395
2019-04-03 23:50:15.31,75334854, 0.12, -17.95, 331.19, 593.289978027, -35.3627142, 149.1648657, 0.956760168076, -0.0377557352185, -0.151372894645, -0.245501115918
2019-04-03 23:50:15.41,75434814, 0.14, -17.96, 331.19, 593.33001709, -35.3627102, 149.1648631, 0.956744730473, -0.037632137537, -0.151514112949, -0.245492994785
2019-04-03 23:50:15.51,75534774, 0.15, -17.95, 331.19, 593.359985352, -35.3627064, 149.1648606, 0.956764101982, -0.0374794527888, -0.151445031166, -0.245483577251
2019-04-03 23:50:15.61,75634734, 0.16, -17.94, 331.19, 593.400024414, -35.3627025, 149.1648578, 0.956770420074, -0.0373896472156, -0.151436790824, -0.245477601886
2019-04-03 23:50:15.71,75734694, 0.17, -17.94, 331.19, 593.440002441, -35.3626986, 149.1648553, 0.95676702261, -0.0373776778579, -0.151451960206, -0.245483353734
2019-04-03 23:50:15.81,75834654, 0.15, -17.95, 331.19, 593.479980469, -35.3626946, 149.1648528, 0.956747472286, -0.0374959222972, -0.151498362422, -0.24551294744
2019-04-03 23:50:15.91,75934614, 0.12, -17.97, 331.18, 593.510009766, -35.3626907, 149.1648502, 0.956713438034, -0.0377908498049, -0.151543542743, -0.245572522283
2019-04-03 23:50:16.01,76034574, 0.08, -17.96, 331.18, 593.549987793, -35.3626868, 149.1648476, 0.956693232059, -0.0381283089519, -0.151451826096, -0.24565564096
2019-04-03 23:50:16.11,76134534, 0.06, -17.97, 331.17, 593.590026855, -35.3626828, 149.1648449, 0.956666409969, -0.0383329577744, -0.151462897658, -0.245721340179
2019-04-03 23:50:16.21,76234494, 0.06, -17.99, 331.17, 593.619995117, -35.362679, 149.1648424, 0.956628084183, -0.0383883044124, -0.151583477855, -0.245787665248
2019-04-03 23:50:16.31,76334454, 0.09, -17.99, 331.16, 593.659973145, -35.3626749, 149.1648397, 0.956607699394, -0.038188137114, -0.151680633426, -0.245838269591
2019-04-03 23:50:16.41,76434414, 0.12, -17.99, 331.14, 593.700012207, -35.3626711, 149.1648371, 0.956596314907, -0.0379463024437, -0.151735499501, -0.2458858639
2019-04-03 23:50:16.51,76534374, 0.13, -17.99, 331.14, 593.739990234, -35.3626672, 149.1648344, 0.956584751606, -0.0378363355994, -0.151740297675, -0.245944917202
2019-04-03 23:50:16.61,76634334, 0.13, -17.99, 331.13, 593.770019531, -35.3626633, 149.1648319, 0.956566393375, -0.037825781852, -0.15175126493, -0.24601136148
2019-04-03 23:50:16.71,76734294, 0.12, -17.98, 331.12, 593.809997559, -35.3626593, 149.1648292, 0.956560611725, -0.0379445850849, -0.15162268281, -0.246094703674
2019-04-03 23:50:16.81,76834254, 0.11, -17.97, 331.12, 593.849975586, -35.3626554, 149.1648267, 0.95656311512, -0.0379945598543, -0.151507019997, -0.24614842236
2019-04-03 23:50:16.91,76935047, 0.12, -17.98, 331.11, 593.890014648, -35.3626515, 149.1648241, 0.956537008286, -0.0379680357873, -0.151663675904, -0.246157735586
2019-04-03 23:50:17.01,77035007, 0.15, -18.0, 331.11, 593.91998291, -35.3626475, 149.1648214, 0.956519842148, -0.0377471856773, -0.15188254416, -0.246123239398
2019-04-03 23:50:17.11,77134967, 0.18, -17.99, 331.11, 593.960021973, -35.3626436, 149.1648189, 0.95654797554, -0.0374383889139, -0.151839911938, -0.24608746171
2019-04-03 23:50:17.21,77234927, 0.21, -17.96, 331.11, 594.0, -35.3626396, 149.1648162, 0.956598699093, -0.0371697470546, -0.151632159948, -0.24605897069
2019-04-03 23:50:17.31,77334887, 0.21, -17.94, 331.11, 594.030029297, -35.3626357, 149.1648136, 0.956625878811, -0.0371093712747, -0.151488617063, -0.24605089426
2019-04-03 23:50:17.41,77434847, 0.17, -17.97, 331.11, 594.070007324, -35.3626317, 149.1648109, 0.956582844257, -0.0374605879188, -0.151632800698, -0.24607616663
2019-04-03 23:50:17.51,77534807, 0.14, -18.02, 331.11, 594.109985352, -35.3626279, 149.1648084, 0.956496834755, -0.0378762371838, -0.152034565806, -0.246098950505
2019-04-03 23:50:17.61,77634767, 0.12, -18.06, 331.11, 594.150024414, -35.3626239, 149.1648057, 0.956440627575, -0.0381420738995, -0.152282416821, -0.246123164892
2019-04-03 23:50:17.71,77734727, 0.11, -18.06, 331.11, 594.179992676, -35.36262, 149.1648032, 0.956425607204, -0.038236156106, -0.152302742004, -0.246154293418
2019-04-03 23:50:17.81,77834687, 0.1, -18.03, 331.11, 594.219970703, -35.362616, 149.1648006, 0.956459283829, -0.0381838753819, -0.152033552527, -0.246197983623
2019-04-03 23:50:17.91,77934647, 0.1, -17.99, 331.1, 594.260009766, -35.3626122, 149.164798, 0.956509888172, -0.0380909107625, -0.15164346993, -0.246256396174
2019-04-03 23:50:18.01,78034607, 0.11, -17.94, 331.1, 594.299987793, -35.3626081, 149.1647954, 0.956553518772, -0.0379795469344, -0.151293635368, -0.246319368482
2019-04-03 23:50:18.11,78134567, 0.12, -17.91, 331.09, 594.33001709, -35.3626043, 149.1647927, 0.956589221954, -0.0378441661596, -0.151009604335, -0.246375769377
2019-04-03 23:50:18.21,78234527, 0.13, -17.9, 331.08, 594.369995117, -35.3626004, 149.1647901, 0.95658582449, -0.0377286225557, -0.150987669826, -0.246420145035
2019-04-03 23:50:18.31,78334487, 0.13, -17.92, 331.08, 594.409973145, -35.3625964, 149.1647875, 0.956547439098, -0.0378009490669, -0.151124954224, -0.24647372961
2019-04-03 23:50:18.41,78434447, 0.12, -17.94, 331.07, 594.450012207, -35.3625925, 149.1647849, 0.956500649452, -0.0379189811647, -0.151317209005, -0.24651940167
2019-04-03 23:50:18.51,78534407, 0.11, -17.96, 331.07, 594.479980469, -35.3625885, 149.1647822, 0.956469714642, -0.0380252450705, -0.151410877705, -0.246565401554
2019-04-03 23:50:18.61,78634367, 0.1, -17.95, 331.06, 594.520019531, -35.3625846, 149.1647797, 0.956465065479, -0.0380875654519, -0.15135294199, -0.246609523892
2019-04-03 23:50:18.71,78734327, 0.08, -17.94, 331.06, 594.559997559, -35.3625806, 149.164777, 0.956465184689, -0.0382234230638, -0.151230305433, -0.246663153172
2019-04-03 23:50:18.81,78834287, 0.07, -17.95, 331.06, 594.599975586, -35.3625768, 149.1647744, 0.956443727016, -0.0383388772607, -0.151301667094, -0.246684908867
2019-04-03 23:50:18.91,78935080, 0.07, -17.98, 331.06, 594.630004883, -35.3625727, 149.1647717, 0.956409215927, -0.0384380854666, -0.151481881738, -0.24669252336
2019-04-03 23:50:19.01,79035040, 0.06, -17.98, 331.06, 594.66998291, -35.3625689, 149.1647692, 0.956401288509, -0.0384747646749, -0.151495501399, -0.246709257364
2019-04-03 23:50:19.11,79135000, 0.07, -17.97, 331.05, 594.710021973, -35.3625648, 149.1647666, 0.95640707016, -0.038405045867, -0.151463210583, -0.246717378497
2019-04-03 23:50:19.21,79234960, 0.1, -17.98, 331.05, 594.75, -35.362561, 149.164764, 0.956402957439, -0.038220461458, -0.151565149426, -0.246699616313
2019-04-03 23:50:19.31,79334920, 0.12, -17.99, 331.05, 594.780029297, -35.362557, 149.1647612, 0.9563986063, -0.0380329862237, -0.151664510369, -0.246684283018
2019-04-03 23:50:19.41,79434880, 0.13, -17.99, 331.05, 594.820007324, -35.3625531, 149.1647587, 0.956392943859, -0.037940967828, -0.151717826724, -0.246687576175
2019-04-03 23:50:19.51,79534840, 0.12, -17.98, 331.04, 594.859985352, -35.3625491, 149.1647561, 0.956393241882, -0.0380264669657, -0.151616245508, -0.246735662222
2019-04-03 23:50:19.61,79634800, 0.11, -17.99, 331.04, 594.890014648, -35.3625453, 149.1647535, 0.956374585629, -0.0380996763706, -0.151649206877, -0.246776461601
2019-04-03 23:50:19.71,79734760, 0.12, -18.02, 331.04, 594.929992676, -35.3625412, 149.1647509, 0.956326067448, -0.0380918644369, -0.151943296194, -0.246784567833
2019-04-03 23:50:19.81,79834720, 0.12, -18.02, 331.03, 594.969970703, -35.3625374, 149.1647482, 0.956312477589, -0.0381260700524, -0.151973679662, -0.246813371778
2019-04-03 23:50:19.91,79934680, 0.1, -18.02, 331.03, 595.010009766, -35.3625335, 149.1647456, 0.956311702728, -0.0382635034621, -0.15187472105, -0.246856004
2019-04-03 23:50:20.01,80034640, 0.09, -18.0, 331.03, 595.039978027, -35.3625295, 149.1647429, 0.956332027912, -0.0383373498917, -0.15167555213, -0.246888190508
2019-04-03 23:50:20.11,80134600, 0.1, -17.98, 331.03, 595.08001709, -35.3625256, 149.1647404, 0.956358730793, -0.0382259786129, -0.151534765959, -0.246888682246
2019-04-03 23:50:20.21,80234560, 0.12, -17.96, 331.03, 595.119995117, -35.3625216, 149.1647377, 0.95638525486, -0.0379881821573, -0.151460826397, -0.246867999434
2019-04-03 23:50:20.31,80334520, 0.14, -17.97, 331.03, 595.159973145, -35.3625177, 149.1647351, 0.956374168396, -0.037893589586, -0.151570037007, -0.24685831368
2019-04-03 23:50:20.41,80434480, 0.12, -18.0, 331.02, 595.200012207, -35.3625137, 149.1647324, 0.956332802773, -0.0380483455956, -0.151745140553, -0.246887430549
2019-04-03 23:50:20.51,80534440, 0.12, -18.03, 331.02, 595.229980469, -35.3625098, 149.1647299, 0.956282556057, -0.0381388291717, -0.152019947767, -0.246898844838
2019-04-03 23:50:20.61,80634400, 0.13, -18.05, 331.02, 595.270019531, -35.3625058, 149.1647271, 0.956257343292, -0.0380863137543, -0.152185320854, -0.246902838349
2019-04-03 23:50:20.71,80734360, 0.15, -18.05, 331.02, 595.309997559, -35.362502, 149.1647246, 0.956252813339, -0.0379602573812, -0.152242317796, -0.246904581785
2019-04-03 23:50:20.81,80834320, 0.16, -18.05, 331.01, 595.349975586, -35.3624979, 149.1647219, 0.956249415874, -0.0378822498024, -0.152271851897, -0.246911525726
2019-04-03 23:50:20.91,80934280, 0.16, -18.03, 331.01, 595.380004883, -35.3624941, 149.1647194, 0.956275343895, -0.0378177538514, -0.152092278004, -0.246931776404
2019-04-03 23:50:21.01,81035073, 0.17, -17.99, 331.01, 595.41998291, -35.36249, 149.1647166, 0.956322789192, -0.0377069301903, -0.15180516243, -0.246941611171
2019-04-03 23:50:21.11,81135033, 0.17, -17.97, 331.01, 595.460021973, -35.3624861, 149.1647141, 0.956362307072, -0.0375904925168, -0.151593819261, -0.246936038136
2019-04-03 23:50:21.21,81234993, 0.17, -17.94, 331.01, 595.5, -35.3624821, 149.1647114, 0.956388831139, -0.0376060307026, -0.151400059462, -0.246949717402
2019-04-03 23:50:21.31,81334953, 0.16, -17.95, 331.01, 595.539978027, -35.3624782, 149.1647088, 0.956382751465, -0.0376661941409, -0.151415392756, -0.246954873204
2019-04-03 23:50:21.41,81434913, 0.18, -17.98, 331.01, 595.570007324, -35.3624742, 149.1647061, 0.956346988678, -0.0375793874264, -0.151724502444, -0.246916905046
2019-04-03 23:50:21.51,81534873, 0.19, -18.01, 331.01, 595.609985352, -35.3624704, 149.1647036, 0.956315040588, -0.0375108830631, -0.15199907124, -0.246882095933
2019-04-03 23:50:21.61,81634833, 0.21, -18.01, 331.01, 595.650024414, -35.3624663, 149.1647009, 0.956322312355, -0.0373526252806, -0.152044042945, -0.246850192547
2019-04-03 23:50:21.71,81734793, 0.21, -18.0, 331.01, 595.690002441, -35.3624625, 149.1646983, 0.956340134144, -0.0373369269073, -0.151938855648, -0.246848315001
