Start,TimeUS,Roll,Pitch,Yaw,Alt,Lat,Lng,Q1,Q2,Q3,Q4
2019-04-03 19:35:24.10,44716273, 0.0, 0.0, 353.0, 584.090026855, -35.363261, 149.1652299, 0.998134791851, 0.0, 0.0, -0.0610485821962
2019-04-03 19:35:24.20,44816233, 0.0, 0.0, 353.0, 584.090026855, -35.363261, 149.1652299, 0.998134791851, 0.0, 0.0, -0.0610485821962
2019-04-03 19:35:24.29,44916193, 0.0, 0.0, 353.0, 584.090026855, -35.363261, 149.1652299, 0.998134791851, 0.0, 0.0, -0.0610485821962
2019-04-03 19:35:24.39,45016153, 0.0, 0.0, 353.0, 584.090026855, -35.363261, 149.1652299, 0.998134791851, 0.0, 0.0, -0.0610485821962
2019-04-03 19:35:24.49,45116113, 0.0, 0.0, 353.0, 584.090026855, -35.363261, 149.1652299, 0.998134791851, 0.0, 0.0, -0.0610485821962
2019-04-03 19:35:24.59,45216073, 0.0, 0.0, 353.0, 584.090026855, -35.363261, 149.1652299, 0.998134791851, 0.0, 0.0, -0.0610485821962
2019-04-03 19:35:24.69,45316033, 0.0, 0.0, 353.0, 584.090026855, -35.363261, 149.1652299, 0.998134791851, 0.0, 0.0, -0.0610485821962
2019-04-03 19:35:24.79,45415993, 0.0, 0.0, 353.0, 584.090026855, -35.363261, 149.1652299, 0.998134791851, 0.0, 0.0, -0.0610485821962
2019-04-03 19:35:24.89,45515953, 0.0, 0.0, 353.0, 584.090026855, -35.363261, 149.1652299, 0.998134791851, 0.0, 0.0, -0.0610485821962
2019-04-03 19:35:24.99,45615913, 0.0, 0.0, 353.0, 584.090026855, -35.363261, 149.1652299, 0.998134791851, 0.0, 0.0, -0.0610485821962
2019-04-03 19:35:25.09,45715873, 0.0, 0.0, 353.0, 584.090026855, -35.363261, 149.1652299, 0.998134791851, 0.0, 0.0, -0.0610485821962
2019-04-03 19:35:25.19,45815833, 0.0, 0.0, 353.0, 584.090026855, -35.363261, 149.1652299, 0.998134791851, 0.0, 0.0, -0.0610485821962
2019-04-03 19:35:25.29,45915793, 0.0, 0.0, 353.0, 584.090026855, -35.363261, 149.1652299, 0.998134791851, 0.0, 0.0, -0.0610485821962
2019-04-03 19:35:25.39,46015753, 0.0, 0.0, 353.0, 584.090026855, -35.363261, 149.1652299, 0.998134791851, 0.0, 0.0, -0.0610485821962
2019-04-03 19:35:25.49,46115713, 0.0, 0.0, 353.0, 584.090026855, -35.363261, 149.1652299, 0.998134791851, 0.0, 0.0, -0.0610485821962
2019-04-03 19:35:25.59,46215673, 0.0, 0.0, 353.0, 584.090026855, -35.363261, 149.1652299, 0.998134791851, 0.0, 0.0, -0.0610485821962
2019-04-03 19:35:25.70,46316466, 0.0, 0.0, 353.0, 584.090026855, -35.363261, 149.1652299, 0.998134791851, 0.0, 0.0, -0.0610485821962
2019-04-03 19:35:25.80,46416426, 0.0, 0.0, 353.0, 584.090026855, -35.363261, 149.1652299, 0.998134791851, 0.0, 0.0, -0.0610485821962
2019-04-03 19:35:25.90,46516386, 0.0, 0.0, 353.0, 584.090026855, -35.363261, 149.1652299, 0.998134791851, 0.0, 0.0, -0.0610485821962
2019-04-03 19:35:26.00,46616346, 0.0, 0.0, 353.0, 584.090026855, -35.363261, 149.1652299, 0.998134791851, 0.0, 0.0, -0.0610485821962
2019-04-03 19:35:26.10,46716306, 0.0, 0.0, 353.0, 584.090026855, -35.363261, 149.1652299, 0.998134791851, 0.0, 0.0, -0.0610485821962
2019-04-03 19:35:26.20,46816266, 0.0, 0.0, 353.0, 584.090026855, -35.363261, 149.1652299, 0.998134791851, 0.0, 0.0, -0.0610485821962
2019-04-03 19:35:26.29,46916226, 0.0, 0.0, 353.0, 584.090026855, -35.363261, 149.1652299, 0.998134791851, 0.0, 0.0, -0.0610485821962
2019-04-03 19:35:26.39,47016186, 0.0, 0.0, 353.0, 584.090026855, -35.363261, 149.1652299, 0.998134791851, 0.0, 0.0, -0.0610485821962
2019-04-03 19:35:26.49,47116146, 0.0, 0.0, 353.0, 584.090026855, -35.363261, 149.1652299, 0.998134791851, 0.0, 0.0, -0.0610485821962
2019-04-03 19:35:26.59,47216106, 0.0, 0.0, 353.0, 584.090026855, -35.363261, 149.1652299, 0.998134791851, 0.0, 0.0, -0.0610485821962
2019-04-03 19:35:26.69,47316066, 0.0, 0.0, 353.0, 584.090026855, -35.363261, 149.1652299, 0.998134791851, 0.0, 0.0, -0.0610485821962
2019-04-03 19:35:26.79,47416026, 0.0, 0.0, 353.0, 584.090026855, -35.363261, 149.1652299, 0.998134791851, 0.0, 0.0, -0.0610485821962
2019-04-03 19:35:26.89,47515986, 0.0, 0.0, 353.0, 584.090026855, -35.363261, 149.1652299, 0.998134791851, 0.0, 0.0, -0.0610485821962
2019-04-03 19:35:26.99,47615946, 0.0, 0.0, 353.0, 584.090026855, -35.363261, 149.1652299, 0.998134791851, 0.0, 0.0, -0.061048604548
2019-04-03 19:35:27.09,47715906, 0.0, 0.0, 353.0, 584.090026855, -35.363261, 149.1652299, 0.998134791851, 0.0, 0.0, -0.0610486380756
2019-04-03 19:35:27.19,47815866, 0.0, 0.0, 353.0, 584.090026855, -35.363261, 149.1652299, 0.998134791851, 0.0, 0.0, -0.0610486753285
2019-04-03 19:35:27.29,47915826, 0.0, 0.0, 353.0, 584.090026855, -35.363261, 149.1652299, 0.998134791851, 0.0, 0.0, -0.0610486753285
2019-04-03 19:35:27.39,48015786, 0.0, 0.0, 353.0, 584.090026855, -35.363261, 149.1652299, 0.998134791851, 0.0, 0.0, -0.0610486753285
2019-04-03 19:35:27.49,48115746, 0.0, 0.0, 353.0, 584.090026855, -35.363261, 149.1652299, 0.998134791851, 0.0, 0.0, -0.0610486753285
2019-04-03 19:35:27.59,48215706, 0.0, 0.0, 353.0, 584.090026855, -35.363261, 149.1652299, 0.998134791851, 0.0, 0.0, -0.0610486641526
2019-04-03 19:35:27.69,48315666, 0.0, 0.0, 353.0, 584.090026855, -35.363261, 149.1652299, 0.998134791851, 0.0, 0.0, -0.0610486529768
2019-04-03 19:35:27.80,48416459, 0.0, 0.0, 353.0, 584.099975586, -35.363261, 149.1652299, 0.998134791851, 0.0, 0.0, -0.0610486641526
2019-04-03 19:35:27.90,48516419, 0.0, 0.0, 353.0, 584.099975586, -35.363261, 149.1652299, 0.998134791851, 0.0, 0.0, -0.0610486753285
2019-04-03 19:35:28.00,48616379, 0.0, 0.0, 353.0, 584.119995117, -35.363261, 149.1652299, 0.998134791851, 0.0, 0.0, -0.0610486753285
2019-04-03 19:35:28.10,48716339, 0.0, 0.0, 353.0, 584.140014648, -35.363261, 149.1652299, 0.998134791851, 0.0, 0.0, -0.0610486641526
2019-04-03 19:35:28.20,48816299, 0.0, 0.0, 353.0, 584.16998291, -35.363261, 149.1652299, 0.998134791851, 0.0, 0.0, -0.061048541218
2019-04-03 19:35:28.30,48916259, 0.0, 0.0, 353.0, 584.210021973, -35.363261, 149.1652299, 0.998134791851, 0.0, 0.0, -0.0610486641526
2019-04-03 19:35:28.39,49016219, 0.0, 0.0, 352.99, 584.260009766, -35.363261, 149.1652299, 0.998134493828, -6.14250093349e-05, 1.25332198877e-05, -0.0610540248454
2019-04-03 19:35:28.49,49116179, -0.04, 0.0, 352.99, 584.369995117, -35.363261, 149.1652299, 0.998133540154, -0.000355895026587, 9.43102422752e-05, -0.061068136245
2019-04-03 19:35:28.59,49216139, -0.09, 0.02, 352.99, 584.520019531, -35.363261, 149.1652299, 0.998131930828, -0.000839363783598, 0.000252328143688, -0.0610892474651
2019-04-03 19:35:28.69,49316099, -0.12, 0.04, 352.99, 584.679992676, -35.363261, 149.1652299, 0.998130261898, -0.0010969346622, 0.000426046171924, -0.0611115768552
2019-04-03 19:35:28.79,49416059, -0.12, 0.05, 352.99, 584.83001709, -35.363261, 149.1652299, 0.998129248619, -0.00108936359175, 0.000514170329552, -0.0611281879246
2019-04-03 19:35:28.89,49516019, -0.1, 0.05, 352.98, 584.979980469, -35.363261, 149.1652299, 0.998128771782, -0.000877326237969, 0.000492567953188, -0.0611388646066
2019-04-03 19:35:28.99,49615979, -0.07, 0.06, 352.98, 585.140014648, -35.363261, 149.1652299, 0.998128175735, -0.000585828325711, 0.000600033323281, -0.0611508302391
2019-04-03 19:35:29.09,49715939, -0.02, 0.08, 352.98, 585.299987793, -35.363261, 149.1652299, 0.998127579689, -0.000154549343279, 0.00075926783029, -0.0611614659429
2019-04-03 19:35:29.19,49815899, 0.01, 0.1, 352.98, 585.460021973, -35.363261, 149.1652299, 0.998126804829, 0.000208928671782, 0.000929296016693, -0.0611721538007
2019-04-03 19:35:29.29,49915859, 0.04, 0.1, 352.98, 585.630004883, -35.363261, 149.1652299, 0.998126327991, 0.000436032743892, 0.000864880392328, -0.0611794069409
2019-04-03 19:35:29.39,50015819, 0.0, 0.08, 352.98, 585.780029297, -35.363261, 149.1652299, 0.998126327991, 0.000118254349218, 0.000723591074347, -0.0611828677356
2019-04-03 19:35:29.49,50115779, -0.25, 0.13, 352.98, 585.929992676, -35.363261, 149.1652299, 0.998123288155, -0.00216967146844, 0.00131230347324, -0.0611839704216
2019-04-03 19:35:29.59,50215739, -0.82, 0.27, 352.98, 586.070007324, -35.363261, 149.1652299, 0.998097538948, -0.00705914851278, 0.00287001673132, -0.0611826665699
2019-04-03 19:35:29.69,50315699, -1.64, 0.51, 352.97, 586.200012207, -35.363261, 149.1652299, 0.998013973236, -0.0140487477183, 0.00538022490218, -0.061170142144
2019-04-03 19:35:29.79,50415659, -2.63, 0.79, 352.96, 586.320007324, -35.363261, 149.1652298, 0.997841238976, -0.0224917214364, 0.00834613759071, -0.0611334070563
2019-04-03 19:35:29.90,50516452, -3.69, 1.08, 352.95, 586.429992676, -35.363261, 149.1652298, 0.997569620609, -0.0315591879189, 0.0114247873425, -0.0610596053302
2019-04-03 19:35:30.00,50616412, -4.68, 1.34, 352.95, 586.520019531, -35.363261, 149.1652297, 0.997233569622, -0.0400962308049, 0.0142613835633, -0.0609438456595
2019-04-03 19:35:30.10,50716372, -5.5, 1.56, 352.94, 586.599975586, -35.363261, 149.1652294, 0.99690246582, -0.0470536351204, 0.0166009608656, -0.0607936754823
2019-04-03 19:35:30.20,50816332, -6.09, 1.73, 352.94, 586.66998291, -35.3632611, 149.1652292, 0.996628582478, -0.0521473586559, 0.0183784291148, -0.0606171749532
2019-04-03 19:35:30.30,50916292, -6.54, 1.87, 352.95, 586.729980469, -35.3632614, 149.1652288, 0.996405899525, -0.0559768714011, 0.0197758246213, -0.0604223683476
2019-04-03 19:35:30.40,51016252, -6.91, 1.97, 352.96, 586.789978027, -35.3632615, 149.1652284, 0.99621206522, -0.0591572225094, 0.0208735708147, -0.0602189600468
2019-04-03 19:35:30.49,51116212, -7.27, 2.06, 352.97, 586.840026855, -35.3632616, 149.1652278, 0.996018886566, -0.0622050724924, 0.021803015843, -0.0600131601095
2019-04-03 19:35:30.59,51216172, -7.62, 2.14, 352.98, 586.880004883, -35.3632619, 149.1652272, 0.995818734169, -0.0651795938611, 0.0227509457618, -0.059825848788
2019-04-03 19:35:30.69,51316132, -7.91, 2.23, 352.98, 586.91998291, -35.3632622, 149.1652264, 0.995640099049, -0.0676892250776, 0.0236407127231, -0.0596672594547
2019-04-03 19:35:30.79,51416092, -8.13, 2.29, 352.99, 586.950012207, -35.3632625, 149.1652255, 0.995503127575, -0.0695798993111, 0.0242545008659, -0.0595307089388
2019-04-03 19:35:30.89,51516052, -8.3, 2.33, 352.99, 586.989990234, -35.3632628, 149.1652246, 0.995399713516, -0.0709918066859, 0.0246699601412, -0.0594218224287
2019-04-03 19:35:30.99,51616012, -8.43, 2.35, 353.0, 587.020019531, -35.3632631, 149.1652236, 0.995316207409, -0.0721291899681, 0.0249275323004, -0.0593433827162
2019-04-03 19:35:31.09,51715972, -8.54, 2.37, 353.0, 587.039978027, -35.3632634, 149.1652226, 0.995242655277, -0.0730872303247, 0.0251421444118, -0.05931494385
2019-04-03 19:35:31.19,51815932, -8.67, 2.45, 352.97, 587.070007324, -35.3632639, 149.1652215, 0.995132982731, -0.0741501301527, 0.0259889066219, -0.0594704374671
2019-04-03 19:35:31.29,51915892, -8.81, 2.82, 352.62, 587.099975586, -35.3632643, 149.1652202, 0.994798660278, -0.0750811472535, 0.0294591933489, -0.062214538455
2019-04-03 19:35:31.39,52015852, -9.01, 3.4, 351.29, 587.119995117, -35.3632647, 149.1652188, 0.993774354458, -0.0760592594743, 0.0354846715927, -0.0732695236802
2019-04-03 19:35:31.49,52115812, -9.37, 3.78, 348.42, 587.140014648, -35.3632653, 149.1652174, 0.991304755211, -0.0779826268554, 0.0409912243485, -0.0977415293455
2019-04-03 19:35:31.59,52215772, -9.93, 3.61, 343.94, 587.16998291, -35.3632658, 149.165216, 0.986369729042, -0.081314355135, 0.0431857928634, -0.136373564601
2019-04-03 19:35:31.69,52315732, -10.55, 2.72, 338.06, 587.190002441, -35.3632665, 149.1652145, 0.977724313736, -0.0857344716787, 0.0407137349248, -0.18720895052
2019-04-03 19:35:31.79,52415692, -11.06, 1.11, 331.11, 587.219970703, -35.3632671, 149.1652129, 0.964080393314, -0.0908977538347, 0.0334532782435, -0.247320413589
2019-04-03 19:35:31.90,52516485, -11.32, -1.06, 323.3, 587.239990234, -35.3632678, 149.1652112, 0.944197297096, -0.096564784646, 0.0222741346806, -0.314118653536
2019-04-03 19:35:32.00,52616445, -11.21, -3.57, 315.01, 587.270019531, -35.3632686, 149.1652095, 0.91789317131, -0.102141849697, 0.00870302505791, -0.383358120918
2019-04-03 19:35:32.10,52716405, -10.62, -6.12, 306.41, 587.299987793, -35.3632695, 149.1652077, 0.885293006897, -0.10652204603, -0.00575963361189, -0.45263248682
2019-04-03 19:35:32.20,52816365, -9.56, -8.46, 297.72, 587.33001709, -35.3632702, 149.1652057, 0.847424268723, -0.109216287732, -0.0199558101594, -0.519177854061
2019-04-03 19:35:32.30,52916325, -8.13, -10.43, 289.2, 587.369995117, -35.3632712, 149.1652037, 0.806008994579, -0.11014726758, -0.0330225117505, -0.580626130104
2019-04-03 19:35:32.40,53016285, -6.49, -11.94, 281.11, 587.400024414, -35.3632719, 149.1652015, 0.763063728809, -0.109534241259, -0.0443901717663, -0.635425508022
2019-04-03 19:35:32.50,53116245, -4.82, -13.01, 273.6, 587.440002441, -35.3632729, 149.1651992, 0.720389008522, -0.108022406697, -0.0539176501334, -0.682981550694
2019-04-03 19:35:32.59,53216205, -3.27, -13.74, 266.77, 587.469970703, -35.3632738, 149.1651968, 0.679244756699, -0.106399700046, -0.061593528837, -0.723541200161
2019-04-03 19:35:32.69,53316165, -1.92, -14.2, 260.61, 587.510009766, -35.3632747, 149.1651944, 0.640253484249, -0.105033844709, -0.0672771707177, -0.757969141006
2019-04-03 19:35:32.79,53416125, -0.77, -14.44, 255.03, 587.549987793, -35.3632756, 149.1651918, 0.603457510471, -0.103788465261, -0.0712542235851, -0.787394344807
2019-04-03 19:35:32.89,53516085, 0.3, -14.57, 249.9, 587.590026855, -35.3632765, 149.165189, 0.568537533283, -0.102454908192, -0.0747996047139, -0.81281799078
2019-04-03 19:35:32.99,53616045, 1.63, -14.62, 245.34, 587.630004883, -35.3632774, 149.1651862, 0.536926269531, -0.0995253771544, -0.0806387290359, -0.833847880363
2019-04-03 19:35:33.09,53716005, 3.1, -14.57, 241.73, 587.66998291, -35.3632784, 149.1651834, 0.511699855328, -0.0950677394867, -0.0881768465042, -0.849323451519
2019-04-03 19:35:33.19,53815965, 4.37, -14.47, 239.35, 587.710021973, -35.3632793, 149.1651804, -0.495027273893, 0.0906262844801, 0.0952147096395, 0.858876645565
2019-04-03 19:35:33.29,53915925, 5.1, -14.41, 238.25, 587.760009766, -35.3632803, 149.1651772, -0.487346321344, 0.0879545286298, 0.0996282696724, 0.863036394119
2019-04-03 19:35:33.39,54015885, 5.15, -14.44, 238.31, 587.799987793, -35.3632813, 149.1651741, -0.487763106823, 0.0879203304648, 0.100114554167, 0.862748086452
2019-04-03 19:35:33.49,54115845, 4.51, -14.59, 239.28, 587.849975586, -35.3632822, 149.1651709, -0.494557529688, 0.0910058766603, 0.0967325568199, 0.858937501907
2019-04-03 19:35:33.59,54215805, 3.36, -14.85, 240.92, 587.890014648, -35.3632832, 149.1651675, 0.505756318569, -0.0966287851334, -0.0905805230141, -0.852448582649
2019-04-03 19:35:33.69,54315765, 1.93, -15.13, 242.94, 587.940002441, -35.3632841, 149.1651641, 0.519356966019, -0.10356592387, -0.0830683037639, -0.84418129921
2019-04-03 19:35:33.79,54415725, 0.48, -15.39, 245.06, 587.979980469, -35.3632851, 149.1651606, 0.533377051353, -0.11068880558, -0.0755719989538, -0.835191965103
2019-04-03 19:35:33.89,54515685, -0.78, -15.59, 247.0, 588.030029297, -35.3632859, 149.165157, 0.546115279198, -0.116851806641, -0.069188170135, -0.826629757881
2019-04-03 19:35:34.00,54616478, -1.74, -15.69, 248.59, 588.08001709, -35.3632871, 149.1651535, 0.556407213211, -0.121298931539, -0.0644589886069, -0.819477081299
2019-04-03 19:35:34.10,54716438, -2.32, -15.74, 249.65, 588.119995117, -35.3632882, 149.1651499, 0.563338577747, -0.123902127147, -0.0617200508714, -0.814548075199
2019-04-03 19:35:34.20,54816398, -2.51, -15.77, 250.17, 588.16998291, -35.3632893, 149.1651461, 0.566800355911, -0.124773144722, -0.0610735081136, -0.812058568001
2019-04-03 19:35:34.30,54916358, -2.37, -15.8, 250.18, 588.219970703, -35.3632905, 149.1651425, 0.566983342171, -0.124259099364, -0.0622267052531, -0.811922073364
2019-04-03 19:35:34.40,55016318, -2.0, -15.82, 249.76, 588.260009766, -35.3632917, 149.1651388, 0.564373850822, -0.122821345925, -0.0645194724202, -0.813777863979
2019-04-03 19:35:34.50,55116278, -1.49, -15.86, 249.03, 588.309997559, -35.363293, 149.165135, 0.559692978859, -0.12102920562, -0.0675629675388, -0.817025721073
2019-04-03 19:35:34.60,55216238, -0.93, -15.93, 248.12, 588.359985352, -35.3632943, 149.1651312, 0.553771853447, -0.119324311614, -0.0709204077721, -0.821016848087
2019-04-03 19:35:34.69,55316198, -0.38, -15.99, 247.18, 588.409973145, -35.3632956, 149.1651274, 0.54747825861, -0.117775291204, -0.0741769522429, -0.825163304806
2019-04-03 19:35:34.79,55416158, 0.08, -16.04, 246.3, 588.450012207, -35.3632969, 149.1651235, 0.541573822498, -0.116463281214, -0.0769428685308, -0.828983604908
2019-04-03 19:35:34.89,55516118, 0.45, -16.09, 245.57, 588.5, -35.3632982, 149.1651195, 0.536641955376, -0.115551322699, -0.0790810659528, -0.832111477852
2019-04-03 19:35:34.99,55616078, 0.7, -16.12, 245.05, 588.549987793, -35.3632997, 149.1651156, 0.533081591129, -0.114961951971, -0.0805201455951, -0.834340631962
2019-04-03 19:35:35.09,55716038, 0.83, -16.14, 244.75, 588.599975586, -35.3633011, 149.1651116, 0.53104776144, -0.114714637399, -0.0813187509775, -0.835593283176
2019-04-03 19:35:35.19,55815998, 0.84, -16.16, 244.67, 588.650024414, -35.3633024, 149.1651075, 0.530466616154, -0.114885784686, -0.0814247727394, -0.835928499699
2019-04-03 19:35:35.29,55915958, 0.73, -16.19, 244.78, 588.690002441, -35.3633039, 149.1651034, 0.531107783318, -0.115500696003, -0.0808101072907, -0.83549618721
2019-04-03 19:35:35.39,56015918, 0.53, -16.2, 245.02, 588.739990234, -35.3633053, 149.1650992, 0.532667696476, -0.116385728121, -0.0797020867467, -0.834486067295
2019-04-03 19:35:35.49,56115878, 0.29, -16.24, 245.35, 588.789978027, -35.3633066, 149.1650952, 0.534782290459, -0.11754142493, -0.078469902277, -0.833087205887
2019-04-03 19:35:35.59,56215838, 0.07, -16.3, 245.71, 588.840026855, -35.3633082, 149.165091, 0.537111997604, -0.118793293834, -0.0774546340108, -0.831504523754
2019-04-03 19:35:35.69,56315798, -0.13, -16.36, 246.05, 588.890014648, -35.3633096, 149.1650869, 0.539342999458, -0.119995243847, -0.0766096636653, -0.829964637756
2019-04-03 19:35:35.79,56415758, -0.29, -16.41, 246.34, 588.929992676, -35.3633111, 149.1650826, 0.541251182556, -0.120910838246, -0.0759557932615, -0.8286485672
2019-04-03 19:35:35.89,56515718, -0.39, -16.45, 246.56, 588.979980469, -35.3633125, 149.1650784, 0.542683780193, -0.12152210623, -0.0756785497069, -0.827646911144
2019-04-03 19:35:35.99,56615678, -0.42, -16.49, 246.69, 589.030029297, -35.3633139, 149.1650742, 0.543572425842, -0.121859401464, -0.0757867097855, -0.82700407505
2019-04-03 19:35:36.10,56716471, -0.4, -16.52, 246.74, 589.08001709, -35.3633156, 149.1650698, 0.543912708759, -0.121954500675, -0.0761579349637, -0.826732039452
2019-04-03 19:35:36.20,56816431, -0.33, -16.55, 246.71, 589.130004883, -35.363317, 149.1650656, 0.543758869171, -0.121891960502, -0.0767308473587, -0.826789617538
2019-04-03 19:35:36.30,56916391, -0.25, -16.57, 246.63, 589.16998291, -35.3633186, 149.1650612, 0.543235123158, -0.121666669846, -0.0772900059819, -0.827114999294
2019-04-03 19:35:36.40,57016351, -0.17, -16.57, 246.51, 589.219970703, -35.3633201, 149.1650569, 0.542482376099, -0.12133949995, -0.0777678862214, -0.827612042427
2019-04-03 19:35:36.50,57116311, -0.09, -16.57, 246.38, 589.270019531, -35.3633217, 149.1650526, 0.541632890701, -0.121061652899, -0.0781910791993, -0.828169107437
2019-04-03 19:35:36.60,57216271, -0.03, -16.58, 246.26, 589.320007324, -35.3633233, 149.1650482, 0.54079914093, -0.120928585529, -0.0785368084908, -0.828700602055
2019-04-03 19:35:36.69,57316231, 0.01, -16.59, 246.15, 589.369995117, -35.3633248, 149.1650438, 0.540094912052, -0.120844878256, -0.0788226053119, -0.829144835472
2019-04-03 19:35:36.79,57416191, 0.04, -16.61, 246.08, 589.409973145, -35.3633264, 149.1650393, 0.539583384991, -0.120938949287, -0.0791107416153, -0.829436659813
2019-04-03 19:35:36.89,57516151, 0.05, -16.66, 246.04, 589.460021973, -35.3633279, 149.165035, 0.539305269718, -0.121218755841, -0.0794053524733, -0.829548537731
2019-04-03 19:35:36.99,57616111, 0.05, -16.7, 246.04, 589.510009766, -35.3633296, 149.1650305, 0.539273500443, -0.12150733918, -0.0795653313398, -0.829511642456
2019-04-03 19:35:37.09,57716071, 0.03, -16.73, 246.07, 589.559997559, -35.3633312, 149.1650261, 0.539444208145, -0.121786929667, -0.0795758068562, -0.829358637333
2019-04-03 19:35:37.19,57816031, 0.02, -16.75, 246.12, 589.609985352, -35.3633327, 149.1650216, 0.539787948132, -0.121958650649, -0.0796276554465, -0.829104602337
2019-04-03 19:35:37.29,57915991, 0.0, -16.78, 246.19, 589.650024414, -35.3633344, 149.1650171, 0.540218472481, -0.122236259282, -0.0797659605742, -0.828770041466
2019-04-03 19:35:37.39,58015951, 0.0, -16.83, 246.26, 589.700012207, -35.3633359, 149.1650125, 0.540677964687, -0.12259940058, -0.0799411386251, -0.828399777412
2019-04-03 19:35:37.49,58115911, -0.03, -16.88, 246.33, 589.75, -35.3633376, 149.1650081, 0.54111713171, -0.123042300344, -0.0800705105066, -0.828034758568
2019-04-03 19:35:37.59,58215871, -0.07, -16.9, 246.39, 589.799987793, -35.3633392, 149.1650034, 0.541517317295, -0.123314335942, -0.0799394920468, -0.827745199203
2019-04-03 19:35:37.69,58315831, -0.08, -16.89, 246.44, 589.849975586, -35.3633407, 149.164999, 0.541883945465, -0.123306557536, -0.0798499062657, -0.827515184879
2019-04-03 19:35:37.79,58415791, -0.1, -16.88, 246.48, 589.890014648, -35.3633425, 149.1649943, 0.542168617249, -0.123264789581, -0.0797455906868, -0.827344954014
2019-04-03 19:35:37.89,58515751, -0.1, -16.88, 246.51, 589.940002441, -35.3633441, 149.1649899, 0.542365074158, -0.123260989785, -0.0797996148467, -0.82721143961
2019-04-03 19:35:37.99,58615711, -0.06, -16.89, 246.53, 589.989990234, -35.3633456, 149.1649852, 0.542510926723, -0.123124204576, -0.0800739899278, -0.827109754086
2019-04-03 19:35:38.09,58715671, -0.03, -16.89, 246.53, 590.039978027, -35.3633473, 149.1649807, 0.542594015598, -0.122995115817, -0.0803749635816, -0.827045202255
2019-04-03 19:35:38.20,58816464, -0.01, -16.91, 246.54, 590.090026855, -35.363349, 149.1649761, 0.542602717876, -0.123074255884, -0.0805983617902, -0.827005982399
2019-04-03 19:35:38.30,58916424, 0.0, -16.95, 246.53, 590.130004883, -35.3633507, 149.1649715, 0.542580664158, -0.123280540109, -0.0807867497206, -0.8269713521
2019-04-03 19:35:38.40,59016384, -0.01, -17.0, 246.53, 590.179992676, -35.3633522, 149.1649668, 0.542529881001, -0.123717717826, -0.0809979587793, -0.826918721199
2019-04-03 19:35:38.50,59116344, -0.02, -17.05, 246.54, 590.229980469, -35.363354, 149.1649622, 0.542494773865, -0.124090634286, -0.0811195001006, -0.826874017715
2019-04-03 19:35:38.60,59216304, -0.04, -17.08, 246.54, 590.280029297, -35.3633557, 149.1649574, 0.542489767075, -0.124372906983, -0.0811897665262, -0.826828062534
2019-04-03 19:35:38.70,59316264, -0.04, -17.1, 246.55, 590.33001709, -35.3633572, 149.1649529, 0.542538881302, -0.124547146261, -0.0813049226999, -0.826758146286
2019-04-03 19:35:38.79,59416224, -0.03, -17.12, 246.56, 590.380004883, -35.3633589, 149.1649482, 0.542632818222, -0.124628663063, -0.0814525410533, -0.826669692993
2019-04-03 19:35:38.89,59516184, -0.02, -17.13, 246.58, 590.41998291, -35.3633606, 149.1649435, 0.542761921883, -0.12463901937, -0.0815597698092, -0.82657289505
2019-04-03 19:35:38.99,59616144, -0.02, -17.14, 246.6, 590.469970703, -35.3633623, 149.1649388, 0.542908728123, -0.124670952559, -0.0816733688116, -0.826460421085
2019-04-03 19:35:39.09,59716104, -0.01, -17.15, 246.62, 590.520019531, -35.363364, 149.1649342, 0.543069064617, -0.124683849514, -0.0818175077438, -0.82633882761
2019-04-03 19:35:39.19,59816064, 0.0, -17.16, 246.65, 590.570007324, -35.3633656, 149.1649295, 0.543227314949, -0.124746359885, -0.081937238574, -0.826213479042
2019-04-03 19:35:39.29,59916024, 0.0, -17.18, 246.67, 590.619995117, -35.3633673, 149.1649248, 0.543386936188, -0.124889858067, -0.0820546895266, -0.826075196266
2019-04-03 19:35:39.39,60015984, -0.02, -17.22, 246.69, 590.66998291, -35.363369, 149.1649201, 0.543521881104, -0.125170201063, -0.0821675211191, -0.82593280077
2019-04-03 19:35:39.49,60115944, -0.04, -17.25, 246.72, 590.710021973, -35.3633707, 149.1649153, 0.543637692928, -0.125498339534, -0.0821690559387, -0.825806558132
2019-04-03 19:35:39.59,60215904, -0.08, -17.26, 246.74, 590.760009766, -35.3633723, 149.1649105, 0.543740034103, -0.125747457147, -0.0819844231009, -0.825719594955
2019-04-03 19:35:39.69,60315864, -0.12, -17.26, 246.75, 590.809997559, -35.363374, 149.1649058, 0.543806433678, -0.125966355205, -0.0816959366202, -0.825671195984
2019-04-03 19:35:39.79,60415824, -0.14, -17.28, 246.77, 590.859985352, -35.3633757, 149.164901, 0.543867945671, -0.126132100821, -0.0816123187542, -0.825613617897
2019-04-03 19:35:39.89,60515784, -0.14, -17.29, 246.78, 590.909973145, -35.3633774, 149.1648962, 0.543929040432, -0.126229703426, -0.0817447528243, -0.825545370579
2019-04-03 19:35:39.99,60615744, -0.12, -17.31, 246.78, 590.960021973, -35.363379, 149.1648916, 0.543987333775, -0.126277238131, -0.0820040777326, -0.825473964214
2019-04-03 19:35:40.09,60715704, -0.07, -17.34, 246.79, 591.0, -35.3633808, 149.1648868, 0.544048249722, -0.126223340631, -0.0824410691857, -0.825398445129
2019-04-03 19:35:40.19,60815664, -0.04, -17.36, 246.79, 591.049987793, -35.3633825, 149.164882, 0.54408878088, -0.12623116374, -0.0828014165163, -0.82533454895
2019-04-03 19:35:40.30,60916457, -0.03, -17.37, 246.79, 591.099975586, -35.3633842, 149.1648772, 0.544112920761, -0.126285865903, -0.0828873738647, -0.825301647186
2019-04-03 19:35:40.40,61016417, -0.05, -17.37, 246.8, 591.150024414, -35.3633859, 149.1648724, 0.544122159481, -0.126379743218, -0.0827855318785, -0.825291335583
2019-04-03 19:35:40.50,61116377, -0.05, -17.36, 246.8, 591.200012207, -35.3633875, 149.1648675, 0.544166624546, -0.126320704818, -0.0827287212014, -0.825276792049
2019-04-03 19:35:40.60,61216337, -0.05, -17.36, 246.81, 591.25, -35.3633893, 149.1648627, 0.544215679169, -0.126306667924, -0.0827203541994, -0.82524740696
2019-04-03 19:35:40.70,61316297, -0.04, -17.38, 246.82, 591.289978027, -35.363391, 149.1648579, 0.544274270535, -0.126355007291, -0.0829207748175, -0.825181245804
2019-04-03 19:35:40.80,61416257, -0.01, -17.43, 246.83, 591.340026855, -35.3633927, 149.1648531, 0.544334828854, -0.126603454351, -0.0833620727062, -0.825058698654
2019-04-03 19:35:40.89,61516217, 0.0, -17.47, 246.84, 591.390014648, -35.3633944, 149.1648483, 0.544409990311, -0.12677501142, -0.0836496204138, -0.824953734875
2019-04-03 19:35:40.99,61616177, 0.0, -17.46, 246.85, 591.440002441, -35.363396, 149.1648435, 0.544501364231, -0.126685425639, -0.0836815237999, -0.824903905392
2019-04-03 19:35:41.09,61716137, 0.0, -17.45, 246.86, 591.489990234, -35.3633978, 149.1648387, 0.544584691525, -0.12660728395, -0.0836282595992, -0.824866294861
2019-04-03 19:35:41.19,61816097, -0.02, -17.46, 246.87, 591.539978027, -35.3633996, 149.1648339, 0.544627904892, -0.126776695251, -0.0835020393133, -0.824824571609
2019-04-03 19:35:41.29,61916057, -0.04, -17.47, 246.88, 591.58001709, -35.3634013, 149.164829, 0.544662773609, -0.126989021897, -0.0833989083767, -0.824779391289
2019-04-03 19:35:41.39,62016017, -0.05, -17.49, 246.89, 591.630004883, -35.363403, 149.1648242, 0.544703125954, -0.127165347338, -0.0834185853601, -0.824723541737
2019-04-03 19:35:41.49,62115977, -0.05, -17.5, 246.9, 591.679992676, -35.3634046, 149.1648193, 0.544752418995, -0.127246856689, -0.0834814980626, -0.824672102928
2019-04-03 19:35:41.59,62215937, -0.03, -17.52, 246.91, 591.729980469, -35.3634063, 149.1648143, 0.544812202454, -0.127263262868, -0.0836956053972, -0.824608266354
2019-04-03 19:35:41.69,62315897, -0.01, -17.52, 246.91, 591.780029297, -35.3634081, 149.1648095, 0.544881045818, -0.127170592546, -0.0838481858373, -0.824561595917
2019-04-03 19:35:41.79,62415857, 0.0, -17.52, 246.92, 591.820007324, -35.3634098, 149.1648047, 0.544950246811, -0.127064555883, -0.084001429379, -0.824516534805
2019-04-03 19:35:41.89,62515817, 0.01, -17.52, 246.92, 591.869995117, -35.3634116, 149.1647998, 0.545005202293, -0.127022385597, -0.0841623097658, -0.82447040081
2019-04-03 19:35:41.99,62615777, 0.01, -17.54, 246.93, 591.91998291, -35.3634133, 149.1647949, 0.545019209385, -0.127206966281, -0.0841996520758, -0.824428856373
2019-04-03 19:35:42.09,62715737, -0.01, -17.57, 246.94, 591.969970703, -35.3634149, 149.1647901, 0.545017361641, -0.127485558391, -0.0841722860932, -0.824389874935
2019-04-03 19:35:42.19,62815697, -0.03, -17.6, 246.94, 592.020019531, -35.3634167, 149.1647851, 0.545008003712, -0.127797022462, -0.0841543823481, -0.824349522591
2019-04-03 19:35:42.30,62916490, -0.02, -17.62, 246.94, 592.059997559, -35.3634185, 149.1647802, 0.545026659966, -0.127902150154, -0.0843149572611, -0.824304640293
2019-04-03 19:35:42.40,63016450, 0.0, -17.62, 246.95, 592.109985352, -35.3634202, 149.1647753, 0.545071125031, -0.127802178264, -0.0844403281808, -0.824277818203
2019-04-03 19:35:42.50,63116410, 0.01, -17.59, 246.95, 592.159973145, -35.3634219, 149.1647703, 0.545142352581, -0.127524912357, -0.0844743326306, -0.824270188808
2019-04-03 19:35:42.60,63216370, 0.01, -17.57, 246.96, 592.210021973, -35.3634236, 149.1647654, 0.545197248459, -0.127357840538, -0.084355674684, -0.824271857738
2019-04-03 19:35:42.70,63316330, 0.0, -17.55, 246.96, 592.260009766, -35.3634252, 149.1647606, 0.545240044594, -0.127267509699, -0.0841775760055, -0.824275672436
2019-04-03 19:35:42.80,63416290, 0.0, -17.53, 246.97, 592.299987793, -35.363427, 149.1647557, 0.545276522636, -0.127180024981, -0.0840515941381, -0.824277997017
2019-04-03 19:35:42.90,63516250, -0.01, -17.54, 246.97, 592.349975586, -35.3634288, 149.1647506, 0.545286297798, -0.1272482723, -0.0840022489429, -0.824265956879
2019-04-03 19:35:42.99,63616210, -0.02, -17.55, 246.97, 592.400024414, -35.3634305, 149.1647458, 0.545286595821, -0.127380013466, -0.084040530026, -0.824241578579
2019-04-03 19:35:43.09,63716170, -0.03, -17.58, 246.97, 592.450012207, -35.3634322, 149.1647409, 0.545253038406, -0.127693340182, -0.0840890854597, -0.82421028614
2019-04-03 19:35:43.19,63816130, -0.04, -17.63, 246.97, 592.5, -35.363434, 149.1647358, 0.545215070248, -0.128057479858, -0.0842883214355, -0.824158608913
2019-04-03 19:35:43.29,63916090, -0.03, -17.66, 246.97, 592.549987793, -35.3634356, 149.164731, 0.545200645924, -0.12818749249, -0.0844589397311, -0.824130415916
2019-04-03 19:35:43.39,64016050, -0.03, -17.67, 246.97, 592.590026855, -35.3634373, 149.164726, 0.545182645321, -0.128281027079, -0.0845322906971, -0.824120342731
2019-04-03 19:35:43.49,64116010, -0.03, -17.68, 246.97, 592.640014648, -35.3634391, 149.164721, 0.545156002045, -0.128400668502, -0.0845450311899, -0.824117898941
2019-04-03 19:35:43.59,64215970, -0.03, -17.67, 246.97, 592.690002441, -35.3634409, 149.1647161, 0.545160591602, -0.128311738372, -0.0845377743244, -0.824129521847
2019-04-03 19:35:43.69,64315930, 0.0, -17.67, 246.97, 592.739990234, -35.3634426, 149.1647112, 0.545190453529, -0.128151461482, -0.0846821144223, -0.824119925499
2019-04-03 19:35:43.79,64415890, 0.0, -17.68, 246.97, 592.789978027, -35.3634443, 149.1647061, 0.545182824135, -0.128190919757, -0.084833920002, -0.824103116989
2019-04-03 19:35:43.89,64515850, 0.0, -17.69, 246.97, 592.840026855, -35.3634461, 149.1647013, 0.545169889927, -0.128226071596, -0.0849257111549, -0.824096798897
2019-04-03 19:35:43.99,64615810, 0.01, -17.68, 246.96, 592.880004883, -35.3634477, 149.1646963, 0.54515838623, -0.128163710237, -0.0849075689912, -0.824116051197
2019-04-03 19:35:44.09,64715770, 0.01, -17.68, 246.96, 592.929992676, -35.3634495, 149.1646913, 0.545143783092, -0.128123536706, -0.0848588943481, -0.824136912823
2019-04-03 19:35:44.19,64815730, 0.0, -17.68, 246.96, 592.979980469, -35.3634513, 149.1646864, 0.545108258724, -0.128245830536, -0.0847781673074, -0.824149727821
2019-04-03 19:35:44.29,64915690, -0.03, -17.71, 246.96, 593.030029297, -35.363453, 149.1646814, 0.545038163662, -0.128611057997, -0.0847234725952, -0.824144721031
2019-04-03 19:35:44.40,65016483, -0.05, -17.72, 246.95, 593.08001709, -35.3634547, 149.1646764, 0.544992566109, -0.128772959113, -0.0846296176314, -0.82415920496
2019-04-03 19:35:44.50,65116443, -0.04, -17.7, 246.95, 593.130004883, -35.3634565, 149.1646714, 0.544994950294, -0.128601714969, -0.0845340192318, -0.824194252491
2019-04-03 19:35:44.60,65216403, -0.02, -17.68, 246.95, 593.16998291, -35.3634581, 149.1646663, 0.54502081871, -0.128333106637, -0.0846412628889, -0.824208021164
2019-04-03 19:35:44.70,65316363, 0.0, -17.67, 246.95, 593.219970703, -35.3634599, 149.1646615, 0.545034587383, -0.128148585558, -0.0847576484084, -0.824215650558
2019-04-03 19:35:44.80,65416323, 0.0, -17.67, 246.94, 593.270019531, -35.3634616, 149.1646565, 0.545009851456, -0.128195896745, -0.0847462937236, -0.824225842953
2019-04-03 19:35:44.90,65516283, -0.04, -17.7, 246.94, 593.320007324, -35.3634634, 149.1646515, 0.544929325581, -0.128565728664, -0.084562972188, -0.824240267277
2019-04-03 19:35:45.00,65616243, -0.07, -17.72, 246.94, 593.369995117, -35.3634652, 149.1646465, 0.544857800007, -0.12889033556, -0.0844271183014, -0.824250757694
2019-04-03 19:35:45.09,65716203, -0.07, -17.74, 246.94, 593.41998291, -35.3634669, 149.1646414, 0.544832646847, -0.129042446613, -0.0845494940877, -0.824231088161
2019-04-03 19:35:45.19,65816163, -0.05, -17.76, 246.93, 593.460021973, -35.3634686, 149.1646365, 0.544826626778, -0.129037976265, -0.0847666189075, -0.824213504791
2019-04-03 19:35:45.29,65916123, -0.02, -17.76, 246.93, 593.510009766, -35.3634704, 149.1646314, 0.544834852219, -0.128931358457, -0.0849897041917, -0.824201703072
2019-04-03 19:35:45.39,66016083, 0.0, -17.77, 246.93, 593.559997559, -35.363472, 149.1646265, 0.544836640358, -0.128882914782, -0.0851532444358, -0.824191272259
2019-04-03 19:35:45.49,66116043, 0.0, -17.78, 246.93, 593.609985352, -35.3634738, 149.1646214, 0.54480779171, -0.128987073898, -0.0852669551969, -0.824182271957
2019-04-03 19:35:45.59,66216003, 0.0, -17.8, 246.92, 593.659973145, -35.3634756, 149.1646165, 0.544774234295, -0.129077419639, -0.0853290781379, -0.824183940887
2019-04-03 19:35:45.69,66315963, 0.02, -17.8, 246.92, 593.710021973, -35.3634773, 149.1646116, 0.54476839304, -0.128977045417, -0.0854966491461, -0.824186086655
2019-04-03 19:35:45.79,66415923, 0.06, -17.8, 246.91, 593.760009766, -35.3634791, 149.1646065, 0.544777095318, -0.128813371062, -0.0857502743602, -0.824179589748
2019-04-03 19:35:45.89,66515883, 0.07, -17.79, 246.91, 593.799987793, -35.3634808, 149.1646015, 0.544770300388, -0.128676846623, -0.0857632234693, -0.824204027653
2019-04-03 19:35:45.99,66615843, 0.04, -17.78, 246.91, 593.849975586, -35.3634826, 149.1645964, 0.544724047184, -0.12879742682, -0.0855463966727, -0.824238181114
2019-04-03 19:35:46.09,66715803, 0.01, -17.79, 246.91, 593.900024414, -35.3634842, 149.1645915, 0.544675707817, -0.129005536437, -0.0853810757399, -0.824254870415
2019-04-03 19:35:46.19,66815763, -0.02, -17.8, 246.91, 593.950012207, -35.363486, 149.1645864, 0.54463249445, -0.129207268357, -0.0851460397243, -0.824276030064
2019-04-03 19:35:46.29,66915723, -0.05, -17.8, 246.91, 594.0, -35.3634878, 149.1645815, 0.544602811337, -0.129337355494, -0.0849211066961, -0.824298560619
2019-04-03 19:35:46.39,67015683, -0.05, -17.79, 246.91, 594.049987793, -35.3634895, 149.1645764, 0.544610381126, -0.129339188337, -0.0848722606897, -0.824298322201
2019-04-03 19:35:46.50,67116476, -0.03, -17.79, 246.91, 594.090026855, -35.3634913, 149.1645714, 0.544639527798, -0.129190132022, -0.0849682539701, -0.82429254055
2019-04-03 19:35:46.60,67216436, -0.02, -17.78, 246.91, 594.140014648, -35.363493, 149.1645663, 0.544643640518, -0.129103332758, -0.0850533246994, -0.824294626713
2019-04-03 19:35:46.70,67316396, -0.02, -17.8, 246.9, 594.190002441, -35.3634948, 149.1645614, 0.54460310936, -0.129226341844, -0.0851233974099, -0.824294924736
2019-04-03 19:35:46.80,67416356, -0.01, -17.83, 246.9, 594.239990234, -35.3634964, 149.1645563, 0.54455447197, -0.129398792982, -0.0852850303054, -0.82428330183
2019-04-03 19:35:46.90,67516316, 0.0, -17.83, 246.89, 594.289978027, -35.3634981, 149.1645514, 0.544525742531, -0.129395380616, -0.0854269713163, -0.824288129807
2019-04-03 19:35:47.00,67616276, 0.01, -17.82, 246.89, 594.340026855, -35.3635, 149.1645464, 0.544516324997, -0.129249498248, -0.0854906067252, -0.824310600758
2019-04-03 19:35:47.10,67716236, 0.02, -17.81, 246.88, 594.380004883, -35.3635017, 149.1645413, 0.544510126114, -0.129089295864, -0.0855366662145, -0.824335038662
2019-04-03 19:35:47.19,67816196, 0.04, -17.81, 246.88, 594.429992676, -35.3635035, 149.1645362, 0.544501423836, -0.129023104906, -0.0856548473239, -0.824338853359
2019-04-03 19:35:47.29,67916156, 0.05, -17.83, 246.88, 594.479980469, -35.3635052, 149.1645313, 0.544477522373, -0.129055783153, -0.0858083516359, -0.824333548546
2019-04-03 19:35:47.39,68016116, 0.06, -17.84, 246.87, 594.530029297, -35.363507, 149.1645263, 0.544442892075, -0.129148378968, -0.0859193652868, -0.824330329895
2019-04-03 19:35:47.49,68116076, 0.05, -17.87, 246.87, 594.58001709, -35.3635087, 149.1645212, 0.544395744801, -0.129326969385, -0.0860137939453, -0.824323654175
2019-04-03 19:35:47.59,68216036, 0.03, -17.88, 246.86, 594.630004883, -35.3635103, 149.1645161, 0.544330954552, -0.129554286599, -0.0859269872308, -0.824339807034
2019-04-03 19:35:47.69,68315996, 0.01, -17.89, 246.86, 594.679992676, -35.3635121, 149.1645112, 0.544268965721, -0.129748046398, -0.0857682898641, -0.824366748333
2019-04-03 19:35:47.79,68415956, 0.0, -17.88, 246.86, 594.719970703, -35.3635139, 149.1645062, 0.544225633144, -0.129796162248, -0.0856056883931, -0.824404656887
2019-04-03 19:35:47.89,68515916, -0.01, -17.86, 246.85, 594.770019531, -35.3635157, 149.1645011, 0.544208288193, -0.129643797874, -0.0854649245739, -0.824454784393
2019-04-03 19:35:47.99,68615876, 0.0, -17.84, 246.85, 594.820007324, -35.3635174, 149.164496, 0.544189214706, -0.129476711154, -0.0854560434818, -0.824494540691
2019-04-03 19:35:48.09,68715836, 0.02, -17.84, 246.84, 594.869995117, -35.3635192, 149.1644911, 0.544169664383, -0.129361823201, -0.0855923816562, -0.824511408806
2019-04-03 19:35:48.19,68815796, 0.05, -17.85, 246.83, 594.91998291, -35.3635209, 149.1644859, 0.544159710407, -0.129277050495, -0.0858671963215, -0.824502587318
2019-04-03 19:35:48.29,68915756, 0.08, -17.85, 246.83, 594.969970703, -35.3635227, 149.164481, 0.544148266315, -0.129168495536, -0.086081340909, -0.82450479269
2019-04-03 19:35:48.39,69015716, 0.09, -17.86, 246.82, 595.010009766, -35.3635243, 149.1644759, 0.544118642807, -0.129183799028, -0.0862054377794, -0.82450902462
2019-04-03 19:35:48.49,69115676, 0.08, -17.87, 246.82, 595.059997559, -35.3635261, 149.1644709, 0.544080495834, -0.12925554812, -0.0861447677016, -0.824529290199
2019-04-03 19:35:48.60,69216469, 0.06, -17.88, 246.82, 595.109985352, -35.3635279, 149.1644658, 0.54403424263, -0.12939940393, -0.0860587060452, -0.824546277523
2019-04-03 19:35:48.70,69316429, 0.05, -17.88, 246.82, 595.159973145, -35.3635297, 149.1644608, 0.543995499611, -0.129495114088, -0.0859585255384, -0.824567198753
2019-04-03 19:35:48.80,69416389, 0.03, -17.89, 246.81, 595.210021973, -35.3635314, 149.1644557, 0.543950915337, -0.129693761468, -0.0859085172415, -0.824570655823
2019-04-03 19:35:48.90,69516349, 0.02, -17.91, 246.81, 595.25, -35.3635332, 149.1644508, 0.543915808201, -0.129847794771, -0.0858747810125, -0.824573040009
2019-04-03 19:35:49.00,69616309, 0.01, -17.91, 246.81, 595.299987793, -35.3635349, 149.1644456, 0.543892621994, -0.129922434688, -0.0858521834016, -0.824578940868
2019-04-03 19:35:49.10,69716269, 0.03, -17.91, 246.81, 595.349975586, -35.3635367, 149.1644407, 0.543903708458, -0.129792407155, -0.0859573855996, -0.824581205845
2019-04-03 19:35:49.19,69816229, 0.06, -17.89, 246.81, 595.400024414, -35.3635383, 149.1644356, 0.543925106525, -0.129565164447, -0.0860968083143, -0.824588179588
2019-04-03 19:35:49.29,69916189, 0.08, -17.87, 246.8, 595.450012207, -35.3635401, 149.1644306, 0.543946802616, -0.129284158349, -0.0861648693681, -0.824610888958
2019-04-03 19:35:49.39,70016149, 0.09, -17.85, 246.8, 595.489990234, -35.3635419, 149.1644255, 0.543943285942, -0.129111334682, -0.086079210043, -0.82464915514
2019-04-03 19:35:49.49,70116109, 0.07, -17.83, 246.8, 595.539978027, -35.3635437, 149.1644205, 0.54392015934, -0.129058748484, -0.0859194248915, -0.824689388275
2019-04-03 19:35:49.59,70216069, 0.06, -17.82, 246.79, 595.590026855, -35.3635454, 149.1644154, 0.543891847134, -0.129059121013, -0.0857521146536, -0.824725389481
2019-04-03 19:35:49.69,70316029, 0.05, -17.81, 246.79, 595.640014648, -35.3635472, 149.1644103, 0.543864130974, -0.129042834044, -0.0856230258942, -0.824759662151
2019-04-03 19:35:49.79,70415989, 0.04, -17.8, 246.79, 595.690002441, -35.3635489, 149.1644053, 0.543835282326, -0.129031270742, -0.0854878127575, -0.824794530869
2019-04-03 19:35:49.89,70515949, 0.02, -17.8, 246.78, 595.739990234, -35.3635507, 149.1644002, 0.543795108795, -0.129092305899, -0.0853839814663, -0.824822187424
2019-04-03 19:35:49.99,70615909, 0.02, -17.82, 246.78, 595.789978027, -35.3635523, 149.1643952, 0.543750047684, -0.129235878587, -0.0854194760323, -0.824825763702
2019-04-03 19:35:50.09,70715869, 0.05, -17.83, 246.77, 595.83001709, -35.3635541, 149.1643901, 0.543741285801, -0.129186853766, -0.0857099294662, -0.824809074402
2019-04-03 19:35:50.19,70815829, 0.09, -17.85, 246.77, 595.880004883, -35.3635559, 149.1643851, 0.543734312057, -0.12914454937, -0.0860532522202, -0.824784576893
2019-04-03 19:35:50.29,70915789, 0.1, -17.85, 246.77, 595.929992676, -35.3635577, 149.1643801, 0.543726861477, -0.129054903984, -0.086175814271, -0.824790716171
2019-04-03 19:35:50.39,71015749, 0.09, -17.84, 246.76, 595.979980469, -35.3635594, 149.164375, 0.543686330318, -0.129032939672, -0.0860174074769, -0.824837446213
2019-04-03 19:35:50.49,71115709, 0.05, -17.82, 246.76, 596.030029297, -35.3635612, 149.16437, 0.543625056744, -0.129097551107, -0.0856654196978, -0.824904322624
2019-04-03 19:35:50.59,71215669, 0.02, -17.8, 246.75, 596.08001709, -35.363563, 149.1643648, 0.543578922749, -0.129105761647, -0.0853232815862, -0.824968874454
2019-04-03 19:35:50.70,71316462, 0.02, -17.79, 246.75, 596.130004883, -35.3635647, 149.1643598, 0.543555319309, -0.129087790847, -0.085261002183, -0.824993669987
2019-04-03 19:35:50.80,71416422, 0.01, -17.82, 246.75, 596.16998291, -35.3635665, 149.1643547, 0.543504834175, -0.129280224442, -0.0853612944484, -0.82498639822
2019-04-03 19:35:50.90,71516382, 0.0, -17.85, 246.74, 596.219970703, -35.3635681, 149.1643497, 0.543426811695, -0.129605084658, -0.0853747650981, -0.82498550415
2019-04-03 19:35:51.00,71616342, -0.02, -17.86, 246.74, 596.270019531, -35.3635699, 149.1643446, 0.543353319168, -0.12978567183, -0.0852405801415, -0.825019359589
2019-04-03 19:35:51.10,71716302, -0.02, -17.84, 246.73, 596.320007324, -35.3635717, 149.1643397, 0.543317437172, -0.129681274295, -0.0851343944669, -0.825070440769
2019-04-03 19:35:51.20,71816262, 0.0, -17.82, 246.72, 596.369995117, -35.3635735, 149.1643346, 0.543316304684, -0.129424497485, -0.085211224854, -0.825103521347
2019-04-03 19:35:51.29,71916222, 0.02, -17.8, 246.72, 596.41998291, -35.3635752, 149.1643296, 0.543326377869, -0.129116624594, -0.0853108093143, -0.825134813786
2019-04-03 19:35:51.39,72016182, 0.04, -17.76, 246.71, 596.460021973, -35.363577, 149.1643245, 0.543329894543, -0.128773063421, -0.0852072611451, -0.825196862221
2019-04-03 19:35:51.49,72116142, 0.05, -17.73, 246.71, 596.510009766, -35.3635787, 149.1643195, 0.543323755264, -0.128515422344, -0.0851930305362, -0.825242638588
2019-04-03 19:35:51.59,72216102, 0.06, -17.74, 246.7, 596.559997559, -35.3635805, 149.1643144, 0.543298304081, -0.128473371267, -0.0852676704526, -0.825258135796
2019-04-03 19:35:51.69,72316062, 0.08, -17.76, 246.7, 596.609985352, -35.3635823, 149.1643093, 0.543265163898, -0.128589987755, -0.0854775607586, -0.825240135193
2019-04-03 19:35:51.79,72416022, 0.09, -17.79, 246.69, 596.659973145, -35.3635839, 149.1643043, 0.543244481087, -0.128709629178, -0.0857064351439, -0.825211405754
2019-04-03 19:35:51.89,72515982, 0.1, -17.8, 246.69, 596.710021973, -35.3635857, 149.1642992, 0.54323387146, -0.12878587842, -0.0858450755477, -0.825191915035
2019-04-03 19:35:51.99,72615942, 0.11, -17.83, 246.69, 596.75, -35.3635875, 149.1642942, 0.543213307858, -0.128982678056, -0.0860321521759, -0.825155258179
2019-04-03 19:35:52.09,72715902, 0.1, -17.85, 246.69, 596.799987793, -35.3635893, 149.1642891, 0.543188691139, -0.12916046381, -0.0861025750637, -0.825136363506
2019-04-03 19:35:52.19,72815862, 0.09, -17.84, 246.69, 596.849975586, -35.363591, 149.1642841, 0.543185412884, -0.129130676389, -0.0859524160624, -0.825158834457
2019-04-03 19:35:52.29,72915822, 0.08, -17.82, 246.69, 596.900024414, -35.3635928, 149.164279, 0.543195188046, -0.128985121846, -0.0857495740056, -0.825196266174
2019-04-03 19:35:52.39,73015782, 0.08, -17.79, 246.69, 596.950012207, -35.3635945, 149.1642741, 0.543204963207, -0.12881654501, -0.0856342166662, -0.825228154659
2019-04-03 19:35:52.49,73115742, 0.1, -17.78, 246.69, 596.989990234, -35.3635963, 149.164269, 0.543219566345, -0.12864933908, -0.0857357308269, -0.825234115124
2019-04-03 19:35:52.59,73215702, 0.12, -17.8, 246.69, 597.039978027, -35.3635979, 149.164264, 0.54320037365, -0.128677144647, -0.0859553292394, -0.825219511986
2019-04-03 19:35:52.69,73315662, 0.12, -17.81, 246.68, 597.090026855, -35.3635997, 149.1642589, 0.543148219585, -0.128796607256, -0.08599024266, -0.825231611729
2019-04-03 19:35:52.80,73416455, 0.09, -17.81, 246.67, 597.140014648, -35.3636015, 149.1642537, 0.543080627918, -0.128919020295, -0.0857678130269, -0.82528012991
2019-04-03 19:35:52.90,73516415, 0.06, -17.8, 246.67, 597.190002441, -35.3636033, 149.1642488, 0.543022811413, -0.128978818655, -0.0855033844709, -0.82533621788
2019-04-03 19:35:53.00,73616375, 0.05, -17.77, 246.67, 597.229980469, -35.3636051, 149.1642436, 0.542997360229, -0.128839045763, -0.0852990075946, -0.825396001339
2019-04-03 19:35:53.10,73716335, 0.07, -17.75, 246.66, 597.280029297, -35.3636068, 149.1642387, 0.543011963367, -0.128560617566, -0.0853068158031, -0.825428962708
2019-04-03 19:35:53.20,73816295, 0.1, -17.75, 246.66, 597.33001709, -35.3636086, 149.1642336, 0.5430123806, -0.128435492516, -0.0855089053512, -0.825427114964
2019-04-03 19:35:53.30,73916255, 0.12, -17.77, 246.65, 597.380004883, -35.3636103, 149.1642286, 0.54298979044, -0.128488704562, -0.0857481658459, -0.825408995152
2019-04-03 19:35:53.39,74016215, 0.13, -17.79, 246.65, 597.429992676, -35.3636121, 149.1642235, 0.542962729931, -0.128584071994, -0.085949935019, -0.825390934944
2019-04-03 19:35:53.49,74116175, 0.14, -17.8, 246.65, 597.479980469, -35.3636137, 149.1642185, 0.542950510979, -0.128604143858, -0.0860410928726, -0.825386464596
2019-04-03 19:35:53.59,74216135, 0.14, -17.79, 246.65, 597.520019531, -35.3636155, 149.1642135, 0.542945861816, -0.128575831652, -0.0860415548086, -0.825393795967
2019-04-03 19:35:53.69,74316095, 0.14, -17.8, 246.65, 597.570007324, -35.3636173, 149.1642084, 0.542938172817, -0.128581032157, -0.0860456004739, -0.825397670269
2019-04-03 19:35:53.79,74416055, 0.14, -17.79, 246.64, 597.619995117, -35.3636191, 149.1642034, 0.542938232422, -0.12852396071, -0.0860207304358, -0.825409114361
2019-04-03 19:35:53.89,74516015, 0.15, -17.78, 246.64, 597.66998291, -35.3636208, 149.1641984, 0.542943954468, -0.12843285501, -0.0860207527876, -0.825419485569
2019-04-03 19:35:53.99,74615975, 0.16, -17.79, 246.64, 597.719970703, -35.3636226, 149.1641933, 0.542942047119, -0.128478512168, -0.0861244946718, -0.825402855873
2019-04-03 19:35:54.09,74715935, 0.17, -17.83, 246.64, 597.760009766, -35.3636243, 149.1641883, 0.542930185795, -0.12866742909, -0.0864123106003, -0.825351059437
2019-04-03 19:35:54.19,74815895, 0.17, -17.86, 246.64, 597.809997559, -35.3636261, 149.1641833, 0.542907416821, -0.128877103329, -0.0865422040224, -0.825319826603
2019-04-03 19:35:54.29,74915855, 0.15, -17.86, 246.64, 597.859985352, -35.3636277, 149.1641781, 0.542881250381, -0.129023402929, -0.0863927900791, -0.825329720974
2019-04-03 19:35:54.39,75015815, 0.11, -17.86, 246.64, 597.909973145, -35.3636295, 149.1641732, 0.54283696413, -0.129193022847, -0.0860862508416, -0.825364470482
2019-04-03 19:35:54.49,75115775, 0.07, -17.85, 246.64, 597.960021973, -35.3636313, 149.1641682, 0.542805016041, -0.129291981459, -0.085803873837, -0.825399339199
2019-04-03 19:35:54.59,75215735, 0.07, -17.84, 246.64, 598.0, -35.3636331, 149.1641631, 0.542808175087, -0.129261925817, -0.0857605710626, -0.825406432152
2019-04-03 19:35:54.69,75315695, 0.08, -17.84, 246.64, 598.049987793, -35.3636348, 149.164158, 0.542809128761, -0.129219383001, -0.0858064219356, -0.825407743454
2019-04-03 19:35:54.80,75416488, 0.1, -17.84, 246.64, 598.099975586, -35.3636366, 149.164153, 0.542812228203, -0.129133850336, -0.0859424471855, -0.825404942036
2019-04-03 19:35:54.90,75516448, 0.12, -17.83, 246.64, 598.150024414, -35.3636383, 149.1641479, 0.542826890945, -0.128935873508, -0.0860381498933, -0.825416207314
2019-04-03 19:35:55.00,75616408, 0.14, -17.82, 246.63, 598.200012207, -35.3636401, 149.1641429, 0.54282528162, -0.128790289164, -0.0861128121614, -0.825432300568
2019-04-03 19:35:55.10,75716368, 0.15, -17.82, 246.63, 598.239990234, -35.3636417, 149.1641378, 0.542806684971, -0.12874083221, -0.086188994348, -0.825444221497
2019-04-03 19:35:55.20,75816328, 0.13, -17.82, 246.62, 598.289978027, -35.3636435, 149.1641328, 0.542754650116, -0.12883849442, -0.0861165747046, -0.825470745564
2019-04-03 19:35:55.30,75916288, 0.11, -17.84, 246.62, 598.340026855, -35.3636453, 149.1641278, 0.542682945728, -0.129048332572, -0.0859819352627, -0.825499176979
2019-04-03 19:35:55.40,76016248, 0.06, -17.84, 246.61, 598.390014648, -35.3636471, 149.1641227, 0.542597472668, -0.129269823432, -0.0856387317181, -0.825556397438
2019-04-03 19:35:55.49,76116208, 0.04, -17.84, 246.61, 598.440002441, -35.3636488, 149.1641177, 0.542541801929, -0.129379436374, -0.0854752510786, -0.825592756271
2019-04-03 19:35:55.59,76216168, 0.04, -17.85, 246.6, 598.489990234, -35.3636506, 149.1641125, 0.542483568192, -0.129497051239, -0.0855083540082, -0.825609147549
2019-04-03 19:35:55.69,76316128, 0.05, -17.85, 246.6, 598.530029297, -35.3636523, 149.1641076, 0.54244941473, -0.12944842875, -0.0855896249413, -0.825630784035
2019-04-03 19:35:55.79,76416088, 0.07, -17.85, 246.59, 598.58001709, -35.3636541, 149.1641026, 0.542424201965, -0.129331246018, -0.0857060551643, -0.825653672218
2019-04-03 19:35:55.89,76516048, 0.09, -17.84, 246.58, 598.630004883, -35.3636557, 149.1640975, 0.542401790619, -0.129239186645, -0.085814870894, -0.825671374798
2019-04-03 19:35:55.99,76616008, 0.09, -17.85, 246.58, 598.679992676, -35.3636575, 149.1640924, 0.542357623577, -0.1292771101, -0.0858509838581, -0.825690746307
2019-04-03 19:35:56.09,76715968, 0.07, -17.84, 246.57, 598.729980469, -35.3636593, 149.1640874, 0.542307913303, -0.129308328032, -0.0857205688953, -0.825732052326
2019-04-03 19:35:56.19,76815928, 0.06, -17.83, 246.57, 598.770019531, -35.3636611, 149.1640823, 0.542271912098, -0.129278898239, -0.0855804011226, -0.825774848461
2019-04-03 19:35:56.29,76915888, 0.08, -17.85, 246.57, 598.820007324, -35.3636628, 149.1640773, 0.542254567146, -0.12932215631, -0.0857302322984, -0.825763940811
2019-04-03 19:35:56.39,77015848, 0.11, -17.86, 246.56, 598.869995117, -35.3636646, 149.1640722, 0.542263686657, -0.129293560982, -0.0860389471054, -0.825730383396
2019-04-03 19:35:56.49,77115808, 0.15, -17.85, 246.56, 598.91998291, -35.3636664, 149.1640673, 0.542312145233, -0.129009455442, -0.0862839818001, -0.825717389584
2019-04-03 19:35:56.59,77215768, 0.18, -17.82, 246.56, 598.969970703, -35.3636681, 149.1640622, 0.542370140553, -0.128662243485, -0.0863235145807, -0.825729370117
2019-04-03 19:35:56.69,77315728, 0.18, -17.8, 246.57, 599.010009766, -35.3636699, 149.1640572, 0.54241168499, -0.128447368741, -0.0862693935633, -0.825741052628
2019-04-03 19:35:56.79,77415688, 0.16, -17.82, 246.57, 599.059997559, -35.3636715, 149.1640521, 0.542390227318, -0.128712698817, -0.0861764624715, -0.825723588467
2019-04-03 19:35:56.90,77516481, 0.12, -17.87, 246.57, 599.109985352, -35.3636733, 149.1640469, 0.542342722416, -0.12928929925, -0.0861910358071, -0.825663208961
2019-04-03 19:35:57.00,77616441, 0.1, -17.92, 246.58, 599.159973145, -35.3636751, 149.164042, 0.542319476604, -0.129703506827, -0.0862344503403, -0.825608968735
2019-04-03 19:35:57.10,77716401, 0.08, -17.93, 246.58, 599.210021973, -35.3636769, 149.1640369, 0.542318165302, -0.129856035113, -0.0862046331167, -0.825589001179
2019-04-03 19:35:57.20,77816361, 0.08, -17.91, 246.58, 599.25, -35.3636787, 149.1640319, 0.542336761951, -0.129754558206, -0.0860580056906, -0.825608074665
2019-04-03 19:35:57.30,77916321, 0.07, -17.86, 246.58, 599.299987793, -35.3636804, 149.1640268, 0.54235804081, -0.129457548261, -0.0857606753707, -0.825671613216
2019-04-03 19:35:57.40,78016281, 0.07, -17.82, 246.58, 599.349975586, -35.3636822, 149.1640218, 0.542379319668, -0.129130661488, -0.0855329111218, -0.825732529163
2019-04-03 19:35:57.50,78116241, 0.08, -17.77, 246.58, 599.400024414, -35.3636839, 149.1640167, 0.54240500927, -0.128751888871, -0.0853810831904, -0.825790464878
2019-04-03 19:35:57.59,78216201, 0.1, -17.75, 246.58, 599.450012207, -35.3636857, 149.1640118, 0.542414009571, -0.128527194262, -0.0854303762317, -0.825814425945
2019-04-03 19:35:57.69,78316161, 0.1, -17.77, 246.57, 599.5, -35.3636873, 149.1640066, 0.542375922203, -0.128644093871, -0.0855721756816, -0.825806617737
2019-04-03 19:35:57.79,78416121, 0.1, -17.8, 246.57, 599.539978027, -35.3636891, 149.1640017, 0.542320430279, -0.128874465823, -0.0856502503157, -0.825798988342
2019-04-03 19:35:57.89,78516081, 0.08, -17.82, 246.56, 599.590026855, -35.3636909, 149.1639966, 0.542267143726, -0.129061728716, -0.0856368169188, -0.825806081295
2019-04-03 19:35:57.99,78616041, 0.07, -17.81, 246.56, 599.640014648, -35.3636927, 149.1639916, 0.542233109474, -0.129088118672, -0.085513740778, -0.825837135315
2019-04-03 19:35:58.09,78716001, 0.04, -17.79, 246.56, 599.690002441, -35.3636944, 149.1639865, 0.542198181152, -0.129078045487, -0.0852171778679, -0.825892269611
2019-04-03 19:35:58.19,78815961, 0.02, -17.79, 246.55, 599.739990234, -35.3636962, 149.1639815, 0.542158305645, -0.129164069891, -0.0850541740656, -0.825921833515
2019-04-03 19:35:58.29,78915921, 0.02, -17.8, 246.55, 599.789978027, -35.3636979, 149.1639765, 0.542124450207, -0.129303917289, -0.0850952640176, -0.825917899609
2019-04-03 19:35:58.39,79015881, 0.02, -17.82, 246.55, 599.83001709, -35.3636997, 149.1639713, 0.542096853256, -0.1293990165, -0.0851509198546, -0.825915396214
2019-04-03 19:35:58.49,79115841, 0.03, -17.82, 246.55, 599.880004883, -35.3637013, 149.1639664, 0.542096734047, -0.129328608513, -0.0852368399501, -0.82591766119
2019-04-03 19:35:58.59,79215801, 0.05, -17.82, 246.55, 599.929992676, -35.3637031, 149.1639612, 0.542105615139, -0.129263311625, -0.0854308232665, -0.825902044773
2019-04-03 19:35:58.69,79315761, 0.08, -17.83, 246.54, 599.979980469, -35.3637049, 149.1639563, 0.542119085789, -0.129187986255, -0.085658788681, -0.825881361961
2019-04-03 19:35:58.79,79415721, 0.1, -17.83, 246.54, 600.030029297, -35.3637067, 149.1639511, 0.542127013206, -0.129116997123, -0.0858058407903, -0.825872063637
2019-04-03 19:35:58.89,79515681, 0.1, -17.82, 246.54, 600.070007324, -35.3637085, 149.1639462, 0.542121589184, -0.129048734903, -0.0857509225607, -0.825891852379
2019-04-03 19:35:59.00,79616474, 0.1, -17.82, 246.54, 600.119995117, -35.3637102, 149.1639411, 0.542107582092, -0.129046499729, -0.0857101231813, -0.825905621052
2019-04-03 19:35:59.10,79716434, 0.1, -17.85, 246.54, 600.16998291, -35.363712, 149.1639361, 0.542084038258, -0.129238218069, -0.0858514904976, -0.82587647438
2019-04-03 19:35:59.20,79816394, 0.09, -17.85, 246.54, 600.219970703, -35.3637138, 149.163931, 0.542076349258, -0.129293754697, -0.0857964009047, -0.825878560543
2019-04-03 19:35:59.30,79916354, 0.06, -17.84, 246.54, 600.270019531, -35.3637155, 149.163926, 0.542068064213, -0.129358127713, -0.0855227485299, -0.825902283192
2019-04-03 19:35:59.40,80016314, 0.03, -17.82, 246.55, 600.320007324, -35.3637173, 149.1639209, 0.542079985142, -0.129334032536, -0.0852532088757, -0.82592612505
2019-04-03 19:35:59.50,80116274, 0.03, -17.81, 246.55, 600.359985352, -35.3637189, 149.1639159, 0.542114436626, -0.129235029221, -0.0852250307798, -0.82592189312
2019-04-03 19:35:59.60,80216234, 0.06, -17.79, 246.55, 600.409973145, -35.3637207, 149.1639108, 0.542172312737, -0.129007533193, -0.0853756442666, -0.825903892517
2019-04-03 19:35:59.69,80316194, 0.09, -17.8, 246.55, 600.460021973, -35.3637225, 149.1639057, 0.542208254337, -0.128948837519, -0.085617788136, -0.825864434242
2019-04-03 19:35:59.79,80416154, 0.08, -17.82, 246.55, 600.510009766, -35.3637243, 149.1639008, 0.54219275713, -0.129129350185, -0.0856573432684, -0.825842320919
2019-04-03 19:35:59.89,80516114, 0.08, -17.85, 246.55, 600.559997559, -35.3637261, 149.1638956, 0.542169928551, -0.129352360964, -0.0857561603189, -0.825812101364
2019-04-03 19:35:59.99,80616074, 0.08, -17.87, 246.55, 600.609985352, -35.3637278, 149.1638907, 0.542165458202, -0.129450887442, -0.0858880579472, -0.825785934925
2019-04-03 19:36:00.09,80716034, 0.09, -17.87, 246.56, 600.659973145, -35.3637296, 149.1638855, 0.542177736759, -0.129440292716, -0.0859857872128, -0.825769364834
2019-04-03 19:36:00.19,80815994, 0.11, -17.88, 246.56, 600.700012207, -35.3637313, 149.1638806, 0.542198300362, -0.12943418324, -0.0861295983195, -0.825741827488
2019-04-03 19:36:00.29,80915954, 0.12, -17.88, 246.56, 600.75, -35.3637331, 149.1638755, 0.542229771614, -0.129352837801, -0.0861548259854, -0.825731277466
2019-04-03 19:36:00.39,81015914, 0.12, -17.85, 246.56, 600.799987793, -35.3637349, 149.1638705, 0.542275547981, -0.129103675485, -0.086048334837, -0.825751245022
2019-04-03 19:36:00.49,81115874, 0.13, -17.82, 246.56, 600.849975586, -35.3637365, 149.1638654, 0.542324483395, -0.128879994154, -0.0860029011965, -0.825758874416
2019-04-03 19:36:00.59,81215834, 0.13, -17.8, 246.57, 600.900024414, -35.3637383, 149.1638604, 0.542354226112, -0.128730103374, -0.0858969464898, -0.825773715973
2019-04-03 19:36:00.69,81315794, 0.11, -17.79, 246.57, 600.950012207, -35.3637401, 149.1638553, 0.542353749275, -0.128750383854, -0.0857637599111, -0.825784623623
2019-04-03 19:36:00.79,81415754, 0.12, -17.82, 246.57, 600.989990234, -35.3637419, 149.1638503, 0.542353928089, -0.12886787951, -0.0859343856573, -0.825748562813
2019-04-03 19:36:00.89,81515714, 0.13, -17.84, 246.57, 601.039978027, -35.3637436, 149.1638452, 0.542351722717, -0.129013806581, -0.0861148908734, -0.825708389282
2019-04-03 19:36:00.99,81615674, 0.14, -17.83, 246.57, 601.090026855, -35.3637454, 149.1638401, 0.542376816273, -0.128894269466, -0.0861704722047, -0.825704753399
2019-04-03 19:36:01.10,81716467, 0.15, -17.82, 246.57, 601.140014648, -35.3637472, 149.1638351, 0.542400419712, -0.128766402602, -0.0861047431827, -0.825716018677
2019-04-03 19:36:01.20,81816427, 0.14, -17.8, 246.57, 601.190002441, -35.3637489, 149.16383, 0.542412281036, -0.128704503179, -0.0859617516398, -0.825732767582
2019-04-03 19:36:01.30,81916387, 0.14, -17.79, 246.58, 601.239990234, -35.3637507, 149.163825, 0.542435467243, -0.128638029099, -0.0859159901738, -0.825732707977
2019-04-03 19:36:01.40,82016347, 0.12, -17.81, 246.58, 601.280029297, -35.3637523, 149.1638199, 0.542419314384, -0.128814205527, -0.0859006121755, -0.825717449188
2019-04-03 19:36:01.50,82116307, 0.11, -17.83, 246.58, 601.33001709, -35.3637541, 149.1638149, 0.542388260365, -0.129050776362, -0.085894934833, -0.825701534748
2019-04-03 19:36:01.60,82216267, 0.1, -17.83, 246.58, 601.380004883, -35.3637559, 149.1638099, 0.542378842831, -0.129071995616, -0.0858406573534, -0.825709998608
2019-04-03 19:36:01.69,82316227, 0.11, -17.82, 246.58, 601.429992676, -35.3637577, 149.1638047, 0.542391240597, -0.128975510597, -0.0858572646976, -0.825715243816
