Start,TimeUS,Roll,Pitch,Yaw,Alt,Lat,Lng,Q1,Q2,Q3,Q4
2019-04-03 19:25:25.30,52315732, 0.0, 0.0, 353.0, 584.090026855, -35.363261, 149.1652299, 0.998134791851, 0.0, 0.0, -0.0610485821962
2019-04-03 19:25:25.40,52415692, 0.0, 0.0, 353.0, 584.090026855, -35.363261, 149.1652299, 0.998134791851, 0.0, 0.0, -0.0610485821962
2019-04-03 19:25:25.50,52516485, 0.0, 0.0, 353.0, 584.090026855, -35.363261, 149.1652299, 0.998134791851, 0.0, 0.0, -0.0610485821962
2019-04-03 19:25:25.60,52616445, 0.0, 0.0, 353.0, 584.090026855, -35.363261, 149.1652299, 0.998134791851, 0.0, 0.0, -0.0610485821962
2019-04-03 19:25:25.70,52716405, 0.0, 0.0, 353.0, 584.090026855, -35.363261, 149.1652299, 0.998134791851, 0.0, 0.0, -0.0610485821962
2019-04-03 19:25:25.80,52816365, 0.0, 0.0, 353.0, 584.090026855, -35.363261, 149.1652299, 0.998134791851, 0.0, 0.0, -0.0610485821962
2019-04-03 19:25:25.90,52916325, 0.0, 0.0, 353.0, 584.090026855, -35.363261, 149.1652299, 0.998134791851, 0.0, 0.0, -0.0610485821962
2019-04-03 19:25:26.00,53016285, 0.0, 0.0, 353.0, 584.090026855, -35.363261, 149.1652299, 0.998134791851, 0.0, 0.0, -0.0610485821962
2019-04-03 19:25:26.10,53116245, 0.0, 0.0, 353.0, 584.090026855, -35.363261, 149.1652299, 0.998134791851, 0.0, 0.0, -0.0610485821962
2019-04-03 19:25:26.20,53216205, 0.0, 0.0, 353.0, 584.090026855, -35.363261, 149.1652299, 0.998134791851, 0.0, 0.0, -0.0610485821962
2019-04-03 19:25:26.30,53316165, 0.0, 0.0, 353.0, 584.090026855, -35.363261, 149.1652299, 0.998134791851, 0.0, 0.0, -0.0610485821962
2019-04-03 19:25:26.40,53416125, 0.0, 0.0, 353.0, 584.090026855, -35.363261, 149.1652299, 0.998134791851, 0.0, 0.0, -0.0610485821962
2019-04-03 19:25:26.50,53516085, 0.0, 0.0, 353.0, 584.090026855, -35.363261, 149.1652299, 0.998134791851, 0.0, 0.0, -0.0610485821962
2019-04-03 19:25:26.60,53616045, 0.0, 0.0, 353.0, 584.090026855, -35.363261, 149.1652299, 0.998134791851, 0.0, 0.0, -0.0610485821962
2019-04-03 19:25:26.70,53716005, 0.0, 0.0, 353.0, 584.090026855, -35.363261, 149.1652299, 0.998134791851, 0.0, 0.0, -0.0610485821962
2019-04-03 19:25:26.80,53815965, 0.0, 0.0, 353.0, 584.090026855, -35.363261, 149.1652299, 0.998134791851, 0.0, 0.0, -0.0610485821962
2019-04-03 19:25:26.90,53915925, 0.0, 0.0, 353.0, 584.090026855, -35.363261, 149.1652299, 0.998134791851, 0.0, 0.0, -0.0610485821962
2019-04-03 19:25:27.00,54015885, 0.0, 0.0, 353.0, 584.090026855, -35.363261, 149.1652299, 0.998134791851, 0.0, 0.0, -0.0610485821962
2019-04-03 19:25:27.10,54115845, 0.0, 0.0, 353.0, 584.090026855, -35.363261, 149.1652299, 0.998134791851, 0.0, 0.0, -0.0610485821962
2019-04-03 19:25:27.20,54215805, 0.0, 0.0, 353.0, 584.090026855, -35.363261, 149.1652299, 0.998134791851, 0.0, 0.0, -0.0610485821962
2019-04-03 19:25:27.30,54315765, 0.0, 0.0, 353.0, 584.090026855, -35.363261, 149.1652299, 0.998134791851, 0.0, 0.0, -0.0610485821962
2019-04-03 19:25:27.40,54415725, 0.0, 0.0, 353.0, 584.090026855, -35.363261, 149.1652299, 0.998134791851, 0.0, 0.0, -0.0610485821962
2019-04-03 19:25:27.49,54515685, 0.0, 0.0, 353.0, 584.090026855, -35.363261, 149.1652299, 0.998134791851, 0.0, 0.0, -0.0610485821962
2019-04-03 19:25:27.60,54616478, 0.0, 0.0, 353.0, 584.090026855, -35.363261, 149.1652299, 0.998134791851, 0.0, 0.0, -0.0610485821962
2019-04-03 19:25:27.70,54716438, 0.0, 0.0, 353.0, 584.090026855, -35.363261, 149.1652299, 0.998134791851, 0.0, 0.0, -0.0610485821962
2019-04-03 19:25:27.80,54816398, 0.0, 0.0, 353.0, 584.090026855, -35.363261, 149.1652299, 0.998134791851, 0.0, 0.0, -0.0610485821962
2019-04-03 19:25:27.90,54916358, 0.0, 0.0, 353.0, 584.090026855, -35.363261, 149.1652299, 0.998134791851, 0.0, 0.0, -0.0610485821962
2019-04-03 19:25:28.00,55016318, 0.0, 0.0, 353.0, 584.090026855, -35.363261, 149.1652299, 0.998134791851, 0.0, 0.0, -0.0610485821962
2019-04-03 19:25:28.10,55116278, 0.0, 0.0, 353.0, 584.090026855, -35.363261, 149.1652299, 0.998134791851, 0.0, 0.0, -0.0610485821962
2019-04-03 19:25:28.20,55216238, 0.0, 0.0, 353.0, 584.090026855, -35.363261, 149.1652299, 0.998134791851, 0.0, 0.0, -0.0610485821962
2019-04-03 19:25:28.30,55316198, 0.0, 0.0, 353.0, 584.090026855, -35.363261, 149.1652299, 0.998134791851, 0.0, 0.0, -0.0610485821962
2019-04-03 19:25:28.40,55416158, 0.0, 0.0, 353.0, 584.090026855, -35.363261, 149.1652299, 0.998134791851, 0.0, 0.0, -0.0610485821962
2019-04-03 19:25:28.50,55516118, 0.0, 0.0, 353.0, 584.090026855, -35.363261, 149.1652299, 0.998134791851, 0.0, 0.0, -0.0610485821962
2019-04-03 19:25:28.60,55616078, 0.0, 0.0, 353.0, 584.090026855, -35.363261, 149.1652299, 0.998134791851, 0.0, 0.0, -0.0610485821962
2019-04-03 19:25:28.70,55716038, 0.0, 0.0, 353.0, 584.090026855, -35.363261, 149.1652299, 0.998134791851, 0.0, 0.0, -0.0610485821962
2019-04-03 19:25:28.80,55815998, 0.0, 0.0, 353.0, 584.090026855, -35.363261, 149.1652299, 0.998134791851, 0.0, 0.0, -0.0610485821962
2019-04-03 19:25:28.90,55915958, 0.0, 0.0, 353.0, 584.090026855, -35.363261, 149.1652299, 0.998134791851, 0.0, 0.0, -0.0610485821962
2019-04-03 19:25:29.00,56015918, 0.0, 0.0, 353.0, 584.090026855, -35.363261, 149.1652299, 0.998134791851, 0.0, 0.0, -0.0610485821962
2019-04-03 19:25:29.10,56115878, 0.0, 0.0, 353.0, 584.090026855, -35.363261, 149.1652299, 0.998134791851, 0.0, 0.0, -0.0610485821962
2019-04-03 19:25:29.20,56215838, 0.0, 0.0, 353.0, 584.090026855, -35.363261, 149.1652299, 0.998134791851, 0.0, 0.0, -0.0610485821962
2019-04-03 19:25:29.30,56315798, 0.0, 0.0, 353.0, 584.090026855, -35.363261, 149.1652299, 0.998134791851, 0.0, 0.0, -0.0610485821962
2019-04-03 19:25:29.40,56415758, 0.0, 0.0, 353.0, 584.090026855, -35.363261, 149.1652299, 0.998134791851, 0.0, 0.0, -0.0610485710204
2019-04-03 19:25:29.50,56515718, 0.0, 0.0, 353.0, 584.090026855, -35.363261, 149.1652299, 0.998134791851, 0.0, 0.0, -0.0610486268997
2019-04-03 19:25:29.59,56615678, 0.0, 0.0, 353.0, 584.090026855, -35.363261, 149.1652299, 0.998134791851, 0.0, 0.0, -0.0610486753285
2019-04-03 19:25:29.70,56716471, 0.0, 0.0, 353.0, 584.090026855, -35.363261, 149.1652299, 0.998134791851, 0.0, 0.0, -0.0610486753285
2019-04-03 19:25:29.80,56816431, 0.0, 0.0, 353.0, 584.090026855, -35.363261, 149.1652299, 0.998134791851, 0.0, 0.0, -0.0610486753285
2019-04-03 19:25:29.90,56916391, 0.0, 0.0, 353.0, 584.090026855, -35.363261, 149.1652299, 0.998134791851, 0.0, 0.0, -0.0610486753285
2019-04-03 19:25:30.00,57016351, 0.0, 0.0, 353.0, 584.090026855, -35.363261, 149.1652299, 0.998134791851, 0.0, 0.0, -0.0610486753285
2019-04-03 19:25:30.10,57116311, 0.0, 0.0, 353.0, 584.090026855, -35.363261, 149.1652299, 0.998134791851, 0.0, 0.0, -0.0610486753285
2019-04-03 19:25:30.20,57216271, 0.0, 0.0, 353.0, 584.099975586, -35.363261, 149.1652299, 0.998134791851, 0.0, 0.0, -0.0610486753285
2019-04-03 19:25:30.30,57316231, 0.0, 0.0, 353.0, 584.099975586, -35.363261, 149.1652299, 0.998134791851, 0.0, 0.0, -0.0610486753285
2019-04-03 19:25:30.40,57416191, 0.0, 0.0, 353.0, 584.109985352, -35.363261, 149.1652299, 0.998134791851, 0.0, 0.0, -0.0610486753285
2019-04-03 19:25:30.50,57516151, 0.0, 0.0, 353.0, 584.130004883, -35.363261, 149.1652299, 0.998134791851, 0.0, 0.0, -0.0610486753285
2019-04-03 19:25:30.60,57616111, 0.0, 0.0, 353.0, 584.150024414, -35.363261, 149.1652299, 0.998134791851, 0.0, 0.0, -0.0610486753285
2019-04-03 19:25:30.70,57716071, 0.0, 0.0, 353.0, 584.190002441, -35.363261, 149.1652299, 0.998134791851, 0.0, 0.0, -0.0610486753285
2019-04-03 19:25:30.80,57816031, 0.0, 0.0, 353.0, 584.219970703, -35.363261, 149.1652299, 0.998134851456, -3.35444274242e-05, -4.18835188611e-05, -0.061048489064
2019-04-03 19:25:30.90,57915991, -0.03, -0.05, 352.99, 584.299987793, -35.363261, 149.1652299, 0.998134374619, -0.000340710685123, -0.000491173996124, -0.0610525943339
2019-04-03 19:25:31.00,58015951, -0.08, -0.11, 352.99, 584.429992676, -35.363261, 149.1652299, 0.998133122921, -0.000767345947679, -0.000990187865682, -0.0610637180507
2019-04-03 19:25:31.10,58115911, -0.12, -0.16, 352.99, 584.58001709, -35.363261, 149.1652299, 0.998131096363, -0.00117815705016, -0.00139680760913, -0.0610819645226
2019-04-03 19:25:31.20,58215871, -0.15, -0.17, 352.99, 584.739990234, -35.363261, 149.1652299, 0.998129427433, -0.00145823962521, -0.00147719634697, -0.061101231724
2019-04-03 19:25:31.30,58315831, -0.14, -0.14, 352.99, 584.890014648, -35.363261, 149.1652299, 0.998128831387, -0.00129626190756, -0.00115365488455, -0.0611221417785
2019-04-03 19:25:31.40,58415791, -0.11, -0.07, 352.98, 585.039978027, -35.363261, 149.1652299, 0.998128354549, -0.00105290324427, -0.000622099789325, -0.0611425451934
2019-04-03 19:25:31.50,58515751, -0.07, -0.02, 352.98, 585.200012207, -35.363261, 149.1652299, 0.998127639294, -0.000648007844575, -0.000167034842889, -0.0611626729369
2019-04-03 19:25:31.60,58615711, -0.03, 0.02, 352.98, 585.359985352, -35.363261, 149.1652299, 0.99812656641, -0.000274011254078, 0.000210182610317, -0.0611824914813
2019-04-03 19:25:31.69,58715671, 0.0, 0.07, 352.98, 585.520019531, -35.363261, 149.1652299, 0.998125553131, 8.76080011949e-05, 0.000663881946821, -0.0611960813403
2019-04-03 19:25:31.80,58816464, 0.06, 0.28, 352.98, 585.66998291, -35.363261, 149.1652298, 0.998121917248, 0.000749702739995, 0.00243718805723, -0.0612063072622
2019-04-03 19:25:31.90,58916424, 0.2, 0.79, 352.98, 585.820007324, -35.363261, 149.1652298, 0.998099207878, 0.00218888814561, 0.00677568838, -0.0612155087292
2019-04-03 19:25:32.00,59016384, 0.4, 1.57, 352.98, 585.960021973, -35.363261, 149.1652298, 0.998023271561, 0.00437857443467, 0.0134718120098, -0.0612278804183
2019-04-03 19:25:32.10,59116344, 0.65, 2.55, 352.98, 586.08001709, -35.363261, 149.1652298, 0.997856497765, 0.007047991734, 0.0219390802085, -0.0612487047911
2019-04-03 19:25:32.20,59216304, 0.93, 3.64, 352.99, 586.200012207, -35.363261, 149.1652299, 0.997578978539, 0.0100496020168, 0.0312782600522, -0.0612932741642
2019-04-03 19:25:32.30,59316264, 1.21, 4.74, 353.0, 586.299987793, -35.363261, 149.1652299, 0.997201323509, 0.0131192952394, 0.0406374819577, -0.0613674484193
2019-04-03 19:25:32.40,59416224, 1.46, 5.69, 353.01, 586.390014648, -35.3632611, 149.1652299, 0.996789991856, 0.0157578419894, 0.0488012321293, -0.061480563134
2019-04-03 19:25:32.50,59516184, 1.66, 6.43, 353.01, 586.479980469, -35.3632615, 149.1652301, 0.996413111687, 0.0179119762033, 0.0551364198327, -0.0616452395916
2019-04-03 19:25:32.60,59616144, 1.82, 6.97, 353.0, 586.549987793, -35.3632617, 149.1652302, 0.996100783348, 0.0196214448661, 0.0597735270858, -0.0618491210043
2019-04-03 19:25:32.70,59716104, 1.95, 7.4, 352.99, 586.609985352, -35.3632622, 149.1652303, 0.995838582516, 0.0209178924561, 0.0633748471737, -0.0620618499815
2019-04-03 19:25:32.80,59816064, 2.04, 7.75, 352.98, 586.66998291, -35.3632626, 149.1652306, 0.99560791254, 0.0219010263681, 0.0663902238011, -0.0622699186206
2019-04-03 19:25:32.90,59916024, 2.1, 8.02, 352.96, 586.729980469, -35.3632632, 149.1652308, 0.995420515537, 0.0225926507264, 0.0687464401126, -0.0624622553587
2019-04-03 19:25:33.00,60015984, 2.12, 8.21, 352.95, 586.770019531, -35.3632638, 149.1652312, 0.995293080807, 0.0228227432817, 0.0703597068787, -0.0626128017902
2019-04-03 19:25:33.10,60115944, 2.09, 8.35, 352.94, 586.820007324, -35.3632645, 149.1652315, 0.995203018188, 0.022720547393, 0.0715668275952, -0.0627132430673
2019-04-03 19:25:33.20,60215904, 2.06, 8.47, 352.93, 586.859985352, -35.3632653, 149.1652318, 0.995130300522, 0.0225042346865, 0.0725918114185, -0.0627668052912
2019-04-03 19:25:33.30,60315864, 2.04, 8.58, 352.93, 586.900024414, -35.3632661, 149.1652322, 0.995060801506, 0.0223621893674, 0.0735652297735, -0.0627863183618
2019-04-03 19:25:33.40,60415824, 1.95, 8.74, 352.97, 586.940002441, -35.363267, 149.1652327, 0.99499052763, 0.0216375049204, 0.0750790685415, -0.062360599637
2019-04-03 19:25:33.50,60515784, 1.65, 9.07, 353.45, 586.969970703, -35.363268, 149.1652332, 0.995066344738, 0.018924633041, 0.0781878456473, -0.0580651760101
2019-04-03 19:25:33.60,60615744, 1.29, 9.56, 355.06, 587.010009766, -35.363269, 149.1652336, 0.995494127274, 0.0148350009695, 0.0827627778053, -0.0438372939825
2019-04-03 19:25:33.70,60715704, 1.29, 10.03, 358.31, 587.039978027, -35.3632701, 149.1652341, 0.995985150337, 0.0125102624297, 0.0872560963035, -0.0156047912315
2019-04-03 19:25:33.79,60815664, 1.87, 10.33, 3.21, 587.08001709, -35.3632714, 149.1652346, 0.995454907417, 0.0137884831056, 0.0904357805848, 0.0264711137861
2019-04-03 19:25:33.90,60916457, 3.11, 10.31, 9.56, 587.119995117, -35.3632728, 149.1652351, 0.992321312428, 0.0195083469152, 0.0917652323842, 0.0806041657925
2019-04-03 19:25:34.00,61016417, 4.85, 9.84, 16.93, 587.150024414, -35.3632742, 149.1652356, 0.985105514526, 0.0291456598788, 0.0910387709737, 0.142932415009
2019-04-03 19:25:34.10,61116377, 6.9, 8.89, 24.99, 587.190002441, -35.3632756, 149.1652361, 0.972605168819, 0.0418461300433, 0.0885846838355, 0.210810109973
2019-04-03 19:25:34.20,61216337, 8.96, 7.47, 33.44, 587.239990234, -35.3632772, 149.1652366, 0.954221904278, 0.0559604987502, 0.0846399441361, 0.281363070011
2019-04-03 19:25:34.30,61316297, 10.77, 5.65, 41.98, 587.280029297, -35.3632787, 149.1652373, 0.930029153824, 0.0699519664049, 0.0794482082129, 0.351909786463
2019-04-03 19:25:34.40,61416257, 12.14, 3.57, 50.37, 587.33001709, -35.3632805, 149.1652379, 0.900807619095, 0.0824955105782, 0.0731190815568, 0.419992566109
2019-04-03 19:25:34.50,61516217, 13.01, 1.46, 58.42, 587.369995117, -35.3632823, 149.1652384, 0.867825269699, 0.0926708579063, 0.0663861632347, 0.483615815639
2019-04-03 19:25:34.60,61616177, 13.41, -0.5, 66.02, 587.41998291, -35.3632841, 149.1652393, 0.832546472549, 0.100314036012, 0.0599374994636, 0.541489601135
2019-04-03 19:25:34.70,61716137, 13.47, -2.28, 73.08, 587.479980469, -35.363286, 149.1652399, 0.796327829361, 0.106001414359, 0.0539006479084, 0.593060255051
2019-04-03 19:25:34.80,61816097, 13.29, -3.85, 79.6, 587.530029297, -35.3632881, 149.1652408, 0.760161578655, 0.110274717212, 0.0484248660505, 0.638473927975
2019-04-03 19:25:34.90,61916057, 13.0, -5.19, 85.63, 587.590026855, -35.3632902, 149.1652418, 0.724535405636, 0.113605223596, 0.0438718572259, 0.678393423557
2019-04-03 19:25:35.00,62016017, 12.63, -6.35, 91.26, 587.650024414, -35.3632924, 149.1652427, 0.689560592175, 0.116189733148, 0.0400108322501, 0.713726341724
2019-04-03 19:25:35.10,62115977, 12.19, -7.36, 96.6, 587.710021973, -35.3632945, 149.1652439, 0.654965043068, 0.118237912655, 0.036653328687, 0.745450973511
2019-04-03 19:25:35.20,62215937, 11.72, -8.3, 101.76, 587.770019531, -35.3632969, 149.165245, 0.62019097805, 0.120174445212, 0.0336245931685, 0.774461448193
2019-04-03 19:25:35.30,62315897, 11.2, -9.19, 106.88, 587.83001709, -35.3632992, 149.1652461, 0.584590554237, 0.122036799788, 0.0306030921638, 0.80151373148
2019-04-03 19:25:35.40,62415857, 10.58, -10.08, 112.05, 587.900024414, -35.3633016, 149.1652473, 0.547525703907, 0.12395092845, 0.027273144573, 0.827108204365
2019-04-03 19:25:35.50,62515817, 9.83, -11.0, 117.36, 587.960021973, -35.3633041, 149.1652485, 0.508480489254, 0.125990569592, 0.02320394665, 0.851490139961
2019-04-03 19:25:35.60,62615777, 8.88, -11.94, 122.85, 588.030029297, -35.3633066, 149.1652497, 0.467131018639, 0.127968102694, 0.0180220436305, 0.874693095684
2019-04-03 19:25:35.70,62715737, 7.7, -12.87, 128.57, 588.099975586, -35.3633093, 149.1652509, 0.423334091902, 0.129795104265, 0.0116279637441, 0.896552443504
2019-04-03 19:25:35.80,62815697, 6.32, -13.73, 134.51, 588.16998291, -35.363312, 149.1652522, 0.377151787281, 0.131240829825, 0.00434305984527, 0.916795253754
2019-04-03 19:25:35.90,62916490, 4.76, -14.45, 140.69, 588.239990234, -35.3633146, 149.1652535, 0.328428089619, 0.132209047675, -0.00343131949194, 0.935224056244
2019-04-03 19:25:36.00,63016450, 3.08, -14.96, 146.96, 588.309997559, -35.3633175, 149.1652547, 0.278429299593, 0.132387593389, -0.0113859483972, 0.951220810413
2019-04-03 19:25:36.10,63116410, 1.09, -15.26, 153.23, 588.380004883, -35.3633203, 149.1652561, 0.228126496077, 0.131402075291, -0.0214975904673, 0.964484155178
2019-04-03 19:25:36.20,63216370, -1.31, -15.31, 159.04, 588.450012207, -35.3633231, 149.1652576, 0.181742578745, 0.128970250487, -0.0354337841272, 0.974207758904
2019-04-03 19:25:36.30,63316330, -3.72, -15.12, 163.77, 588.520019531, -35.3633261, 149.165259, 0.144078657031, 0.125661492348, -0.0504596345127, 0.98025727272
2019-04-03 19:25:36.40,63416290, -5.58, -14.79, 167.02, 588.590026855, -35.3633291, 149.1652604, 0.118101246655, 0.122303754091, -0.0624873191118, 0.983457803726
2019-04-03 19:25:36.50,63516250, -6.56, -14.5, 168.73, 588.659973145, -35.3633321, 149.1652619, 0.104397624731, 0.119875788689, -0.0688564032316, 0.984880566597
2019-04-03 19:25:36.60,63616210, -6.58, -14.38, 169.03, 588.729980469, -35.3633351, 149.1652637, 0.101753428578, 0.11899317801, -0.0686817169189, 0.985276460648
2019-04-03 19:25:36.70,63716170, -5.83, -14.49, 168.21, 588.799987793, -35.3633381, 149.1652653, 0.108133904636, 0.120114602149, -0.0631221160293, 0.984832525253
2019-04-03 19:25:36.80,63816130, -4.51, -14.79, 166.53, 588.869995117, -35.3633411, 149.1652672, 0.121180333197, 0.12322551012, -0.0538634955883, 0.983478248119
2019-04-03 19:25:36.90,63916090, -2.89, -15.2, 164.31, 588.940002441, -35.3633442, 149.165269, 0.138542339206, 0.127602949739, -0.0428873002529, 0.981164693832
2019-04-03 19:25:37.00,64016050, -1.24, -15.6, 161.83, 589.010009766, -35.3633472, 149.1652709, 0.157871246338, 0.132370337844, -0.0320391468704, 0.978022634983
2019-04-03 19:25:37.10,64116010, 0.26, -15.92, 159.39, 589.08001709, -35.3633504, 149.1652727, 0.176781028509, 0.136680111289, -0.0225224699825, 0.974453568459
2019-04-03 19:25:37.20,64215970, 1.48, -16.08, 157.28, 589.159973145, -35.3633534, 149.1652746, 0.193186759949, 0.139661610126, -0.0149501198903, 0.971056103706
2019-04-03 19:25:37.30,64315930, 2.34, -16.12, 155.69, 589.229980469, -35.3633567, 149.1652763, 0.205609753728, 0.141370505095, -0.00971096288413, 0.968320548534
2019-04-03 19:25:37.40,64415890, 2.78, -16.11, 154.71, 589.299987793, -35.36336, 149.1652782, 0.213334262371, 0.141964957118, -0.00720586720854, 0.966582894325
2019-04-03 19:25:37.50,64515850, 2.83, -16.07, 154.35, 589.369995117, -35.3633632, 149.1652799, 0.216280907393, 0.141706347466, -0.00716254813597, 0.965966105461
2019-04-03 19:25:37.60,64615810, 2.55, -16.03, 154.56, 589.440002441, -35.3633666, 149.1652816, 0.214919626713, 0.140911385417, -0.00915976893157, 0.966369330883
2019-04-03 19:25:37.70,64715770, 2.04, -16.04, 155.2, 589.520019531, -35.3633699, 149.1652834, 0.21012263, 0.140070810914, -0.0127144185826, 0.967505574226
2019-04-03 19:25:37.80,64815730, 1.37, -16.1, 156.14, 589.590026855, -35.3633734, 149.1652851, 0.203012123704, 0.139521062374, -0.0173362400383, 0.96903014183
2019-04-03 19:25:37.89,64915690, 0.65, -16.21, 157.21, 589.659973145, -35.3633769, 149.1652868, 0.194749936461, 0.139371588826, -0.0223221760243, 0.970643997192
2019-04-03 19:25:38.00,65016483, -0.02, -16.3, 158.29, 589.729980469, -35.3633803, 149.1652885, 0.186365589499, 0.139210656285, -0.0268715973943, 0.972196578979
2019-04-03 19:25:38.10,65116443, -0.55, -16.33, 159.25, 589.809997559, -35.3633838, 149.1652901, 0.178913727403, 0.138884723186, -0.03032249026, 0.973540723324
2019-04-03 19:25:38.20,65216403, -0.92, -16.35, 160.0, 589.880004883, -35.3633874, 149.165292, 0.172990307212, 0.138680949807, -0.032585773617, 0.97456663847
2019-04-03 19:25:38.30,65316363, -1.13, -16.37, 160.5, 589.950012207, -35.3633909, 149.1652937, 0.168989777565, 0.138660222292, -0.0337637960911, 0.975231170654
2019-04-03 19:25:38.40,65416323, -1.21, -16.39, 160.74, 590.020019531, -35.3633945, 149.1652954, 0.167036265135, 0.138839945197, -0.0341602563858, 0.975528240204
2019-04-03 19:25:38.50,65516283, -1.18, -16.43, 160.74, 590.090026855, -35.3633981, 149.1652973, 0.166975319386, 0.139199018478, -0.0340182073414, 0.975492537022
2019-04-03 19:25:38.60,65616243, -1.04, -16.47, 160.55, 590.16998291, -35.3634015, 149.1652991, 0.168408080935, 0.139665260911, -0.0330719575286, 0.975212097168
2019-04-03 19:25:38.70,65716203, -0.79, -16.5, 160.22, 590.239990234, -35.3634051, 149.1653009, 0.170879721642, 0.140242338181, -0.0314415507019, 0.974753141403
2019-04-03 19:25:38.80,65816163, -0.51, -16.54, 159.82, 590.309997559, -35.3634088, 149.1653026, 0.173939496279, 0.140858635306, -0.0295626297593, 0.974181711674
2019-04-03 19:25:38.90,65916123, -0.22, -16.57, 159.41, 590.380004883, -35.3634124, 149.1653045, 0.177130654454, 0.141445621848, -0.0276905503124, 0.973576486111
2019-04-03 19:25:39.00,66016083, 0.01, -16.6, 159.02, 590.460021973, -35.3634161, 149.1653064, 0.180070668459, 0.142022117972, -0.0261789765209, 0.972994804382
2019-04-03 19:25:39.10,66116043, 0.18, -16.64, 158.71, 590.530029297, -35.3634197, 149.1653082, 0.182475656271, 0.142541334033, -0.02516371198, 0.972497522831
2019-04-03 19:25:39.20,66216003, 0.28, -16.67, 158.5, 590.599975586, -35.3634234, 149.16531, 0.184154331684, 0.142888054252, -0.0246222484857, 0.972143948078
2019-04-03 19:25:39.30,66315963, 0.34, -16.69, 158.39, 590.66998291, -35.3634271, 149.1653119, 0.184993878007, 0.143182635307, -0.0243111774325, 0.97194904089
2019-04-03 19:25:39.40,66415923, 0.35, -16.73, 158.38, 590.75, -35.363431, 149.1653136, 0.18506243825, 0.143474131823, -0.0242717340589, 0.971893966198
2019-04-03 19:25:39.50,66515883, 0.28, -16.75, 158.45, 590.820007324, -35.3634347, 149.1653155, 0.184560626745, 0.143555909395, -0.0248119570315, 0.971963703632
2019-04-03 19:25:39.60,66615843, 0.15, -16.77, 158.58, 590.890014648, -35.3634384, 149.1653174, 0.183652997017, 0.143589317799, -0.0258376561105, 0.972103953362
2019-04-03 19:25:39.70,66715803, 0.0, -16.81, 158.74, 590.960021973, -35.3634422, 149.1653192, 0.182478487492, 0.143667846918, -0.0269444026053, 0.972283482552
2019-04-03 19:25:39.80,66815763, -0.14, -16.82, 158.9, 591.039978027, -35.3634459, 149.165321, 0.181234553456, 0.143601238728, -0.0280251856893, 0.972495436668
2019-04-03 19:25:39.90,66915723, -0.27, -16.83, 159.06, 591.109985352, -35.3634498, 149.1653229, 0.180085420609, 0.143485680223, -0.0289145726711, 0.9726998806
2019-04-03 19:25:39.99,67015683, -0.35, -16.83, 159.18, 591.179992676, -35.3634536, 149.1653246, 0.17913171649, 0.143412068486, -0.0294634401798, 0.972870349884
2019-04-03 19:25:40.10,67116476, -0.38, -16.83, 159.27, 591.25, -35.3634574, 149.1653265, 0.178427651525, 0.143387779593, -0.029597081244, 0.972999274731
2019-04-03 19:25:40.20,67216436, -0.39, -16.83, 159.31, 591.33001709, -35.3634613, 149.1653284, 0.178052932024, 0.143425017595, -0.0296475738287, 0.973060846329
2019-04-03 19:25:40.30,67316396, -0.4, -16.86, 159.32, 591.400024414, -35.3634651, 149.1653303, 0.17800475657, 0.143677204847, -0.0297379642725, 0.973029732704
2019-04-03 19:25:40.40,67416356, -0.38, -16.91, 159.29, 591.469970703, -35.3634689, 149.1653321, 0.178226873279, 0.144102975726, -0.0297264847904, 0.972926437855
2019-04-03 19:25:40.50,67516316, -0.34, -16.94, 159.24, 591.539978027, -35.3634727, 149.165334, 0.178645253181, 0.14436301589, -0.0294733215123, 0.972818851471
2019-04-03 19:25:40.60,67616276, -0.28, -16.94, 159.16, 591.609985352, -35.3634767, 149.1653359, 0.179187014699, 0.144488230348, -0.0290622934699, 0.972712993622
2019-04-03 19:25:40.70,67716236, -0.22, -16.95, 159.08, 591.690002441, -35.3634805, 149.1653378, 0.179779753089, 0.144651681185, -0.0286682825536, 0.972591042519
2019-04-03 19:25:40.80,67816196, -0.17, -16.98, 159.01, 591.760009766, -35.3634844, 149.1653397, 0.180356621742, 0.144890770316, -0.0284027326852, 0.972456395626
2019-04-03 19:25:40.90,67916156, -0.13, -17.0, 158.94, 591.83001709, -35.3634883, 149.1653416, 0.180851578712, 0.145139411092, -0.0281807370484, 0.972333908081
2019-04-03 19:25:41.00,68016116, -0.1, -17.02, 158.89, 591.900024414, -35.3634921, 149.1653435, 0.181230872869, 0.145368799567, -0.0280304234475, 0.972233295441
2019-04-03 19:25:41.10,68116076, -0.08, -17.05, 158.86, 591.979980469, -35.3634961, 149.1653454, 0.1814558357, 0.145620852709, -0.0279424022883, 0.972156107426
2019-04-03 19:25:41.20,68216036, -0.08, -17.08, 158.85, 592.049987793, -35.3635, 149.1653472, 0.181555867195, 0.145852684975, -0.0280092153698, 0.972100794315
2019-04-03 19:25:41.30,68315996, -0.1, -17.1, 158.85, 592.119995117, -35.3635039, 149.1653491, 0.181562498212, 0.146024376154, -0.0282064098865, 0.972068071365
2019-04-03 19:25:41.40,68415956, -0.14, -17.11, 158.86, 592.190002441, -35.3635078, 149.165351, 0.181496292353, 0.146098330617, -0.028483685106, 0.972061276436
2019-04-03 19:25:41.50,68515916, -0.16, -17.12, 158.88, 592.270019531, -35.3635116, 149.1653529, 0.181374430656, 0.146065235138, -0.0286939758807, 0.972082793713
2019-04-03 19:25:41.60,68615876, -0.18, -17.11, 158.9, 592.340026855, -35.3635157, 149.1653548, 0.181229650974, 0.146027266979, -0.0288156494498, 0.972111880779
2019-04-03 19:25:41.70,68715836, -0.18, -17.12, 158.92, 592.409973145, -35.3635195, 149.1653567, 0.181063652039, 0.146092101932, -0.0288277696818, 0.972132742405
2019-04-03 19:25:41.80,68815796, -0.17, -17.15, 158.94, 592.479980469, -35.3635236, 149.1653588, 0.180907160044, 0.146323755383, -0.0287266261876, 0.972130000591
2019-04-03 19:25:41.90,68915756, -0.16, -17.16, 158.95, 592.559997559, -35.3635274, 149.1653606, 0.18080085516, 0.146464347839, -0.0286135226488, 0.972131967545
2019-04-03 19:25:42.00,69015716, -0.15, -17.18, 158.95, 592.630004883, -35.3635315, 149.1653625, 0.180754706264, 0.146624028683, -0.0286287367344, 0.9721159935
2019-04-03 19:25:42.09,69115676, -0.16, -17.19, 158.95, 592.700012207, -35.3635353, 149.1653644, 0.180750697851, 0.146688342094, -0.0286817010492, 0.972105503082
2019-04-03 19:25:42.20,69216469, -0.17, -17.2, 158.95, 592.770019531, -35.3635394, 149.1653665, 0.180775821209, 0.146777778864, -0.0287655163556, 0.972084820271
2019-04-03 19:25:42.30,69316429, -0.17, -17.21, 158.94, 592.840026855, -35.3635434, 149.1653684, 0.180830806494, 0.146870583296, -0.0288087725639, 0.972059309483
2019-04-03 19:25:42.40,69416389, -0.18, -17.24, 158.94, 592.91998291, -35.3635474, 149.1653704, 0.180911794305, 0.147121533751, -0.0289458706975, 0.972002208233
2019-04-03 19:25:42.50,69516349, -0.18, -17.27, 158.93, 592.989990234, -35.3635514, 149.1653723, 0.180998161435, 0.147399038076, -0.0290384646505, 0.971941351891
2019-04-03 19:25:42.60,69616309, -0.18, -17.3, 158.91, 593.059997559, -35.3635553, 149.1653743, 0.181093335152, 0.14759594202, -0.0290843546391, 0.971892356873
2019-04-03 19:25:42.70,69716269, -0.16, -17.31, 158.9, 593.130004883, -35.3635594, 149.1653762, 0.181173339486, 0.147744357586, -0.0289783086628, 0.971858024597
2019-04-03 19:25:42.80,69816229, -0.14, -17.32, 158.89, 593.200012207, -35.3635633, 149.1653782, 0.181241422892, 0.147817328572, -0.0288163740188, 0.97183907032
2019-04-03 19:25:42.90,69916189, -0.13, -17.31, 158.88, 593.280029297, -35.3635674, 149.1653801, 0.181307390332, 0.147748053074, -0.0286853034049, 0.971841216087
2019-04-03 19:25:43.00,70016149, -0.12, -17.29, 158.87, 593.349975586, -35.3635714, 149.165382, 0.181377574801, 0.147575572133, -0.0286480411887, 0.971855401993
2019-04-03 19:25:43.10,70116109, -0.13, -17.27, 158.86, 593.41998291, -35.3635753, 149.165384, 0.181443870068, 0.147465243936, -0.0286729764193, 0.971859037876
2019-04-03 19:25:43.20,70216069, -0.13, -17.27, 158.86, 593.489990234, -35.3635794, 149.1653859, 0.181499391794, 0.147430852056, -0.0287283752114, 0.971852242947
2019-04-03 19:25:43.30,70316029, -0.14, -17.27, 158.85, 593.570007324, -35.3635835, 149.1653878, 0.181542828679, 0.147365808487, -0.0287595167756, 0.971853077412
2019-04-03 19:25:43.40,70415989, -0.15, -17.27, 158.85, 593.640014648, -35.3635875, 149.1653898, 0.181578740478, 0.147372320294, -0.0288431737572, 0.971842944622
2019-04-03 19:25:43.50,70515949, -0.16, -17.29, 158.85, 593.710021973, -35.3635915, 149.1653919, 0.181606948376, 0.147571071982, -0.0290113352239, 0.971802473068
2019-04-03 19:25:43.60,70615909, -0.16, -17.33, 158.85, 593.780029297, -35.3635955, 149.1653938, 0.181610569358, 0.147901207209, -0.0290566142648, 0.971750319004
2019-04-03 19:25:43.70,70715869, -0.14, -17.36, 158.85, 593.859985352, -35.3635996, 149.1653958, 0.181604072452, 0.148199111223, -0.0289755761623, 0.971708536148
2019-04-03 19:25:43.80,70815829, -0.12, -17.38, 158.84, 593.929992676, -35.3636037, 149.1653978, 0.181595534086, 0.148393914104, -0.0287841446698, 0.971686065197
2019-04-03 19:25:43.90,70915789, -0.1, -17.38, 158.84, 594.0, -35.3636076, 149.1653997, 0.181596711278, 0.148442879319, -0.0286121219397, 0.971683442593
2019-04-03 19:25:44.00,71015749, -0.11, -17.37, 158.84, 594.070007324, -35.3636118, 149.1654017, 0.181643933058, 0.148279070854, -0.0286647677422, 0.971698105335
2019-04-03 19:25:44.10,71115709, -0.13, -17.35, 158.83, 594.150024414, -35.3636158, 149.1654036, 0.181715935469, 0.148068234324, -0.0288563482463, 0.971711099148
2019-04-03 19:25:44.19,71215669, -0.15, -17.33, 158.83, 594.219970703, -35.3636198, 149.1654056, 0.181794375181, 0.147886931896, -0.0290063619614, 0.971719563007
2019-04-03 19:25:44.30,71316462, -0.15, -17.33, 158.82, 594.289978027, -35.363624, 149.1654077, 0.181850790977, 0.147868126631, -0.0290155932307, 0.97171163559
2019-04-03 19:25:44.40,71416422, -0.15, -17.36, 158.81, 594.369995117, -35.3636281, 149.1654096, 0.181896328926, 0.148130491376, -0.0290417484939, 0.971662342548
2019-04-03 19:25:44.50,71516382, -0.16, -17.4, 158.8, 594.440002441, -35.363632, 149.1654116, 0.181963920593, 0.148485392332, -0.0292258430272, 0.97158998251
2019-04-03 19:25:44.60,71616342, -0.18, -17.43, 158.8, 594.510009766, -35.3636361, 149.1654136, 0.18204946816, 0.148719012737, -0.0294389184564, 0.971531808376
2019-04-03 19:25:44.70,71716302, -0.17, -17.43, 158.79, 594.58001709, -35.3636403, 149.1654156, 0.182109102607, 0.148684769869, -0.0294069219381, 0.971526801586
2019-04-03 19:25:44.80,71816262, -0.15, -17.41, 158.78, 594.659973145, -35.3636443, 149.1654175, 0.182152241468, 0.148586988449, -0.0292226783931, 0.971539258957
2019-04-03 19:25:44.90,71916222, -0.14, -17.39, 158.77, 594.729980469, -35.3636483, 149.1654194, 0.182207912207, 0.148381322622, -0.0291019063443, 0.971563875675
2019-04-03 19:25:45.00,72016182, -0.14, -17.36, 158.77, 594.799987793, -35.3636525, 149.1654214, 0.182278886437, 0.14811232686, -0.0290498677641, 0.971593141556
2019-04-03 19:25:45.10,72116142, -0.13, -17.34, 158.76, 594.869995117, -35.3636566, 149.1654235, 0.182324156165, 0.14797000587, -0.0289028324187, 0.971610724926
2019-04-03 19:25:45.20,72216102, -0.12, -17.34, 158.75, 594.950012207, -35.3636606, 149.1654255, 0.1823592484, 0.148045629263, -0.0288223773241, 0.971595048904
2019-04-03 19:25:45.30,72316062, -0.1, -17.36, 158.75, 595.020019531, -35.3636647, 149.1654275, 0.182380199432, 0.148214638233, -0.0287235304713, 0.971568226814
2019-04-03 19:25:45.40,72416022, -0.08, -17.38, 158.74, 595.090026855, -35.3636689, 149.1654294, 0.182393237948, 0.148408964276, -0.0286122728139, 0.971539437771
2019-04-03 19:25:45.50,72515982, -0.07, -17.39, 158.74, 595.159973145, -35.3636729, 149.1654314, 0.182400166988, 0.14854580164, -0.0285218432546, 0.971519887447
2019-04-03 19:25:45.60,72615942, -0.06, -17.43, 158.74, 595.229980469, -35.3636769, 149.1654335, 0.18240737915, 0.148896157742, -0.0285287164152, 0.971464693546
2019-04-03 19:25:45.70,72715902, -0.06, -17.48, 158.73, 595.309997559, -35.3636811, 149.1654355, 0.182422563434, 0.149239331484, -0.0286222230643, 0.971406459808
2019-04-03 19:25:45.80,72815862, -0.07, -17.48, 158.73, 595.380004883, -35.3636852, 149.1654375, 0.18244920671, 0.149255529046, -0.0286768451333, 0.971397280693
2019-04-03 19:25:45.90,72915822, -0.07, -17.46, 158.73, 595.450012207, -35.3636893, 149.1654395, 0.182462453842, 0.149077400565, -0.0286199301481, 0.971423864365
2019-04-03 19:25:46.00,73015782, -0.06, -17.44, 158.73, 595.520019531, -35.3636933, 149.1654414, 0.182466953993, 0.148935586214, -0.028518859297, 0.971447706223
2019-04-03 19:25:46.10,73115742, -0.04, -17.43, 158.73, 595.599975586, -35.3636975, 149.1654434, 0.18245574832, 0.148900702596, -0.0283103100955, 0.971461296082
2019-04-03 19:25:46.20,73215702, -0.02, -17.45, 158.72, 595.66998291, -35.3637016, 149.1654455, 0.182452708483, 0.149079889059, -0.0281958989799, 0.971437692642
2019-04-03 19:25:46.29,73315662, -0.03, -17.46, 158.72, 595.739990234, -35.3637058, 149.1654474, 0.182489961386, 0.149180933833, -0.0282863751054, 0.971412539482
2019-04-03 19:25:46.40,73416455, -0.05, -17.46, 158.72, 595.809997559, -35.3637098, 149.1654495, 0.182549625635, 0.149162977934, -0.0285069737583, 0.971397638321
2019-04-03 19:25:46.50,73516415, -0.08, -17.46, 158.71, 595.880004883, -35.363714, 149.1654515, 0.182615533471, 0.149066418409, -0.0287177823484, 0.971393883228
2019-04-03 19:25:46.60,73616375, -0.09, -17.45, 158.71, 595.960021973, -35.3637181, 149.1654534, 0.1826633811, 0.148939281702, -0.0288092512637, 0.971401691437
2019-04-03 19:25:46.70,73716335, -0.07, -17.43, 158.71, 596.030029297, -35.3637222, 149.1654553, 0.18267275393, 0.148815944791, -0.0286486372352, 0.971423566341
2019-04-03 19:25:46.80,73816295, -0.05, -17.42, 158.7, 596.099975586, -35.3637264, 149.1654573, 0.182670816779, 0.148811265826, -0.0284203048795, 0.971431314945
2019-04-03 19:25:46.90,73916255, -0.03, -17.44, 158.7, 596.16998291, -35.3637304, 149.1654594, 0.182673960924, 0.149006217718, -0.0282861534506, 0.971404790878
2019-04-03 19:25:47.00,74016215, -0.01, -17.46, 158.7, 596.25, -35.3637346, 149.1654614, 0.18268173933, 0.149201631546, -0.028215572238, 0.971375405788
2019-04-03 19:25:47.10,74116175, -0.01, -17.46, 158.69, 596.320007324, -35.3637387, 149.1654634, 0.182711914182, 0.149182453752, -0.0282047688961, 0.971372961998
2019-04-03 19:25:47.20,74216135, -0.01, -17.45, 158.69, 596.390014648, -35.3637428, 149.1654653, 0.182744264603, 0.149108499289, -0.0281979888678, 0.971378445625
2019-04-03 19:25:47.30,74316095, -0.01, -17.45, 158.68, 596.460021973, -35.3637468, 149.1654673, 0.18278221786, 0.149079993367, -0.0281960368156, 0.971375703812
2019-04-03 19:25:47.40,74416055, -0.01, -17.44, 158.68, 596.530029297, -35.3637511, 149.1654694, 0.182826340199, 0.149002060294, -0.0281530283391, 0.971380650997
2019-04-03 19:25:47.50,74516015, 0.0, -17.42, 158.67, 596.599975586, -35.3637552, 149.1654714, 0.182891309261, 0.148867875338, -0.0281098503619, 0.971390247345
2019-04-03 19:25:47.60,74615975, 0.0, -17.42, 158.66, 596.679992676, -35.3637593, 149.1654734, 0.182952925563, 0.148895010352, -0.028054729104, 0.97137606144
2019-04-03 19:25:47.70,74715935, 0.01, -17.45, 158.65, 596.75, -35.3637633, 149.1654754, 0.182989016175, 0.149145156145, -0.0279356427491, 0.971334338188
2019-04-03 19:25:47.80,74815895, 0.02, -17.48, 158.65, 596.820007324, -35.3637675, 149.1654773, 0.18303501606, 0.14938659966, -0.0279288459569, 0.971288740635
2019-04-03 19:25:47.90,74915855, 0.0, -17.49, 158.64, 596.890014648, -35.3637716, 149.1654793, 0.183119937778, 0.149429544806, -0.0281017031521, 0.971261143684
2019-04-03 19:25:48.00,75015815, -0.02, -17.49, 158.63, 596.960021973, -35.3637758, 149.1654814, 0.183224409819, 0.14938506484, -0.0283963046968, 0.971239686012
2019-04-03 19:25:48.10,75115775, -0.04, -17.48, 158.62, 597.030029297, -35.3637799, 149.1654834, 0.183316990733, 0.149266675115, -0.0285223927349, 0.971236765385
2019-04-03 19:25:48.20,75215735, -0.03, -17.48, 158.62, 597.109985352, -35.3637839, 149.1654854, 0.183367073536, 0.149288356304, -0.0284513328224, 0.971226036549
2019-04-03 19:25:48.30,75315695, -0.02, -17.48, 158.61, 597.179992676, -35.3637881, 149.1654874, 0.183418348432, 0.149324461818, -0.0284024123102, 0.971212267876
2019-04-03 19:25:48.40,75416488, -0.01, -17.49, 158.6, 597.25, -35.3637923, 149.1654893, 0.183466628194, 0.149376094341, -0.0283460654318, 0.971196889877
2019-04-03 19:25:48.50,75516448, 0.0, -17.47, 158.59, 597.320007324, -35.3637964, 149.1654913, 0.183520779014, 0.149263262749, -0.0282030683011, 0.971208155155
2019-04-03 19:25:48.60,75616408, 0.0, -17.47, 158.59, 597.390014648, -35.3638004, 149.1654934, 0.183582395315, 0.149236887693, -0.028140572831, 0.971202373505
2019-04-03 19:25:48.70,75716368, 0.01, -17.46, 158.58, 597.460021973, -35.3638046, 149.1654954, 0.183644875884, 0.149214282632, -0.0281253419816, 0.971194446087
2019-04-03 19:25:48.80,75816328, 0.0, -17.46, 158.57, 597.539978027, -35.3638088, 149.1654974, 0.183729663491, 0.149189844728, -0.028228007257, 0.971179187298
2019-04-03 19:25:48.90,75916288, -0.03, -17.48, 158.56, 597.609985352, -35.3638129, 149.1654993, 0.183834090829, 0.149280950427, -0.028531871736, 0.971136510372
2019-04-03 19:25:49.00,76016248, -0.07, -17.49, 158.55, 597.679992676, -35.363817, 149.1655013, 0.183951273561, 0.149296909571, -0.0289088971913, 0.971100747585
2019-04-03 19:25:49.10,76116208, -0.08, -17.49, 158.55, 597.75, -35.3638211, 149.1655034, 0.184038072824, 0.14931499958, -0.0290306769311, 0.971077859402
2019-04-03 19:25:49.20,76216168, -0.09, -17.5, 158.54, 597.820007324, -35.3638252, 149.1655054, 0.184116318822, 0.149344697595, -0.0291199870408, 0.971055805683
2019-04-03 19:25:49.30,76316128, -0.08, -17.5, 158.53, 597.890014648, -35.3638294, 149.1655074, 0.184162408113, 0.149374827743, -0.0290592927486, 0.971044242382
2019-04-03 19:25:49.40,76416088, -0.05, -17.49, 158.52, 597.960021973, -35.3638335, 149.1655094, 0.184176012874, 0.149362936616, -0.0288072302938, 0.971050977707
2019-04-03 19:25:49.50,76516048, -0.03, -17.49, 158.52, 598.039978027, -35.3638377, 149.1655113, 0.184198662639, 0.149326756597, -0.0286140348762, 0.97105795145
2019-04-03 19:25:49.60,76616008, -0.03, -17.48, 158.51, 598.109985352, -35.3638417, 149.1655133, 0.184256061912, 0.1493062675, -0.0286334771663, 0.971049666405
2019-04-03 19:25:49.70,76715968, -0.05, -17.48, 158.5, 598.179992676, -35.3638459, 149.1655154, 0.184346035123, 0.149225220084, -0.0287611130625, 0.971041321754
2019-04-03 19:25:49.80,76815928, -0.06, -17.46, 158.5, 598.25, -35.36385, 149.1655174, 0.184435591102, 0.149096384645, -0.0288379713893, 0.971041798592
2019-04-03 19:25:49.90,76915888, -0.05, -17.48, 158.49, 598.320007324, -35.3638542, 149.1655194, 0.184495925903, 0.149206981063, -0.0287937056273, 0.971014678478
2019-04-03 19:25:50.00,77015848, -0.01, -17.51, 158.48, 598.390014648, -35.3638582, 149.1655214, 0.184518620372, 0.149524137378, -0.0285787433386, 0.970967948437
2019-04-03 19:25:50.10,77115808, 0.02, -17.51, 158.47, 598.460021973, -35.3638623, 149.1655233, 0.184526920319, 0.149589180946, -0.028183054179, 0.970967888832
2019-04-03 19:25:50.20,77215768, 0.06, -17.48, 158.46, 598.539978027, -35.3638666, 149.1655254, 0.184554889798, 0.149391338229, -0.0278241727501, 0.9710034132
2019-04-03 19:25:50.30,77315728, 0.08, -17.44, 158.45, 598.609985352, -35.3638707, 149.1655274, 0.184603497386, 0.149122491479, -0.0276298075914, 0.971041023731
2019-04-03 19:25:50.39,77415688, 0.05, -17.44, 158.45, 598.679992676, -35.3638748, 149.1655294, 0.184688851237, 0.149096086621, -0.0278452616185, 0.971022665501
2019-04-03 19:25:50.50,77516481, 0.02, -17.48, 158.44, 598.75, -35.363879, 149.1655314, 0.184773892164, 0.149329632521, -0.0281856488436, 0.970960795879
2019-04-03 19:25:50.60,77616441, 0.01, -17.52, 158.44, 598.820007324, -35.363883, 149.1655333, 0.184814929962, 0.149674922228, -0.0283983200788, 0.970893621445
2019-04-03 19:25:50.70,77716401, 0.0, -17.54, 158.44, 598.890014648, -35.3638872, 149.1655353, 0.184828683734, 0.149797543883, -0.0284377224743, 0.970870912075
2019-04-03 19:25:50.80,77816361, 0.0, -17.52, 158.44, 598.969970703, -35.3638914, 149.1655374, 0.184840261936, 0.149670109153, -0.0284219700843, 0.970888793468
2019-04-03 19:25:50.90,77916321, 0.0, -17.49, 158.43, 599.039978027, -35.3638955, 149.1655394, 0.184874266386, 0.149352490902, -0.0285069029778, 0.970928788185
2019-04-03 19:25:51.00,78016281, -0.02, -17.46, 158.43, 599.109985352, -35.3638995, 149.1655414, 0.184914007783, 0.149062618613, -0.0285986009985, 0.970963060856
2019-04-03 19:25:51.10,78116241, -0.01, -17.43, 158.43, 599.179992676, -35.3639037, 149.1655434, 0.184939488769, 0.148850426078, -0.0284895151854, 0.970993936062
2019-04-03 19:25:51.20,78216201, 0.0, -17.41, 158.42, 599.25, -35.3639079, 149.1655453, 0.184969902039, 0.148719027638, -0.0283310171217, 0.971012949944
2019-04-03 19:25:51.30,78316161, 0.0, -17.4, 158.42, 599.320007324, -35.363912, 149.1655473, 0.185010552406, 0.148674279451, -0.0282676499337, 0.971013903618
2019-04-03 19:25:51.40,78416121, 0.0, -17.41, 158.41, 599.400024414, -35.3639161, 149.1655494, 0.18506501615, 0.148733213544, -0.0283170398325, 0.970993101597
2019-04-03 19:25:51.50,78516081, -0.02, -17.42, 158.41, 599.469970703, -35.3639202, 149.1655514, 0.185159370303, 0.148798510432, -0.0285790134221, 0.970957398415
2019-04-03 19:25:51.60,78616041, -0.04, -17.43, 158.4, 599.539978027, -35.3639244, 149.1655534, 0.185262471437, 0.148776352406, -0.0288073588163, 0.970934391022
2019-04-03 19:25:51.70,78716001, -0.07, -17.42, 158.39, 599.609985352, -35.3639285, 149.1655554, 0.18537992239, 0.148676738143, -0.0290586799383, 0.970919728279
2019-04-03 19:25:51.80,78815961, -0.1, -17.42, 158.38, 599.679992676, -35.3639327, 149.1655573, 0.185484647751, 0.148658260703, -0.0292615257204, 0.970896482468
2019-04-03 19:25:51.90,78915921, -0.1, -17.44, 158.37, 599.760009766, -35.3639368, 149.1655594, 0.185552537441, 0.148829206824, -0.0293048564345, 0.970856010914
2019-04-03 19:25:52.00,79015881, -0.08, -17.47, 158.36, 599.83001709, -35.3639408, 149.1655614, 0.185599938035, 0.149037137628, -0.0292364601046, 0.970817089081
2019-04-03 19:25:52.10,79115841, -0.07, -17.48, 158.35, 599.900024414, -35.363945, 149.1655634, 0.185644224286, 0.149179071188, -0.0291361324489, 0.970789849758
2019-04-03 19:25:52.20,79215801, -0.03, -17.49, 158.35, 599.969970703, -35.3639492, 149.1655654, 0.185663565993, 0.149340033531, -0.0288863945752, 0.970768868923
2019-04-03 19:25:52.30,79315761, 0.0, -17.49, 158.34, 600.039978027, -35.3639533, 149.1655673, 0.185673817992, 0.149400264025, -0.0285839028656, 0.970766603947
2019-04-03 19:25:52.40,79415721, 0.01, -17.48, 158.33, 600.109985352, -35.3639573, 149.1655693, 0.185709878802, 0.149282425642, -0.0284236539155, 0.970782518387
2019-04-03 19:25:52.49,79515681, 0.0, -17.45, 158.33, 600.190002441, -35.3639614, 149.1655715, 0.185768201947, 0.149042502046, -0.0284413136542, 0.970807731152
2019-04-03 19:25:52.60,79616474, 0.0, -17.45, 158.32, 600.260009766, -35.3639657, 149.1655735, 0.185803726315, 0.14900071919, -0.0284889545292, 0.970805943012
2019-04-03 19:25:52.70,79716434, 0.0, -17.47, 158.32, 600.33001709, -35.3639698, 149.1655755, 0.185817345977, 0.149171024561, -0.0285348016769, 0.970775842667
2019-04-03 19:25:52.80,79816394, 0.0, -17.49, 158.32, 600.400024414, -35.363974, 149.1655774, 0.185823723674, 0.149362877011, -0.0285525191575, 0.970744609833
2019-04-03 19:25:52.90,79916354, 0.0, -17.5, 158.32, 600.469970703, -35.3639781, 149.1655795, 0.185852780938, 0.149437397718, -0.0286485888064, 0.970724761486
2019-04-03 19:25:53.00,80016314, -0.02, -17.48, 158.31, 600.539978027, -35.3639821, 149.1655815, 0.185914844275, 0.149281024933, -0.0287998169661, 0.970732390881
2019-04-03 19:25:53.10,80116274, -0.02, -17.46, 158.31, 600.619995117, -35.3639864, 149.1655835, 0.18595020473, 0.14908567071, -0.0287836529315, 0.970756173134
2019-04-03 19:25:53.20,80216234, -0.01, -17.43, 158.31, 600.690002441, -35.3639905, 149.1655855, 0.185963869095, 0.148877695203, -0.0286191422492, 0.970790326595
2019-04-03 19:25:53.30,80316194, 0.0, -17.42, 158.31, 600.760009766, -35.3639946, 149.1655874, 0.185967639089, 0.148810833693, -0.0284747276455, 0.970804095268
2019-04-03 19:25:53.40,80416154, 0.0, -17.44, 158.3, 600.83001709, -35.3639988, 149.1655894, 0.185982763767, 0.14896684885, -0.0285297483206, 0.970775663853
2019-04-03 19:25:53.50,80516114, 0.01, -17.49, 158.3, 600.909973145, -35.3640028, 149.1655916, 0.18597099185, 0.149384215474, -0.0285055954009, 0.970714509487
2019-04-03 19:25:53.60,80616074, 0.02, -17.52, 158.3, 600.979980469, -35.364007, 149.1655936, 0.185960903764, 0.149652555585, -0.0284440647811, 0.970676898956
2019-04-03 19:25:53.70,80716034, 0.03, -17.53, 158.3, 601.049987793, -35.3640111, 149.1655956, 0.185947865248, 0.149741828442, -0.028348736465, 0.970668375492
2019-04-03 19:25:53.80,80815994, 0.04, -17.53, 158.3, 601.119995117, -35.3640153, 149.1655975, 0.185941949487, 0.149788275361, -0.0282710343599, 0.970664620399
2019-04-03 19:25:53.90,80915954, 0.04, -17.51, 158.3, 601.190002441, -35.3640193, 149.1655996, 0.185968697071, 0.149578049779, -0.0282850526273, 0.970691502094
2019-04-03 19:25:54.00,81015914, 0.03, -17.47, 158.29, 601.270019531, -35.3640235, 149.1656016, 0.186010569334, 0.149234250188, -0.0282865799963, 0.970736384392
2019-04-03 19:25:54.10,81115874, 0.03, -17.44, 158.29, 601.340026855, -35.3640277, 149.1656036, 0.186047017574, 0.148980528116, -0.0282421912998, 0.970769643784
2019-04-03 19:25:54.20,81215834, 0.03, -17.42, 158.29, 601.409973145, -35.3640318, 149.1656056, 0.186082094908, 0.148801341653, -0.0282083936036, 0.970791399479
2019-04-03 19:25:54.30,81315794, 0.03, -17.41, 158.28, 601.479980469, -35.364036, 149.1656075, 0.186112552881, 0.14875741303, -0.0282192379236, 0.970791995525
2019-04-03 19:25:54.40,81415754, 0.06, -17.44, 158.28, 601.549987793, -35.36404, 149.1656097, 0.18610213697, 0.1490329355, -0.0280515458435, 0.970756590366
2019-04-03 19:25:54.50,81515714, 0.08, -17.48, 158.28, 601.630004883, -35.3640441, 149.1656117, 0.186094373465, 0.149383530021, -0.0279365349561, 0.970707476139
2019-04-03 19:25:54.59,81615674, 0.09, -17.5, 158.27, 601.700012207, -35.3640483, 149.1656137, 0.18609893322, 0.149567425251, -0.0278282556683, 0.970681428909
2019-04-03 19:25:54.70,81716467, 0.1, -17.5, 158.27, 601.770019531, -35.3640525, 149.1656157, 0.186113357544, 0.1495795995, -0.0277414917946, 0.970679223537
2019-04-03 19:25:54.80,81816427, 0.1, -17.48, 158.27, 601.840026855, -35.3640567, 149.1656176, 0.186144739389, 0.149476140738, -0.0277641024441, 0.970688521862
2019-04-03 19:25:54.90,81916387, 0.09, -17.46, 158.27, 601.909973145, -35.3640608, 149.1656196, 0.186176419258, 0.149293065071, -0.0277859345078, 0.970709979534
2019-04-03 19:25:55.00,82016347, 0.07, -17.45, 158.26, 601.989990234, -35.3640648, 149.1656217, 0.186229929328, 0.149164900184, -0.0279464963824, 0.97071480751
2019-04-03 19:25:55.10,82116307, 0.05, -17.45, 158.26, 602.059997559, -35.3640691, 149.1656237, 0.186278820038, 0.149115428329, -0.0281166061759, 0.97070813179
2019-04-03 19:25:55.20,82216267, 0.04, -17.45, 158.26, 602.130004883, -35.3640732, 149.1656257, 0.186319246888, 0.149074062705, -0.0282501820475, 0.970702826977
2019-04-03 19:25:55.30,82316227, 0.05, -17.44, 158.26, 602.200012207, -35.3640773, 149.1656276, 0.186326280236, 0.149037763476, -0.0281742215157, 0.970709264278
2019-04-03 19:25:55.40,82416187, 0.06, -17.42, 158.25, 602.270019531, -35.3640815, 149.1656296, 0.186327412724, 0.148902073503, -0.0280004721135, 0.97073495388
2019-04-03 19:25:55.50,82516147, 0.08, -17.41, 158.25, 602.340026855, -35.3640855, 149.1656317, 0.186329647899, 0.148836359382, -0.027833359316, 0.970749378204
2019-04-03 19:25:55.60,82616107, 0.09, -17.41, 158.25, 602.41998291, -35.3640897, 149.1656337, 0.186339959502, 0.148851856589, -0.0277408082038, 0.97074764967
2019-04-03 19:25:55.70,82716067, 0.1, -17.42, 158.24, 602.489990234, -35.3640939, 149.1656357, 0.186361059546, 0.148955747485, -0.027736466378, 0.970727801323
2019-04-03 19:25:55.80,82816027, 0.08, -17.27, 158.24, 602.559997559, -35.364098, 149.1656377, 0.186447441578, 0.147583916783, -0.0276010371745, 0.970924556255
2019-04-03 19:25:55.90,82915987, 0.09, -16.6, 158.24, 602.619995117, -35.364102, 149.1656396, 0.186617180705, 0.141965076327, -0.0264722835273, 0.971760869026
2019-04-03 19:25:56.00,83015947, 0.12, -16.17, 158.24, 602.690002441, -35.3641062, 149.1656416, 0.186669185758, 0.138389006257, -0.0254549831152, 0.972293794155
2019-04-03 19:25:56.10,83115907, 0.17, -16.33, 158.24, 602.739990234, -35.3641103, 149.1656437, 0.186545625329, 0.139817461371, -0.0253432225436, 0.972116053104
2019-04-03 19:25:56.20,83215867, 0.19, -16.9, 158.25, 602.789978027, -35.3641143, 149.1656456, 0.186319857836, 0.144641116261, -0.0261053647846, 0.971433162689
2019-04-03 19:25:56.30,83315827, 0.17, -17.54, 158.26, 602.83001709, -35.3641183, 149.1656476, 0.186072215438, 0.150041669607, -0.027268210426, 0.97062921524
2019-04-03 19:25:56.40,83415787, 0.16, -18.04, 158.28, 602.869995117, -35.3641223, 149.1656495, 0.185805231333, 0.154247611761, -0.0281032398343, 0.969997048378
2019-04-03 19:25:56.50,83515747, 0.18, -18.3, 158.3, 602.900024414, -35.3641262, 149.1656514, 0.185532361269, 0.156551763415, -0.0283831767738, 0.969671964645
2019-04-03 19:25:56.60,83615707, 0.2, -18.37, 158.32, 602.929992676, -35.3641303, 149.1656534, 0.185293614864, 0.15714918077, -0.0283064357936, 0.969623208046
2019-04-03 19:25:56.69,83715667, 0.21, -18.32, 158.35, 602.960021973, -35.3641342, 149.1656553, 0.185102581978, 0.156781286001, -0.0281235873699, 0.969724535942
2019-04-03 19:25:56.80,83816460, 0.19, -18.24, 158.37, 602.979980469, -35.3641384, 149.1656572, 0.184969604015, 0.156048715115, -0.0280817635357, 0.969869315624
2019-04-03 19:25:56.90,83916420, 0.17, -18.17, 158.39, 602.989990234, -35.3641424, 149.1656592, 0.184861600399, 0.155420005322, -0.0280975047499, 0.969990372658
2019-04-03 19:25:57.00,84016380, 0.16, -18.13, 158.4, 603.010009766, -35.3641463, 149.1656611, 0.184761226177, 0.155089139938, -0.0281282439828, 0.970061600208
2019-04-03 19:25:57.10,84116340, 0.14, -18.13, 158.41, 603.020019531, -35.3641504, 149.165663, 0.184678435326, 0.155070930719, -0.0282622445375, 0.97007638216
2019-04-03 19:25:57.20,84216300, 0.15, -18.17, 158.42, 603.030029297, -35.3641543, 149.165665, 0.184579595923, 0.155425816774, -0.028274776414, 0.970037996769
2019-04-03 19:25:57.30,84316260, 0.14, -18.23, 158.43, 603.039978027, -35.3641584, 149.1656669, 0.184511065483, 0.155857741833, -0.0283905006945, 0.96997833252
2019-04-03 19:25:57.40,84416220, 0.11, -18.27, 158.44, 603.039978027, -35.3641625, 149.1656688, 0.184501975775, 0.156180590391, -0.028708698228, 0.969918787479
2019-04-03 19:25:57.50,84516180, 0.08, -18.28, 158.44, 603.049987793, -35.3641664, 149.1656707, 0.184517741203, 0.15625564754, -0.0289595872164, 0.969896256924
2019-04-03 19:25:57.60,84616140, 0.07, -18.27, 158.44, 603.049987793, -35.3641705, 149.1656726, 0.184534355998, 0.15616324544, -0.0290444884449, 0.969905436039
2019-04-03 19:25:57.70,84716100, 0.07, -18.25, 158.44, 603.059997559, -35.3641746, 149.1656746, 0.184546932578, 0.155994072556, -0.0290166381747, 0.969931125641
2019-04-03 19:25:57.80,84816060, 0.09, -18.24, 158.44, 603.059997559, -35.3641785, 149.1656765, 0.184536337852, 0.155869916081, -0.0288192629814, 0.96995896101
2019-04-03 19:25:57.90,84916020, 0.13, -18.23, 158.43, 603.070007324, -35.3641827, 149.1656784, 0.1844958812, 0.155888080597, -0.0285089146346, 0.969972908497
2019-04-03 19:25:58.00,85015980, 0.16, -18.24, 158.43, 603.070007324, -35.3641867, 149.1656803, 0.184450373054, 0.156018093228, -0.0282189138234, 0.969969153404
2019-04-03 19:25:58.10,85115940, 0.18, -18.25, 158.43, 603.070007324, -35.3641907, 149.1656823, 0.184423670173, 0.156123325229, -0.0281140431762, 0.969960331917
2019-04-03 19:25:58.20,85215900, 0.17, -18.27, 158.44, 603.070007324, -35.3641949, 149.1656842, 0.184423997998, 0.156243279576, -0.0282275155187, 0.969937682152
2019-04-03 19:25:58.30,85315860, 0.14, -18.27, 158.44, 603.08001709, -35.3641989, 149.1656863, 0.184446126223, 0.156234145164, -0.0284859817475, 0.969927370548
2019-04-03 19:25:58.40,85415820, 0.11, -18.26, 158.44, 603.08001709, -35.3642029, 149.1656882, 0.184460550547, 0.156118050218, -0.0287113767117, 0.969936668873
2019-04-03 19:25:58.50,85515780, 0.09, -18.25, 158.44, 603.08001709, -35.3642071, 149.1656902, 0.184455826879, 0.156013056636, -0.0288425758481, 0.969950556755
2019-04-03 19:25:58.60,85615740, 0.07, -18.24, 158.45, 603.08001709, -35.3642112, 149.1656921, 0.184449791908, 0.155893415213, -0.0289992690086, 0.969966292381
2019-04-03 19:25:58.70,85715700, 0.06, -18.24, 158.45, 603.08001709, -35.3642153, 149.1656941, 0.184429451823, 0.155871838331, -0.0290701799095, 0.969971477985
2019-04-03 19:25:58.79,85815660, 0.07, -18.25, 158.46, 603.08001709, -35.3642193, 149.165696, 0.184381857514, 0.155966803432, -0.0290201436728, 0.969966769218
2019-04-03 19:25:58.90,85916453, 0.08, -18.3, 158.46, 603.08001709, -35.3642235, 149.165698, 0.184334382415, 0.156374901533, -0.0289995204657, 0.969910681248
2019-04-03 19:25:59.00,86016413, 0.08, -18.34, 158.46, 603.08001709, -35.3642276, 149.1656999, 0.184307053685, 0.156692415476, -0.0290838852525, 0.969862103462
2019-04-03 19:25:59.10,86116373, 0.07, -18.35, 158.47, 603.08001709, -35.3642317, 149.1657018, 0.184285640717, 0.156769797206, -0.0291519667953, 0.969851613045
2019-04-03 19:25:59.20,86216333, 0.06, -18.33, 158.47, 603.08001709, -35.3642357, 149.1657038, 0.184281513095, 0.156635180116, -0.0292424224317, 0.969871461391
2019-04-03 19:25:59.30,86316293, 0.04, -18.31, 158.47, 603.08001709, -35.3642399, 149.1657057, 0.184297129512, 0.156429290771, -0.0293727405369, 0.969897806644
2019-04-03 19:25:59.40,86416253, 0.01, -18.3, 158.47, 603.08001709, -35.3642441, 149.1657078, 0.18432444334, 0.156283512712, -0.0295705776662, 0.969910085201
2019-04-03 19:25:59.50,86516213, 0.0, -18.3, 158.47, 603.08001709, -35.3642482, 149.1657096, 0.184351876378, 0.156225696206, -0.0297372061759, 0.969909071922
2019-04-03 19:25:59.60,86616173, 0.0, -18.29, 158.47, 603.08001709, -35.3642522, 149.1657117, 0.18435844779, 0.156194150448, -0.0296867974102, 0.969914495945
2019-04-03 19:25:59.70,86716133, 0.02, -18.29, 158.47, 603.08001709, -35.3642563, 149.1657137, 0.184346452355, 0.156199529767, -0.0294861122966, 0.96992200613
2019-04-03 19:25:59.80,86816093, 0.06, -18.29, 158.46, 603.08001709, -35.3642606, 149.1657156, 0.184312850237, 0.156250730157, -0.0290939696133, 0.969931960106
2019-04-03 19:25:59.90,86916053, 0.11, -18.29, 158.46, 603.08001709, -35.3642647, 149.1657176, 0.184284701943, 0.15633007884, -0.0287473332137, 0.969934880733
2019-04-03 19:26:00.00,87016013, 0.14, -18.32, 158.46, 603.08001709, -35.3642688, 149.1657196, 0.184243112803, 0.156662628055, -0.0284807663411, 0.969896972179
2019-04-03 19:26:00.10,87115973, 0.18, -18.33, 158.46, 603.08001709, -35.3642728, 149.1657215, 0.184201210737, 0.156771734357, -0.028227282688, 0.969894707203
2019-04-03 19:26:00.20,87215933, 0.19, -18.31, 158.46, 603.08001709, -35.364277, 149.1657234, 0.18417198956, 0.156694576144, -0.0280857570469, 0.969916820526
2019-04-03 19:26:00.30,87315893, 0.17, -18.3, 158.46, 603.08001709, -35.3642812, 149.1657254, 0.184166744351, 0.156517356634, -0.0281995087862, 0.969943165779
2019-04-03 19:26:00.40,87415853, 0.14, -18.28, 158.47, 603.08001709, -35.3642853, 149.1657275, 0.184166684747, 0.156345814466, -0.0284410938621, 0.969963788986
2019-04-03 19:26:00.50,87515813, 0.1, -18.27, 158.48, 603.08001709, -35.3642895, 149.1657294, 0.184174850583, 0.15620931983, -0.0287486985326, 0.969975173473
2019-04-03 19:26:00.60,87615773, 0.08, -18.28, 158.48, 603.08001709, -35.3642935, 149.1657314, 0.184155464172, 0.156256094575, -0.0289051048458, 0.969966650009
2019-04-03 19:26:00.70,87715733, 0.08, -18.29, 158.48, 603.090026855, -35.3642977, 149.1657334, 0.184125080705, 0.156344354153, -0.0289452783763, 0.969956994057
2019-04-03 19:26:00.80,87815693, 0.08, -18.3, 158.49, 603.090026855, -35.3643019, 149.1657354, 0.184099346399, 0.156439766288, -0.0289846081287, 0.969945311546
2019-04-03 19:26:00.90,87916486, 0.07, -18.32, 158.49, 603.090026855, -35.3643061, 149.1657373, 0.184085294604, 0.156577080488, -0.0290715340525, 0.969923257828
2019-04-03 19:26:01.00,88016446, 0.06, -18.34, 158.49, 603.090026855, -35.3643102, 149.1657392, 0.184088632464, 0.156679451466, -0.0291886869818, 0.969902575016
2019-04-03 19:26:01.10,88116406, 0.08, -18.35, 158.49, 603.090026855, -35.3643144, 149.1657412, 0.184065759182, 0.156862974167, -0.0290449559689, 0.969881594181
2019-04-03 19:26:01.20,88216366, 0.11, -18.37, 158.49, 603.090026855, -35.3643184, 149.1657433, 0.184031933546, 0.15708000958, -0.0288140028715, 0.969859719276
2019-04-03 19:26:01.30,88316326, 0.12, -18.38, 158.49, 603.090026855, -35.3643226, 149.1657452, 0.184028282762, 0.157173454762, -0.0287782344967, 0.969846367836
2019-04-03 19:26:01.40,88416286, 0.12, -18.39, 158.49, 603.090026855, -35.3643268, 149.1657472, 0.184033244848, 0.157272443175, -0.0287759043276, 0.969829440117
2019-04-03 19:26:01.50,88516246, 0.11, -18.4, 158.48, 603.090026855, -35.3643309, 149.1657492, 0.184044763446, 0.15727725625, -0.0288251563907, 0.969824969769
2019-04-03 19:26:01.60,88616206, 0.12, -18.38, 158.49, 603.090026855, -35.3643351, 149.1657512, 0.18403275311, 0.157181963325, -0.0287581179291, 0.969844698906
2019-04-03 19:26:01.70,88716166, 0.14, -18.37, 158.49, 603.090026855, -35.3643391, 149.1657531, 0.183995559812, 0.157081902027, -0.0285734906793, 0.969873428345
2019-04-03 19:26:01.80,88816126, 0.15, -18.36, 158.49, 603.090026855, -35.3643433, 149.165755, 0.183971181512, 0.15705807507, -0.0285038631409, 0.969883978367
2019-04-03 19:26:01.90,88916086, 0.14, -18.35, 158.49, 603.090026855, -35.3643475, 149.165757, 0.18395832181, 0.156925931573, -0.0284949559718, 0.969908058643
2019-04-03 19:26:02.00,89016046, 0.11, -18.34, 158.49, 603.090026855, -35.3643517, 149.1657591, 0.183983027935, 0.156776860356, -0.0287222322077, 0.969920754433
2019-04-03 19:26:02.10,89116006, 0.08, -18.33, 158.5, 603.090026855, -35.3643558, 149.165761, 0.184012576938, 0.15670055151, -0.0290211196989, 0.969918608665
2019-04-03 19:26:02.20,89215966, 0.05, -18.35, 158.5, 603.090026855, -35.36436, 149.165763, 0.18402890861, 0.156772837043, -0.0292499363422, 0.969896972179
2019-04-03 19:26:02.30,89315926, 0.05, -18.39, 158.5, 603.090026855, -35.364364, 149.165765, 0.184019640088, 0.157104596496, -0.0293261837214, 0.969842731953
2019-04-03 19:26:02.40,89415886, 0.06, -18.42, 158.5, 603.090026855, -35.3643682, 149.1657669, 0.184007912874, 0.157373607159, -0.0292636789382, 0.969803273678
2019-04-03 19:26:02.50,89515846, 0.09, -18.42, 158.49, 603.090026855, -35.3643725, 149.1657689, 0.183995097876, 0.157451853156, -0.0290770139545, 0.969798564911
2019-04-03 19:26:02.60,89615806, 0.12, -18.42, 158.49, 603.099975586, -35.3643766, 149.1657708, 0.183979734778, 0.15745857358, -0.0287943910807, 0.96980881691
2019-04-03 19:26:02.70,89715766, 0.16, -18.41, 158.49, 603.099975586, -35.3643808, 149.1657729, 0.183958098292, 0.157430008054, -0.028437115252, 0.96982806921
2019-04-03 19:26:02.80,89815726, 0.19, -18.39, 158.48, 603.099975586, -35.3643849, 149.1657749, 0.183958262205, 0.157323852181, -0.0282077286392, 0.969852030277
2019-04-03 19:26:02.89,89915686, 0.18, -18.36, 158.48, 603.099975586, -35.364389, 149.1657768, 0.18399707973, 0.157052233815, -0.0282323248684, 0.969887971878
2019-04-03 19:26:03.00,90016479, 0.15, -18.33, 158.48, 603.099975586, -35.3643932, 149.1657788, 0.184046298265, 0.156752258539, -0.0283879861236, 0.969922602177
2019-04-03 19:26:03.10,90116439, 0.14, -18.3, 158.48, 603.099975586, -35.3643974, 149.1657808, 0.184065341949, 0.156528264284, -0.0284551270306, 0.969953238964
2019-04-03 19:26:03.20,90216399, 0.14, -18.3, 158.48, 603.099975586, -35.3644016, 149.1657828, 0.184051662683, 0.156510427594, -0.0284612439573, 0.969958484173
2019-04-03 19:26:03.30,90316359, 0.14, -18.3, 158.49, 603.099975586, -35.3644058, 149.1657847, 0.184024900198, 0.156548812985, -0.028432905674, 0.96995818615
2019-04-03 19:26:03.40,90416319, 0.13, -18.31, 158.49, 603.099975586, -35.36441, 149.1657866, 0.184020355344, 0.156590789557, -0.028525326401, 0.969949543476
2019-04-03 19:26:03.50,90516279, 0.13, -18.32, 158.49, 603.099975586, -35.3644141, 149.1657887, 0.184020549059, 0.156636640429, -0.028594346717, 0.969940125942
