Start,TimeUS,Roll,Pitch,Yaw,Alt,Lat,Lng,Q1,Q2,Q3,Q4
2019-04-03 21:21:52.00,136416245, 0.0, 0.0, 353.0, 584.090026855, -35.363261, 149.1652299, 0.998134791851, 0.0, 0.0, -0.0610485821962
2019-04-03 21:21:52.11,136535364, 0.0, 0.0, 353.0, 584.090026855, -35.363261, 149.1652299, 0.998134791851, 0.0, 0.0, -0.0610485821962
2019-04-03 21:21:52.21,136635324, 0.0, 0.0, 353.0, 584.090026855, -35.363261, 149.1652299, 0.998134791851, 0.0, 0.0, -0.0610485821962
2019-04-03 21:21:52.31,136735284, 0.0, 0.0, 353.0, 584.090026855, -35.363261, 149.1652299, 0.998134791851, 0.0, 0.0, -0.0610485821962
2019-04-03 21:21:52.41,136835244, 0.0, 0.0, 353.0, 584.090026855, -35.363261, 149.1652299, 0.998134791851, 0.0, 0.0, -0.0610485821962
2019-04-03 21:21:52.51,136935204, 0.0, 0.0, 353.0, 584.090026855, -35.363261, 149.1652299, 0.998134791851, 0.0, 0.0, -0.0610485821962
2019-04-03 21:21:52.61,137035164, 0.0, 0.0, 353.0, 584.090026855, -35.363261, 149.1652299, 0.998134791851, 0.0, 0.0, -0.0610485821962
2019-04-03 21:21:52.71,137135124, 0.0, 0.0, 353.0, 584.090026855, -35.363261, 149.1652299, 0.998134791851, 0.0, 0.0, -0.0610485821962
2019-04-03 21:21:52.81,137235084, 0.0, 0.0, 353.0, 584.090026855, -35.363261, 149.1652299, 0.998134791851, 0.0, 0.0, -0.0610485821962
2019-04-03 21:21:52.91,137335044, 0.0, 0.0, 353.0, 584.090026855, -35.363261, 149.1652299, 0.998134791851, 0.0, 0.0, -0.0610485821962
2019-04-03 21:21:53.01,137435004, 0.0, 0.0, 353.0, 584.090026855, -35.363261, 149.1652299, 0.998134791851, 0.0, 0.0, -0.0610485821962
2019-04-03 21:21:53.11,137534964, 0.0, 0.0, 353.0, 584.090026855, -35.363261, 149.1652299, 0.998134791851, 0.0, 0.0, -0.0610485821962
2019-04-03 21:21:53.21,137634924, 0.0, 0.0, 353.0, 584.090026855, -35.363261, 149.1652299, 0.998134791851, 0.0, 0.0, -0.0610485821962
2019-04-03 21:21:53.31,137734884, 0.0, 0.0, 353.0, 584.090026855, -35.363261, 149.1652299, 0.998134791851, 0.0, 0.0, -0.0610485821962
2019-04-03 21:21:53.41,137834844, 0.0, 0.0, 353.0, 584.090026855, -35.363261, 149.1652299, 0.998134791851, 0.0, 0.0, -0.0610485821962
2019-04-03 21:21:53.51,137934804, 0.0, 0.0, 353.0, 584.090026855, -35.363261, 149.1652299, 0.998134791851, 0.0, 0.0, -0.0610485821962
2019-04-03 21:21:53.61,138034764, 0.0, 0.0, 353.0, 584.090026855, -35.363261, 149.1652299, 0.998134791851, 0.0, 0.0, -0.0610485821962
2019-04-03 21:21:53.71,138134724, 0.0, 0.0, 353.0, 584.090026855, -35.363261, 149.1652299, 0.998134791851, 0.0, 0.0, -0.0610485821962
2019-04-03 21:21:53.81,138234684, 0.0, 0.0, 353.0, 584.090026855, -35.363261, 149.1652299, 0.998134791851, 0.0, 0.0, -0.0610485821962
2019-04-03 21:21:53.91,138334644, 0.0, 0.0, 353.0, 584.090026855, -35.363261, 149.1652299, 0.998134791851, 0.0, 0.0, -0.0610485821962
2019-04-03 21:21:54.01,138434604, 0.0, 0.0, 353.0, 584.090026855, -35.363261, 149.1652299, 0.998134791851, 0.0, 0.0, -0.0610485821962
2019-04-03 21:21:54.11,138535397, 0.0, 0.0, 353.0, 584.090026855, -35.363261, 149.1652299, 0.998134791851, 0.0, 0.0, -0.0610485821962
2019-04-03 21:21:54.21,138635357, 0.0, 0.0, 353.0, 584.090026855, -35.363261, 149.1652299, 0.998134791851, 0.0, 0.0, -0.0610485821962
2019-04-03 21:21:54.31,138735317, 0.0, 0.0, 353.0, 584.090026855, -35.363261, 149.1652299, 0.998134791851, 0.0, 0.0, -0.0610485821962
2019-04-03 21:21:54.41,138835277, 0.0, 0.0, 353.0, 584.090026855, -35.363261, 149.1652299, 0.998134791851, 0.0, 0.0, -0.0610485821962
2019-04-03 21:21:54.51,138935237, 0.0, 0.0, 353.0, 584.090026855, -35.363261, 149.1652299, 0.998134791851, 0.0, 0.0, -0.0610485821962
2019-04-03 21:21:54.61,139035197, 0.0, 0.0, 353.0, 584.090026855, -35.363261, 149.1652299, 0.998134791851, 0.0, 0.0, -0.0610485821962
2019-04-03 21:21:54.71,139135157, 0.0, 0.0, 353.0, 584.090026855, -35.363261, 149.1652299, 0.998134791851, 0.0, 0.0, -0.0610485821962
2019-04-03 21:21:54.81,139235117, 0.0, 0.0, 353.0, 584.090026855, -35.363261, 149.1652299, 0.998134791851, 0.0, 0.0, -0.0610485821962
2019-04-03 21:21:54.91,139335077, 0.0, 0.0, 353.0, 584.090026855, -35.363261, 149.1652299, 0.998134791851, 0.0, 0.0, -0.0610485821962
2019-04-03 21:21:55.01,139435037, 0.0, 0.0, 353.0, 584.090026855, -35.363261, 149.1652299, 0.998134791851, 0.0, 0.0, -0.0610485821962
2019-04-03 21:21:55.11,139534997, 0.0, 0.0, 353.0, 584.090026855, -35.363261, 149.1652299, 0.998134791851, 0.0, 0.0, -0.0610485821962
2019-04-03 21:21:55.21,139634957, 0.0, 0.0, 353.0, 584.090026855, -35.363261, 149.1652299, 0.998134791851, 0.0, 0.0, -0.0610485821962
2019-04-03 21:21:55.31,139734917, 0.0, 0.0, 353.0, 584.090026855, -35.363261, 149.1652299, 0.998134791851, 0.0, 0.0, -0.0610485821962
2019-04-03 21:21:55.41,139834877, 0.0, 0.0, 353.0, 584.090026855, -35.363261, 149.1652299, 0.998134791851, 0.0, 0.0, -0.0610485821962
2019-04-03 21:21:55.51,139934837, 0.0, 0.0, 353.0, 584.090026855, -35.363261, 149.1652299, 0.998134791851, 0.0, 0.0, -0.0610485821962
2019-04-03 21:21:55.61,140034797, 0.0, 0.0, 353.0, 584.090026855, -35.363261, 149.1652299, 0.998134791851, 0.0, 0.0, -0.0610485821962
2019-04-03 21:21:55.71,140134757, 0.0, 0.0, 353.0, 584.090026855, -35.363261, 149.1652299, 0.998134791851, 0.0, 0.0, -0.0610485821962
2019-04-03 21:21:55.81,140234717, 0.0, 0.0, 353.0, 584.090026855, -35.363261, 149.1652299, 0.998134791851, 0.0, 0.0, -0.0610485821962
2019-04-03 21:21:55.91,140334677, 0.0, 0.0, 353.0, 584.090026855, -35.363261, 149.1652299, 0.998134791851, 0.0, 0.0, -0.0610485821962
2019-04-03 21:21:56.01,140434637, 0.0, 0.0, 353.0, 584.090026855, -35.363261, 149.1652299, 0.998134791851, 0.0, 0.0, -0.0610485821962
2019-04-03 21:21:56.11,140534597, 0.0, 0.0, 353.0, 584.090026855, -35.363261, 149.1652299, 0.998134791851, 0.0, 0.0, -0.0610485821962
2019-04-03 21:21:56.21,140635390, 0.0, 0.0, 353.0, 584.090026855, -35.363261, 149.1652299, 0.998134791851, 0.0, 0.0, -0.0610485821962
2019-04-03 21:21:56.31,140735350, 0.0, 0.0, 353.0, 584.090026855, -35.363261, 149.1652299, 0.998134791851, 0.0, 0.0, -0.0610485821962
2019-04-03 21:21:56.41,140835310, 0.0, 0.0, 353.0, 584.090026855, -35.363261, 149.1652299, 0.998134791851, 0.0, 0.0, -0.0610485821962
2019-04-03 21:21:56.51,140935270, 0.0, 0.0, 353.0, 584.090026855, -35.363261, 149.1652299, 0.998134791851, 0.0, 0.0, -0.0610485821962
2019-04-03 21:21:56.61,141035230, 0.0, 0.0, 353.0, 584.090026855, -35.363261, 149.1652299, 0.998134791851, 0.0, 0.0, -0.0610485821962
2019-04-03 21:21:56.71,141135190, 0.0, 0.0, 353.0, 584.090026855, -35.363261, 149.1652299, 0.998134791851, 0.0, 0.0, -0.0610485821962
2019-04-03 21:21:56.81,141235150, 0.0, 0.0, 353.0, 584.090026855, -35.363261, 149.1652299, 0.998134791851, 0.0, 0.0, -0.0610485821962
2019-04-03 21:21:56.91,141335110, 0.0, 0.0, 353.0, 584.090026855, -35.363261, 149.1652299, 0.998134791851, 0.0, 0.0, -0.0610485821962
2019-04-03 21:21:57.01,141435070, 0.0, 0.0, 353.0, 584.090026855, -35.363261, 149.1652299, 0.998134791851, 0.0, 0.0, -0.0610485821962
2019-04-03 21:21:57.11,141535030, 0.0, 0.0, 353.0, 584.090026855, -35.363261, 149.1652299, 0.998134791851, 0.0, 0.0, -0.0610485821962
2019-04-03 21:21:57.21,141634990, 0.0, 0.0, 353.0, 584.090026855, -35.363261, 149.1652299, 0.998134791851, 0.0, 0.0, -0.0610485821962
2019-04-03 21:21:57.31,141734950, 0.0, 0.0, 353.0, 584.090026855, -35.363261, 149.1652299, 0.998134791851, 0.0, 0.0, -0.0610485821962
2019-04-03 21:21:57.41,141834910, 0.0, 0.0, 353.0, 584.090026855, -35.363261, 149.1652299, 0.998134791851, 0.0, 0.0, -0.0610485821962
2019-04-03 21:21:57.51,141934870, 0.0, 0.0, 353.0, 584.090026855, -35.363261, 149.1652299, 0.998134791851, 0.0, 0.0, -0.0610485821962
2019-04-03 21:21:57.61,142034830, 0.0, 0.0, 353.0, 584.090026855, -35.363261, 149.1652299, 0.998134791851, 0.0, 0.0, -0.0610485821962
2019-04-03 21:21:57.71,142134790, 0.0, 0.0, 353.0, 584.090026855, -35.363261, 149.1652299, 0.998134791851, 0.0, 0.0, -0.0610485821962
2019-04-03 21:21:57.81,142234750, 0.0, 0.0, 353.0, 584.090026855, -35.363261, 149.1652299, 0.998134791851, 0.0, 0.0, -0.0610485821962
2019-04-03 21:21:57.91,142334710, 0.0, 0.0, 353.0, 584.090026855, -35.363261, 149.1652299, 0.998134791851, 0.0, 0.0, -0.0610485821962
2019-04-03 21:21:58.01,142434670, 0.0, 0.0, 353.0, 584.090026855, -35.363261, 149.1652299, 0.998134791851, 0.0, 0.0, -0.0610485821962
2019-04-03 21:21:58.11,142534630, 0.0, 0.0, 353.0, 584.090026855, -35.363261, 149.1652299, 0.998134791851, 0.0, 0.0, -0.0610485821962
2019-04-03 21:21:58.21,142634590, 0.0, 0.0, 353.0, 584.090026855, -35.363261, 149.1652299, 0.998134791851, 0.0, 0.0, -0.0610485821962
2019-04-03 21:21:58.31,142735383, 0.0, 0.0, 353.0, 584.090026855, -35.363261, 149.1652299, 0.998134791851, 0.0, 0.0, -0.0610485821962
2019-04-03 21:21:58.41,142835343, 0.0, 0.0, 353.0, 584.090026855, -35.363261, 149.1652299, 0.998134791851, 0.0, 0.0, -0.0610485821962
2019-04-03 21:21:58.51,142935303, 0.0, 0.0, 353.0, 584.090026855, -35.363261, 149.1652299, 0.998134791851, 0.0, 0.0, -0.0610485821962
2019-04-03 21:21:58.61,143035263, 0.0, 0.0, 353.0, 584.090026855, -35.363261, 149.1652299, 0.998134791851, 0.0, 0.0, -0.0610485821962
2019-04-03 21:21:58.71,143135223, 0.0, 0.0, 353.0, 584.090026855, -35.363261, 149.1652299, 0.998134791851, 0.0, 0.0, -0.0610485821962
2019-04-03 21:21:58.81,143235183, 0.0, 0.0, 353.0, 584.090026855, -35.363261, 149.1652299, 0.998134791851, 0.0, 0.0, -0.0610485821962
2019-04-03 21:21:58.91,143335143, 0.0, 0.0, 353.0, 584.090026855, -35.363261, 149.1652299, 0.998134791851, 0.0, 0.0, -0.0610485821962
2019-04-03 21:21:59.01,143435103, 0.0, 0.0, 353.0, 584.090026855, -35.363261, 149.1652299, 0.998134791851, 0.0, 0.0, -0.0610485821962
2019-04-03 21:21:59.11,143535063, 0.0, 0.0, 353.0, 584.090026855, -35.363261, 149.1652299, 0.998134791851, 0.0, 0.0, -0.0610485821962
2019-04-03 21:21:59.21,143635023, 0.0, 0.0, 353.0, 584.090026855, -35.363261, 149.1652299, 0.998134791851, 0.0, 0.0, -0.0610485821962
2019-04-03 21:21:59.31,143734983, 0.0, 0.0, 353.0, 584.090026855, -35.363261, 149.1652299, 0.998134791851, 0.0, 0.0, -0.0610485821962
2019-04-03 21:21:59.41,143834943, 0.0, 0.0, 353.0, 584.090026855, -35.363261, 149.1652299, 0.998134791851, 0.0, 0.0, -0.0610485821962
2019-04-03 21:21:59.51,143934903, 0.0, 0.0, 353.0, 584.090026855, -35.363261, 149.1652299, 0.998134791851, 0.0, 0.0, -0.0610485821962
2019-04-03 21:21:59.61,144034863, 0.0, 0.0, 353.0, 584.090026855, -35.363261, 149.1652299, 0.998134791851, 0.0, 0.0, -0.0610485821962
2019-04-03 21:21:59.71,144134823, 0.0, 0.0, 353.0, 584.090026855, -35.363261, 149.1652299, 0.998134791851, 0.0, 0.0, -0.0610485821962
2019-04-03 21:21:59.81,144234783, 0.0, 0.0, 353.0, 584.090026855, -35.363261, 149.1652299, 0.998134791851, 0.0, 0.0, -0.0610485821962
2019-04-03 21:21:59.91,144334743, 0.0, 0.0, 353.0, 584.090026855, -35.363261, 149.1652299, 0.998134791851, 0.0, 0.0, -0.0610485821962
2019-04-03 21:22:00.01,144434703, 0.0, 0.0, 353.0, 584.090026855, -35.363261, 149.1652299, 0.998134791851, 0.0, 0.0, -0.0610485821962
2019-04-03 21:22:00.11,144534663, 0.0, 0.0, 353.0, 584.090026855, -35.363261, 149.1652299, 0.998134791851, 0.0, 0.0, -0.0610485821962
2019-04-03 21:22:00.21,144634623, 0.0, 0.0, 353.0, 584.090026855, -35.363261, 149.1652299, 0.998134791851, 0.0, 0.0, -0.0610485821962
2019-04-03 21:22:00.31,144734583, 0.0, 0.0, 353.0, 584.090026855, -35.363261, 149.1652299, 0.998134791851, 0.0, 0.0, -0.0610485821962
2019-04-03 21:22:00.41,144835376, 0.0, 0.0, 353.0, 584.090026855, -35.363261, 149.1652299, 0.998134791851, 0.0, 0.0, -0.0610485821962
2019-04-03 21:22:00.51,144935336, 0.0, 0.0, 353.0, 584.090026855, -35.363261, 149.1652299, 0.998134791851, 0.0, 0.0, -0.0610485821962
2019-04-03 21:22:00.61,145035296, 0.0, 0.0, 353.0, 584.090026855, -35.363261, 149.1652299, 0.998134791851, 0.0, 0.0, -0.0610485821962
2019-04-03 21:22:00.71,145135256, 0.0, 0.0, 353.0, 584.090026855, -35.363261, 149.1652299, 0.998134791851, 0.0, 0.0, -0.0610485821962
2019-04-03 21:22:00.81,145235216, 0.0, 0.0, 353.0, 584.090026855, -35.363261, 149.1652299, 0.998134791851, 0.0, 0.0, -0.0610485821962
2019-04-03 21:22:00.91,145335176, 0.0, 0.0, 353.0, 584.090026855, -35.363261, 149.1652299, 0.998134791851, 0.0, 0.0, -0.0610485821962
2019-04-03 21:22:01.01,145435136, 0.0, 0.0, 353.0, 584.090026855, -35.363261, 149.1652299, 0.998134791851, 0.0, 0.0, -0.0610485821962
2019-04-03 21:22:01.11,145535096, 0.0, 0.0, 353.0, 584.090026855, -35.363261, 149.1652299, 0.998134791851, 0.0, 0.0, -0.0610485821962
2019-04-03 21:22:01.21,145635056, 0.0, 0.0, 353.0, 584.090026855, -35.363261, 149.1652299, 0.998134791851, 0.0, 0.0, -0.0610485821962
2019-04-03 21:22:01.31,145735016, 0.0, 0.0, 353.0, 584.090026855, -35.363261, 149.1652299, 0.998134791851, 0.0, 0.0, -0.0610485821962
2019-04-03 21:22:01.41,145834976, 0.0, 0.0, 353.0, 584.090026855, -35.363261, 149.1652299, 0.998134791851, 0.0, 0.0, -0.0610485821962
2019-04-03 21:22:01.51,145934936, 0.0, 0.0, 353.0, 584.090026855, -35.363261, 149.1652299, 0.998134791851, 0.0, 0.0, -0.0610485821962
2019-04-03 21:22:01.61,146034896, 0.0, 0.0, 353.0, 584.090026855, -35.363261, 149.1652299, 0.998134791851, 0.0, 0.0, -0.0610485821962
2019-04-03 21:22:01.71,146134856, 0.0, 0.0, 353.0, 584.090026855, -35.363261, 149.1652299, 0.998134791851, 0.0, 0.0, -0.0610485821962
2019-04-03 21:22:01.81,146234816, 0.0, 0.0, 353.0, 584.090026855, -35.363261, 149.1652299, 0.998134791851, 0.0, 0.0, -0.0610485821962
2019-04-03 21:22:04.31,148734649, 0.0, 0.0, 353.0, 584.090026855, -35.363261, 149.1652299, 0.998134791851, 0.0, 0.0, -0.0610485821962
2019-04-03 21:22:04.41,148834609, 0.0, 0.0, 353.0, 584.090026855, -35.363261, 149.1652299, 0.998134791851, 0.0, 0.0, -0.0610485821962
2019-04-03 21:22:04.51,148935402, 0.0, 0.0, 353.0, 584.090026855, -35.363261, 149.1652299, 0.998134791851, 0.0, 0.0, -0.0610485821962
2019-04-03 21:22:04.61,149035362, 0.0, 0.0, 353.0, 584.090026855, -35.363261, 149.1652299, 0.998134791851, 0.0, 0.0, -0.0610485821962
2019-04-03 21:22:04.71,149135322, 0.0, 0.0, 353.0, 584.090026855, -35.363261, 149.1652299, 0.998134791851, 0.0, 0.0, -0.0610485821962
2019-04-03 21:22:04.81,149235282, 0.0, 0.0, 353.0, 584.090026855, -35.363261, 149.1652299, 0.998134791851, 0.0, 0.0, -0.0610485821962
2019-04-03 21:22:04.91,149335242, 0.0, 0.0, 353.0, 584.090026855, -35.363261, 149.1652299, 0.998134791851, 0.0, 0.0, -0.0610485821962
2019-04-03 21:22:05.01,149435202, 0.0, 0.0, 353.0, 584.090026855, -35.363261, 149.1652299, 0.998134791851, 0.0, 0.0, -0.0610485821962
2019-04-03 21:22:05.11,149535162, 0.0, 0.0, 353.0, 584.090026855, -35.363261, 149.1652299, 0.998134791851, 0.0, 0.0, -0.0610485821962
2019-04-03 21:22:05.21,149635122, 0.0, 0.0, 353.0, 584.090026855, -35.363261, 149.1652299, 0.998134791851, 0.0, 0.0, -0.0610485821962
2019-04-03 21:22:05.31,149735082, 0.0, 0.0, 353.0, 584.090026855, -35.363261, 149.1652299, 0.998134791851, 0.0, 0.0, -0.0610485821962
2019-04-03 21:22:05.41,149835042, 0.0, 0.0, 353.0, 584.090026855, -35.363261, 149.1652299, 0.998134791851, 0.0, 0.0, -0.0610485821962
2019-04-03 21:22:05.51,149935002, 0.0, 0.0, 353.0, 584.090026855, -35.363261, 149.1652299, 0.998134791851, 0.0, 0.0, -0.0610485821962
2019-04-03 21:22:05.61,150034962, 0.0, 0.0, 353.0, 584.090026855, -35.363261, 149.1652299, 0.998134791851, 0.0, 0.0, -0.0610485821962
2019-04-03 21:22:05.71,150134922, 0.0, 0.0, 353.0, 584.090026855, -35.363261, 149.1652299, 0.998134791851, 0.0, 0.0, -0.0610485821962
2019-04-03 21:22:05.81,150234882, 0.0, 0.0, 353.0, 584.090026855, -35.363261, 149.1652299, 0.998134791851, 0.0, 0.0, -0.0610485821962
2019-04-03 21:22:05.91,150334842, 0.0, 0.0, 353.0, 584.090026855, -35.363261, 149.1652299, 0.998134791851, 0.0, 0.0, -0.0610485821962
2019-04-03 21:22:06.01,150434802, 0.0, 0.0, 353.0, 584.090026855, -35.363261, 149.1652299, 0.998134791851, 0.0, 0.0, -0.0610485821962
2019-04-03 21:22:06.11,150534762, 0.0, 0.0, 353.0, 584.090026855, -35.363261, 149.1652299, 0.998134791851, 0.0, 0.0, -0.0610485821962
2019-04-03 21:22:06.21,150634722, 0.0, 0.0, 353.0, 584.090026855, -35.363261, 149.1652299, 0.998134791851, 0.0, 0.0, -0.0610485821962
2019-04-03 21:22:06.31,150734682, 0.0, 0.0, 353.0, 584.090026855, -35.363261, 149.1652299, 0.998134791851, 0.0, 0.0, -0.0610485821962
2019-04-03 21:22:06.41,150834642, 0.0, 0.0, 353.0, 584.090026855, -35.363261, 149.1652299, 0.998134791851, 0.0, 0.0, -0.0610485821962
2019-04-03 21:22:06.51,150934602, 0.0, 0.0, 353.0, 584.090026855, -35.363261, 149.1652299, 0.998134791851, 0.0, 0.0, -0.0610485821962
2019-04-03 21:22:06.61,151035395, 0.0, 0.0, 353.0, 584.090026855, -35.363261, 149.1652299, 0.998134791851, 0.0, 0.0, -0.0610485821962
2019-04-03 21:22:06.71,151135355, 0.0, 0.0, 353.0, 584.090026855, -35.363261, 149.1652299, 0.998134791851, 0.0, 0.0, -0.0610485821962
2019-04-03 21:22:06.81,151235315, 0.0, 0.0, 353.0, 584.090026855, -35.363261, 149.1652299, 0.998134791851, 0.0, 0.0, -0.0610485821962
2019-04-03 21:22:06.91,151335275, 0.0, 0.0, 353.0, 584.090026855, -35.363261, 149.1652299, 0.998134791851, 0.0, 0.0, -0.0610485821962
2019-04-03 21:22:07.01,151435235, 0.0, 0.0, 353.0, 584.090026855, -35.363261, 149.1652299, 0.998134791851, 0.0, 0.0, -0.0610485821962
2019-04-03 21:22:07.11,151535195, 0.0, 0.0, 353.0, 584.090026855, -35.363261, 149.1652299, 0.998134791851, 0.0, 0.0, -0.0610485821962
2019-04-03 21:22:07.21,151635155, 0.0, 0.0, 353.0, 584.090026855, -35.363261, 149.1652299, 0.998134791851, 0.0, 0.0, -0.0610485821962
2019-04-03 21:22:07.31,151735115, 0.0, 0.0, 353.0, 584.090026855, -35.363261, 149.1652299, 0.998134791851, 0.0, 0.0, -0.0610485821962
2019-04-03 21:22:07.41,151835075, 0.0, 0.0, 353.0, 584.090026855, -35.363261, 149.1652299, 0.998134791851, 0.0, 0.0, -0.0610485821962
2019-04-03 21:22:07.51,151935035, 0.0, 0.0, 353.0, 584.090026855, -35.363261, 149.1652299, 0.998134791851, 0.0, 0.0, -0.0610485821962
2019-04-03 21:22:07.61,152034995, 0.0, 0.0, 353.0, 584.090026855, -35.363261, 149.1652299, 0.998134791851, 0.0, 0.0, -0.0610485821962
2019-04-03 21:22:07.71,152134955, 0.0, 0.0, 353.0, 584.090026855, -35.363261, 149.1652299, 0.998134791851, 0.0, 0.0, -0.0610485821962
2019-04-03 21:22:07.81,152234915, 0.0, 0.0, 353.0, 584.090026855, -35.363261, 149.1652299, 0.998134791851, 0.0, 0.0, -0.0610485821962
2019-04-03 21:22:07.91,152334875, 0.0, 0.0, 353.0, 584.090026855, -35.363261, 149.1652299, 0.998134791851, 0.0, 0.0, -0.0610485821962
2019-04-03 21:22:08.01,152434835, 0.0, 0.0, 353.0, 584.090026855, -35.363261, 149.1652299, 0.998134791851, 0.0, 0.0, -0.0610485821962
2019-04-03 21:22:08.11,152534795, 0.0, 0.0, 353.0, 584.090026855, -35.363261, 149.1652299, 0.998134791851, 0.0, 0.0, -0.0610485821962
2019-04-03 21:22:08.21,152634755, 0.0, 0.0, 353.0, 584.090026855, -35.363261, 149.1652299, 0.998134791851, 0.0, 0.0, -0.0610485821962
2019-04-03 21:22:08.31,152734715, 0.0, 0.0, 353.0, 584.090026855, -35.363261, 149.1652299, 0.998134791851, 0.0, 0.0, -0.0610485821962
2019-04-03 21:22:08.41,152834675, 0.0, 0.0, 353.0, 584.090026855, -35.363261, 149.1652299, 0.998134791851, 0.0, 0.0, -0.0610485821962
2019-04-03 21:22:08.51,152934635, 0.0, 0.0, 353.0, 584.090026855, -35.363261, 149.1652299, 0.998134791851, 0.0, 0.0, -0.0610485821962
2019-04-03 21:22:08.61,153034595, 0.0, 0.0, 353.0, 584.090026855, -35.363261, 149.1652299, 0.998134791851, 0.0, 0.0, -0.0610485821962
2019-04-03 21:22:08.71,153135388, 0.0, 0.0, 353.0, 584.090026855, -35.363261, 149.1652299, 0.998134791851, 0.0, 0.0, -0.0610485821962
2019-04-03 21:22:08.81,153235348, 0.0, 0.0, 353.0, 584.090026855, -35.363261, 149.1652299, 0.998134791851, 0.0, 0.0, -0.0610485821962
2019-04-03 21:22:08.91,153335308, 0.0, 0.0, 353.0, 584.090026855, -35.363261, 149.1652299, 0.998134791851, 0.0, 0.0, -0.0610485821962
2019-04-03 21:22:09.01,153435268, 0.0, 0.0, 353.0, 584.090026855, -35.363261, 149.1652299, 0.998134791851, 0.0, 0.0, -0.0610485821962
2019-04-03 21:22:09.11,153535228, 0.0, 0.0, 353.0, 584.090026855, -35.363261, 149.1652299, 0.998134791851, 0.0, 0.0, -0.0610485821962
2019-04-03 21:22:09.21,153635188, 0.0, 0.0, 353.0, 584.090026855, -35.363261, 149.1652299, 0.998134791851, 0.0, 0.0, -0.0610485821962
2019-04-03 21:22:09.31,153735148, 0.0, 0.0, 353.0, 584.090026855, -35.363261, 149.1652299, 0.998134791851, 0.0, 0.0, -0.0610485821962
2019-04-03 21:22:09.41,153835108, 0.0, 0.0, 353.0, 584.090026855, -35.363261, 149.1652299, 0.998134791851, 0.0, 0.0, -0.0610485821962
2019-04-03 21:22:09.51,153935068, 0.0, 0.0, 353.0, 584.090026855, -35.363261, 149.1652299, 0.998134791851, 0.0, 0.0, -0.0610485821962
2019-04-03 21:22:09.61,154035028, 0.0, 0.0, 353.0, 584.090026855, -35.363261, 149.1652299, 0.998134791851, 0.0, 0.0, -0.0610485821962
2019-04-03 21:22:09.71,154134988, 0.0, 0.0, 353.0, 584.090026855, -35.363261, 149.1652299, 0.998134791851, 0.0, 0.0, -0.0610485821962
2019-04-03 21:22:09.81,154234948, 0.0, 0.0, 353.0, 584.090026855, -35.363261, 149.1652299, 0.998134791851, 0.0, 0.0, -0.0610485821962
2019-04-03 21:22:09.91,154334908, 0.0, 0.0, 353.0, 584.090026855, -35.363261, 149.1652299, 0.998134791851, 0.0, 0.0, -0.0610485821962
2019-04-03 21:22:10.01,154434868, 0.0, 0.0, 353.0, 584.090026855, -35.363261, 149.1652299, 0.998134791851, 0.0, 0.0, -0.0610485821962
2019-04-03 21:22:10.11,154534828, 0.0, 0.0, 353.0, 584.090026855, -35.363261, 149.1652299, 0.998134791851, 0.0, 0.0, -0.0610485821962
2019-04-03 21:22:10.21,154634788, 0.0, 0.0, 353.0, 584.090026855, -35.363261, 149.1652299, 0.998134791851, 0.0, 0.0, -0.0610485821962
2019-04-03 21:22:10.31,154734748, 0.0, 0.0, 353.0, 584.090026855, -35.363261, 149.1652299, 0.998134791851, 0.0, 0.0, -0.0610485821962
2019-04-03 21:22:10.41,154834708, 0.0, 0.0, 353.0, 584.090026855, -35.363261, 149.1652299, 0.998134791851, 0.0, 0.0, -0.0610485821962
2019-04-03 21:22:10.51,154934668, 0.0, 0.0, 353.0, 584.090026855, -35.363261, 149.1652299, 0.998134791851, 0.0, 0.0, -0.0610485821962
2019-04-03 21:22:10.61,155034628, 0.0, 0.0, 353.0, 584.090026855, -35.363261, 149.1652299, 0.998134791851, 0.0, 0.0, -0.0610485821962
2019-04-03 21:22:10.71,155134588, 0.0, 0.0, 353.0, 584.090026855, -35.363261, 149.1652299, 0.998134791851, 0.0, 0.0, -0.0610485821962
2019-04-03 21:22:10.81,155235381, 0.0, 0.0, 353.0, 584.090026855, -35.363261, 149.1652299, 0.998134791851, 0.0, 0.0, -0.0610485821962
2019-04-03 21:22:10.91,155335341, 0.0, 0.0, 353.0, 584.090026855, -35.363261, 149.1652299, 0.998134791851, 0.0, 0.0, -0.0610485821962
2019-04-03 21:22:11.01,155435301, 0.0, 0.0, 353.0, 584.090026855, -35.363261, 149.1652299, 0.998134791851, 0.0, 0.0, -0.0610485821962
2019-04-03 21:22:11.11,155535261, 0.0, 0.0, 353.0, 584.090026855, -35.363261, 149.1652299, 0.998134791851, 0.0, 0.0, -0.0610485821962
2019-04-03 21:22:11.21,155635221, 0.0, 0.0, 353.0, 584.090026855, -35.363261, 149.1652299, 0.998134791851, 0.0, 0.0, -0.0610485821962
2019-04-03 21:22:11.31,155735181, 0.0, 0.0, 353.0, 584.090026855, -35.363261, 149.1652299, 0.998134791851, 0.0, 0.0, -0.0610485821962
2019-04-03 21:22:11.41,155835141, 0.0, 0.0, 353.0, 584.090026855, -35.363261, 149.1652299, 0.998134791851, 0.0, 0.0, -0.0610485821962
2019-04-03 21:22:11.51,155935101, 0.0, 0.0, 353.0, 584.090026855, -35.363261, 149.1652299, 0.998134791851, 0.0, 0.0, -0.0610485821962
2019-04-03 21:22:11.61,156035061, 0.0, 0.0, 353.0, 584.090026855, -35.363261, 149.1652299, 0.998134791851, 0.0, 0.0, -0.0610485821962
2019-04-03 21:22:11.71,156135021, 0.0, 0.0, 353.0, 584.090026855, -35.363261, 149.1652299, 0.998134791851, 0.0, 0.0, -0.0610485821962
2019-04-03 21:22:11.81,156234981, 0.0, 0.0, 353.0, 584.090026855, -35.363261, 149.1652299, 0.998134791851, 0.0, 0.0, -0.0610485821962
2019-04-03 21:22:11.91,156334941, 0.0, 0.0, 353.0, 584.090026855, -35.363261, 149.1652299, 0.998134791851, 0.0, 0.0, -0.0610485821962
2019-04-03 21:22:12.01,156434901, 0.0, 0.0, 353.0, 584.090026855, -35.363261, 149.1652299, 0.998134791851, 0.0, 0.0, -0.0610485821962
2019-04-03 21:22:12.11,156534861, 0.0, 0.0, 353.0, 584.090026855, -35.363261, 149.1652299, 0.998134791851, 0.0, 0.0, -0.0610485821962
2019-04-03 21:22:12.21,156634821, 0.0, 0.0, 353.0, 584.090026855, -35.363261, 149.1652299, 0.998134791851, 0.0, 0.0, -0.0610485821962
2019-04-03 21:22:12.31,156734781, 0.0, 0.0, 353.0, 584.090026855, -35.363261, 149.1652299, 0.998134791851, 0.0, 0.0, -0.0610485821962
2019-04-03 21:22:12.41,156834741, 0.0, 0.0, 353.0, 584.090026855, -35.363261, 149.1652299, 0.998134791851, 0.0, 0.0, -0.0610485821962
2019-04-03 21:22:12.51,156934701, 0.0, 0.0, 353.0, 584.090026855, -35.363261, 149.1652299, 0.998134791851, 0.0, 0.0, -0.0610485821962
2019-04-03 21:22:12.61,157034661, 0.0, 0.0, 353.0, 584.090026855, -35.363261, 149.1652299, 0.998134791851, 0.0, 0.0, -0.0610485821962
2019-04-03 21:22:12.71,157134621, 0.0, 0.0, 353.0, 584.090026855, -35.363261, 149.1652299, 0.998134791851, 0.0, 0.0, -0.0610485821962
2019-04-03 21:22:12.81,157234581, 0.0, 0.0, 353.0, 584.090026855, -35.363261, 149.1652299, 0.998134791851, 0.0, 0.0, -0.0610485821962
2019-04-03 21:22:12.91,157335374, 0.0, 0.0, 353.0, 584.090026855, -35.363261, 149.1652299, 0.998134791851, 0.0, 0.0, -0.0610485821962
2019-04-03 21:22:13.01,157435334, 0.0, 0.0, 353.0, 584.090026855, -35.363261, 149.1652299, 0.998134791851, 0.0, 0.0, -0.0610485821962
2019-04-03 21:22:13.11,157535294, 0.0, 0.0, 353.0, 584.090026855, -35.363261, 149.1652299, 0.998134791851, 0.0, 0.0, -0.0610485821962
2019-04-03 21:22:13.21,157635254, 0.0, 0.0, 353.0, 584.090026855, -35.363261, 149.1652299, 0.998134791851, 0.0, 0.0, -0.0610485821962
2019-04-03 21:22:13.31,157735214, 0.0, 0.0, 353.0, 584.090026855, -35.363261, 149.1652299, 0.998134791851, 0.0, 0.0, -0.0610485821962
2019-04-03 21:22:13.41,157835174, 0.0, 0.0, 353.0, 584.090026855, -35.363261, 149.1652299, 0.998134791851, 0.0, 0.0, -0.0610485821962
2019-04-03 21:22:13.51,157935134, 0.0, 0.0, 353.0, 584.090026855, -35.363261, 149.1652299, 0.998134791851, 0.0, 0.0, -0.0610485821962
2019-04-03 21:22:13.61,158035094, 0.0, 0.0, 353.0, 584.090026855, -35.363261, 149.1652299, 0.998134791851, 0.0, 0.0, -0.0610485821962
2019-04-03 21:22:13.71,158135054, 0.0, 0.0, 353.0, 584.090026855, -35.363261, 149.1652299, 0.998134791851, 0.0, 0.0, -0.0610485821962
2019-04-03 21:22:13.81,158235014, 0.0, 0.0, 353.0, 584.090026855, -35.363261, 149.1652299, 0.998134791851, 0.0, 0.0, -0.0610485821962
2019-04-03 21:22:13.91,158334974, 0.0, 0.0, 353.0, 584.090026855, -35.363261, 149.1652299, 0.998134791851, 0.0, 0.0, -0.0610485821962
2019-04-03 21:22:14.01,158434934, 0.0, 0.0, 353.0, 584.090026855, -35.363261, 149.1652299, 0.998134791851, 0.0, 0.0, -0.0610485821962
2019-04-03 21:22:14.11,158534894, 0.0, 0.0, 353.0, 584.090026855, -35.363261, 149.1652299, 0.998134791851, 0.0, 0.0, -0.0610485821962
2019-04-03 21:22:14.21,158634854, 0.0, 0.0, 353.0, 584.090026855, -35.363261, 149.1652299, 0.998134791851, 0.0, 0.0, -0.0610485821962
2019-04-03 21:22:14.31,158734814, 0.0, 0.0, 353.0, 584.090026855, -35.363261, 149.1652299, 0.998134791851, 0.0, 0.0, -0.0610485821962
2019-04-03 21:22:14.41,158834774, 0.0, 0.0, 353.0, 584.090026855, -35.363261, 149.1652299, 0.998134791851, 0.0, 0.0, -0.0610486753285
2019-04-03 21:22:14.51,158934734, 0.0, 0.0, 353.0, 584.090026855, -35.363261, 149.1652299, 0.998134791851, 0.0, 0.0, -0.0610486753285
2019-04-03 21:22:14.61,159034694, 0.0, 0.0, 353.0, 584.090026855, -35.363261, 149.1652299, 0.998134791851, 0.0, 0.0, -0.0610486753285
2019-04-03 21:22:14.71,159134654, 0.0, 0.0, 353.0, 584.090026855, -35.363261, 149.1652299, 0.998134791851, 0.0, 0.0, -0.0610486753285
2019-04-03 21:22:14.81,159234614, 0.0, 0.0, 353.0, 584.090026855, -35.363261, 149.1652299, 0.998134791851, 0.0, 0.0, -0.0610486753285
2019-04-03 21:22:14.91,159334574, 0.0, 0.0, 353.0, 584.090026855, -35.363261, 149.1652299, 0.998134791851, 0.0, 0.0, -0.0610486753285
2019-04-03 21:22:15.01,159435367, 0.0, 0.0, 353.0, 584.090026855, -35.363261, 149.1652299, 0.998134791851, 0.0, 0.0, -0.0610486753285
2019-04-03 21:22:15.11,159535327, 0.0, 0.0, 353.0, 584.090026855, -35.363261, 149.1652299, 0.998134791851, 0.0, 0.0, -0.0610486753285
2019-04-03 21:22:15.21,159635287, 0.0, 0.0, 353.0, 584.099975586, -35.363261, 149.1652299, 0.998134791851, 0.0, 0.0, -0.0610486753285
2019-04-03 21:22:15.31,159735247, 0.0, 0.0, 353.0, 584.099975586, -35.363261, 149.1652299, 0.998134791851, 0.0, 0.0, -0.0610486753285
2019-04-03 21:22:15.41,159835207, 0.0, 0.0, 353.0, 584.109985352, -35.363261, 149.1652299, 0.998134791851, 0.0, 0.0, -0.0610486641526
2019-04-03 21:22:15.51,159935167, 0.0, 0.0, 353.0, 584.130004883, -35.363261, 149.1652299, 0.998134791851, 0.0, 0.0, -0.0610486753285
2019-04-03 21:22:15.61,160035127, 0.0, 0.0, 353.0, 584.159973145, -35.363261, 149.1652299, 0.998134791851, 0.0, 0.0, -0.0610486827791
2019-04-03 21:22:15.71,160135087, 0.0, 0.0, 353.0, 584.190002441, -35.363261, 149.1652299, 0.998134791851, 0.0, 0.0, -0.0610486939549
2019-04-03 21:22:15.81,160235047, -0.01, -0.02, 352.99, 584.239990234, -35.363261, 149.1652299, 0.998134553432, -0.000182785195648, -0.000237034371821, -0.0610520876944
2019-04-03 21:22:15.91,160335007, -0.13, -0.15, 352.99, 584.33001709, -35.363261, 149.1652299, 0.998131155968, -0.00127610866912, -0.00127754395362, -0.061081469059
2019-04-03 21:22:16.01,160434967, -0.3, -0.32, 352.99, 584.460021973, -35.363261, 149.1652299, 0.998122036457, -0.00279888999648, -0.00268737133592, -0.0611334443092
2019-04-03 21:22:16.11,160534927, -0.35, -0.47, 352.98, 584.619995117, -35.363261, 149.1652299, 0.998112082481, -0.00336259580217, -0.0039862212725, -0.0611974038184
2019-04-03 21:22:16.21,160634887, 0.0, -0.51, 352.97, 584.760009766, -35.363261, 149.1652299, 0.998111963272, -0.000235308456467, -0.00451603531837, -0.0612539723516
2019-04-03 21:22:16.31,160734847, 0.83, -0.42, 352.96, 584.890014648, -35.363261, 149.1652299, 0.998086392879, 0.00702743185684, -0.00417885463685, -0.061291731894
2019-04-03 21:22:16.41,160834807, 1.97, -0.24, 352.96, 585.0, -35.363261, 149.1652299, 0.997968375683, 0.0170476958156, -0.00321053015068, -0.0613039024174
2019-04-03 21:22:16.51,160934767, 3.25, -0.04, 352.96, 585.109985352, -35.363261, 149.1652299, 0.997715711594, 0.0282937791198, -0.00211130129173, -0.0613057501614
2019-04-03 21:22:16.61,161034727, 4.52, 0.12, 352.96, 585.200012207, -35.3632609, 149.1652301, 0.997337698936, 0.0394460633397, -0.00131227704696, -0.0613178163767
2019-04-03 21:22:16.71,161134687, 5.62, 0.24, 352.96, 585.289978027, -35.3632609, 149.1652302, 0.996905207634, 0.04914374277, -0.000866207585204, -0.0613524951041
2019-04-03 21:22:16.81,161234647, 6.47, 0.32, 352.96, 585.369995117, -35.3632609, 149.1652305, 0.996510148048, 0.0565300472081, -0.000679322809447, -0.0614116117358
2019-04-03 21:22:16.91,161334607, 7.1, 0.37, 352.95, 585.440002441, -35.3632608, 149.1652308, 0.99617934227, 0.0620063953102, -0.000581020314712, -0.0614950507879
2019-04-03 21:22:17.01,161435400, 7.58, 0.4, 352.94, 585.510009766, -35.3632608, 149.1652312, 0.995899915695, 0.0662572979927, -0.00058398413239, -0.0615868456662
2019-04-03 21:22:17.11,161535360, 7.96, 0.41, 352.93, 585.570007324, -35.3632607, 149.1652318, 0.995671629906, 0.0695234760642, -0.000668424705509, -0.0616770386696
2019-04-03 21:22:17.21,161635320, 8.19, 0.41, 352.92, 585.619995117, -35.3632605, 149.1652326, 0.995521724224, 0.0715644955635, -0.000773029052652, -0.0617609657347
2019-04-03 21:22:17.31,161735280, 8.33, 0.43, 352.92, 585.66998291, -35.3632605, 149.1652334, 0.995428681374, 0.0727969780564, -0.000747425190639, -0.0618207715452
2019-04-03 21:22:17.41,161835240, 8.44, 0.45, 352.92, 585.710021973, -35.3632604, 149.1652341, 0.995355904102, 0.0737576261163, -0.000615478842519, -0.0618554577231
2019-04-03 21:22:17.51,161935200, 8.58, 0.46, 352.91, 585.75, -35.3632604, 149.1652351, 0.9952673316, 0.0749168470502, -0.000605937268119, -0.0618873648345
2019-04-03 21:22:17.61,162035160, 8.72, 0.49, 352.92, 585.789978027, -35.3632604, 149.1652363, 0.995172381401, 0.076221473515, -0.000400103861466, -0.0618228465319
2019-04-03 21:22:17.71,162135120, 8.92, 0.75, 353.19, 585.820007324, -35.3632603, 149.1652374, 0.99516004324, 0.0780410841107, 0.00196249596775, -0.0596843920648
2019-04-03 21:22:17.81,162235080, 9.18, 1.25, 354.35, 585.859985352, -35.3632602, 149.1652387, 0.995474159718, 0.080526933074, 0.00698388414457, -0.0499787516892
2019-04-03 21:22:17.91,162335040, 9.56, 1.6, 357.0, 585.890014648, -35.3632601, 149.1652401, 0.996053814888, 0.0836665779352, 0.0117506496608, -0.0271785184741
2019-04-03 21:22:18.01,162435000, 10.02, 1.41, 1.28, 585.929992676, -35.3632601, 149.1652414, 0.996049761772, 0.0872211381793, 0.0132549284026, 0.0100852893665
2019-04-03 21:22:18.11,162534960, 10.45, 0.53, 6.98, 585.960021973, -35.3632601, 149.1652431, 0.994008600712, 0.0906376615167, 0.0101937996224, 0.0602307096124
2019-04-03 21:22:18.21,162634920, 10.68, -1.02, 13.81, 585.989990234, -35.3632601, 149.1652447, 0.988289177418, 0.0934849977493, 0.0023288987577, 0.12058031559
2019-04-03 21:22:18.31,162734880, 10.56, -3.11, 21.5, 586.030029297, -35.3632601, 149.1652465, 0.977451384068, 0.095452517271, -0.00938583165407, 0.188121184707
2019-04-03 21:22:18.41,162834840, 10.01, -5.45, 29.78, 586.070007324, -35.3632602, 149.1652483, 0.960555911064, 0.0964228659868, -0.0234037898481, 0.259783089161
2019-04-03 21:22:18.51,162934800, 9.01, -7.77, 38.45, 586.109985352, -35.3632602, 149.1652503, 0.937387406826, 0.0963068604469, -0.0379958003759, 0.332544922829
2019-04-03 21:22:18.61,163034760, 7.57, -9.84, 47.23, 586.150024414, -35.3632602, 149.1652523, 0.908594667912, 0.0946233421564, -0.0521021150053, 0.403469473124
2019-04-03 21:22:18.71,163134720, 5.8, -11.5, 55.85, 586.190002441, -35.3632603, 149.1652545, 0.875566124916, 0.0914321318269, -0.0648369193077, 0.469915241003
2019-04-03 21:22:18.81,163234680, 3.89, -12.68, 64.06, 586.239990234, -35.3632603, 149.1652567, 0.840094387531, 0.0872094929218, -0.0757178813219, 0.530002653599
2019-04-03 21:22:18.91,163334640, 2.01, -13.42, 71.64, 586.289978027, -35.3632602, 149.1652591, 0.803927898407, 0.0825970172882, -0.0845356881618, 0.582864880562
2019-04-03 21:22:19.01,163434600, 0.33, -13.81, 78.52, 586.340026855, -35.3632601, 149.1652617, 0.768392920494, 0.0783506631851, -0.0912743732333, 0.628571808338
2019-04-03 21:22:19.11,163535393, -1.14, -13.98, 84.75, 586.390014648, -35.3632599, 149.1652643, 0.734042286873, 0.0746773928404, -0.0966232344508, 0.668033838272
2019-04-03 21:22:19.21,163635353, -2.72, -13.99, 90.07, 586.440002441, -35.3632598, 149.165267, 0.703242957592, 0.0695106983185, -0.102779448032, 0.700038611889
2019-04-03 21:22:19.31,163735313, -4.3, -13.88, 94.16, 586.489990234, -35.3632597, 149.1652698, 0.678828060627, 0.0630632936954, -0.109568081796, 0.723332762718
2019-04-03 21:22:19.41,163835273, -5.55, -13.73, 96.75, 586.549987793, -35.3632595, 149.1652727, 0.662996947765, 0.0572900362313, -0.115272387862, 0.737472176552
2019-04-03 21:22:19.51,163935233, -6.18, -13.61, 97.86, 586.609985352, -35.3632592, 149.1652757, 0.656183063984, 0.0540802814066, -0.118140973151, 0.743331551552
2019-04-03 21:22:19.61,164035193, -6.06, -13.62, 97.66, 586.66998291, -35.3632589, 149.1652787, 0.657409369946, 0.0545815005898, -0.117501594126, 0.742312073708
2019-04-03 21:22:19.71,164135153, -5.08, -13.77, 96.45, 586.729980469, -35.3632585, 149.165282, 0.664663076401, 0.0600302554667, -0.112675696611, 0.736154556274
2019-04-03 21:22:19.81,164235113, -3.58, -14.09, 94.62, 586.789978027, -35.363258, 149.1652853, 0.675398409367, 0.0690668821335, -0.105966433883, 0.726524531841
2019-04-03 21:22:19.91,164335073, -1.94, -14.5, 92.44, 586.849975586, -35.3632577, 149.1652886, 0.687776088715, 0.0794644653797, -0.0995149984956, 0.71466511488
2019-04-03 21:22:20.01,164435033, -0.42, -14.9, 90.19, 586.909973145, -35.3632573, 149.165292, 0.700296163559, 0.0892356261611, -0.0941508188844, 0.70196723938
2019-04-03 21:22:20.11,164534993, 0.79, -15.2, 88.12, 586.979980469, -35.3632568, 149.1652954, 0.711622297764, 0.096973143518, -0.0902976617217, 0.689953804016
2019-04-03 21:22:20.21,164634953, 1.64, -15.39, 86.44, 587.039978027, -35.3632566, 149.1652991, 0.720751225948, 0.102080665529, -0.0878463536501, 0.679985523224
2019-04-03 21:22:20.31,164734913, 2.1, -15.45, 85.28, 587.109985352, -35.3632561, 149.1653028, 0.727114260197, 0.104445077479, -0.0865845307708, 0.672977924347
2019-04-03 21:22:20.41,164834873, 2.19, -15.45, 84.69, 587.16998291, -35.363256, 149.1653064, 0.730500519276, 0.104607760906, -0.0865635052323, 0.669278025627
2019-04-03 21:22:20.51,164934833, 2.01, -15.44, 84.63, 587.229980469, -35.3632556, 149.1653102, 0.731042981148, 0.103299796581, -0.08761459589, 0.668751835823
2019-04-03 21:22:20.61,165034793, 1.62, -15.46, 85.01, 587.299987793, -35.3632555, 149.1653141, 0.729146838188, 0.101239591837, -0.0897183343768, 0.6708548069
2019-04-03 21:22:20.71,165134753, 1.09, -15.51, 85.71, 587.359985352, -35.3632552, 149.165318, 0.725446105003, 0.0987359061837, -0.0924765989184, 0.674853563309
2019-04-03 21:22:20.81,165234713, 0.5, -15.57, 86.59, 587.429992676, -35.3632549, 149.165322, 0.720667183399, 0.0961212739348, -0.0956415757537, 0.679891347885
2019-04-03 21:22:20.91,165334673, -0.07, -15.67, 87.52, 587.5, -35.3632548, 149.165326, 0.715515136719, 0.0938201397657, -0.0989445000887, 0.685161292553
2019-04-03 21:22:21.01,165434633, -0.59, -15.77, 88.39, 587.559997559, -35.3632546, 149.1653301, 0.710660457611, 0.0919661670923, -0.101927340031, 0.690010726452
2019-04-03 21:22:21.11,165534593, -0.99, -15.85, 89.1, 587.630004883, -35.3632543, 149.1653342, 0.706621229649, 0.0906658321619, -0.104305036366, 0.693964421749
2019-04-03 21:22:21.21,165635386, -1.24, -15.93, 89.6, 587.690002441, -35.3632542, 149.1653385, 0.703710138798, 0.0900429263711, -0.105927728117, 0.696752250195
2019-04-03 21:22:21.31,165735346, -1.34, -15.99, 89.87, 587.760009766, -35.363254, 149.1653427, 0.702125310898, 0.0900465995073, -0.106714881957, 0.698228955269
2019-04-03 21:22:21.41,165835306, -1.31, -16.03, 89.91, 587.820007324, -35.3632537, 149.165347, 0.701801776886, 0.0905438810587, -0.106731273234, 0.698487281799
2019-04-03 21:22:21.51,165935266, -1.15, -16.07, 89.76, 587.890014648, -35.3632536, 149.1653513, 0.702546358109, 0.0915907397866, -0.106165245175, 0.697688162327
2019-04-03 21:22:21.61,166035226, -0.93, -16.12, 89.47, 587.950012207, -35.3632532, 149.1653557, 0.704087436199, 0.0929924845695, -0.105300150812, 0.696078419685
2019-04-03 21:22:21.71,166135186, -0.67, -16.16, 89.1, 588.020019531, -35.3632531, 149.16536, 0.706118702888, 0.0945201069117, -0.104295037687, 0.693963170052
2019-04-03 21:22:21.81,166235146, -0.41, -16.22, 88.69, 588.090026855, -35.3632528, 149.1653644, 0.708319067955, 0.0960895568132, -0.103448756039, 0.691628038883
2019-04-03 21:22:21.91,166335106, -0.19, -16.29, 88.3, 588.150024414, -35.3632525, 149.165369, 0.710422933102, 0.0975279957056, -0.102869793773, 0.689351379871
2019-04-03 21:22:22.01,166435066, -0.01, -16.37, 87.96, 588.219970703, -35.3632524, 149.1653734, 0.712216734886, 0.0987905263901, -0.10252853483, 0.687368690968
2019-04-03 21:22:22.11,166535026, 0.11, -16.42, 87.71, 588.280029297, -35.363252, 149.165378, 0.713580846786, 0.0996777042747, -0.102280259132, 0.685861170292
2019-04-03 21:22:22.21,166634986, 0.17, -16.46, 87.55, 588.349975586, -35.3632519, 149.1653825, 0.714462399483, 0.100164085627, -0.102317675948, 0.684866189957
2019-04-03 21:22:22.31,166734946, 0.15, -16.52, 87.47, 588.409973145, -35.3632517, 149.1653872, 0.714874505997, 0.100275956094, -0.102917566895, 0.684329748154
2019-04-03 21:22:22.41,166834906, 0.05, -16.57, 87.48, 588.479980469, -35.3632514, 149.1653919, 0.714885294437, 0.0999871939421, -0.103804953396, 0.684226691723
2019-04-03 21:22:22.51,166934866, -0.04, -16.61, 87.54, 588.549987793, -35.3632513, 149.1653964, 0.714553952217, 0.0996670946479, -0.104653321207, 0.684490203857
2019-04-03 21:22:22.61,167034826, -0.14, -16.65, 87.64, 588.609985352, -35.3632511, 149.1654012, 0.714008450508, 0.099385663867, -0.105354763567, 0.684992611408
2019-04-03 21:22:22.71,167134786, -0.21, -16.69, 87.75, 588.679992676, -35.3632509, 149.165406, 0.713350057602, 0.0992857143283, -0.105917282403, 0.685606002808
2019-04-03 21:22:22.81,167234746, -0.24, -16.72, 87.86, 588.739990234, -35.3632507, 149.1654107, 0.712703704834, 0.0993291959167, -0.106200367212, 0.686227858067
2019-04-03 21:22:22.91,167334706, -0.27, -16.74, 87.95, 588.809997559, -35.3632505, 149.1654155, 0.712170422077, 0.0993831455708, -0.106431528926, 0.686737656593
2019-04-03 21:22:23.01,167434666, -0.31, -16.76, 88.01, 588.880004883, -35.3632503, 149.1654203, 0.711832284927, 0.09933167696, -0.106792829931, 0.687039554119
2019-04-03 21:22:23.11,167534626, -0.36, -16.8, 88.03, 588.940002441, -35.3632501, 149.1654251, 0.711695492268, 0.0993343815207, -0.107269473374, 0.687106609344
2019-04-03 21:22:23.21,167634586, -0.37, -16.85, 88.02, 589.010009766, -35.3632499, 149.1654299, 0.71174710989, 0.0994952321053, -0.107700198889, 0.686962485313
2019-04-03 21:22:23.31,167735379, -0.38, -16.9, 87.98, 589.070007324, -35.3632495, 149.1654348, 0.711977541447, 0.0997117981315, -0.108020342886, 0.686641991138
2019-04-03 21:22:23.41,167835339, -0.35, -16.92, 87.91, 589.140014648, -35.3632494, 149.1654398, 0.712361872196, 0.0999052897096, -0.108062312007, 0.686208486557
2019-04-03 21:22:23.51,167935299, -0.29, -16.92, 87.82, 589.210021973, -35.3632492, 149.1654447, 0.712824046612, 0.100210353732, -0.107770547271, 0.68572974205
2019-04-03 21:22:23.61,168035259, -0.23, -16.92, 87.73, 589.270019531, -35.3632489, 149.1654496, 0.713330507278, 0.100499615073, -0.107510797679, 0.685201346874
2019-04-03 21:22:23.71,168135219, -0.18, -16.94, 87.63, 589.340026855, -35.3632488, 149.1654546, 0.713819921017, 0.10084990412, -0.107442222536, 0.684650719166
2019-04-03 21:22:23.81,168235179, -0.15, -16.99, 87.55, 589.400024414, -35.3632486, 149.1654596, 0.714259982109, 0.101275593042, -0.107616215944, 0.68410140276
2019-04-03 21:22:23.91,168335139, -0.13, -17.05, 87.47, 589.469970703, -35.3632483, 149.1654646, 0.714638113976, 0.101654089987, -0.107948295772, 0.683597803116
2019-04-03 21:22:24.01,168435099, -0.12, -17.09, 87.41, 589.539978027, -35.3632481, 149.1654696, 0.7149477005, 0.101926572621, -0.108195208013, 0.68319439888
2019-04-03 21:22:24.11,168535059, -0.09, -17.12, 87.37, 589.599975586, -35.3632479, 149.1654747, 0.715172588825, 0.102206550539, -0.108230046928, 0.682911634445
2019-04-03 21:22:24.21,168635019, -0.05, -17.13, 87.33, 589.66998291, -35.3632476, 149.1654797, 0.715312361717, 0.102495446801, -0.108075097203, 0.682746469975
2019-04-03 21:22:24.31,168734979, -0.03, -17.13, 87.32, 589.729980469, -35.3632475, 149.1654848, 0.715401887894, 0.102646991611, -0.107998341322, 0.682642042637
2019-04-03 21:22:24.41,168834939, -0.05, -17.13, 87.3, 589.799987793, -35.3632473, 149.1654898, 0.715492784977, 0.102500714362, -0.108082346618, 0.682555437088
2019-04-03 21:22:24.51,168934899, -0.06, -17.12, 87.3, 589.869995117, -35.363247, 149.165495, 0.715557932854, 0.102355107665, -0.108145587146, 0.682498991489
2019-04-03 21:22:24.61,169034859, -0.09, -17.14, 87.29, 589.929992676, -35.3632468, 149.1655001, 0.715610921383, 0.1022708565, -0.108402222395, 0.682415306568
2019-04-03 21:22:24.71,169134819, -0.12, -17.17, 87.28, 590.0, -35.3632465, 149.1655051, 0.715659320354, 0.10228613764, -0.108825750649, 0.682294845581
2019-04-03 21:22:24.81,169234779, -0.14, -17.21, 87.27, 590.059997559, -35.3632464, 149.1655103, 0.715716660023, 0.102398782969, -0.109202638268, 0.682157576084
2019-04-03 21:22:24.91,169334739, -0.15, -17.23, 87.25, 590.130004883, -35.3632462, 149.1655155, 0.715809524059, 0.102460741997, -0.1093852669, 0.68202149868
2019-04-03 21:22:25.01,169434699, -0.15, -17.25, 87.22, 590.200012207, -35.3632458, 149.1655205, 0.715938389301, 0.102518625557, -0.109480075538, 0.681862413883
2019-04-03 21:22:25.11,169534659, -0.14, -17.26, 87.19, 590.260009766, -35.3632457, 149.1655257, 0.716102898121, 0.102580219507, -0.109536647797, 0.681671261787
2019-04-03 21:22:25.21,169634619, -0.13, -17.27, 87.16, 590.33001709, -35.3632455, 149.1655309, 0.716284811497, 0.102680578828, -0.109575554729, 0.681458711624
2019-04-03 21:22:25.31,169734579, -0.11, -17.27, 87.13, 590.390014648, -35.3632452, 149.1655362, 0.716483235359, 0.102733664215, -0.109498985112, 0.681254386902
2019-04-03 21:22:25.41,169835372, -0.07, -17.26, 87.09, 590.460021973, -35.363245, 149.1655415, 0.716671407223, 0.102899484336, -0.109254531562, 0.681070685387
2019-04-03 21:22:25.51,169935332, -0.06, -17.24, 87.05, 590.530029297, -35.3632447, 149.1655467, 0.716884374619, 0.102846421301, -0.109036453068, 0.680889487267
2019-04-03 21:22:25.61,170035292, -0.06, -17.22, 87.02, 590.590026855, -35.3632445, 149.1655519, 0.717094361782, 0.102717779577, -0.108983494341, 0.680696249008
2019-04-03 21:22:25.71,170135252, -0.07, -17.25, 86.99, 590.659973145, -35.3632443, 149.1655571, 0.71726667881, 0.10275157541, -0.109257258475, 0.680465638638
2019-04-03 21:22:25.81,170235212, -0.08, -17.3, 86.96, 590.729980469, -35.363244, 149.1655624, 0.717392921448, 0.102996639907, -0.109682463109, 0.680227041245
2019-04-03 21:22:25.91,170335172, -0.08, -17.35, 86.93, 590.789978027, -35.3632438, 149.1655676, 0.717497944832, 0.103309385478, -0.109995543957, 0.680018365383
2019-04-03 21:22:26.01,170435132, -0.07, -17.39, 86.91, 590.859985352, -35.3632435, 149.1655729, 0.71760559082, 0.103528052568, -0.110186398029, 0.679840564728
2019-04-03 21:22:26.11,170535092, -0.08, -17.41, 86.89, 590.929992676, -35.3632433, 149.1655781, 0.717723548412, 0.103561647236, -0.110397063196, 0.679676711559
2019-04-03 21:22:26.21,170635052, -0.09, -17.42, 86.87, 590.989990234, -35.3632431, 149.1655834, 0.717842519283, 0.103545717895, -0.110574267805, 0.679524600506
2019-04-03 21:22:26.31,170735012, -0.09, -17.42, 86.85, 591.059997559, -35.3632428, 149.1655887, 0.717957854271, 0.103550344706, -0.110579103231, 0.6794013381
2019-04-03 21:22:26.41,170834972, -0.08, -17.42, 86.83, 591.119995117, -35.3632426, 149.165594, 0.718064785004, 0.103579342365, -0.110587708652, 0.679282486439
2019-04-03 21:22:26.51,170934932, -0.09, -17.43, 86.81, 591.190002441, -35.3632424, 149.1655993, 0.718177080154, 0.103610694408, -0.110670395195, 0.679145514965
2019-04-03 21:22:26.61,171034892, -0.08, -17.46, 86.79, 591.260009766, -35.3632421, 149.1656046, 0.71828019619, 0.103742778301, -0.110829293728, 0.678990364075
2019-04-03 21:22:26.71,171134852, -0.1, -17.48, 86.76, 591.320007324, -35.3632419, 149.1656099, 0.718418180943, 0.103743597865, -0.111092120409, 0.678801238537
2019-04-03 21:22:26.81,171234812, -0.11, -17.49, 86.74, 591.390014648, -35.3632415, 149.1656152, 0.718567609787, 0.103680431843, -0.111244641244, 0.678627789021
2019-04-03 21:22:26.91,171334772, -0.12, -17.47, 86.71, 591.460021973, -35.3632414, 149.1656205, 0.718736171722, 0.103504523635, -0.111192323267, 0.678484678268
2019-04-03 21:22:27.01,171434732, -0.12, -17.45, 86.69, 591.520019531, -35.363241, 149.1656257, 0.718894124031, 0.103386074305, -0.111038833857, 0.678360462189
2019-04-03 21:22:27.11,171534692, -0.09, -17.44, 86.66, 591.590026855, -35.3632409, 149.1656312, 0.719030618668, 0.103467099369, -0.110815525055, 0.678240001202
2019-04-03 21:22:27.21,171634652, -0.06, -17.43, 86.64, 591.650024414, -35.3632406, 149.1656365, 0.719156086445, 0.103621505201, -0.110651925206, 0.678110063076
2019-04-03 21:22:27.31,171734612, -0.05, -17.43, 86.62, 591.719970703, -35.3632403, 149.1656419, 0.71928781271, 0.10363573581, -0.110622964799, 0.677972912788
2019-04-03 21:22:27.41,171834572, -0.05, -17.43, 86.6, 591.789978027, -35.3632401, 149.1656472, 0.719413936138, 0.103605300188, -0.11063695699, 0.677841424942
2019-04-03 21:22:27.51,171935365, -0.04, -17.45, 86.58, 591.849975586, -35.3632397, 149.1656525, 0.719493687153, 0.10376945138, -0.110761612654, 0.677711308002
2019-04-03 21:22:27.61,172035325, -0.06, -17.48, 86.56, 591.91998291, -35.3632396, 149.1656579, 0.719565987587, 0.103826507926, -0.111048080027, 0.677578985691
2019-04-03 21:22:27.71,172135285, -0.07, -17.51, 86.55, 591.989990234, -35.3632392, 149.1656633, 0.719634175301, 0.103861130774, -0.111299842596, 0.677459955215
2019-04-03 21:22:27.81,172235245, -0.08, -17.53, 86.54, 592.049987793, -35.363239, 149.1656687, 0.719698309898, 0.103946484625, -0.111427873373, 0.677357554436
2019-04-03 21:22:27.91,172335205, -0.07, -17.52, 86.52, 592.119995117, -35.3632388, 149.1656741, 0.719773173332, 0.103979438543, -0.111388482153, 0.677279472351
2019-04-03 21:22:28.01,172435165, -0.06, -17.52, 86.51, 592.179992676, -35.3632385, 149.1656793, 0.719855189323, 0.103966534138, -0.111335881054, 0.677202939987
2019-04-03 21:22:28.11,172535125, -0.07, -17.52, 86.49, 592.25, -35.3632382, 149.1656847, 0.719940304756, 0.103916965425, -0.11144977808, 0.677101314068
2019-04-03 21:22:28.21,172635085, -0.09, -17.54, 86.48, 592.320007324, -35.3632379, 149.1656902, 0.720020830631, 0.103895999491, -0.111629843712, 0.676989257336
2019-04-03 21:22:28.31,172735045, -0.09, -17.55, 86.47, 592.380004883, -35.3632377, 149.1656956, 0.720091700554, 0.103946126997, -0.111776605248, 0.676881968975
2019-04-03 21:22:28.41,172835005, -0.09, -17.57, 86.45, 592.450012207, -35.3632373, 149.1657009, 0.720162689686, 0.104031056166, -0.111848793924, 0.676781475544
2019-04-03 21:22:28.51,172934965, -0.07, -17.54, 86.44, 592.510009766, -35.3632372, 149.1657064, 0.720267415047, 0.1039724648, -0.11158900708, 0.676721811295
2019-04-03 21:22:28.61,173034925, -0.04, -17.52, 86.42, 592.58001709, -35.3632368, 149.1657118, 0.720355331898, 0.104029841721, -0.111245162785, 0.676676094532
2019-04-03 21:22:28.71,173134885, 0.0, -17.5, 86.41, 592.650024414, -35.3632366, 149.1657172, 0.720412552357, 0.104228541255, -0.110898256302, 0.676641583443
2019-04-03 21:22:28.81,173234845, 0.03, -17.52, 86.39, 592.710021973, -35.3632362, 149.1657225, 0.72045391798, 0.104457676411, -0.110832192004, 0.676572978497
2019-04-03 21:22:28.91,173334805, 0.03, -17.55, 86.38, 592.780029297, -35.3632361, 149.165728, 0.720483481884, 0.104667589068, -0.111047267914, 0.676473796368
2019-04-03 21:22:29.01,173434765, 0.0, -17.58, 86.37, 592.840026855, -35.3632358, 149.1657334, 0.720530509949, 0.104684561491, -0.11141090095, 0.676361262798
2019-04-03 21:22:29.11,173534725, -0.03, -17.6, 86.36, 592.909973145, -35.3632355, 149.1657387, 0.720601499081, 0.104539968073, -0.111789040267, 0.676245629787
2019-04-03 21:22:29.21,173634685, -0.05, -17.6, 86.35, 592.979980469, -35.3632352, 149.1657442, 0.72066962719, 0.104394942522, -0.111905694008, 0.676176071167
2019-04-03 21:22:29.31,173734645, -0.04, -17.58, 86.35, 593.039978027, -35.3632349, 149.1657496, 0.720726430416, 0.104318097234, -0.111705079675, 0.676160633564
2019-04-03 21:22:29.41,173834605, -0.02, -17.56, 86.34, 593.109985352, -35.3632347, 149.165755, 0.720769226551, 0.104333207011, -0.111479371786, 0.676149964333
2019-04-03 21:22:29.51,173935398, 0.01, -17.57, 86.33, 593.16998291, -35.3632343, 149.1657605, 0.720778942108, 0.104573376477, -0.11131067574, 0.676130235195
2019-04-03 21:22:29.61,174035358, 0.02, -17.58, 86.32, 593.239990234, -35.3632341, 149.1657659, 0.720802664757, 0.104737102985, -0.111340507865, 0.676074683666
2019-04-03 21:22:29.71,174135318, 0.02, -17.59, 86.31, 593.299987793, -35.3632337, 149.1657713, 0.720845937729, 0.104767307639, -0.111391164362, 0.676015555859
2019-04-03 21:22:29.81,174235278, 0.02, -17.59, 86.31, 593.369995117, -35.3632335, 149.1657768, 0.720892310143, 0.104754090309, -0.111395761371, 0.675967395306
2019-04-03 21:22:29.91,174335238, 0.01, -17.6, 86.3, 593.429992676, -35.3632333, 149.1657822, 0.720935463905, 0.104754559696, -0.111513532698, 0.675901830196
2019-04-03 21:22:30.01,174435198, 0.0, -17.61, 86.29, 593.5, -35.363233, 149.1657875, 0.72099006176, 0.104678139091, -0.111746482551, 0.675816953182
2019-04-03 21:22:30.11,174535158, -0.02, -17.62, 86.28, 593.570007324, -35.3632327, 149.1657929, 0.721041142941, 0.104630924761, -0.111915007234, 0.67574185133
2019-04-03 21:22:30.21,174635118, 0.0, -17.62, 86.28, 593.630004883, -35.3632324, 149.1657985, 0.721073269844, 0.104733340442, -0.111800216138, 0.675710737705
2019-04-03 21:22:30.31,174735078, 0.02, -17.61, 86.27, 593.700012207, -35.3632321, 149.1658038, 0.721098899841, 0.104880914092, -0.111603967845, 0.675692915916
2019-04-03 21:22:30.41,174835038, 0.06, -17.61, 86.26, 593.760009766, -35.3632318, 149.1658094, 0.721124053001, 0.105050109327, -0.111369468272, 0.675678551197
2019-04-03 21:22:30.51,174934998, 0.06, -17.6, 86.25, 593.83001709, -35.3632316, 149.1658148, 0.721165597439, 0.10507722944, -0.111299224198, 0.675641536713
2019-04-03 21:22:30.61,175034958, 0.06, -17.61, 86.24, 593.890014648, -35.3632312, 149.1658201, 0.721202254295, 0.10507953912, -0.111409075558, 0.675583899021
2019-04-03 21:22:30.71,175134918, 0.06, -17.64, 86.24, 593.960021973, -35.363231, 149.1658257, 0.721208930016, 0.105228364468, -0.111601218581, 0.675521910191
2019-04-03 21:22:30.81,175234878, 0.06, -17.67, 86.23, 594.030029297, -35.3632306, 149.1658311, 0.721197605133, 0.105462864041, -0.111749149859, 0.675473034382
2019-04-03 21:22:30.91,175334838, 0.08, -17.7, 86.23, 594.090026855, -35.3632304, 149.1658366, 0.721184492111, 0.105696856976, -0.111843250692, 0.675434827805
2019-04-03 21:22:31.01,175434798, 0.07, -17.73, 86.23, 594.159973145, -35.36323, 149.165842, 0.721185386181, 0.105824127793, -0.112042203546, 0.67538100481
2019-04-03 21:22:31.11,175534758, 0.07, -17.75, 86.22, 594.219970703, -35.3632299, 149.1658474, 0.721184074879, 0.105941206217, -0.112221039832, 0.675334393978
2019-04-03 21:22:31.21,175634718, 0.07, -17.75, 86.22, 594.289978027, -35.3632295, 149.1658529, 0.721193373203, 0.105975903571, -0.112213768065, 0.675320148468
2019-04-03 21:22:31.31,175734678, 0.07, -17.72, 86.22, 594.349975586, -35.3632293, 149.1658583, 0.721238732338, 0.105760022998, -0.11205663532, 0.675331652164
2019-04-03 21:22:31.41,175834638, 0.06, -17.69, 86.22, 594.41998291, -35.3632289, 149.1658637, 0.72129547596, 0.105500549078, -0.11194075644, 0.675330877304
2019-04-03 21:22:31.51,175934598, 0.04, -17.66, 86.21, 594.489990234, -35.3632287, 149.1658692, 0.721356749535, 0.105249941349, -0.111856974661, 0.675318419933
2019-04-03 21:22:31.61,176035391, 0.02, -17.65, 86.21, 594.549987793, -35.3632285, 149.1658747, 0.721414506435, 0.105055265129, -0.111910775304, 0.675278067589
2019-04-03 21:22:31.71,176135351, 0.01, -17.65, 86.2, 594.619995117, -35.3632282, 149.1658802, 0.721458494663, 0.105006672442, -0.111968025565, 0.67522919178
2019-04-03 21:22:31.81,176235311, 0.02, -17.66, 86.19, 594.679992676, -35.3632279, 149.1658857, 0.721497654915, 0.105046540499, -0.111953787506, 0.675183534622
2019-04-03 21:22:31.91,176335271, 0.03, -17.68, 86.18, 594.75, -35.3632276, 149.165891, 0.72152286768, 0.105228923261, -0.112004101276, 0.675119757652
2019-04-03 21:22:32.01,176435231, 0.06, -17.69, 86.17, 594.809997559, -35.3632273, 149.1658966, 0.721537530422, 0.105505645275, -0.111912347376, 0.675076186657
2019-04-03 21:22:32.11,176535191, 0.07, -17.7, 86.16, 594.880004883, -35.3632269, 149.165902, 0.721586942673, 0.105593271554, -0.111927576363, 0.675007104874
2019-04-03 21:22:32.21,176635151, 0.08, -17.71, 86.15, 594.940002441, -35.3632268, 149.1659075, 0.721639633179, 0.105662703514, -0.111989282072, 0.67492967844
2019-04-03 21:22:32.31,176735111, 0.09, -17.72, 86.14, 595.010009766, -35.3632264, 149.165913, 0.721684575081, 0.105771481991, -0.111961618066, 0.674869179726
2019-04-03 21:22:32.41,176835071, 0.12, -17.72, 86.13, 595.08001709, -35.3632262, 149.1659183, 0.721714258194, 0.10595985502, -0.111789248884, 0.674836456776
2019-04-03 21:22:32.51,176935031, 0.14, -17.71, 86.12, 595.140014648, -35.3632258, 149.1659239, 0.721753120422, 0.106020770967, -0.111629635096, 0.674811780453
2019-04-03 21:22:32.61,177034991, 0.12, -17.69, 86.12, 595.210021973, -35.3632256, 149.1659293, 0.721813440323, 0.105810269713, -0.111645013094, 0.674777746201
2019-04-03 21:22:32.71,177134951, 0.1, -17.68, 86.11, 595.270019531, -35.3632252, 149.1659349, 0.721870601177, 0.105573408306, -0.111682206392, 0.674747526646
2019-04-03 21:22:32.81,177234911, 0.08, -17.69, 86.11, 595.340026855, -35.3632251, 149.1659403, 0.721894979477, 0.105540879071, -0.111846782267, 0.674699306488
2019-04-03 21:22:32.91,177334871, 0.06, -17.69, 86.11, 595.409973145, -35.3632248, 149.1659458, 0.721931934357, 0.105439841747, -0.111975155771, 0.674654304981
2019-04-03 21:22:33.01,177434831, 0.05, -17.68, 86.1, 595.469970703, -35.3632245, 149.1659513, 0.721981525421, 0.105330362916, -0.111989505589, 0.674615859985
2019-04-03 21:22:33.11,177534791, 0.08, -17.67, 86.09, 595.539978027, -35.3632242, 149.1659568, 0.722012281418, 0.105410896242, -0.111824244261, 0.674597799778
2019-04-03 21:22:33.21,177634751, 0.11, -17.67, 86.09, 595.609985352, -35.3632239, 149.1659622, 0.722033917904, 0.105566747487, -0.111630223691, 0.67458242178
2019-04-03 21:22:33.31,177734711, 0.11, -17.67, 86.08, 595.66998291, -35.3632236, 149.1659676, 0.722072720528, 0.10558591783, -0.111598230898, 0.674543142319
2019-04-03 21:22:33.41,177834671, 0.1, -17.67, 86.07, 595.739990234, -35.3632233, 149.1659732, 0.722119808197, 0.105534307659, -0.111679755151, 0.674487352371
2019-04-03 21:22:33.51,177934631, 0.08, -17.67, 86.07, 595.799987793, -35.3632231, 149.1659786, 0.722179353237, 0.105381861329, -0.111776359379, 0.67443138361
2019-04-03 21:22:33.61,178034591, 0.08, -17.67, 86.06, 595.869995117, -35.3632227, 149.1659842, 0.722223579884, 0.105379752815, -0.111772544682, 0.674385070801
2019-04-03 21:22:33.71,178135384, 0.1, -17.69, 86.05, 595.940002441, -35.3632225, 149.1659896, 0.722239255905, 0.105559170246, -0.111815817654, 0.674333035946
2019-04-03 21:22:33.81,178235344, 0.11, -17.71, 86.04, 596.0, -35.3632221, 149.1659952, 0.722235798836, 0.105791807175, -0.111854620278, 0.67429381609
2019-04-03 21:22:33.91,178335304, 0.12, -17.72, 86.04, 596.070007324, -35.363222, 149.1660006, 0.7222417593, 0.105931609869, -0.111915320158, 0.674255371094
2019-04-03 21:22:34.01,178435264, 0.11, -17.73, 86.04, 596.130004883, -35.3632216, 149.1660061, 0.722267746925, 0.10591430217, -0.112016037107, 0.674213528633
2019-04-03 21:22:34.11,178535224, 0.11, -17.71, 86.03, 596.200012207, -35.3632214, 149.1660116, 0.722316205502, 0.105770394206, -0.111945666373, 0.674195885658
2019-04-03 21:22:34.21,178635184, 0.1, -17.67, 86.03, 596.270019531, -35.363221, 149.1660171, 0.722391605377, 0.105507962406, -0.111717805266, 0.674194037914
2019-04-03 21:22:34.31,178735144, 0.1, -17.63, 86.02, 596.33001709, -35.3632208, 149.1660226, 0.722470879555, 0.105238750577, -0.111500971019, 0.674187064171
2019-04-03 21:22:34.41,178835104, 0.09, -17.62, 86.01, 596.400024414, -35.3632206, 149.1660281, 0.722535312176, 0.105094596744, -0.111449040473, 0.674149036407
2019-04-03 21:22:34.51,178935064, 0.09, -17.62, 86.0, 596.460021973, -35.3632203, 149.1660335, 0.722574770451, 0.105113573372, -0.111497573555, 0.67409580946
2019-04-03 21:22:34.61,179035024, 0.08, -17.64, 86.0, 596.530029297, -35.36322, 149.1660389, 0.722612857819, 0.105108812451, -0.111654810607, 0.674029707909
2019-04-03 21:22:34.71,179134984, 0.06, -17.65, 85.99, 596.590026855, -35.3632197, 149.1660445, 0.722664177418, 0.10506002605, -0.111819289625, 0.673955023289
2019-04-03 21:22:34.81,179234944, 0.06, -17.66, 85.98, 596.659973145, -35.3632195, 149.1660499, 0.722713172436, 0.10506978631, -0.111922487617, 0.673883855343
2019-04-03 21:22:34.91,179334904, 0.08, -17.66, 85.97, 596.729980469, -35.3632191, 149.1660555, 0.722750902176, 0.105188034475, -0.111831761897, 0.673839986324
2019-04-03 21:22:35.01,179434864, 0.12, -17.66, 85.96, 596.789978027, -35.3632189, 149.1660609, 0.722766935825, 0.105491660535, -0.111556909978, 0.673820912838
2019-04-03 21:22:35.11,179534824, 0.19, -17.69, 85.95, 596.859985352, -35.3632185, 149.1660665, 0.722735524178, 0.106076896191, -0.11134673655, 0.673797428608
2019-04-03 21:22:35.21,179634784, 0.23, -17.73, 85.94, 596.91998291, -35.3632184, 149.1660719, 0.722711026669, 0.106566607952, -0.111436240375, 0.67373162508
