Start,TimeUS,Roll,Pitch,Yaw,Alt,Lat,Lng,Q1,Q2,Q3,Q4
2019-04-03 18:13:49.60,43815800, 0.0, 0.0, 353.0, 584.090026855, -35.363261, 149.1652299, 0.998134791851, 0.0, 0.0, -0.0610485821962
2019-04-03 18:13:49.69,43915760, 0.0, 0.0, 353.0, 584.090026855, -35.363261, 149.1652299, 0.998134791851, 0.0, 0.0, -0.0610485821962
2019-04-03 18:13:49.79,44015720, 0.0, 0.0, 353.0, 584.090026855, -35.363261, 149.1652299, 0.998134791851, 0.0, 0.0, -0.0610485821962
2019-04-03 18:13:49.89,44115680, 0.0, 0.0, 353.0, 584.090026855, -35.363261, 149.1652299, 0.998134791851, 0.0, 0.0, -0.0610485821962
2019-04-03 18:13:50.00,44216473, 0.0, 0.0, 353.0, 584.090026855, -35.363261, 149.1652299, 0.998134791851, 0.0, 0.0, -0.0610485821962
2019-04-03 18:13:50.10,44316433, 0.0, 0.0, 353.0, 584.090026855, -35.363261, 149.1652299, 0.998134791851, 0.0, 0.0, -0.0610485821962
2019-04-03 18:13:50.20,44416393, 0.0, 0.0, 353.0, 584.090026855, -35.363261, 149.1652299, 0.998134791851, 0.0, 0.0, -0.0610485821962
2019-04-03 18:13:50.30,44516353, 0.0, 0.0, 353.0, 584.090026855, -35.363261, 149.1652299, 0.998134791851, 0.0, 0.0, -0.0610485821962
2019-04-03 18:13:50.40,44616313, 0.0, 0.0, 353.0, 584.090026855, -35.363261, 149.1652299, 0.998134791851, 0.0, 0.0, -0.0610485821962
2019-04-03 18:13:50.50,44716273, 0.0, 0.0, 353.0, 584.090026855, -35.363261, 149.1652299, 0.998134791851, 0.0, 0.0, -0.0610485821962
2019-04-03 18:13:50.60,44816233, 0.0, 0.0, 353.0, 584.090026855, -35.363261, 149.1652299, 0.998134791851, 0.0, 0.0, -0.0610485821962
2019-04-03 18:13:50.70,44916193, 0.0, 0.0, 353.0, 584.090026855, -35.363261, 149.1652299, 0.998134791851, 0.0, 0.0, -0.0610485821962
2019-04-03 18:13:50.80,45016153, 0.0, 0.0, 353.0, 584.090026855, -35.363261, 149.1652299, 0.998134791851, 0.0, 0.0, -0.0610485821962
2019-04-03 18:13:50.90,45116113, 0.0, 0.0, 353.0, 584.090026855, -35.363261, 149.1652299, 0.998134791851, 0.0, 0.0, -0.0610485821962
2019-04-03 18:13:51.00,45216073, 0.0, 0.0, 353.0, 584.090026855, -35.363261, 149.1652299, 0.998134791851, 0.0, 0.0, -0.0610485821962
2019-04-03 18:13:51.10,45316033, 0.0, 0.0, 353.0, 584.090026855, -35.363261, 149.1652299, 0.998134791851, 0.0, 0.0, -0.0610485821962
2019-04-03 18:13:51.20,45415993, 0.0, 0.0, 353.0, 584.090026855, -35.363261, 149.1652299, 0.998134791851, 0.0, 0.0, -0.0610485821962
2019-04-03 18:13:51.30,45515953, 0.0, 0.0, 353.0, 584.090026855, -35.363261, 149.1652299, 0.998134791851, 0.0, 0.0, -0.0610485821962
2019-04-03 18:13:51.40,45615913, 0.0, 0.0, 353.0, 584.090026855, -35.363261, 149.1652299, 0.998134791851, 0.0, 0.0, -0.0610485821962
2019-04-03 18:13:51.50,45715873, 0.0, 0.0, 353.0, 584.090026855, -35.363261, 149.1652299, 0.998134791851, 0.0, 0.0, -0.0610485821962
2019-04-03 18:13:51.60,45815833, 0.0, 0.0, 353.0, 584.090026855, -35.363261, 149.1652299, 0.998134791851, 0.0, 0.0, -0.0610485821962
2019-04-03 18:13:51.69,45915793, 0.0, 0.0, 353.0, 584.090026855, -35.363261, 149.1652299, 0.998134791851, 0.0, 0.0, -0.0610485821962
2019-04-03 18:13:51.79,46015753, 0.0, 0.0, 353.0, 584.090026855, -35.363261, 149.1652299, 0.998134791851, 0.0, 0.0, -0.0610485821962
2019-04-03 18:13:51.89,46115713, 0.0, 0.0, 353.0, 584.090026855, -35.363261, 149.1652299, 0.998134791851, 0.0, 0.0, -0.0610485821962
2019-04-03 18:13:51.99,46215673, 0.0, 0.0, 353.0, 584.090026855, -35.363261, 149.1652299, 0.998134791851, 0.0, 0.0, -0.0610485821962
2019-04-03 18:13:52.10,46316466, 0.0, 0.0, 353.0, 584.090026855, -35.363261, 149.1652299, 0.998134791851, 0.0, 0.0, -0.0610485821962
2019-04-03 18:13:52.20,46416426, 0.0, 0.0, 353.0, 584.090026855, -35.363261, 149.1652299, 0.998134791851, 0.0, 0.0, -0.0610485821962
2019-04-03 18:13:52.30,46516386, 0.0, 0.0, 353.0, 584.090026855, -35.363261, 149.1652299, 0.998134791851, 0.0, 0.0, -0.0610485821962
2019-04-03 18:13:52.40,46616346, 0.0, 0.0, 353.0, 584.090026855, -35.363261, 149.1652299, 0.998134791851, 0.0, 0.0, -0.0610485821962
2019-04-03 18:13:52.50,46716306, 0.0, 0.0, 353.0, 584.090026855, -35.363261, 149.1652299, 0.998134791851, 0.0, 0.0, -0.0610485821962
2019-04-03 18:13:52.60,46816266, 0.0, 0.0, 353.0, 584.090026855, -35.363261, 149.1652299, 0.998134791851, 0.0, 0.0, -0.0610485821962
2019-04-03 18:13:52.70,46916226, 0.0, 0.0, 353.0, 584.090026855, -35.363261, 149.1652299, 0.998134791851, 0.0, 0.0, -0.0610485821962
2019-04-03 18:13:52.80,47016186, 0.0, 0.0, 353.0, 584.090026855, -35.363261, 149.1652299, 0.998134791851, 0.0, 0.0, -0.0610485821962
2019-04-03 18:13:52.90,47116146, 0.0, 0.0, 353.0, 584.090026855, -35.363261, 149.1652299, 0.998134791851, 0.0, 0.0, -0.0610485821962
2019-04-03 18:13:53.00,47216106, 0.0, 0.0, 353.0, 584.090026855, -35.363261, 149.1652299, 0.998134791851, 0.0, 0.0, -0.0610485821962
2019-04-03 18:13:53.10,47316066, 0.0, 0.0, 353.0, 584.090026855, -35.363261, 149.1652299, 0.998134791851, 0.0, 0.0, -0.0610485821962
2019-04-03 18:13:53.20,47416026, 0.0, 0.0, 353.0, 584.090026855, -35.363261, 149.1652299, 0.998134791851, 0.0, 0.0, -0.0610485821962
2019-04-03 18:13:53.30,47515986, 0.0, 0.0, 353.0, 584.090026855, -35.363261, 149.1652299, 0.998134791851, 0.0, 0.0, -0.061048604548
2019-04-03 18:13:53.40,47615946, 0.0, 0.0, 353.0, 584.090026855, -35.363261, 149.1652299, 0.998134791851, 0.0, 0.0, -0.0610486492515
2019-04-03 18:13:53.50,47715906, 0.0, 0.0, 353.0, 584.090026855, -35.363261, 149.1652299, 0.998134791851, 0.0, 0.0, -0.0610486753285
2019-04-03 18:13:53.60,47815866, 0.0, 0.0, 353.0, 584.090026855, -35.363261, 149.1652299, 0.998134791851, 0.0, 0.0, -0.0610486641526
2019-04-03 18:13:53.70,47915826, 0.0, 0.0, 353.0, 584.090026855, -35.363261, 149.1652299, 0.998134791851, 0.0, 0.0, -0.0610486418009
2019-04-03 18:13:53.79,48015786, 0.0, 0.0, 353.0, 584.090026855, -35.363261, 149.1652299, 0.998134791851, 0.0, 0.0, -0.0610486753285
2019-04-03 18:13:53.89,48115746, 0.0, 0.0, 353.0, 584.090026855, -35.363261, 149.1652299, 0.998134791851, 0.0, 0.0, -0.0610486753285
2019-04-03 18:13:53.99,48215706, 0.0, 0.0, 353.0, 584.090026855, -35.363261, 149.1652299, 0.998134791851, 0.0, 0.0, -0.0610486753285
2019-04-03 18:13:54.09,48315666, 0.0, 0.0, 353.0, 584.099975586, -35.363261, 149.1652299, 0.998134791851, 0.0, 0.0, -0.0610486753285
2019-04-03 18:13:54.20,48416459, 0.0, 0.0, 353.0, 584.099975586, -35.363261, 149.1652299, 0.998134791851, 0.0, 0.0, -0.0610486753285
2019-04-03 18:13:54.30,48516419, 0.0, 0.0, 353.0, 584.109985352, -35.363261, 149.1652299, 0.998134791851, 0.0, 0.0, -0.0610486753285
2019-04-03 18:13:54.40,48616379, 0.0, 0.0, 353.0, 584.130004883, -35.363261, 149.1652299, 0.998134791851, 0.0, 0.0, -0.0610486641526
2019-04-03 18:13:54.50,48716339, 0.0, 0.0, 353.0, 584.159973145, -35.363261, 149.1652299, 0.998134791851, 0.0, 0.0, -0.0610486231744
2019-04-03 18:13:54.60,48816299, 0.0, 0.0, 353.0, 584.200012207, -35.363261, 149.1652299, 0.998134791851, 0.0, 0.0, -0.0610486753285
2019-04-03 18:13:54.70,48916259, 0.0, 0.0, 352.99, 584.239990234, -35.363261, 149.1652299, 0.998134732246, -1.50286887219e-05, -2.26457923418e-05, -0.0610499940813
2019-04-03 18:13:54.80,49016219, -0.01, 0.0, 352.99, 584.33001709, -35.363261, 149.1652299, 0.998134255409, -0.000148488907143, -3.36403027177e-05, -0.0610574185848
2019-04-03 18:13:54.90,49116179, -0.05, 0.01, 352.99, 584.469970703, -35.363261, 149.1652299, 0.998133480549, -0.000479059846839, 0.000167577483808, -0.0610678046942
2019-04-03 18:13:55.00,49216139, -0.1, 0.05, 352.99, 584.630004883, -35.363261, 149.1652299, 0.998132288456, -0.000930438924115, 0.000506145239342, -0.0610809028149
2019-04-03 18:13:55.10,49316099, -0.12, 0.07, 352.99, 584.780029297, -35.363261, 149.1652299, 0.998130738735, -0.00108665390871, 0.000737606722396, -0.0611010268331
2019-04-03 18:13:55.20,49416059, -0.11, 0.08, 352.99, 584.929992676, -35.363261, 149.1652299, 0.998129606247, -0.000969686370809, 0.000759567774367, -0.0611214004457
2019-04-03 18:13:55.30,49516019, -0.08, 0.06, 352.98, 585.090026855, -35.363261, 149.1652299, 0.998128771782, -0.000695232651196, 0.000603545107879, -0.0611404292285
2019-04-03 18:13:55.40,49615979, -0.05, 0.06, 352.98, 585.239990234, -35.363261, 149.1652299, 0.998127996922, -0.000413838395616, 0.000565847381949, -0.0611559264362
2019-04-03 18:13:55.50,49715939, -0.01, 0.07, 352.98, 585.409973145, -35.363261, 149.1652299, 0.998127102852, -4.93218758493e-05, 0.000688328756951, -0.0611705780029
2019-04-03 18:13:55.60,49815899, 0.03, 0.08, 352.98, 585.58001709, -35.363261, 149.1652299, 0.998126447201, 0.000377915159333, 0.000761049974244, -0.0611795932055
2019-04-03 18:13:55.70,49915859, 0.06, 0.06, 352.98, 585.75, -35.363261, 149.1652299, 0.998126268387, 0.000640348007437, 0.000543265778106, -0.061182167381
2019-04-03 18:13:55.80,50015819, 0.05, 0.02, 352.98, 585.929992676, -35.363261, 149.1652299, 0.998126506805, 0.000523247756064, 0.000162354001077, -0.0611822232604
2019-04-03 18:13:55.89,50115779, 0.01, 0.0, 352.98, 586.119995117, -35.363261, 149.1652299, 0.998126387596, 0.000146251390106, -5.43424503121e-05, -0.0611861534417
2019-04-03 18:13:55.99,50215739, -0.03, -0.01, 352.98, 586.309997559, -35.363261, 149.1652299, 0.998126268387, -0.000299756648019, -0.000131982640596, -0.0611876808107
2019-04-03 18:13:56.09,50315699, -0.06, 0.0, 352.98, 586.5, -35.363261, 149.1652299, 0.998125970364, -0.00054127041949, 1.74183860508e-05, -0.0611910037696
2019-04-03 18:13:56.19,50415659, -0.06, 0.0, 352.98, 586.690002441, -35.363261, 149.1652299, 0.998125731945, -0.000582882261369, 7.97414322733e-05, -0.0611941963434
2019-04-03 18:13:56.30,50516452, -0.06, 0.0, 352.98, 586.890014648, -35.363261, 149.1652299, 0.99812567234, -0.000525991374161, 3.46278247889e-05, -0.0611962229013
2019-04-03 18:13:56.40,50616412, -0.06, -0.01, 352.98, 587.090026855, -35.363261, 149.1652299, 0.998125255108, -0.000560431857593, -5.49212309124e-05, -0.0612023100257
2019-04-03 18:13:56.50,50716372, -0.06, -0.01, 352.98, 587.289978027, -35.363261, 149.1652299, 0.998124539852, -0.000599052698817, -0.000134153757244, -0.0612124092877
2019-04-03 18:13:56.60,50816332, -0.05, -0.02, 352.98, 587.5, -35.363261, 149.1652299, 0.998124063015, -0.000517502310686, -0.000171190011315, -0.0612209029496
2019-04-03 18:13:56.70,50916292, -0.05, -0.01, 352.97, 587.700012207, -35.363261, 149.1652299, 0.998123943806, -0.000485037424369, -0.000111972440209, -0.0612233877182
2019-04-03 18:13:56.80,51016252, -0.06, -0.02, 352.98, 587.909973145, -35.363261, 149.1652299, 0.99812400341, -0.000594802259002, -0.000140386400744, -0.0612219795585
2019-04-03 18:13:56.90,51116212, -0.07, -0.04, 352.97, 588.119995117, -35.363261, 149.1652299, 0.998123466969, -0.000655466283206, -0.000345393898897, -0.0612289570272
2019-04-03 18:13:57.00,51216172, -0.07, -0.06, 352.97, 588.33001709, -35.363261, 149.1652299, 0.998122513294, -0.000654594332445, -0.000500104913954, -0.0612439885736
2019-04-03 18:13:57.10,51316132, -0.06, -0.06, 352.97, 588.539978027, -35.363261, 149.1652299, 0.998121619225, -0.000560789252631, -0.000525686773472, -0.0612590201199
2019-04-03 18:13:57.20,51416092, -0.06, -0.06, 352.97, 588.75, -35.363261, 149.1652299, 0.998120844364, -0.000595360121224, -0.00053797592409, -0.0612711235881
2019-04-03 18:13:57.30,51516052, -0.08, -0.06, 352.97, 588.969970703, -35.363261, 149.1652299, 0.998119950294, -0.000791791651864, -0.000486222299514, -0.0612840652466
2019-04-03 18:13:57.40,51616012, -0.12, -0.06, 352.97, 589.179992676, -35.363261, 149.1652299, 0.998119056225, -0.00113527907524, -0.000465268094558, -0.0612930133939
2019-04-03 18:13:57.50,51715972, -0.15, -0.06, 352.97, 589.400024414, -35.363261, 149.1652298, 0.998118340969, -0.00139487185515, -0.00045699760085, -0.0612998045981
2019-04-03 18:13:57.60,51815932, -0.16, -0.05, 352.97, 589.619995117, -35.363261, 149.1652298, 0.998117744923, -0.00149908510502, -0.000405962084187, -0.0613069608808
2019-04-03 18:13:57.70,51915892, -0.15, -0.03, 352.96, 589.83001709, -35.363261, 149.1652298, 0.99811732769, -0.00140918232501, -0.000260878994595, -0.0613168776035
2019-04-03 18:13:57.80,52015852, -0.13, -0.02, 352.96, 590.049987793, -35.363261, 149.1652298, 0.998117148876, -0.00121901975945, -0.000112257577712, -0.0613246001303
2019-04-03 18:13:57.90,52115812, -0.11, -0.01, 352.96, 590.270019531, -35.363261, 149.1652298, 0.998116910458, -0.00101359991822, -6.503106124e-05, -0.0613323897123
2019-04-03 18:13:57.99,52215772, -0.1, -0.02, 352.96, 590.5, -35.3632609, 149.1652298, 0.998116374016, -0.000909768219572, -0.000177314970642, -0.0613416545093
2019-04-03 18:13:58.09,52315732, -0.08, -0.05, 352.96, 590.719970703, -35.3632609, 149.1652298, 0.998115479946, -0.0008102079737, -0.000474077794934, -0.0613566450775
2019-04-03 18:13:58.19,52415692, -0.07, -0.09, 352.96, 590.940002441, -35.3632609, 149.1652298, 0.998114228249, -0.000693651847541, -0.000828182965051, -0.0613743886352
2019-04-03 18:13:58.30,52516485, -0.06, -0.12, 352.96, 591.159973145, -35.3632609, 149.1652298, 0.998112976551, -0.000620129751042, -0.00106088002212, -0.0613924860954
2019-04-03 18:13:58.40,52616445, -0.07, -0.14, 352.95, 591.390014648, -35.3632609, 149.1652298, 0.99811142683, -0.000766317592934, -0.00124609575141, -0.061412025243
2019-04-03 18:13:58.50,52716405, -0.05, -0.14, 352.95, 591.609985352, -35.3632609, 149.1652298, 0.998110711575, -0.00059562647948, -0.00121946807485, -0.0614265687764
2019-04-03 18:13:58.60,52816365, -0.01, -0.11, 352.95, 591.840026855, -35.3632609, 149.1652298, 0.99811065197, -0.000220575806452, -0.000964042730629, -0.0614342354238
2019-04-03 18:13:58.70,52916325, 0.02, -0.07, 352.95, 592.059997559, -35.3632609, 149.1652297, 0.998110532761, 0.000135554626468, -0.000672524736729, -0.0614406056702
2019-04-03 18:13:58.80,53016285, 0.04, -0.04, 352.95, 592.289978027, -35.3632609, 149.1652297, 0.99810987711, 0.000327702320646, -0.00037188117858, -0.0614536032081
2019-04-03 18:13:58.90,53116245, 0.05, -0.01, 352.95, 592.520019531, -35.3632609, 149.1652297, 0.998108804226, 0.000430740095908, -0.000155428351718, -0.0614703893661
2019-04-03 18:13:59.00,53216205, 0.04, -0.01, 352.95, 592.739990234, -35.3632608, 149.1652297, 0.998108327389, 0.000392343703425, -0.000180548318895, -0.061478883028
2019-04-03 18:13:59.10,53316165, 0.0, -0.03, 352.95, 592.969970703, -35.3632608, 149.1652296, 0.998108446598, 6.49633439025e-05, -0.000286472088192, -0.0614769011736
2019-04-03 18:13:59.20,53416125, -0.02, -0.03, 352.95, 593.200012207, -35.3632608, 149.1652296, 0.998108327389, -0.000206197975785, -0.000283917237539, -0.0614784248173
2019-04-03 18:13:59.30,53516085, -0.04, -0.02, 352.94, 593.429992676, -35.3632608, 149.1652296, 0.998107373714, -0.000365373649402, -0.000185930519365, -0.0614937767386
2019-04-03 18:13:59.40,53616045, -0.04, 0.0, 352.94, 593.659973145, -35.3632608, 149.1652296, 0.998106181622, -0.00039167815703, 1.0190005014e-05, -0.0615133978426
2019-04-03 18:13:59.50,53716005, -0.01, 0.03, 352.94, 593.880004883, -35.3632608, 149.1652296, 0.998104989529, -0.000134903864819, 0.000281466258457, -0.0615339502692
2019-04-03 18:13:59.60,53815965, 0.02, 0.06, 352.94, 594.109985352, -35.3632608, 149.1652296, 0.998103618622, 0.000250823941315, 0.000522441696376, -0.0615535266697
2019-04-03 18:13:59.70,53915925, 0.05, 0.05, 352.93, 594.340026855, -35.3632608, 149.1652294, 0.998102009296, 0.0005124550662, 0.000489317520987, -0.0615781508386
2019-04-03 18:13:59.80,54015885, 0.05, 0.04, 352.93, 594.570007324, -35.3632608, 149.1652294, 0.99810063839, 0.000471092294902, 0.000328905880451, -0.0616020336747
2019-04-03 18:13:59.90,54115845, 0.03, 0.0, 352.93, 594.799987793, -35.3632608, 149.1652294, 0.998099505901, 0.000282279739622, 3.45290609403e-05, -0.0616226680577
2019-04-03 18:14:00.00,54215805, 0.01, -0.02, 352.93, 595.030029297, -35.3632608, 149.1652294, 0.998098254204, 0.000143231751281, -0.000247652264079, -0.0616431087255
2019-04-03 18:14:00.09,54315765, 0.01, -0.03, 352.92, 595.270019531, -35.3632608, 149.1652294, 0.998096942902, 0.000148610139149, -0.000325423054164, -0.0616633854806
2019-04-03 18:14:00.19,54415725, 0.02, -0.04, 352.92, 595.5, -35.3632608, 149.1652294, 0.998095750809, 0.00015633367002, -0.000387064908864, -0.0616828799248
2019-04-03 18:14:00.29,54515685, 0.03, -0.05, 352.92, 595.729980469, -35.3632607, 149.1652294, 0.998094677925, 0.000236144958762, -0.000456366775325, -0.0616994164884
2019-04-03 18:14:00.40,54616478, 0.03, -0.05, 352.92, 595.960021973, -35.3632607, 149.1652294, 0.998093664646, 0.000296845042612, -0.000490125268698, -0.0617148391902
2019-04-03 18:14:00.50,54716438, 0.03, -0.06, 352.92, 596.190002441, -35.3632607, 149.1652294, 0.998092770576, 0.000232475125813, -0.000541360524949, -0.0617287345231
2019-04-03 18:14:00.60,54816398, 0.02, -0.07, 352.92, 596.429992676, -35.3632607, 149.1652294, 0.998091757298, 0.000217850043555, -0.000669920176733, -0.06174435094
2019-04-03 18:14:00.70,54916358, 0.05, -0.08, 352.91, 596.659973145, -35.3632607, 149.1652294, 0.998090624809, 0.000404062913731, -0.00075113895582, -0.061760161072
2019-04-03 18:14:00.80,55016318, 0.05, -0.06, 352.91, 596.890014648, -35.3632607, 149.1652294, 0.998089909554, 0.000471594190458, -0.000584383495152, -0.0617738291621
2019-04-03 18:14:00.90,55116278, 0.05, -0.03, 352.91, 597.119995117, -35.3632607, 149.1652294, 0.99808883667, 0.000428368861321, -0.000369626039173, -0.061792794615
2019-04-03 18:14:01.00,55216238, 0.01, -0.02, 352.91, 597.359985352, -35.3632607, 149.1652294, 0.998087704182, 0.00014023577387, -0.000232445148868, -0.0618127658963
2019-04-03 18:14:01.10,55316198, 0.0, 0.0, 352.91, 597.590026855, -35.3632607, 149.1652294, 0.998086929321, -6.82711906848e-05, 3.68855739907e-06, -0.0618262737989
2019-04-03 18:14:01.20,55416158, -0.03, 0.02, 352.91, 597.820007324, -35.3632607, 149.1652294, 0.998086631298, -0.000250367942499, 0.000260477158008, -0.0618298016489
2019-04-03 18:14:01.30,55516118, -0.04, 0.04, 352.9, 598.059997559, -35.3632607, 149.1652294, 0.99808627367, -0.000389355263906, 0.000430228421465, -0.0618341453373
2019-04-03 18:14:01.40,55616078, -0.05, 0.05, 352.9, 598.289978027, -35.3632607, 149.1652294, 0.998085856438, -0.000442062271759, 0.000531748170033, -0.0618399493396
2019-04-03 18:14:01.50,55716038, -0.02, 0.04, 352.9, 598.520019531, -35.3632607, 149.1652294, 0.998085618019, -0.000150812673382, 0.000426328129834, -0.0618458613753
2019-04-03 18:14:01.60,55815998, 0.02, 0.03, 352.9, 598.760009766, -35.3632607, 149.1652294, 0.998085319996, 0.000192518229596, 0.000266764720436, -0.0618512779474
2019-04-03 18:14:01.70,55915958, 0.03, 0.02, 352.9, 598.989990234, -35.3632607, 149.1652294, 0.998084723949, 0.000342531682691, 0.000208983692573, -0.0618610195816
2019-04-03 18:14:01.80,56015918, 0.03, 0.03, 352.9, 599.229980469, -35.3632607, 149.1652294, 0.998084068298, 0.000293197866995, 0.000278643710772, -0.0618711747229
2019-04-03 18:14:01.90,56115878, 0.01, 0.03, 352.9, 599.460021973, -35.3632607, 149.1652294, 0.998083293438, 0.000146083693835, 0.00029706035275, -0.0618839934468
2019-04-03 18:14:02.00,56215838, 0.0, 0.01, 352.9, 599.690002441, -35.3632607, 149.1652294, 0.998082220554, 8.31453580759e-05, 0.000137614872074, -0.061901871115
2019-04-03 18:14:02.09,56315798, 0.0, -0.01, 352.9, 599.91998291, -35.3632607, 149.1652294, 0.998081207275, -2.51626934187e-05, -0.000101298326626, -0.0619188807905
2019-04-03 18:14:02.19,56415758, -0.01, -0.03, 352.89, 600.140014648, -35.3632607, 149.1652294, 0.998080074787, -0.000164998797118, -0.000255423656199, -0.0619366653264
2019-04-03 18:14:02.29,56515718, -0.01, -0.04, 352.89, 600.369995117, -35.3632607, 149.1652294, 0.998079001904, -0.000136140442919, -0.000386724073905, -0.0619535259902
2019-04-03 18:14:02.39,56615678, 0.0, -0.04, 352.89, 600.58001709, -35.3632607, 149.1652294, 0.998078346252, 5.51512639504e-05, -0.000435925001511, -0.061963301152
2019-04-03 18:14:02.50,56716471, 0.04, -0.05, 352.89, 600.789978027, -35.3632607, 149.1652294, 0.998077809811, 0.000327004032442, -0.000462323747342, -0.0619705207646
2019-04-03 18:14:02.60,56816431, 0.06, -0.06, 352.89, 601.0, -35.3632607, 149.1652294, 0.998077213764, 0.000552338024136, -0.000559440813959, -0.061977673322
2019-04-03 18:14:02.70,56916391, 0.07, -0.04, 352.89, 601.190002441, -35.3632607, 149.1652294, 0.998076915741, 0.000636765093077, -0.000437490059994, -0.061982344836
2019-04-03 18:14:02.80,57016351, 0.07, 0.0, 352.89, 601.380004883, -35.3632607, 149.1652294, 0.998076736927, 0.000613223994151, -0.000109256223368, -0.0619875043631
2019-04-03 18:14:02.90,57116311, 0.07, 0.02, 352.89, 601.559997559, -35.3632607, 149.1652294, 0.998076081276, 0.00064179248875, 0.000158999551786, -0.0619973167777
2019-04-03 18:14:03.00,57216271, 0.06, 0.04, 352.88, 601.729980469, -35.3632607, 149.1652296, 0.998075246811, 0.000595026940573, 0.000318180158501, -0.0620108246803
2019-04-03 18:14:03.10,57316231, 0.05, 0.05, 352.88, 601.880004883, -35.3632607, 149.1652296, 0.998074054718, 0.000486583681777, 0.000483681913465, -0.0620298050344
2019-04-03 18:14:03.20,57416191, 0.02, 0.06, 352.88, 602.020019531, -35.3632607, 149.1652296, 0.998072683811, 0.000242783746216, 0.000550809898414, -0.0620534345508
2019-04-03 18:14:03.30,57516151, 0.0, 0.06, 352.88, 602.150024414, -35.3632605, 149.1652296, 0.998071193695, -3.25871988025e-05, 0.000551316596102, -0.0620772354305
2019-04-03 18:14:03.40,57616111, -0.03, 0.05, 352.87, 602.270019531, -35.3632605, 149.1652296, 0.998069763184, -0.000289616291411, 0.000533022917807, -0.0621001906693
2019-04-03 18:14:03.50,57716071, -0.06, 0.05, 352.87, 602.380004883, -35.3632605, 149.1652296, 0.998068332672, -0.00051337928744, 0.000510538753588, -0.0621214024723
2019-04-03 18:14:03.60,57816031, -0.07, 0.05, 352.87, 602.469970703, -35.3632605, 149.1652296, 0.998067378998, -0.000585706729908, 0.000509883684572, -0.062136746943
2019-04-03 18:14:03.70,57915991, -0.06, 0.04, 352.87, 602.559997559, -35.3632605, 149.1652296, 0.998066723347, -0.000539672211744, 0.000405309867347, -0.0621485486627
2019-04-03 18:14:03.80,58015951, -0.04, 0.02, 352.87, 602.630004883, -35.3632605, 149.1652297, 0.9980661273, -0.000421116943471, 0.000234297491261, -0.0621596239507
2019-04-03 18:14:03.90,58115911, -0.04, 0.0, 352.87, 602.690002441, -35.3632605, 149.1652297, 0.99806535244, -0.000402020872571, 5.02623479406e-05, -0.0621726661921
2019-04-03 18:14:04.00,58215871, -0.06, 0.0, 352.86, 602.739990234, -35.3632605, 149.1652297, 0.998064279556, -0.000522374466527, 4.7573728807e-05, -0.0621894858778
2019-04-03 18:14:04.10,58315831, -0.05, 0.02, 352.86, 602.789978027, -35.3632605, 149.1652297, 0.998063445091, -0.000435923109762, 0.000263067369815, -0.0622028671205
2019-04-03 18:14:04.19,58415791, -0.05, 0.06, 352.86, 602.820007324, -35.3632605, 149.1652297, 0.998062491417, -0.00046480805031, 0.000588141323533, -0.0622153058648
2019-04-03 18:14:04.29,58515751, -0.06, 0.09, 352.86, 602.859985352, -35.3632605, 149.1652297, 0.998061418533, -0.000479592505144, 0.000854116049595, -0.062229309231
2019-04-03 18:14:04.39,58615711, -0.04, 0.11, 352.86, 602.880004883, -35.3632605, 149.1652297, 0.998059988022, -0.000296361686196, 0.00104391644709, -0.0622503235936
2019-04-03 18:14:04.49,58715671, -0.01, 0.14, 352.85, 602.909973145, -35.3632605, 149.1652297, 0.998058378696, -8.76816920936e-05, 0.00125207728706, -0.0622727461159
2019-04-03 18:14:04.60,58816464, -0.01, 0.15, 352.85, 602.929992676, -35.3632605, 149.1652297, 0.99805700779, -6.10854331171e-05, 0.00133678491693, -0.0622929483652
2019-04-03 18:14:04.70,58916424, -0.03, 0.13, 352.85, 602.940002441, -35.3632605, 149.1652297, 0.998056054115, -0.000235975880059, 0.00116241001524, -0.0623114481568
2019-04-03 18:14:04.80,59016384, -0.06, 0.08, 352.85, 602.960021973, -35.3632605, 149.1652297, 0.998054802418, -0.00048393450561, 0.000796923064627, -0.0623357780278
2019-04-03 18:14:04.90,59116344, -0.08, 0.05, 352.84, 602.969970703, -35.3632607, 149.1652297, 0.99805355072, -0.000731803651433, 0.000519825494848, -0.0623562671244
2019-04-03 18:14:05.00,59216304, -0.1, 0.03, 352.84, 602.979980469, -35.3632607, 149.1652297, 0.998052954674, -0.000868664530572, 0.000327234971337, -0.0623659491539
2019-04-03 18:14:05.10,59316264, -0.11, 0.01, 352.84, 602.989990234, -35.3632607, 149.1652297, 0.998052656651, -0.000960665696766, 0.000227270211326, -0.0623692236841
2019-04-03 18:14:05.20,59416224, -0.11, 0.02, 352.84, 603.0, -35.3632607, 149.1652297, 0.998053014278, -0.000962800870184, 0.000278209772659, -0.0623631365597
2019-04-03 18:14:05.30,59516184, -0.09, 0.03, 352.85, 603.010009766, -35.3632607, 149.1652297, 0.998053848743, -0.000834047386888, 0.000381592282793, -0.0623517334461
2019-04-03 18:14:05.40,59616144, -0.07, 0.04, 352.85, 603.010009766, -35.3632607, 149.1652296, 0.998054683208, -0.000596132595092, 0.000470202474389, -0.0623395852745
2019-04-03 18:14:05.50,59716104, -0.05, 0.05, 352.85, 603.020019531, -35.3632607, 149.1652296, 0.99805533886, -0.000425450416515, 0.000497749249917, -0.0623307302594
2019-04-03 18:14:05.60,59816064, -0.04, 0.04, 352.85, 603.020019531, -35.3632607, 149.1652296, 0.998055398464, -0.000350782996975, 0.000415143265855, -0.0623310171068
2019-04-03 18:14:05.70,59916024, -0.03, 0.02, 352.85, 603.030029297, -35.3632607, 149.1652296, 0.998054981232, -0.000321864150465, 0.000257476349361, -0.0623378865421
2019-04-03 18:14:05.80,60015984, -0.04, 0.0, 352.85, 603.030029297, -35.3632607, 149.1652296, 0.998054027557, -0.000374995492166, 4.21576187364e-05, -0.0623541511595
2019-04-03 18:14:05.90,60115944, -0.06, -0.01, 352.84, 603.030029297, -35.3632607, 149.1652296, 0.998052239418, -0.000561769818887, -0.000121573146316, -0.0623815730214
2019-04-03 18:14:06.00,60215904, -0.09, -0.01, 352.84, 603.030029297, -35.3632607, 149.1652296, 0.998050034046, -0.000800761859864, -0.000110670916911, -0.0624133311212
2019-04-03 18:14:06.10,60315864, -0.11, -0.01, 352.83, 603.039978027, -35.3632608, 149.1652296, 0.998047351837, -0.00102755567059, -3.94685375795e-05, -0.0624539814889
2019-04-03 18:14:06.20,60415824, -0.12, -0.02, 352.83, 603.039978027, -35.3632608, 149.1652296, 0.998044908047, -0.00112908380106, -0.000117062467325, -0.0624910593033
2019-04-03 18:14:06.29,60515784, -0.11, -0.03, 352.82, 603.039978027, -35.3632608, 149.1652296, 0.998042047024, -0.000999500509351, -0.000210773214349, -0.0625378936529
2019-04-03 18:14:06.39,60615744, -0.08, -0.04, 352.82, 603.039978027, -35.3632608, 149.1652296, 0.998039960861, -0.000782647868618, -0.000325274188071, -0.0625739842653
2019-04-03 18:14:06.49,60715704, -0.04, -0.06, 352.82, 603.039978027, -35.3632608, 149.1652296, 0.998038828373, -0.000460870738607, -0.000498046400025, -0.0625948384404
2019-04-03 18:14:06.59,60815664, -0.02, -0.07, 352.82, 603.039978027, -35.3632608, 149.1652296, 0.998038113117, -0.000217500943108, -0.000666794891004, -0.0626054108143
2019-04-03 18:14:06.70,60916457, -0.01, -0.07, 352.82, 603.039978027, -35.3632608, 149.1652294, 0.998038113117, -0.000153077256982, -0.000608749571256, -0.06260612607
2019-04-03 18:14:06.80,61016417, -0.03, -0.05, 352.82, 603.039978027, -35.3632608, 149.1652294, 0.998038470745, -0.000361761427484, -0.000431916094385, -0.0626018941402
2019-04-03 18:14:06.90,61116377, -0.04, -0.02, 352.82, 603.039978027, -35.3632608, 149.1652294, 0.998039126396, -0.000399436801672, -0.00017763908545, -0.0625916048884
2019-04-03 18:14:07.00,61216337, -0.04, 0.0, 352.82, 603.039978027, -35.3632608, 149.1652294, 0.998039960861, -0.000406785053201, 8.05764284451e-06, -0.0625785216689
2019-04-03 18:14:07.10,61316297, -0.02, 0.0, 352.82, 603.039978027, -35.3632608, 149.1652294, 0.99804008007, -0.000228022880037, 1.26621998788e-05, -0.0625776648521
2019-04-03 18:14:07.20,61416257, 0.0, -0.03, 352.82, 603.039978027, -35.3632608, 149.1652294, 0.998039662838, 2.88059090963e-05, -0.000285882095341, -0.0625840723515
2019-04-03 18:14:07.30,61516217, 0.03, -0.05, 352.82, 603.039978027, -35.3632608, 149.1652294, 0.998038768768, 0.000263873400399, -0.000493068015203, -0.0625964328647
2019-04-03 18:14:07.40,61616177, 0.05, -0.05, 352.82, 603.039978027, -35.3632608, 149.1652294, 0.998038053513, 0.000430529966252, -0.000476705929032, -0.0626072660089
2019-04-03 18:14:07.50,61716137, 0.09, -0.07, 352.81, 603.039978027, -35.3632608, 149.1652293, 0.998036682606, 0.000806411146186, -0.000712387845851, -0.0626232922077
2019-04-03 18:14:07.60,61816097, 0.22, -0.19, 352.81, 603.039978027, -35.3632608, 149.1652293, 0.998033165932, 0.00182710273657, -0.00184518564492, -0.0626344680786
2019-04-03 18:14:07.70,61916057, 0.53, -0.47, 352.81, 603.039978027, -35.3632608, 149.1652293, 0.998016774654, 0.00435927417129, -0.00441421754658, -0.0626421794295
2019-04-03 18:14:07.80,62016017, 1.02, -0.93, 352.8, 603.039978027, -35.3632608, 149.1652293, 0.997963309288, 0.00838577840477, -0.00866665411741, -0.0626404881477
2019-04-03 18:14:07.90,62115977, 1.65, -1.52, 352.79, 603.039978027, -35.3632607, 149.1652294, 0.997846007347, 0.0135518005118, -0.0141733316705, -0.0626006796956
2019-04-03 18:14:08.00,62215937, 2.37, -2.2, 352.78, 603.039978027, -35.3632607, 149.1652294, 0.997641324997, 0.0195067934692, -0.0205483790487, -0.0625222399831
2019-04-03 18:14:08.10,62315897, 3.09, -2.87, 352.76, 603.039978027, -35.3632605, 149.1652296, 0.997371733189, 0.0253816954792, -0.0267361663282, -0.0623749680817
2019-04-03 18:14:08.20,62415857, 3.71, -3.43, 352.75, 603.039978027, -35.3632604, 149.1652297, 0.997092306614, 0.0304026976228, -0.031927768141, -0.0621556602418
2019-04-03 18:14:08.30,62515817, 4.17, -3.85, 352.75, 603.039978027, -35.3632603, 149.1652298, 0.996852219105, 0.0342345461249, -0.0358393713832, -0.0618802756071
2019-04-03 18:14:08.39,62615777, 4.5, -4.17, 352.76, 603.039978027, -35.3632599, 149.1652299, 0.996662318707, 0.0369136892259, -0.0388470925391, -0.0615840367973
2019-04-03 18:14:08.49,62715737, 4.75, -4.46, 352.77, 603.030029297, -35.3632598, 149.1652303, 0.996498942375, 0.0389133952558, -0.0414739325643, -0.0612823478878
2019-04-03 18:14:08.59,62815697, 4.98, -4.74, 352.78, 603.030029297, -35.3632593, 149.1652307, 0.996334552765, 0.0407595001161, -0.0440280474722, -0.06097208336
2019-04-03 18:14:08.70,62916490, 5.26, -5.02, 352.8, 603.030029297, -35.363259, 149.1652311, 0.996143102646, 0.0430123209953, -0.0465958453715, -0.0606446117163
2019-04-03 18:14:08.80,63016450, 5.54, -5.27, 352.81, 603.030029297, -35.3632585, 149.1652315, 0.995949208736, 0.0453054532409, -0.0489291474223, -0.0603204965591
2019-04-03 18:14:08.90,63116410, 5.78, -5.46, 352.82, 603.030029297, -35.363258, 149.165232, 0.995787978172, 0.0472904667258, -0.0506644248962, -0.0600257627666
2019-04-03 18:14:09.00,63216370, 5.94, -5.59, 352.83, 603.030029297, -35.3632574, 149.1652326, 0.99567180872, 0.0486901700497, -0.0518693551421, -0.059803634882
2019-04-03 18:14:09.10,63316330, 6.06, -5.69, 352.83, 603.030029297, -35.3632567, 149.1652332, 0.995583772659, 0.0496635288, -0.0527948588133, -0.0596589520574
2019-04-03 18:14:09.20,63416290, 6.16, -5.77, 352.83, 603.030029297, -35.3632561, 149.165234, 0.995507240295, 0.050486177206, -0.0535427518189, -0.059579052031
2019-04-03 18:14:09.30,63516250, 6.26, -5.87, 352.82, 603.030029297, -35.3632553, 149.1652346, 0.995416104794, 0.0512867234647, -0.0544812381268, -0.0595674403012
2019-04-03 18:14:09.40,63616210, 6.46, -5.96, 352.84, 603.030029297, -35.3632544, 149.1652355, 0.995298147202, 0.0529951043427, -0.0553484521806, -0.0592424422503
2019-04-03 18:14:09.50,63716170, 6.91, -5.94, 353.27, 603.030029297, -35.3632537, 149.1652364, 0.995306074619, 0.0570487007499, -0.0551698021591, -0.0553860403597
2019-04-03 18:14:09.60,63816130, 7.52, -5.91, 354.79, 603.030029297, -35.3632528, 149.1652373, 0.995641589165, 0.0631741508842, -0.0543684996665, -0.0418444350362
2019-04-03 18:14:09.70,63916090, 8.02, -6.16, 357.94, 603.030029297, -35.3632518, 149.1652383, 0.996010363102, 0.0689075812697, -0.0549199841917, -0.0141032543033
2019-04-03 18:14:09.80,64016050, 8.09, -6.86, 2.72, 603.030029297, -35.3632509, 149.1652394, 0.995333492756, 0.0718470215797, -0.0580578297377, 0.0279028881341
2019-04-03 18:14:09.90,64116010, 7.55, -7.97, 8.91, 603.030029297, -35.3632499, 149.1652406, 0.992042601109, 0.0709567889571, -0.0640652030706, 0.0819284617901
2019-04-03 18:14:10.00,64215970, 6.37, -9.29, 16.22, 603.030029297, -35.3632488, 149.1652418, 0.984570086002, 0.0662775859237, -0.0723091140389, 0.144915387034
2019-04-03 18:14:10.10,64315930, 4.53, -10.66, 24.35, 603.030029297, -35.3632476, 149.1652431, 0.971735239029, 0.0580763779581, -0.0824290439487, 0.213455542922
2019-04-03 18:14:10.20,64415890, 1.86, -11.81, 32.78, 603.030029297, -35.3632465, 149.1652445, 0.953657269478, 0.0445350296795, -0.0941384807229, 0.282298356295
2019-04-03 18:14:10.30,64515850, -1.32, -12.49, 40.62, 603.030029297, -35.3632453, 149.165246, 0.932620942593, 0.02701071091, -0.105999998748, 0.343878805637
2019-04-03 18:14:10.40,64615810, -4.31, -12.66, 46.97, 603.030029297, -35.363244, 149.1652475, 0.912570297718, 0.00961854867637, -0.116004303098, 0.392002522945
2019-04-03 18:14:10.49,64715770, -6.49, -12.55, 51.28, 603.030029297, -35.3632427, 149.165249, 0.89734607935, -0.00350052397698, -0.122766524553, 0.423894077539
2019-04-03 18:14:10.59,64815730, -7.59, -12.42, 53.5, 603.030029297, -35.3632412, 149.1652504, 0.888991236687, -0.0102181509137, -0.126056775451, 0.440113455057
2019-04-03 18:14:10.69,64915690, -7.66, -12.48, 53.89, 603.030029297, -35.3632396, 149.1652521, 0.887432157993, -0.0100580556318, -0.126841127872, 0.443028628826
2019-04-03 18:14:10.80,65016483, -6.88, -12.8, 52.83, 603.030029297, -35.3632379, 149.1652536, 0.891374826431, -0.0039427424781, -0.126221239567, 0.435320109129
2019-04-03 18:14:10.90,65116443, -5.5, -13.32, 50.71, 603.030029297, -35.3632361, 149.1652552, 0.89890152216, 0.00652726413682, -0.125156447291, 0.419844478369
2019-04-03 18:14:11.00,65216403, -3.76, -13.98, 47.91, 603.030029297, -35.3632342, 149.1652567, 0.908196806908, 0.0196424406022, -0.124438934028, 0.399133741856
2019-04-03 18:14:11.10,65316363, -1.9, -14.65, 44.76, 603.030029297, -35.3632322, 149.1652584, 0.917787194252, 0.0333227925003, -0.124223463237, 0.375665813684
2019-04-03 18:14:11.20,65416323, -0.15, -15.2, 41.62, 603.030029297, -35.3632301, 149.16526, 0.926581501961, 0.045800473541, -0.124160379171, 0.352041572332
2019-04-03 18:14:11.30,65516283, 1.32, -15.56, 38.84, 603.030029297, -35.3632282, 149.1652619, 0.93382525444, 0.0558010227978, -0.12392706424, 0.330906003714
2019-04-03 18:14:11.40,65616243, 2.41, -15.73, 36.68, 603.039978027, -35.3632261, 149.1652638, 0.939150035381, 0.0628321170807, -0.123313620687, 0.31439307332
2019-04-03 18:14:11.50,65716203, 3.06, -15.76, 35.29, 603.039978027, -35.3632239, 149.1652657, 0.942483603954, 0.0667878314853, -0.122575499117, 0.303709149361
2019-04-03 18:14:11.60,65816163, 3.25, -15.74, 34.7, 603.039978027, -35.3632218, 149.1652677, 0.943944692612, 0.0676978453994, -0.122257187963, 0.299062788486
2019-04-03 18:14:11.70,65916123, 3.03, -15.73, 34.83, 603.039978027, -35.3632196, 149.1652699, 0.943743109703, 0.0660309940577, -0.122701913118, 0.299888372421
2019-04-03 18:14:11.80,66016083, 2.48, -15.78, 35.53, 603.039978027, -35.3632173, 149.1652722, 0.942148923874, 0.0623695142567, -0.124185450375, 0.305030107498
2019-04-03 18:14:11.90,66116043, 1.72, -15.89, 36.61, 603.039978027, -35.3632151, 149.1652744, 0.939496159554, 0.0576166026294, -0.126578629017, 0.313057690859
2019-04-03 18:14:12.00,66216003, 0.89, -16.03, 37.88, 603.039978027, -35.3632128, 149.1652767, 0.936215162277, 0.0525744743645, -0.129392638803, 0.32248210907
2019-04-03 18:14:12.10,66315963, 0.11, -16.16, 39.16, 603.039978027, -35.3632105, 149.1652791, 0.932757019997, 0.0480818524957, -0.132121890783, 0.331958264112
2019-04-03 18:14:12.20,66415923, -0.52, -16.28, 40.29, 603.049987793, -35.3632081, 149.1652815, 0.929562687874, 0.0445120595396, -0.134503558278, 0.340353786945
2019-04-03 18:14:12.30,66515883, -1.01, -16.35, 41.17, 603.049987793, -35.3632057, 149.165284, 0.92702704668, 0.0418033674359, -0.136215239763, 0.346869915724
2019-04-03 18:14:12.40,66615843, -1.32, -16.4, 41.74, 603.049987793, -35.3632032, 149.1652866, 0.92534416914, 0.0401523970068, -0.137349709868, 0.35108551383
2019-04-03 18:14:12.50,66715803, -1.42, -16.45, 41.99, 603.049987793, -35.3632007, 149.1652892, 0.924556851387, 0.0397683866322, -0.137979626656, 0.352951467037
2019-04-03 18:14:12.59,66815763, -1.36, -16.48, 41.95, 603.049987793, -35.3631981, 149.1652916, 0.92462939024, 0.0403190776706, -0.138049781322, 0.352671444416
2019-04-03 18:14:12.69,66915723, -1.15, -16.5, 41.67, 603.049987793, -35.3631954, 149.1652943, 0.925374746323, 0.041728682816, -0.137716382742, 0.350677073002
2019-04-03 18:14:12.79,67015683, -0.84, -16.53, 41.24, 603.049987793, -35.3631929, 149.1652968, 0.92655980587, 0.0437820702791, -0.137146681547, 0.347506612539
2019-04-03 18:14:12.90,67116476, -0.49, -16.56, 40.71, 603.049987793, -35.3631902, 149.1652996, 0.927963912487, 0.0461210943758, -0.136508002877, 0.343687921762
2019-04-03 18:14:13.00,67216436, -0.15, -16.6, 40.19, 603.049987793, -35.3631874, 149.1653022, 0.929345667362, 0.0483156591654, -0.136069387197, 0.339805006981
2019-04-03 18:14:13.10,67316396, 0.11, -16.66, 39.72, 603.049987793, -35.3631848, 149.165305, 0.930548846722, 0.0501456074417, -0.135953202844, 0.336275219917
2019-04-03 18:14:13.20,67416356, 0.32, -16.73, 39.34, 603.049987793, -35.363182, 149.1653077, 0.931468546391, 0.0515879653394, -0.136066615582, 0.333452939987
2019-04-03 18:14:13.30,67516316, 0.45, -16.77, 39.09, 603.049987793, -35.3631793, 149.1653105, 0.932089626789, 0.0525043010712, -0.136128008366, 0.331543892622
2019-04-03 18:14:13.40,67616276, 0.5, -16.79, 38.96, 603.059997559, -35.3631765, 149.1653132, 0.932397544384, 0.0528446435928, -0.136206716299, 0.330590248108
2019-04-03 18:14:13.50,67716236, 0.48, -16.82, 38.96, 603.059997559, -35.3631737, 149.165316, 0.932391107082, 0.0527506135404, -0.136489376426, 0.330506950617
2019-04-03 18:14:13.60,67816196, 0.41, -16.86, 39.05, 603.059997559, -35.3631709, 149.1653189, 0.932114541531, 0.0523790493608, -0.137037262321, 0.331118941307
2019-04-03 18:14:13.70,67916156, 0.3, -16.91, 39.2, 603.059997559, -35.363168, 149.1653217, 0.931655406952, 0.0518690124154, -0.13769210875, 0.332217931747
2019-04-03 18:14:13.80,68016116, 0.18, -16.97, 39.39, 603.059997559, -35.3631652, 149.1653246, 0.931107997894, 0.0511995181441, -0.138395041227, 0.333561569452
2019-04-03 18:14:13.90,68116076, 0.05, -17.02, 39.58, 603.059997559, -35.3631623, 149.1653275, 0.930546224117, 0.0505193211138, -0.139099493623, 0.334937244654
2019-04-03 18:14:14.00,68216036, -0.07, -17.06, 39.75, 603.059997559, -35.3631595, 149.1653306, 0.93004822731, 0.0498270578682, -0.139751315117, 0.336150527
2019-04-03 18:14:14.10,68315996, -0.18, -17.09, 39.88, 603.059997559, -35.3631564, 149.1653335, 0.929668605328, 0.0492230467498, -0.140245243907, 0.337082594633
2019-04-03 18:14:14.20,68415956, -0.24, -17.11, 39.97, 603.070007324, -35.3631535, 149.1653365, 0.929426193237, 0.0488354563713, -0.140584096313, 0.337665677071
2019-04-03 18:14:14.30,68515916, -0.26, -17.13, 40.0, 603.070007324, -35.3631507, 149.1653394, 0.929322004318, 0.0487613752484, -0.14074857533, 0.337894588709
2019-04-03 18:14:14.40,68615876, -0.24, -17.14, 39.98, 603.070007324, -35.3631477, 149.1653424, 0.929339647293, 0.0489738434553, -0.140819221735, 0.337785959244
2019-04-03 18:14:14.50,68715836, -0.19, -17.16, 39.93, 603.070007324, -35.3631447, 149.1653455, 0.92945343256, 0.0493832454085, -0.140877723694, 0.337388694286
2019-04-03 18:14:14.59,68815796, -0.12, -17.2, 39.84, 603.070007324, -35.3631417, 149.1653485, 0.929621994495, 0.049997985363, -0.140982478857, 0.336789429188
2019-04-03 18:14:14.69,68915756, -0.03, -17.23, 39.75, 603.070007324, -35.3631387, 149.1653515, 0.929836392403, 0.0506235472858, -0.141004815698, 0.336093962193
2019-04-03 18:14:14.79,69015716, 0.02, -17.26, 39.65, 603.070007324, -35.3631357, 149.1653546, 0.930051922798, 0.051125228405, -0.14115434885, 0.335358291864
2019-04-03 18:14:14.89,69115676, 0.06, -17.29, 39.56, 603.070007324, -35.3631327, 149.1653576, 0.930265426636, 0.0514061823487, -0.141298294067, 0.334661692381
2019-04-03 18:14:15.00,69216469, 0.09, -17.32, 39.48, 603.070007324, -35.3631296, 149.1653608, 0.930441737175, 0.0516340062022, -0.1414693892, 0.33406367898
2019-04-03 18:14:15.10,69316429, 0.11, -17.34, 39.42, 603.070007324, -35.3631265, 149.1653639, 0.930567443371, 0.0517924502492, -0.141639351845, 0.333616733551
2019-04-03 18:14:15.20,69416389, 0.1, -17.39, 39.39, 603.08001709, -35.3631235, 149.165367, 0.930619716644, 0.0518494024873, -0.142042353749, 0.33329051733
2019-04-03 18:14:15.30,69516349, 0.09, -17.43, 39.37, 603.08001709, -35.3631204, 149.1653701, 0.930626630783, 0.0518570616841, -0.142416372895, 0.333110421896
2019-04-03 18:14:15.40,69616309, 0.07, -17.47, 39.37, 603.08001709, -35.3631173, 149.1653732, 0.930599212646, 0.0517747700214, -0.142775431275, 0.33304604888
2019-04-03 18:14:15.50,69716269, 0.06, -17.49, 39.37, 603.08001709, -35.3631142, 149.1653763, 0.930552124977, 0.0517397969961, -0.14302060008, 0.33307787776
2019-04-03 18:14:15.60,69816229, 0.05, -17.51, 39.39, 603.08001709, -35.3631111, 149.1653795, 0.930491507053, 0.05174459517, -0.143202394247, 0.333168268204
2019-04-03 18:14:15.70,69916189, 0.04, -17.51, 39.4, 603.08001709, -35.3631079, 149.1653826, 0.930449128151, 0.0517226532102, -0.143205404282, 0.333288908005
2019-04-03 18:14:15.80,70016149, 0.03, -17.51, 39.42, 603.08001709, -35.3631047, 149.1653859, 0.930419623852, 0.0516446530819, -0.143202140927, 0.333384603262
2019-04-03 18:14:15.90,70116109, 0.02, -17.51, 39.42, 603.08001709, -35.3631017, 149.1653891, 0.930402755737, 0.0515376478434, -0.143275111914, 0.333416819572
2019-04-03 18:14:16.00,70216069, 0.0, -17.52, 39.42, 603.08001709, -35.3630985, 149.1653922, 0.930398404598, 0.0514437258244, -0.143391728401, 0.333393484354
2019-04-03 18:14:16.10,70316029, 0.0, -17.53, 39.42, 603.08001709, -35.3630954, 149.1653955, 0.930414557457, 0.0514144524932, -0.143452599645, 0.333326786757
2019-04-03 18:14:16.20,70415989, 0.0, -17.54, 39.4, 603.08001709, -35.3630921, 149.1653987, 0.930447101593, 0.0513480342925, -0.143565535545, 0.333197504282
2019-04-03 18:14:16.30,70515949, -0.01, -17.56, 39.38, 603.090026855, -35.3630889, 149.1654019, 0.930469989777, 0.0513384491205, -0.143811881542, 0.333028763533
2019-04-03 18:14:16.40,70615909, -0.01, -17.61, 39.36, 603.090026855, -35.3630858, 149.165405, 0.930481016636, 0.0514665357769, -0.144164323807, 0.332825660706
2019-04-03 18:14:16.50,70715869, 0.02, -17.64, 39.33, 603.090026855, -35.3630826, 149.1654084, 0.930493712425, 0.0518627017736, -0.144364908338, 0.332641690969
2019-04-03 18:14:16.60,70815829, 0.07, -17.67, 39.31, 603.090026855, -35.3630793, 149.1654116, 0.930519580841, 0.0522636473179, -0.14445990324, 0.332465291023
2019-04-03 18:14:16.69,70915789, 0.1, -17.67, 39.28, 603.090026855, -35.3630762, 149.1654147, 0.930575728416, 0.0524970926344, -0.144406884909, 0.332294434309
2019-04-03 18:14:16.79,71015749, 0.1, -17.67, 39.26, 603.090026855, -35.363073, 149.165418, 0.930644154549, 0.0524614043534, -0.144419580698, 0.332102775574
2019-04-03 18:14:16.89,71115709, 0.08, -17.68, 39.24, 603.090026855, -35.3630698, 149.1654213, 0.930700242519, 0.0523126460612, -0.144512563944, 0.331928610802
2019-04-03 18:14:16.99,71215669, 0.06, -17.68, 39.22, 603.090026855, -35.3630665, 149.1654246, 0.930744230747, 0.0521434023976, -0.144604086876, 0.331791967154
2019-04-03 18:14:17.10,71316462, 0.06, -17.69, 39.21, 603.099975586, -35.3630633, 149.1654279, 0.930760622025, 0.0521362349391, -0.14473888278, 0.331688284874
2019-04-03 18:14:17.20,71416422, 0.06, -17.73, 39.2, 603.099975586, -35.3630601, 149.1654312, 0.930742502213, 0.0522364079952, -0.145033434033, 0.331594854593
2019-04-03 18:14:17.30,71516382, 0.05, -17.78, 39.2, 603.099975586, -35.3630567, 149.1654345, 0.930708885193, 0.0522777363658, -0.145462930202, 0.331494510174
2019-04-03 18:14:17.40,71616342, 0.03, -17.81, 39.19, 603.099975586, -35.3630536, 149.1654376, 0.930696129799, 0.0521860308945, -0.145791202784, 0.331400483847
2019-04-03 18:14:17.50,71716302, 0.02, -17.81, 39.18, 603.099975586, -35.3630503, 149.1654409, 0.930716395378, 0.0521065853536, -0.145823642612, 0.331341803074
2019-04-03 18:14:17.60,71816262, 0.03, -17.81, 39.18, 603.099975586, -35.363047, 149.1654443, 0.9307320714, 0.0522133894265, -0.145761802793, 0.331308156252
2019-04-03 18:14:17.70,71916222, 0.04, -17.8, 39.17, 603.099975586, -35.3630438, 149.1654476, 0.930770516396, 0.0522063300014, -0.145645678043, 0.331252425909
2019-04-03 18:14:17.80,72016182, 0.04, -17.78, 39.16, 603.099975586, -35.3630404, 149.1654509, 0.930824220181, 0.0521295890212, -0.145501196384, 0.331177026033
2019-04-03 18:14:17.90,72116142, 0.05, -17.77, 39.15, 603.099975586, -35.3630372, 149.1654543, 0.930861949921, 0.0521948710084, -0.145387008786, 0.331110775471
2019-04-03 18:14:18.00,72216102, 0.06, -17.78, 39.14, 603.099975586, -35.3630339, 149.1654576, 0.930871486664, 0.0523293502629, -0.145494252443, 0.33101567626
2019-04-03 18:14:18.10,72316062, 0.07, -17.81, 39.12, 603.109985352, -35.3630306, 149.1654609, 0.930869281292, 0.0524813644588, -0.145706132054, 0.330904483795
2019-04-03 18:14:18.20,72416022, 0.09, -17.84, 39.11, 603.109985352, -35.3630274, 149.1654642, 0.930863380432, 0.052689306438, -0.145898118615, 0.330803483725
2019-04-03 18:14:18.30,72515982, 0.11, -17.86, 39.1, 603.109985352, -35.363024, 149.1654675, 0.930860817432, 0.0528702773154, -0.146038338542, 0.33072000742
2019-04-03 18:14:18.40,72615942, 0.12, -17.91, 39.09, 603.109985352, -35.3630208, 149.1654709, 0.930831313133, 0.0530808083713, -0.146351337433, 0.330630928278
2019-04-03 18:14:18.50,72715902, 0.12, -17.95, 39.08, 603.109985352, -35.3630175, 149.1654742, 0.930805325508, 0.0531786419451, -0.146691903472, 0.330537438393
2019-04-03 18:14:18.60,72815862, 0.11, -17.96, 39.07, 603.109985352, -35.3630141, 149.1654774, 0.930820763111, 0.0531353391707, -0.146780267358, 0.330461740494
2019-04-03 18:14:18.70,72915822, 0.1, -17.94, 39.06, 603.109985352, -35.3630108, 149.1654809, 0.930861532688, 0.0530428960919, -0.146673947573, 0.330408900976
2019-04-03 18:14:18.79,73015782, 0.11, -17.93, 39.06, 603.109985352, -35.3630075, 149.1654841, 0.93089479208, 0.0530262924731, -0.146559849381, 0.330368459225
2019-04-03 18:14:18.89,73115742, 0.14, -17.93, 39.05, 603.109985352, -35.3630042, 149.1654874, 0.930900156498, 0.0532484278083, -0.146507427096, 0.330340862274
2019-04-03 18:14:18.99,73215702, 0.16, -17.96, 39.04, 603.109985352, -35.3630008, 149.1654908, 0.930866241455, 0.0535319820046, -0.146720647812, 0.330295920372
2019-04-03 18:14:19.09,73315662, 0.16, -17.99, 39.03, 603.109985352, -35.3629975, 149.1654941, 0.930850207806, 0.0536026060581, -0.146953985095, 0.330225855112
2019-04-03 18:14:19.20,73416455, 0.13, -18.01, 39.03, 603.109985352, -35.3629941, 149.1654975, 0.930863797665, 0.0534282438457, -0.147140726447, 0.330132812262
2019-04-03 18:14:19.30,73516415, 0.1, -18.0, 39.02, 603.109985352, -35.3629909, 149.165501, 0.930897951126, 0.053151756525, -0.147217795253, 0.330046802759
2019-04-03 18:14:19.40,73616375, 0.09, -17.99, 39.02, 603.109985352, -35.3629874, 149.1655044, 0.930942237377, 0.0530200079083, -0.147096216679, 0.329997301102
2019-04-03 18:14:19.50,73716335, 0.12, -17.97, 39.01, 603.109985352, -35.3629842, 149.1655077, 0.930970311165, 0.053150806576, -0.146882265806, 0.329992264509
2019-04-03 18:14:19.60,73816295, 0.14, -17.98, 39.0, 603.109985352, -35.3629807, 149.1655111, 0.930958211422, 0.0534057617188, -0.146916866302, 0.329969733953
2019-04-03 18:14:19.70,73916255, 0.16, -18.01, 39.0, 603.109985352, -35.3629775, 149.1655145, 0.930935263634, 0.0535875186324, -0.147105753422, 0.329920887947
2019-04-03 18:14:19.80,74016215, 0.17, -18.04, 38.99, 603.109985352, -35.362974, 149.1655179, 0.930911719799, 0.0537259317935, -0.147337988019, 0.329861283302
2019-04-03 18:14:19.90,74116175, 0.17, -18.06, 38.98, 603.109985352, -35.3629708, 149.1655212, 0.93090492487, 0.0538158081472, -0.147485211492, 0.329799920321
2019-04-03 18:14:20.00,74216135, 0.18, -18.06, 38.98, 603.109985352, -35.3629673, 149.1655246, 0.930914103985, 0.0538592115045, -0.147518515587, 0.329752057791
2019-04-03 18:14:20.10,74316095, 0.18, -18.07, 38.97, 603.109985352, -35.3629641, 149.165528, 0.930916070938, 0.0539030171931, -0.147595107555, 0.329705178738
2019-04-03 18:14:20.20,74416055, 0.18, -18.07, 38.97, 603.109985352, -35.3629606, 149.1655314, 0.930932939053, 0.0539267733693, -0.147576734424, 0.329661816359
2019-04-03 18:14:20.30,74516015, 0.18, -18.06, 38.96, 603.109985352, -35.3629573, 149.1655348, 0.930963933468, 0.0538665950298, -0.14751085639, 0.329613536596
2019-04-03 18:14:20.40,74615975, 0.18, -18.08, 38.95, 603.119995117, -35.3629539, 149.1655381, 0.930966615677, 0.0539006367326, -0.147599309683, 0.329560905695
2019-04-03 18:14:20.50,74715935, 0.19, -18.11, 38.95, 603.119995117, -35.3629506, 149.1655415, 0.930938065052, 0.0540740154684, -0.147820547223, 0.329514026642
2019-04-03 18:14:20.60,74815895, 0.2, -18.14, 38.94, 603.119995117, -35.3629472, 149.1655448, 0.930905461311, 0.0542203746736, -0.148098766804, 0.329457014799
2019-04-03 18:14:20.70,74915855, 0.18, -18.16, 38.94, 603.119995117, -35.3629439, 149.1655482, 0.930899918079, 0.0541654750705, -0.148315578699, 0.329384297132
2019-04-03 18:14:20.80,75015815, 0.15, -18.18, 38.93, 603.119995117, -35.3629405, 149.1655516, 0.930907189846, 0.0539587326348, -0.148527890444, 0.329301893711
2019-04-03 18:14:20.89,75115775, 0.14, -18.18, 38.93, 603.119995117, -35.362937, 149.1655551, 0.930928945541, 0.0538166314363, -0.148545652628, 0.329255819321
2019-04-03 18:14:20.99,75215735, 0.15, -18.18, 38.93, 603.119995117, -35.3629338, 149.1655585, 0.930926084518, 0.0539002716541, -0.148564279079, 0.329241663218
2019-04-03 18:14:21.09,75315695, 0.15, -18.19, 38.92, 603.119995117, -35.3629303, 149.1655619, 0.930919528008, 0.053967576474, -0.148631334305, 0.329218953848
2019-04-03 18:14:21.20,75416488, 0.16, -18.2, 38.92, 603.119995117, -35.362927, 149.1655654, 0.930909276009, 0.0540626905859, -0.148719295859, 0.32919254899
2019-04-03 18:14:21.30,75516448, 0.17, -18.19, 38.91, 603.119995117, -35.3629235, 149.1655688, 0.930935621262, 0.0541229769588, -0.148593515158, 0.329164981842
2019-04-03 18:14:21.40,75616408, 0.18, -18.19, 38.91, 603.119995117, -35.3629202, 149.1655721, 0.930950462818, 0.0541782230139, -0.148588865995, 0.329115957022
2019-04-03 18:14:21.50,75716368, 0.18, -18.2, 38.9, 603.119995117, -35.3629168, 149.1655755, 0.930961251259, 0.0541951470077, -0.148657783866, 0.329051494598
2019-04-03 18:14:21.60,75816328, 0.17, -18.21, 38.89, 603.119995117, -35.3629133, 149.1655789, 0.930974841118, 0.0541428998113, -0.148765593767, 0.328972965479
2019-04-03 18:14:21.70,75916288, 0.14, -18.24, 38.88, 603.119995117, -35.36291, 149.1655824, 0.930974900723, 0.0539621636271, -0.149092227221, 0.328854560852
2019-04-03 18:14:21.80,76016248, 0.1, -18.26, 38.87, 603.119995117, -35.3629065, 149.1655859, 0.930986404419, 0.0537035278976, -0.14938467741, 0.32873159647
2019-04-03 18:14:21.90,76116208, 0.08, -18.27, 38.87, 603.119995117, -35.3629032, 149.1655893, 0.931006848812, 0.053569175303, -0.149504840374, 0.32864099741
2019-04-03 18:14:22.00,76216168, 0.08, -18.28, 38.86, 603.119995117, -35.3628998, 149.1655927, 0.931016504765, 0.0535443276167, -0.149595364928, 0.32857644558
2019-04-03 18:14:22.10,76316128, 0.1, -18.28, 38.85, 603.119995117, -35.3628963, 149.165596, 0.931027412415, 0.0537336580455, -0.149498417974, 0.328558862209
2019-04-03 18:14:22.20,76416088, 0.14, -18.27, 38.85, 603.119995117, -35.362893, 149.1655996, 0.931033968925, 0.0539907924831, -0.149373143911, 0.328555166721
2019-04-03 18:14:22.30,76516048, 0.16, -18.27, 38.84, 603.119995117, -35.3628895, 149.165603, 0.931045234203, 0.0541237406433, -0.14929883182, 0.328535020351
2019-04-03 18:14:22.40,76616008, 0.15, -18.28, 38.84, 603.119995117, -35.3628862, 149.1656064, 0.93105173111, 0.0540829636157, -0.149388313293, 0.328482717276
2019-04-03 18:14:22.50,76715968, 0.13, -18.28, 38.83, 603.119995117, -35.3628828, 149.1656099, 0.931065618992, 0.0539366342127, -0.149476066232, 0.328427433968
2019-04-03 18:14:22.60,76815928, 0.11, -18.28, 38.83, 603.119995117, -35.3628794, 149.1656133, 0.931082248688, 0.053807143122, -0.149545952678, 0.328369736671
2019-04-03 18:14:22.70,76915888, 0.12, -18.31, 38.82, 603.119995117, -35.3628759, 149.1656166, 0.93106418848, 0.0539128258824, -0.14971229434, 0.328327834606
2019-04-03 18:14:22.80,77015848, 0.16, -18.33, 38.82, 603.119995117, -35.3628725, 149.1656202, 0.9310297966, 0.054257594049, -0.14981725812, 0.328320682049
2019-04-03 18:14:22.90,77115808, 0.2, -18.32, 38.81, 603.119995117, -35.3628691, 149.1656236, 0.931036293507, 0.0545918904245, -0.14961117506, 0.328340739012
2019-04-03 18:14:22.99,77215768, 0.23, -18.29, 38.81, 603.119995117, -35.3628657, 149.165627, 0.931082010269, 0.0546991191804, -0.149260699749, 0.328352898359
2019-04-03 18:14:23.09,77315728, 0.24, -18.26, 38.81, 603.119995117, -35.3628621, 149.1656305, 0.93112796545, 0.0547057949007, -0.148970365524, 0.328353226185
2019-04-03 18:14:23.19,77415688, 0.21, -18.27, 38.8, 603.119995117, -35.3628588, 149.1656339, 0.93112641573, 0.0545330904424, -0.149188384414, 0.328287363052
2019-04-03 18:14:23.30,77516481, 0.18, -18.33, 38.8, 603.119995117, -35.3628554, 149.1656373, 0.931078374386, 0.0544317774475, -0.149707913399, 0.328203946352
2019-04-03 18:14:23.40,77616441, 0.16, -18.37, 38.8, 603.119995117, -35.3628518, 149.1656408, 0.931031048298, 0.0544133149087, -0.15012536943, 0.328150600195
2019-04-03 18:14:23.50,77716401, 0.16, -18.39, 38.8, 603.119995117, -35.3628485, 149.1656443, 0.931009054184, 0.0544151216745, -0.150316208601, 0.328125298023
2019-04-03 18:14:23.60,77816361, 0.16, -18.38, 38.8, 603.119995117, -35.3628451, 149.1656477, 0.931025981903, 0.0543711520731, -0.150212988257, 0.328131765127
2019-04-03 18:14:23.70,77916321, 0.15, -18.34, 38.8, 603.119995117, -35.3628417, 149.1656511, 0.9310759902, 0.0542335808277, -0.149926960468, 0.32814347744
2019-04-03 18:14:23.80,78016281, 0.15, -18.3, 38.8, 603.119995117, -35.3628382, 149.1656545, 0.931133925915, 0.0540715642273, -0.149612426758, 0.328149437904
2019-04-03 18:14:23.90,78116241, 0.15, -18.26, 38.8, 603.119995117, -35.3628348, 149.1656581, 0.931188702583, 0.0539815761149, -0.149270698428, 0.328164368868
2019-04-03 18:14:24.00,78216201, 0.16, -18.24, 38.8, 603.119995117, -35.3628314, 149.1656615, 0.931209862232, 0.0540141202509, -0.149108067155, 0.328172892332
2019-04-03 18:14:24.10,78316161, 0.16, -18.25, 38.79, 603.119995117, -35.3628279, 149.165665, 0.931211948395, 0.0539911799133, -0.149170547724, 0.328142434359
2019-04-03 18:14:24.20,78416121, 0.14, -18.27, 38.79, 603.119995117, -35.3628244, 149.1656683, 0.93120265007, 0.0539490655065, -0.149370908737, 0.328084588051
2019-04-03 18:14:24.30,78516081, 0.13, -18.28, 38.78, 603.119995117, -35.3628211, 149.1656719, 0.93120598793, 0.0538591779768, -0.149531260133, 0.328016728163
2019-04-03 18:14:24.40,78616041, 0.12, -18.29, 38.78, 603.119995117, -35.3628176, 149.1656753, 0.931221961975, 0.0537734404206, -0.14959871769, 0.327954739332
2019-04-03 18:14:24.50,78716001, 0.1, -18.29, 38.77, 603.119995117, -35.3628141, 149.1656788, 0.931245625019, 0.0536254905164, -0.149644434452, 0.327890962362
2019-04-03 18:14:24.60,78815961, 0.09, -18.31, 38.77, 603.119995117, -35.3628107, 149.1656822, 0.931240141392, 0.0535824261606, -0.149830013514, 0.327828854322
2019-04-03 18:14:24.70,78915921, 0.09, -18.33, 38.76, 603.119995117, -35.3628073, 149.1656856, 0.931219041348, 0.0536400787532, -0.15005081892, 0.327778279781
2019-04-03 18:14:24.80,79015881, 0.09, -18.35, 38.76, 603.119995117, -35.3628038, 149.1656892, 0.931209802628, 0.0536860823631, -0.150178685784, 0.327738493681
2019-04-03 18:14:24.90,79115841, 0.1, -18.35, 38.75, 603.119995117, -35.3628004, 149.1656926, 0.931219398975, 0.0537369996309, -0.150160029531, 0.327711313963
2019-04-03 18:14:25.00,79215801, 0.11, -18.35, 38.75, 603.119995117, -35.362797, 149.1656961, 0.93121522665, 0.0538861826062, -0.150158941746, 0.327699244022
2019-04-03 18:14:25.09,79315761, 0.14, -18.36, 38.75, 603.119995117, -35.3627934, 149.1656995, 0.93120932579, 0.0540890619159, -0.150116041303, 0.327702224255
2019-04-03 18:14:25.19,79415721, 0.16, -18.36, 38.74, 603.119995117, -35.3627901, 149.1657029, 0.93121021986, 0.0542434826493, -0.15004606545, 0.32770627737
2019-04-03 18:14:25.29,79515681, 0.16, -18.35, 38.74, 603.119995117, -35.3627866, 149.1657064, 0.931228816509, 0.0542341582477, -0.14997138083, 0.32768908143
2019-04-03 18:14:25.40,79616474, 0.16, -18.35, 38.74, 603.119995117, -35.3627831, 149.1657099, 0.931235253811, 0.0542220920324, -0.149999216199, 0.327660083771
2019-04-03 18:14:25.50,79716434, 0.16, -18.38, 38.74, 603.119995117, -35.3627797, 149.1657133, 0.931203186512, 0.0543036162853, -0.150239154696, 0.32762786746
2019-04-03 18:14:25.60,79816394, 0.15, -18.39, 38.74, 603.119995117, -35.3627763, 149.1657167, 0.931198835373, 0.0542740263045, -0.150305554271, 0.327614665031
2019-04-03 18:14:25.70,79916354, 0.13, -18.38, 38.74, 603.119995117, -35.3627728, 149.1657203, 0.931209445, 0.0540995001793, -0.150321647525, 0.327605932951
2019-04-03 18:14:25.80,80016314, 0.12, -18.36, 38.74, 603.130004883, -35.3627694, 149.1657238, 0.93123036623, 0.0539237931371, -0.150235146284, 0.327615052462
2019-04-03 18:14:25.90,80116274, 0.12, -18.35, 38.74, 603.130004883, -35.3627659, 149.1657272, 0.931244015694, 0.0539319477975, -0.150073722005, 0.327649027109
2019-04-03 18:14:26.00,80216234, 0.15, -18.33, 38.74, 603.130004883, -35.3627624, 149.1657306, 0.931253314018, 0.054078258574, -0.149859771132, 0.327696382999
2019-04-03 18:14:26.10,80316194, 0.17, -18.34, 38.74, 603.130004883, -35.3627589, 149.1657342, 0.931230664253, 0.0542857199907, -0.149873271585, 0.327720224857
2019-04-03 18:14:26.20,80416154, 0.16, -18.36, 38.74, 603.130004883, -35.3627555, 149.1657376, 0.931201815605, 0.0543021820486, -0.150104820728, 0.327693551779
2019-04-03 18:14:26.30,80516114, 0.16, -18.4, 38.74, 603.130004883, -35.3627521, 149.1657411, 0.931160449982, 0.0543824918568, -0.150383159518, 0.327670097351
2019-04-03 18:14:26.40,80616074, 0.17, -18.42, 38.74, 603.130004883, -35.3627485, 149.1657445, 0.931128203869, 0.0545067563653, -0.15056437254, 0.327657848597
2019-04-03 18:14:26.50,80716034, 0.18, -18.43, 38.74, 603.130004883, -35.3627452, 149.1657479, 0.931112349033, 0.0546554327011, -0.150608778, 0.32765775919
2019-04-03 18:14:26.60,80815994, 0.2, -18.44, 38.74, 603.130004883, -35.3627417, 149.1657515, 0.931095004082, 0.0547995194793, -0.150633335114, 0.327671676874
2019-04-03 18:14:26.70,80915954, 0.2, -18.43, 38.74, 603.130004883, -35.3627381, 149.165755, 0.931097447872, 0.0548292733729, -0.150556921959, 0.327694922686
2019-04-03 18:14:26.80,81015914, 0.21, -18.4, 38.74, 603.130004883, -35.3627348, 149.1657583, 0.931134641171, 0.0547759234905, -0.150264248252, 0.327732503414
2019-04-03 18:14:26.90,81115874, 0.22, -18.37, 38.74, 603.130004883, -35.3627313, 149.1657619, 0.931155323982, 0.0548094585538, -0.150007948279, 0.327785491943
2019-04-03 18:14:27.00,81215834, 0.22, -18.35, 38.75, 603.130004883, -35.3627278, 149.1657654, 0.931176424026, 0.0547540672123, -0.149834483862, 0.327814131975
2019-04-03 18:14:27.09,81315794, 0.21, -18.35, 38.75, 603.130004883, -35.3627244, 149.1657689, 0.931187093258, 0.0546218939126, -0.149827480316, 0.327809035778
2019-04-03 18:14:27.19,81415754, 0.21, -18.37, 38.75, 603.130004883, -35.3627209, 149.1657722, 0.931152582169, 0.0547332912683, -0.149990186095, 0.327814161777
2019-04-03 18:14:27.29,81515714, 0.22, -18.4, 38.75, 603.130004883, -35.3627174, 149.1657758, 0.931108534336, 0.0548591390252, -0.150228008628, 0.327809214592
2019-04-03 18:14:27.39,81615674, 0.23, -18.4, 38.75, 603.130004883, -35.3627139, 149.1657793, 0.931107521057, 0.0549232214689, -0.150177672505, 0.327824503183
