Start,TimeUS,Roll,Pitch,Yaw,Alt,Lat,Lng,Q1,Q2,Q3,Q4
2019-04-03 19:28:07.70,41315967, 0.0, 0.0, 353.0, 584.090026855, -35.363261, 149.1652299, 0.998134791851, 0.0, 0.0, -0.0610485821962
2019-04-03 19:28:07.80,41415927, 0.0, 0.0, 353.0, 584.090026855, -35.363261, 149.1652299, 0.998134791851, 0.0, 0.0, -0.0610485821962
2019-04-03 19:28:07.89,41515887, 0.0, 0.0, 353.0, 584.090026855, -35.363261, 149.1652299, 0.998134791851, 0.0, 0.0, -0.0610485821962
2019-04-03 19:28:07.99,41615847, 0.0, 0.0, 353.0, 584.090026855, -35.363261, 149.1652299, 0.998134791851, 0.0, 0.0, -0.0610485821962
2019-04-03 19:28:08.09,41715807, 0.0, 0.0, 353.0, 584.090026855, -35.363261, 149.1652299, 0.998134791851, 0.0, 0.0, -0.0610485821962
2019-04-03 19:28:08.19,41815767, 0.0, 0.0, 353.0, 584.090026855, -35.363261, 149.1652299, 0.998134791851, 0.0, 0.0, -0.0610485821962
2019-04-03 19:28:08.29,41915727, 0.0, 0.0, 353.0, 584.090026855, -35.363261, 149.1652299, 0.998134791851, 0.0, 0.0, -0.0610485821962
2019-04-03 19:28:08.39,42015687, 0.0, 0.0, 353.0, 584.090026855, -35.363261, 149.1652299, 0.998134791851, 0.0, 0.0, -0.0610485821962
2019-04-03 19:28:08.50,42116480, 0.0, 0.0, 353.0, 584.090026855, -35.363261, 149.1652299, 0.998134791851, 0.0, 0.0, -0.0610485821962
2019-04-03 19:28:08.60,42216440, 0.0, 0.0, 353.0, 584.090026855, -35.363261, 149.1652299, 0.998134791851, 0.0, 0.0, -0.0610485821962
2019-04-03 19:28:08.70,42316400, 0.0, 0.0, 353.0, 584.090026855, -35.363261, 149.1652299, 0.998134791851, 0.0, 0.0, -0.0610485821962
2019-04-03 19:28:08.80,42416360, 0.0, 0.0, 353.0, 584.090026855, -35.363261, 149.1652299, 0.998134791851, 0.0, 0.0, -0.0610485821962
2019-04-03 19:28:08.90,42516320, 0.0, 0.0, 353.0, 584.090026855, -35.363261, 149.1652299, 0.998134791851, 0.0, 0.0, -0.0610485821962
2019-04-03 19:28:09.00,42616280, 0.0, 0.0, 353.0, 584.090026855, -35.363261, 149.1652299, 0.998134791851, 0.0, 0.0, -0.0610485821962
2019-04-03 19:28:09.10,42716240, 0.0, 0.0, 353.0, 584.090026855, -35.363261, 149.1652299, 0.998134791851, 0.0, 0.0, -0.0610485821962
2019-04-03 19:28:09.20,42816200, 0.0, 0.0, 353.0, 584.090026855, -35.363261, 149.1652299, 0.998134791851, 0.0, 0.0, -0.0610485821962
2019-04-03 19:28:09.30,42916160, 0.0, 0.0, 353.0, 584.090026855, -35.363261, 149.1652299, 0.998134791851, 0.0, 0.0, -0.0610485821962
2019-04-03 19:28:09.40,43016120, 0.0, 0.0, 353.0, 584.090026855, -35.363261, 149.1652299, 0.998134791851, 0.0, 0.0, -0.0610485821962
2019-04-03 19:28:09.50,43116080, 0.0, 0.0, 353.0, 584.090026855, -35.363261, 149.1652299, 0.998134791851, 0.0, 0.0, -0.0610485821962
2019-04-03 19:28:09.60,43216040, 0.0, 0.0, 353.0, 584.090026855, -35.363261, 149.1652299, 0.998134791851, 0.0, 0.0, -0.0610485821962
2019-04-03 19:28:09.70,43316000, 0.0, 0.0, 353.0, 584.090026855, -35.363261, 149.1652299, 0.998134791851, 0.0, 0.0, -0.0610485821962
2019-04-03 19:28:09.80,43415960, 0.0, 0.0, 353.0, 584.090026855, -35.363261, 149.1652299, 0.998134791851, 0.0, 0.0, -0.0610485821962
2019-04-03 19:28:09.89,43515920, 0.0, 0.0, 353.0, 584.090026855, -35.363261, 149.1652299, 0.998134791851, 0.0, 0.0, -0.0610485821962
2019-04-03 19:28:09.99,43615880, 0.0, 0.0, 353.0, 584.090026855, -35.363261, 149.1652299, 0.998134791851, 0.0, 0.0, -0.0610485821962
2019-04-03 19:28:10.09,43715840, 0.0, 0.0, 353.0, 584.090026855, -35.363261, 149.1652299, 0.998134791851, 0.0, 0.0, -0.0610485821962
2019-04-03 19:28:10.19,43815800, 0.0, 0.0, 353.0, 584.090026855, -35.363261, 149.1652299, 0.998134791851, 0.0, 0.0, -0.0610485933721
2019-04-03 19:28:10.29,43915760, 0.0, 0.0, 353.0, 584.090026855, -35.363261, 149.1652299, 0.998134791851, 0.0, 0.0, -0.061048604548
2019-04-03 19:28:10.39,44015720, 0.0, 0.0, 353.0, 584.090026855, -35.363261, 149.1652299, 0.998134791851, 0.0, 0.0, -0.0610485821962
2019-04-03 19:28:10.49,44115680, 0.0, 0.0, 353.0, 584.090026855, -35.363261, 149.1652299, 0.998134791851, 0.0, 0.0, -0.0610485821962
2019-04-03 19:28:10.60,44216473, 0.0, 0.0, 353.0, 584.090026855, -35.363261, 149.1652299, 0.998134791851, 0.0, 0.0, -0.0610485821962
2019-04-03 19:28:10.70,44316433, 0.0, 0.0, 353.0, 584.099975586, -35.363261, 149.1652299, 0.998134791851, 0.0, 0.0, -0.0610485486686
2019-04-03 19:28:10.80,44416393, 0.0, 0.0, 353.0, 584.099975586, -35.363261, 149.1652299, 0.998134791851, 0.0, 0.0, -0.0610485747457
2019-04-03 19:28:10.90,44516353, 0.0, 0.0, 353.0, 584.109985352, -35.363261, 149.1652299, 0.998134791851, 0.0, 0.0, -0.0610485672951
2019-04-03 19:28:11.00,44616313, 0.0, 0.0, 353.0, 584.130004883, -35.363261, 149.1652299, 0.998134791851, 0.0, 0.0, -0.061048541218
2019-04-03 19:28:11.10,44716273, 0.0, 0.0, 353.0, 584.159973145, -35.363261, 149.1652299, 0.998134791851, 0.0, 0.0, -0.0610485635698
2019-04-03 19:28:11.20,44816233, 0.0, 0.0, 353.0, 584.179992676, -35.363261, 149.1652299, 0.998134791851, 0.0, 0.0, -0.0610485523939
2019-04-03 19:28:11.30,44916193, 0.0, 0.0, 353.0, 584.210021973, -35.363261, 149.1652299, 0.998134791851, 0.0, 0.0, -0.0610485747457
2019-04-03 19:28:11.40,45016153, 0.27, 0.34, 353.0, 584.25, -35.363261, 149.1652299, 0.998126924038, 0.00261338218115, 0.00289036007598, -0.0610528551042
2019-04-03 19:28:11.50,45116113, 1.06, 1.31, 353.0, 584.340026855, -35.363261, 149.1652299, 0.99802428484, 0.00993493571877, 0.0108712743968, -0.0610793307424
2019-04-03 19:28:11.60,45216073, 2.08, 2.58, 353.03, 584.460021973, -35.363261, 149.1652299, 0.997706055641, 0.0195647459477, 0.0214258749038, -0.061161659658
2019-04-03 19:28:11.70,45316033, 3.15, 3.9, 353.06, 584.559997559, -35.363261, 149.1652301, 0.997155785561, 0.0295009408146, 0.0323528721929, -0.0613464154303
2019-04-03 19:28:11.80,45415993, 4.06, 5.03, 353.09, 584.659973145, -35.363261, 149.1652302, 0.996499598026, 0.0380414836109, 0.0416897647083, -0.0616719909012
2019-04-03 19:28:11.90,45515953, 4.72, 5.82, 353.1, 584.729980469, -35.3632613, 149.1652303, 0.995928347111, 0.0441129356623, 0.048167578876, -0.0621348433197
2019-04-03 19:28:11.99,45615913, 5.07, 6.22, 353.07, 584.799987793, -35.3632615, 149.1652306, 0.995575785637, 0.047437954694, 0.051472350955, -0.0626829341054
2019-04-03 19:28:12.09,45715873, 5.21, 6.37, 353.02, 584.859985352, -35.3632617, 149.165231, 0.995418548584, 0.0487227886915, 0.0526349246502, -0.0632262676954
2019-04-03 19:28:12.19,45815833, 5.24, 6.42, 352.97, 584.91998291, -35.3632621, 149.1652315, 0.995350062847, 0.0490580685437, 0.0530649833381, -0.063683912158
2019-04-03 19:28:12.29,45915793, 5.26, 6.45, 352.93, 584.979980469, -35.3632625, 149.165232, 0.995306313038, 0.0492294840515, 0.0532972514629, -0.0640411525965
2019-04-03 19:28:12.39,46015753, 5.3, 6.49, 352.9, 585.039978027, -35.3632629, 149.1652326, 0.995252847672, 0.0496062487364, 0.0536515712738, -0.0642847120762
2019-04-03 19:28:12.49,46115713, 5.38, 6.6, 352.9, 585.090026855, -35.3632635, 149.1652332, 0.99516159296, 0.0503346286714, 0.0545080564916, -0.0644101053476
2019-04-03 19:28:12.59,46215673, 5.48, 6.73, 352.91, 585.140014648, -35.363264, 149.1652341, 0.995048463345, 0.0513272024691, 0.0555872656405, -0.0644529610872
2019-04-03 19:28:12.70,46316466, 5.62, 6.9, 352.93, 585.190002441, -35.3632647, 149.1652349, 0.994904577732, 0.052574198693, 0.0570251122117, -0.0644127354026
2019-04-03 19:28:12.80,46416426, 5.63, 7.24, 353.11, 585.239990234, -35.3632655, 149.1652358, 0.994813263416, 0.0527400374413, 0.0600308664143, -0.0629393458366
2019-04-03 19:28:12.90,46516386, 5.49, 7.81, 354.03, 585.289978027, -35.3632663, 149.1652368, 0.995007276535, 0.0512608699501, 0.0655060857534, -0.0551529787481
2019-04-03 19:28:13.00,46616346, 5.45, 8.41, 356.34, 585.340026855, -35.3632671, 149.1652378, 0.995559811592, 0.049754742533, 0.071711845696, -0.0352499298751
2019-04-03 19:28:13.10,46716306, 5.81, 8.7, 0.31, 585.390014648, -35.363268, 149.1652389, 0.995841503143, 0.0503272637725, 0.0759310722351, -0.00112616957631
2019-04-03 19:28:13.20,46816266, 6.63, 8.45, 5.78, 585.440002441, -35.3632689, 149.1652399, 0.994557142258, 0.0539404526353, 0.0763817951083, 0.0459604971111
2019-04-03 19:28:13.30,46916226, 7.85, 7.57, 12.45, 585.5, -35.36327, 149.1652412, 0.990086615086, 0.0607797391713, 0.0729381889105, 0.103510424495
2019-04-03 19:28:13.40,47016186, 9.26, 6.11, 20.0, 585.559997559, -35.3632711, 149.1652423, 0.980928361416, 0.0701563134789, 0.0663727968931, 0.168677926064
2019-04-03 19:28:13.50,47116146, 10.62, 4.17, 28.13, 585.619995117, -35.3632723, 149.1652437, 0.96602678299, 0.0809028148651, 0.0576324686408, 0.238590821624
2019-04-03 19:28:13.60,47216106, 11.71, 1.89, 36.57, 585.679992676, -35.3632736, 149.165245, 0.94494831562, 0.0917262509465, 0.0476110093296, 0.31047102809
2019-04-03 19:28:13.70,47316066, 12.34, -0.54, 45.09, 585.75, -35.3632749, 149.1652464, 0.918006002903, 0.101127415895, 0.0368306823075, 0.381682813168
2019-04-03 19:28:13.80,47416026, 12.44, -2.96, 53.49, 585.820007324, -35.3632762, 149.165248, 0.886187374592, 0.108336046338, 0.0258294586092, 0.4497423172
2019-04-03 19:28:13.90,47515986, 12.07, -5.16, 61.58, 585.900024414, -35.3632777, 149.1652495, 0.850961267948, 0.113196700811, 0.0152696687728, 0.512658059597
2019-04-03 19:28:14.00,47615946, 11.36, -7.05, 69.23, 585.979980469, -35.3632792, 149.1652513, 0.813907682896, 0.116162545979, 0.00574264163151, 0.569234192371
2019-04-03 19:28:14.09,47715906, 10.5, -8.61, 76.34, 586.059997559, -35.3632807, 149.1652531, 0.776411414146, 0.117989644408, -0.00244118086994, 0.619078159332
2019-04-03 19:28:14.19,47815866, 9.57, -9.85, 82.88, 586.140014648, -35.3632823, 149.165255, 0.73949432373, 0.119021244347, -0.00914738792926, 0.662494122982
2019-04-03 19:28:14.29,47915826, 8.65, -10.8, 88.89, 586.229980469, -35.3632839, 149.1652571, 0.703697264194, 0.119428858161, -0.0144127421081, 0.70024228096
2019-04-03 19:28:14.39,48015786, 7.8, -11.54, 94.45, 586.33001709, -35.3632854, 149.1652591, 0.669051706791, 0.119614347816, -0.018466161564, 0.733294785023
2019-04-03 19:28:14.49,48115746, 6.97, -12.14, 99.67, 586.41998291, -35.3632871, 149.1652614, 0.635208964348, 0.119726136327, -0.0218300744891, 0.762691736221
2019-04-03 19:28:14.59,48215706, 6.19, -12.64, 104.7, 586.520019531, -35.363289, 149.1652637, 0.601518332958, 0.119861878455, -0.024679441005, 0.78943002224
2019-04-03 19:28:14.69,48315666, 5.37, -13.09, 109.66, 586.619995117, -35.3632907, 149.165266, 0.567240059376, 0.119975037873, -0.027523431927, 0.814301729202
2019-04-03 19:28:14.80,48416459, 4.49, -13.53, 114.71, 586.729980469, -35.3632926, 149.1652685, 0.531316518784, 0.120138324797, -0.0307252146304, 0.838048696518
2019-04-03 19:28:14.90,48516419, 3.5, -13.92, 119.88, 586.83001709, -35.3632944, 149.1652709, 0.493724614382, 0.12007907778, -0.0344369187951, 0.860599279404
2019-04-03 19:28:15.00,48616379, 2.24, -14.29, 125.25, 586.940002441, -35.3632963, 149.1652734, 0.453985631466, 0.119420617819, -0.0399917960167, 0.882063746452
2019-04-03 19:28:15.10,48716339, 0.42, -14.58, 130.56, 587.049987793, -35.3632982, 149.1652761, 0.41431760788, 0.116839528084, -0.0497476272285, 0.901229560375
2019-04-03 19:28:15.20,48816299, -1.71, -14.64, 135.28, 587.150024414, -35.3633003, 149.1652786, 0.378986954689, 0.112250618637, -0.0622228421271, 0.916458904743
2019-04-03 19:28:15.30,48916259, -3.67, -14.5, 138.93, 587.260009766, -35.3633023, 149.1652814, 0.351579397917, 0.107030712068, -0.0740469619632, 0.927067101002
2019-04-03 19:28:15.40,49016219, -5.01, -14.28, 141.24, 587.369995117, -35.3633042, 149.1652842, 0.334009736776, 0.102785892785, -0.0821916759014, 0.933336555958
2019-04-03 19:28:15.50,49116179, -5.55, -14.11, 142.24, 587.479980469, -35.3633063, 149.1652871, 0.326383769512, 0.100525557995, -0.0851919278502, 0.936007857323
2019-04-03 19:28:15.60,49216139, -5.3, -14.06, 142.07, 587.590026855, -35.3633084, 149.16529, 0.327483445406, 0.100771054626, -0.083215713501, 0.93577504158
2019-04-03 19:28:15.70,49316099, -4.42, -14.19, 141.0, 587.700012207, -35.3633103, 149.165293, 0.335421621799, 0.103614658117, -0.0772978514433, 0.93315666914
2019-04-03 19:28:15.80,49416059, -3.12, -14.45, 139.29, 587.809997559, -35.3633125, 149.1652961, 0.348116785288, 0.10854549706, -0.0691056549549, 0.928577959538
2019-04-03 19:28:15.90,49516019, -1.67, -14.78, 137.2, 587.929992676, -35.3633145, 149.1652992, 0.363475769758, 0.114498950541, -0.0603842139244, 0.922566592693
2019-04-03 19:28:16.00,49615979, -0.27, -15.05, 135.03, 588.039978027, -35.3633166, 149.1653024, 0.379422068596, 0.120153017342, -0.0523259676993, 0.915895283222
2019-04-03 19:28:16.10,49715939, 0.9, -15.24, 133.02, 588.150024414, -35.3633187, 149.1653055, 0.394038796425, 0.124799832702, -0.0456718578935, 0.909435272217
2019-04-03 19:28:16.19,49815899, 1.79, -15.34, 131.39, 588.260009766, -35.3633209, 149.1653088, 0.405876457691, 0.128068834543, -0.0407796427608, 0.903990983963
2019-04-03 19:28:16.29,49915859, 2.32, -15.38, 130.27, 588.380004883, -35.363323, 149.165312, 0.414091110229, 0.129899516702, -0.0380682013929, 0.900114178658
2019-04-03 19:28:16.39,50015819, 2.47, -15.4, 129.7, 588.489990234, -35.3633254, 149.1653151, 0.418389230967, 0.130425721407, -0.0375665575266, 0.8980692029
2019-04-03 19:28:16.49,50115779, 2.3, -15.41, 129.65, 588.599975586, -35.3633277, 149.1653183, 0.418962538242, 0.129820674658, -0.0389545224607, 0.897830486298
2019-04-03 19:28:16.59,50215739, 1.9, -15.42, 130.04, 588.719970703, -35.3633301, 149.1653216, 0.41634452343, 0.128562316298, -0.0417074263096, 0.899104833603
2019-04-03 19:28:16.69,50315699, 1.37, -15.44, 130.76, 588.83001709, -35.3633325, 149.1653247, 0.411314278841, 0.127120822668, -0.0451596714556, 0.90145522356
2019-04-03 19:28:16.79,50415659, 0.79, -15.5, 131.66, 588.940002441, -35.363335, 149.165328, 0.404811561108, 0.125899612904, -0.0489313937724, 0.904368638992
2019-04-03 19:28:16.90,50516452, 0.23, -15.59, 132.63, 589.059997559, -35.3633374, 149.1653313, 0.397728443146, 0.125040441751, -0.0525896884501, 0.907420158386
2019-04-03 19:28:17.00,50616412, -0.25, -15.67, 133.53, 589.16998291, -35.3633399, 149.1653345, 0.391068488359, 0.124406196177, -0.0558394342661, 0.910203576088
2019-04-03 19:28:17.10,50716372, -0.64, -15.73, 134.29, 589.289978027, -35.3633424, 149.1653378, 0.385437130928, 0.123982310295, -0.0582893751562, 0.912506997585
2019-04-03 19:28:17.20,50816332, -0.88, -15.77, 134.84, 589.400024414, -35.3633449, 149.1653412, 0.381273061037, 0.12379834801, -0.0597335137427, 0.914186358452
2019-04-03 19:28:17.30,50916292, -0.99, -15.79, 135.16, 589.510009766, -35.3633474, 149.1653445, 0.378791689873, 0.123712353408, -0.0603352040052, 0.915189504623
2019-04-03 19:28:17.40,51016252, -0.99, -15.81, 135.27, 589.630004883, -35.3633499, 149.1653479, 0.377966046333, 0.123923502862, -0.0602512955666, 0.915507733822
2019-04-03 19:28:17.50,51116212, -0.88, -15.85, 135.18, 589.739990234, -35.3633526, 149.1653513, 0.378562241793, 0.124555841088, -0.0596301071346, 0.915216207504
2019-04-03 19:28:17.60,51216172, -0.7, -15.89, 134.94, 589.849975586, -35.3633552, 149.1653547, 0.380260795355, 0.125353753567, -0.0585725717247, 0.914471149445
2019-04-03 19:28:17.70,51316132, -0.47, -15.92, 134.6, 589.969970703, -35.3633577, 149.1653581, 0.382663428783, 0.12625490129, -0.0572433881462, 0.913428544998
2019-04-03 19:28:17.80,51416092, -0.25, -15.97, 134.23, 590.08001709, -35.3633602, 149.1653615, 0.385385513306, 0.127169430256, -0.0560474209487, 0.912230610847
2019-04-03 19:28:17.90,51516052, -0.07, -16.0, 133.86, 590.200012207, -35.363363, 149.1653651, 0.3880879879, 0.127838149667, -0.0551248714328, 0.911046862602
2019-04-03 19:28:18.00,51616012, 0.06, -16.03, 133.54, 590.309997559, -35.3633656, 149.1653686, 0.390456110239, 0.12836869061, -0.0544948428869, 0.909997701645
2019-04-03 19:28:18.10,51715972, 0.15, -16.05, 133.3, 590.429992676, -35.3633681, 149.165372, 0.392277061939, 0.128772050142, -0.0540896467865, 0.909181416035
2019-04-03 19:28:18.20,51815932, 0.22, -16.07, 133.14, 590.539978027, -35.3633709, 149.1653756, 0.393443882465, 0.129031479359, -0.0538351535797, 0.908655405045
2019-04-03 19:28:18.29,51915892, 0.24, -16.06, 133.07, 590.650024414, -35.3633735, 149.1653791, 0.393957555294, 0.129048258066, -0.0537271313369, 0.908436775208
2019-04-03 19:28:18.39,52015852, 0.22, -16.06, 133.08, 590.770019531, -35.3633763, 149.1653825, 0.39387768507, 0.128960251808, -0.0538288019598, 0.908477902412
2019-04-03 19:28:18.49,52115812, 0.17, -16.08, 133.16, 590.880004883, -35.363379, 149.1653862, 0.393335521221, 0.128954172134, -0.0542154125869, 0.90869063139
2019-04-03 19:28:18.59,52215772, 0.08, -16.13, 133.27, 591.0, -35.3633817, 149.1653897, 0.392485618591, 0.129127949476, -0.0549304410815, 0.908990442753
2019-04-03 19:28:18.69,52315732, 0.0, -16.2, 133.41, 591.109985352, -35.3633844, 149.1653933, 0.391454875469, 0.129458233714, -0.0557067878544, 0.909340679646
2019-04-03 19:28:18.79,52415692, -0.07, -16.27, 133.55, 591.229980469, -35.3633872, 149.1653969, 0.390402913094, 0.129801750183, -0.0563886091113, 0.909701824188
2019-04-03 19:28:18.90,52516485, -0.14, -16.31, 133.68, 591.340026855, -35.3633899, 149.1654005, 0.389467000961, 0.129983738065, -0.0569592826068, 0.91004139185
2019-04-03 19:28:19.00,52616445, -0.2, -16.34, 133.77, 591.450012207, -35.3633927, 149.1654041, 0.388773560524, 0.130028575659, -0.0574202612042, 0.910302460194
2019-04-03 19:28:19.10,52716405, -0.22, -16.34, 133.83, 591.570007324, -35.3633954, 149.1654077, 0.388316988945, 0.130044013262, -0.0575062222779, 0.910489737988
2019-04-03 19:28:19.20,52816365, -0.21, -16.33, 133.85, 591.679992676, -35.3633983, 149.1654113, 0.388132810593, 0.129991993308, -0.0573837123811, 0.910583376884
2019-04-03 19:28:19.30,52916325, -0.18, -16.32, 133.84, 591.799987793, -35.3634011, 149.165415, 0.388183534145, 0.129981309175, -0.0571167059243, 0.910580098629
2019-04-03 19:28:19.40,53016285, -0.15, -16.31, 133.81, 591.909973145, -35.3634038, 149.1654185, 0.38846090436, 0.129973307252, -0.0568849667907, 0.910477459431
2019-04-03 19:28:19.50,53116245, -0.12, -16.31, 133.75, 592.030029297, -35.3634066, 149.1654223, 0.388884276152, 0.130104362965, -0.0566969886422, 0.9102897048
2019-04-03 19:28:19.60,53216205, -0.08, -16.35, 133.68, 592.140014648, -35.3634094, 149.1654259, 0.389386147261, 0.130497425795, -0.056633900851, 0.9100227952
2019-04-03 19:28:19.70,53316165, -0.07, -16.4, 133.6, 592.25, -35.3634123, 149.1654295, 0.389926344156, 0.130926638842, -0.0567801855505, 0.909720659256
2019-04-03 19:28:19.80,53416125, -0.05, -16.43, 133.53, 592.369995117, -35.3634151, 149.1654333, 0.390441834927, 0.13118045032, -0.0568449757993, 0.909458935261
2019-04-03 19:28:19.90,53516085, -0.04, -16.46, 133.48, 592.479980469, -35.3634179, 149.165437, 0.390879362822, 0.131386786699, -0.0568916350603, 0.909238278866
2019-04-03 19:28:20.00,53616045, -0.02, -16.47, 133.43, 592.599975586, -35.3634207, 149.1654407, 0.391219198704, 0.131473317742, -0.0568519756198, 0.909082055092
2019-04-03 19:28:20.10,53716005, 0.0, -16.45, 133.4, 592.710021973, -35.3634236, 149.1654443, 0.39143961668, 0.131420791149, -0.0566017962992, 0.909010410309
2019-04-03 19:28:20.20,53815965, 0.02, -16.44, 133.38, 592.83001709, -35.3634264, 149.1654481, 0.39154830575, 0.131460428238, -0.0563647560775, 0.908972561359
2019-04-03 19:28:20.29,53915925, 0.04, -16.47, 133.38, 592.940002441, -35.3634293, 149.1654518, 0.391555994749, 0.131769686937, -0.0563643053174, 0.908924520016
2019-04-03 19:28:20.39,54015885, 0.02, -16.51, 133.38, 593.049987793, -35.3634321, 149.1654556, 0.391518741846, 0.131997585297, -0.0566317513585, 0.908890843391
2019-04-03 19:28:20.49,54115845, -0.02, -16.56, 133.39, 593.16998291, -35.3634349, 149.1654592, 0.391464322805, 0.132211312652, -0.0571630038321, 0.908849954605
2019-04-03 19:28:20.59,54215805, -0.06, -16.61, 133.4, 593.280029297, -35.3634379, 149.165463, 0.391387492418, 0.132484227419, -0.0576139502227, 0.908814847469
2019-04-03 19:28:20.69,54315765, -0.07, -16.64, 133.42, 593.400024414, -35.3634407, 149.1654668, 0.391300857067, 0.132650882006, -0.0578405894339, 0.908813476562
2019-04-03 19:28:20.79,54415725, -0.08, -16.65, 133.43, 593.510009766, -35.3634435, 149.1654705, 0.391238331795, 0.132742464542, -0.0579608865082, 0.908819317818
2019-04-03 19:28:20.89,54515685, -0.09, -16.67, 133.43, 593.619995117, -35.3634464, 149.1654743, 0.39121812582, 0.132855534554, -0.0580457448959, 0.908806085587
2019-04-03 19:28:21.00,54616478, -0.09, -16.68, 133.42, 593.739990234, -35.3634494, 149.1654781, 0.391262769699, 0.132909059525, -0.0581082776189, 0.908775031567
2019-04-03 19:28:21.10,54716438, -0.1, -16.69, 133.41, 593.849975586, -35.3634523, 149.1654819, 0.391345620155, 0.133025273681, -0.0582472793758, 0.908713459969
2019-04-03 19:28:21.20,54816398, -0.09, -16.72, 133.4, 593.969970703, -35.3634552, 149.1654857, 0.391439557076, 0.133279114962, -0.0582968406379, 0.90863263607
2019-04-03 19:28:21.30,54916358, -0.06, -16.75, 133.38, 594.08001709, -35.363458, 149.1654893, 0.391533970833, 0.133542135358, -0.0581679195166, 0.908561587334
2019-04-03 19:28:21.40,55016318, -0.05, -16.75, 133.36, 594.190002441, -35.363461, 149.1654931, 0.391665697098, 0.133589014411, -0.058061670512, 0.908504724503
2019-04-03 19:28:21.50,55116278, -0.04, -16.75, 133.34, 594.309997559, -35.3634639, 149.1654969, 0.391812831163, 0.133601590991, -0.0580675750971, 0.908439040184
2019-04-03 19:28:21.60,55216238, -0.06, -16.76, 133.32, 594.41998291, -35.3634668, 149.1655008, 0.391973435879, 0.133605718613, -0.058288577944, 0.908354997635
2019-04-03 19:28:21.70,55316198, -0.08, -16.76, 133.31, 594.530029297, -35.3634698, 149.1655046, 0.39213013649, 0.133572354913, -0.0584885254502, 0.908279418945
2019-04-03 19:28:21.80,55416158, -0.11, -16.76, 133.29, 594.650024414, -35.3634726, 149.1655084, 0.392283707857, 0.1334566921, -0.0586570650339, 0.908219218254
2019-04-03 19:28:21.90,55516118, -0.12, -16.76, 133.27, 594.760009766, -35.3634756, 149.1655123, 0.392421275377, 0.133408531547, -0.0587826445699, 0.908158779144
2019-04-03 19:28:22.00,55616078, -0.11, -16.76, 133.26, 594.880004883, -35.3634786, 149.1655161, 0.392534703016, 0.133463397622, -0.0587577968836, 0.90810328722
2019-04-03 19:28:22.10,55716038, -0.08, -16.78, 133.24, 594.989990234, -35.3634815, 149.1655199, 0.392612665892, 0.133646845818, -0.0585578083992, 0.908055484295
2019-04-03 19:28:22.20,55815998, -0.04, -16.79, 133.23, 595.109985352, -35.3634844, 149.1655238, 0.392669945955, 0.13388672471, -0.0583204776049, 0.908010661602
2019-04-03 19:28:22.30,55915958, -0.02, -16.81, 133.22, 595.219970703, -35.3634873, 149.1655276, 0.392727822065, 0.134071826935, -0.0582564845681, 0.907962441444
2019-04-03 19:28:22.39,56015918, -0.02, -16.81, 133.21, 595.33001709, -35.3634902, 149.1655314, 0.39279460907, 0.134076312184, -0.0582742020488, 0.907931745052
2019-04-03 19:28:22.49,56115878, -0.03, -16.78, 133.2, 595.450012207, -35.3634933, 149.1655353, 0.3928617239, 0.133809909225, -0.0582451559603, 0.9079439044
2019-04-03 19:28:22.59,56215838, -0.04, -16.75, 133.2, 595.559997559, -35.3634962, 149.1655391, 0.392910331488, 0.133531883359, -0.0581789128482, 0.907967984676
2019-04-03 19:28:22.69,56315798, -0.05, -16.72, 133.2, 595.66998291, -35.3634992, 149.165543, 0.392954975367, 0.133307248354, -0.058224953711, 0.907978773117
2019-04-03 19:28:22.79,56415758, -0.07, -16.71, 133.2, 595.789978027, -35.3635021, 149.165547, 0.393003106117, 0.133146390319, -0.0582832768559, 0.907977819443
2019-04-03 19:28:22.89,56515718, -0.06, -16.71, 133.19, 595.900024414, -35.3635051, 149.1655508, 0.393027484417, 0.133210852742, -0.0582584775984, 0.907959401608
2019-04-03 19:28:22.99,56615678, -0.04, -16.73, 133.19, 596.010009766, -35.3635079, 149.1655547, 0.393041938543, 0.133376851678, -0.0581285506487, 0.90793710947
2019-04-03 19:28:23.10,56716471, -0.01, -16.73, 133.18, 596.119995117, -35.3635109, 149.1655586, 0.393058925867, 0.133525758982, -0.0579457208514, 0.9079195261
2019-04-03 19:28:23.20,56816431, 0.0, -16.75, 133.17, 596.239990234, -35.3635139, 149.1655625, 0.393081754446, 0.133726358414, -0.0578424520791, 0.907886683941
2019-04-03 19:28:23.30,56916391, 0.0, -16.75, 133.16, 596.349975586, -35.3635169, 149.1655663, 0.39314070344, 0.133701443672, -0.0578112266958, 0.907866835594
2019-04-03 19:28:23.40,57016351, 0.0, -16.72, 133.16, 596.460021973, -35.3635199, 149.1655702, 0.393236398697, 0.133448809385, -0.057832993567, 0.907861173153
2019-04-03 19:28:23.50,57116311, -0.02, -16.69, 133.15, 596.570007324, -35.3635228, 149.165574, 0.393343687057, 0.133161664009, -0.0578834228218, 0.907853662968
2019-04-03 19:28:23.60,57216271, -0.04, -16.66, 133.14, 596.679992676, -35.3635258, 149.1655779, 0.393460690975, 0.132846042514, -0.0579941757023, 0.907842099667
2019-04-03 19:28:23.70,57316231, -0.06, -16.64, 133.13, 596.789978027, -35.3635286, 149.1655817, 0.393563508987, 0.132609114051, -0.0580791980028, 0.907826721668
2019-04-03 19:28:23.80,57416191, -0.07, -16.64, 133.12, 596.900024414, -35.3635316, 149.1655856, 0.393644988537, 0.132556259632, -0.0582047663629, 0.907791137695
2019-04-03 19:28:23.90,57516151, -0.08, -16.66, 133.11, 597.010009766, -35.3635346, 149.1655894, 0.393702656031, 0.132645636797, -0.0583064593375, 0.907746553421
2019-04-03 19:28:24.00,57616111, -0.08, -16.67, 133.11, 597.119995117, -35.3635376, 149.1655934, 0.393762439489, 0.132708415389, -0.0583702139556, 0.90770727396
2019-04-03 19:28:24.10,57716071, -0.08, -16.67, 133.1, 597.229980469, -35.3635406, 149.1655973, 0.393834620714, 0.132715329528, -0.0584096610546, 0.907672464848
2019-04-03 19:28:24.20,57816031, -0.06, -16.66, 133.09, 597.33001709, -35.3635435, 149.1656011, 0.39389193058, 0.132697597146, -0.0582278929651, 0.907661855221
2019-04-03 19:28:24.30,57915991, -0.03, -16.67, 133.08, 597.440002441, -35.3635465, 149.165605, 0.393917649984, 0.132886379957, -0.0580176301301, 0.907636523247
2019-04-03 19:28:24.40,58015951, 0.0, -16.69, 133.07, 597.549987793, -35.3635493, 149.1656089, 0.393934339285, 0.133148565888, -0.0578239932656, 0.90760320425
2019-04-03 19:28:24.49,58115911, 0.0, -16.72, 133.06, 597.659973145, -35.3635523, 149.1656128, 0.393975824118, 0.133405521512, -0.0578576214612, 0.90754532814
2019-04-03 19:28:24.59,58215871, 0.0, -16.72, 133.05, 597.770019531, -35.3635553, 149.1656166, 0.39405348897, 0.133377537131, -0.0579941906035, 0.907507002354
2019-04-03 19:28:24.69,58315831, 0.0, -16.7, 133.05, 597.880004883, -35.3635583, 149.1656205, 0.394112676382, 0.133237868547, -0.0579121187329, 0.907507061958
2019-04-03 19:28:24.79,58415791, -0.01, -16.67, 133.04, 597.989990234, -35.3635613, 149.1656243, 0.394192278385, 0.132970511913, -0.0579053275287, 0.907512128353
2019-04-03 19:28:24.89,58515751, -0.01, -16.66, 133.03, 598.099975586, -35.3635642, 149.1656282, 0.394251048565, 0.132827922702, -0.0578633360565, 0.9075101614
2019-04-03 19:28:24.99,58615711, 0.01, -16.64, 133.03, 598.210021973, -35.3635672, 149.1656322, 0.394264221191, 0.132785126567, -0.0575760416687, 0.907528996468
2019-04-03 19:28:25.09,58715671, 0.04, -16.62, 133.02, 598.320007324, -35.3635702, 149.1656361, 0.394271045923, 0.132721349597, -0.0572178214788, 0.90755802393
2019-04-03 19:28:25.20,58816464, 0.05, -16.61, 133.02, 598.429992676, -35.363573, 149.16564, 0.394294083118, 0.132730409503, -0.0571433417499, 0.907551407814
2019-04-03 19:28:25.30,58916424, 0.04, -16.62, 133.02, 598.539978027, -35.363576, 149.1656439, 0.394323438406, 0.132772624493, -0.0572443157434, 0.907526016235
2019-04-03 19:28:25.40,59016384, 0.02, -16.65, 133.01, 598.650024414, -35.363579, 149.1656477, 0.394353121519, 0.132934436202, -0.0574970208108, 0.907473504543
2019-04-03 19:28:25.50,59116344, 0.0, -16.68, 133.01, 598.760009766, -35.363582, 149.1656516, 0.394398570061, 0.133030086756, -0.0578106120229, 0.907419800758
2019-04-03 19:28:25.60,59216304, -0.02, -16.69, 133.01, 598.869995117, -35.363585, 149.1656554, 0.394441336393, 0.133106008172, -0.0580502524972, 0.907374799252
2019-04-03 19:28:25.70,59316264, -0.03, -16.7, 133.0, 598.979980469, -35.3635879, 149.1656593, 0.394482910633, 0.133091822267, -0.0581517852843, 0.9073523283
2019-04-03 19:28:25.80,59416224, -0.02, -16.69, 133.0, 599.090026855, -35.3635909, 149.1656631, 0.394523233175, 0.133028700948, -0.0580934695899, 0.907347798347
2019-04-03 19:28:25.90,59516184, 0.0, -16.67, 132.99, 599.200012207, -35.3635939, 149.1656671, 0.394556224346, 0.132970556617, -0.0578333474696, 0.907358586788
2019-04-03 19:28:26.00,59616144, 0.03, -16.66, 132.98, 599.309997559, -35.3635967, 149.165671, 0.394581198692, 0.133023962379, -0.0575446113944, 0.90735822916
2019-04-03 19:28:26.10,59716104, 0.05, -16.66, 132.98, 599.41998291, -35.3635997, 149.1656749, 0.39462274313, 0.133028581738, -0.0573852285743, 0.907349586487
2019-04-03 19:28:26.20,59816064, 0.06, -16.65, 132.97, 599.530029297, -35.3636027, 149.1656788, 0.394661694765, 0.133035972714, -0.0573038309813, 0.907336711884
2019-04-03 19:28:26.30,59916024, 0.06, -16.66, 132.97, 599.640014648, -35.3636057, 149.1656827, 0.394699126482, 0.133064493537, -0.0572971478105, 0.907316625118
2019-04-03 19:28:26.40,60015984, 0.05, -16.67, 132.96, 599.75, -35.3636087, 149.1656865, 0.394733279943, 0.133158281446, -0.0574042499065, 0.907281279564
2019-04-03 19:28:26.50,60115944, 0.02, -16.68, 132.96, 599.859985352, -35.3636116, 149.1656904, 0.394790947437, 0.133117437363, -0.0577086731791, 0.907242834568
2019-04-03 19:28:26.59,60215904, -0.02, -16.68, 132.96, 599.969970703, -35.3636146, 149.1656942, 0.394871920347, 0.13291105628, -0.0580816976726, 0.907214045525
2019-04-03 19:28:26.69,60315864, -0.06, -16.67, 132.95, 600.08001709, -35.3636174, 149.1656981, 0.394948512316, 0.132719859481, -0.0584039054811, 0.907188057899
2019-04-03 19:28:26.79,60415824, -0.08, -16.67, 132.95, 600.200012207, -35.3636204, 149.1657019, 0.394993335009, 0.132690519094, -0.0585449375212, 0.907163739204
2019-04-03 19:28:26.89,60515784, -0.05, -16.68, 132.95, 600.309997559, -35.3636234, 149.1657059, 0.394994258881, 0.13280826807, -0.0583767592907, 0.907156944275
2019-04-03 19:28:26.99,60615744, -0.02, -16.69, 132.94, 600.41998291, -35.3636264, 149.1657098, 0.394990086555, 0.133024483919, -0.0581409558654, 0.907142221928
2019-04-03 19:28:27.09,60715704, 0.02, -16.7, 132.93, 600.530029297, -35.3636294, 149.1657137, 0.394974738359, 0.133294209838, -0.0578198432922, 0.907129824162
2019-04-03 19:28:27.19,60815664, 0.05, -16.71, 132.93, 600.640014648, -35.3636323, 149.1657176, 0.3949893713, 0.133434042335, -0.0575872659683, 0.907117664814
2019-04-03 19:28:27.30,60916457, 0.05, -16.69, 132.92, 600.75, -35.3636353, 149.1657215, 0.395052790642, 0.133301392198, -0.0575676001608, 0.90711081028
2019-04-03 19:28:27.40,61016417, 0.02, -16.67, 132.91, 600.859985352, -35.3636383, 149.1657253, 0.395150214434, 0.133059799671, -0.0577161833644, 0.907094419003
2019-04-03 19:28:27.50,61116377, 0.02, -16.65, 132.91, 600.969970703, -35.3636411, 149.1657291, 0.395225733519, 0.132882073522, -0.0577044300735, 0.907088339329
2019-04-03 19:28:27.60,61216337, 0.02, -16.64, 132.9, 601.08001709, -35.3636441, 149.165733, 0.395283907652, 0.132787361741, -0.0576764903963, 0.907078623772
2019-04-03 19:28:27.70,61316297, 0.04, -16.65, 132.89, 601.190002441, -35.3636471, 149.165737, 0.395308375359, 0.132905691862, -0.0575494430959, 0.907058656216
2019-04-03 19:28:27.80,61416257, 0.07, -16.69, 132.89, 601.299987793, -35.3636501, 149.1657409, 0.395283579826, 0.133329585195, -0.0574253425002, 0.907015144825
2019-04-03 19:28:27.90,61516217, 0.09, -16.71, 132.89, 601.409973145, -35.3636531, 149.1657448, 0.395261824131, 0.133575960994, -0.0573178268969, 0.906995177269
2019-04-03 19:28:28.00,61616177, 0.11, -16.69, 132.88, 601.520019531, -35.363656, 149.1657487, 0.395269453526, 0.133498340845, -0.0571581535041, 0.907013356686
2019-04-03 19:28:28.10,61716137, 0.1, -16.68, 132.88, 601.630004883, -35.363659, 149.1657525, 0.39530441165, 0.133345559239, -0.0571346282959, 0.907022058964
2019-04-03 19:28:28.20,61816097, 0.08, -16.67, 132.88, 601.739990234, -35.3636618, 149.1657564, 0.395356982946, 0.133243918419, -0.0573069155216, 0.907003223896
2019-04-03 19:28:28.30,61916057, 0.06, -16.68, 132.87, 601.849975586, -35.3636648, 149.1657603, 0.3954025805, 0.133225306869, -0.0574496053159, 0.906977057457
2019-04-03 19:28:28.40,62016017, 0.06, -16.69, 132.87, 601.960021973, -35.3636678, 149.1657641, 0.395439207554, 0.133272171021, -0.0575235038996, 0.906949520111
2019-04-03 19:28:28.50,62115977, 0.06, -16.69, 132.87, 602.070007324, -35.3636708, 149.165768, 0.395476937294, 0.133246004581, -0.0575432665646, 0.906935691833
2019-04-03 19:28:28.60,62215937, 0.06, -16.64, 132.86, 602.179992676, -35.3636738, 149.165772, 0.395527750254, 0.132875174284, -0.0573553144932, 0.906979799271
2019-04-03 19:28:28.69,62315897, 0.07, -16.11, 132.86, 602.289978027, -35.3636767, 149.1657758, 0.395789027214, 0.128755316138, -0.0554141253233, 0.907580554485
2019-04-03 19:28:28.79,62415857, 0.11, -15.11, 132.86, 602.390014648, -35.3636797, 149.1657797, 0.396229803562, 0.120912089944, -0.0516537427902, 0.908688127995
2019-04-03 19:28:28.89,62515817, 0.15, -14.02, 132.86, 602.479980469, -35.3636824, 149.1657835, 0.396644949913, 0.112474165857, -0.0475470200181, 0.909814059734
2019-04-03 19:28:28.99,62615777, 0.18, -13.15, 132.87, 602.559997559, -35.3636854, 149.1657871, 0.396934568882, 0.105672508478, -0.0443375296891, 0.910664796829
2019-04-03 19:28:29.09,62715737, 0.18, -12.58, 132.88, 602.630004883, -35.3636882, 149.1657909, 0.397087037563, 0.101112283766, -0.0423317439854, 0.911211431026
2019-04-03 19:28:29.19,62815697, 0.17, -12.23, 132.9, 602.690002441, -35.3636909, 149.1657945, 0.397124111652, 0.0982858091593, -0.0412240512669, 0.911555230618
2019-04-03 19:28:29.30,62916490, 0.17, -11.96, 132.91, 602.75, -35.3636937, 149.1657981, 0.397080689669, 0.0961610749364, -0.0402096062899, 0.911846041679
2019-04-03 19:28:29.40,63016450, 0.19, -11.66, 132.93, 602.789978027, -35.3636963, 149.1658014, 0.397008925676, 0.0938415005803, -0.0390282087028, 0.912170231342
2019-04-03 19:28:29.50,63116410, 0.2, -11.25, 132.96, 602.83001709, -35.3636988, 149.1658048, 0.396947145462, 0.0906747281551, -0.0374801047146, 0.912582218647
2019-04-03 19:28:29.60,63216370, 0.2, -10.76, 132.99, 602.869995117, -35.3637015, 149.1658081, 0.396902501583, 0.0867433026433, -0.0358153507113, 0.913050532341
2019-04-03 19:28:29.70,63316330, 0.18, -10.21, 133.01, 602.900024414, -35.363704, 149.1658115, 0.396877080202, 0.0822617039084, -0.0339623764157, 0.913547039032
2019-04-03 19:28:29.80,63416290, 0.18, -9.62, 133.04, 602.91998291, -35.3637064, 149.1658147, 0.396848350763, 0.077597565949, -0.0319469161332, 0.914040148258
2019-04-03 19:28:29.90,63516250, 0.18, -9.05, 133.07, 602.940002441, -35.3637088, 149.1658177, 0.396798372269, 0.0730695277452, -0.0300072319806, 0.914500653744
2019-04-03 19:28:30.00,63616210, 0.18, -8.51, 133.1, 602.960021973, -35.3637112, 149.1658208, 0.39671459794, 0.0687482655048, -0.0280237141997, 0.914934873581
2019-04-03 19:28:30.10,63716170, 0.19, -7.98, 133.13, 602.969970703, -35.3637134, 149.1658237, 0.396615833044, 0.0645800083876, -0.0261840708554, 0.915335834026
2019-04-03 19:28:30.20,63816130, 0.17, -7.49, 133.16, 602.989990234, -35.3637156, 149.1658266, 0.396506786346, 0.0605616047978, -0.0245270971209, 0.915703654289
2019-04-03 19:28:30.30,63916090, 0.16, -6.96, 133.19, 603.0, -35.3637177, 149.1658294, 0.396387070417, 0.0563340336084, -0.0227773711085, 0.916070401669
2019-04-03 19:28:30.40,64016050, 0.15, -6.42, 133.22, 603.0, -35.3637199, 149.1658321, 0.396260052919, 0.0519377216697, -0.0210345257074, 0.91642677784
2019-04-03 19:28:30.50,64116010, 0.13, -5.87, 133.25, 603.010009766, -35.3637219, 149.1658347, 0.396121770144, 0.0474876873195, -0.0192408896983, 0.916767299175
2019-04-03 19:28:30.60,64215970, 0.13, -5.28, 133.28, 603.020019531, -35.3637237, 149.1658372, 0.395958721638, 0.0427611768246, -0.0171632301062, 0.917111575603
2019-04-03 19:28:30.70,64315930, 0.16, -4.68, 133.32, 603.020019531, -35.3637256, 149.1658396, 0.395757764578, 0.0380869023502, -0.0148765612394, 0.917444229126
2019-04-03 19:28:30.79,64415890, 0.18, -4.1, 133.36, 603.030029297, -35.3637274, 149.1658419, 0.395505994558, 0.033549208194, -0.0127112586051, 0.917762458324
2019-04-03 19:28:30.89,64515850, 0.19, -3.5, 133.41, 603.030029297, -35.3637292, 149.1658441, 0.395204335451, 0.0288091581315, -0.0105107007548, 0.918081223965
2019-04-03 19:28:30.99,64615810, 0.2, -2.86, 133.46, 603.039978027, -35.363731, 149.1658463, 0.394846230745, 0.0236735548824, -0.00820708833635, 0.918405473232
2019-04-03 19:28:31.09,64715770, 0.21, -2.18, 133.52, 603.039978027, -35.3637325, 149.1658483, 0.394399672747, 0.0182544868439, -0.00583459343761, 0.918739140034
2019-04-03 19:28:31.19,64815730, 0.18, -1.48, 133.6, 603.039978027, -35.363734, 149.1658503, 0.393868327141, 0.0125718908384, -0.00361990416422, 0.919073700905
2019-04-03 19:28:31.29,64915690, 0.14, -0.77, 133.68, 603.049987793, -35.3637355, 149.1658521, 0.393239319324, 0.00671063223854, -0.00144934584387, 0.919410526752
2019-04-03 19:28:31.40,65016483, 0.11, 0.01, 133.77, 603.049987793, -35.3637369, 149.1658537, 0.392563313246, 0.000325050321408, 0.000987263978459, 0.919724404812
2019-04-03 19:28:31.50,65116443, 0.1, 0.89, 133.84, 603.049987793, -35.3637382, 149.1658555, 0.391938358545, -0.00679984269664, 0.00390644976869, 0.919958055019
2019-04-03 19:28:31.60,65216403, 0.13, 1.88, 133.9, 603.049987793, -35.3637393, 149.165857, 0.391427576542, -0.014724964276, 0.00750448927283, 0.920060515404
2019-04-03 19:28:31.70,65316363, 0.15, 2.98, 133.94, 603.059997559, -35.3637404, 149.1658583, 0.391056656837, -0.0234462562948, 0.0114268651232, 0.919996976852
2019-04-03 19:28:31.80,65416323, 0.15, 3.98, 133.96, 603.059997559, -35.3637413, 149.1658596, 0.390844583511, -0.0314417853951, 0.0148382801563, 0.919799864292
2019-04-03 19:28:31.90,65516283, 0.19, 4.73, 133.95, 603.059997559, -35.3637423, 149.1658607, 0.390821993351, -0.0373865514994, 0.0177449006587, 0.919535517693
2019-04-03 19:28:32.00,65616243, 0.34, 5.22, 133.93, 603.059997559, -35.3637431, 149.1658617, 0.390999704599, -0.0407438613474, 0.0205546896905, 0.919258773327
2019-04-03 19:28:32.10,65716203, 0.61, 5.48, 133.89, 603.059997559, -35.3637438, 149.1658625, 0.391353279352, -0.0418983958662, 0.0236570313573, 0.918981790543
2019-04-03 19:28:32.20,65816163, 0.95, 5.61, 133.85, 603.059997559, -35.3637444, 149.1658632, 0.391805708408, -0.041815456003, 0.026883142069, 0.918704032898
2019-04-03 19:28:32.30,65916123, 1.35, 5.71, 133.8, 603.059997559, -35.3637449, 149.1658637, 0.392284303904, -0.0412207245827, 0.0303700026125, 0.918417990208
2019-04-03 19:28:32.40,66016083, 1.75, 5.8, 133.77, 603.059997559, -35.3637454, 149.1658641, 0.392736047506, -0.0405078195035, 0.0339641682804, 0.91813069582
2019-04-03 19:28:32.50,66116043, 2.16, 5.89, 133.74, 603.059997559, -35.3637456, 149.1658646, 0.393111646175, -0.0398571826518, 0.0375845059752, 0.917857348919
2019-04-03 19:28:32.60,66216003, 2.58, 6.02, 133.72, 603.059997559, -35.363746, 149.1658647, 0.393399626017, -0.0394505672157, 0.0413408875465, 0.917589962482
2019-04-03 19:28:32.70,66315963, 3.03, 6.16, 133.71, 603.059997559, -35.3637462, 149.1658647, 0.393617153168, -0.0390777364373, 0.045419305563, 0.917319774628
2019-04-03 19:28:32.79,66415923, 3.48, 6.28, 133.71, 603.059997559, -35.3637465, 149.1658647, 0.393779993057, -0.0384539291263, 0.0494829751551, 0.917066037655
2019-04-03 19:28:32.89,66515883, 3.91, 6.38, 133.72, 603.059997559, -35.3637466, 149.1658646, 0.393883645535, -0.037769343704, 0.053247474134, 0.916839063168
2019-04-03 19:28:32.99,66615843, 4.31, 6.43, 133.72, 603.070007324, -35.3637468, 149.1658642, 0.393955558538, -0.0368206910789, 0.0565715953708, 0.916647672653
2019-04-03 19:28:33.09,66715803, 4.7, 6.46, 133.73, 603.070007324, -35.3637468, 149.1658639, 0.394016981125, -0.0356867723167, 0.0598029270768, 0.916460931301
2019-04-03 19:28:33.19,66815763, 5.06, 6.45, 133.74, 603.070007324, -35.3637469, 149.1658632, 0.394062906504, -0.0344124175608, 0.0626706108451, 0.91629832983
2019-04-03 19:28:33.29,66915723, 5.37, 6.4, 133.74, 603.070007324, -35.3637469, 149.1658627, 0.394107073545, -0.0329286828637, 0.0649962499738, 0.916171848774
2019-04-03 19:28:33.39,67015683, 5.65, 6.3, 133.75, 603.070007324, -35.3637471, 149.1658618, 0.394155710936, -0.0311528462917, 0.0668257698417, 0.916081428528
2019-04-03 19:28:33.50,67116476, 5.9, 6.17, 133.74, 603.070007324, -35.3637471, 149.165861, 0.394210100174, -0.0292240120471, 0.068435780704, 0.916002690792
2019-04-03 19:28:33.60,67216436, 6.12, 6.02, 133.74, 603.070007324, -35.3637472, 149.1658599, 0.394263476133, -0.0273278020322, 0.0697093382478, 0.915942192078
2019-04-03 19:28:33.70,67316396, 6.32, 5.9, 133.74, 603.070007324, -35.3637472, 149.1658589, 0.39429217577, -0.0256155040115, 0.0708722770214, 0.915890097618
2019-04-03 19:28:33.80,67416356, 6.49, 5.83, 133.76, 603.070007324, -35.3637473, 149.1658578, 0.394157916307, -0.0245009586215, 0.0719697847962, 0.915892779827
2019-04-03 19:28:33.90,67516316, 6.53, 6.02, 134.08, 603.070007324, -35.3637473, 149.1658565, 0.391624391079, -0.0260851308703, 0.0729046836495, 0.916861414909
2019-04-03 19:28:34.00,67616276, 6.53, 6.47, 135.38, 603.070007324, -35.3637474, 149.1658551, 0.381338357925, -0.0305233020335, 0.0740444511175, 0.920959711075
2019-04-03 19:28:34.10,67716236, 6.76, 6.81, 138.24, 603.070007324, -35.3637474, 149.1658536, 0.358368635178, -0.0344217307866, 0.0761613175273, 0.929831504822
2019-04-03 19:28:34.20,67816196, 7.38, 6.71, 142.76, 603.070007324, -35.3637474, 149.1658522, 0.321593523026, -0.0348664931953, 0.079540528357, 0.942886650562
2019-04-03 19:28:34.30,67916156, 8.35, 6.0, 148.71, 603.059997559, -35.3637474, 149.1658506, 0.272206634283, -0.030698787421, 0.0840964764357, 0.958065211773
2019-04-03 19:28:34.40,68016116, 9.5, 4.65, 155.77, 603.059997559, -35.3637474, 149.1658488, 0.212261453271, -0.0222102534026, 0.0894067659974, 0.972860872746
2019-04-03 19:28:34.50,68116076, 10.6, 2.73, 163.59, 603.059997559, -35.3637475, 149.1658472, 0.144167736173, -0.0103686712682, 0.0948313325644, 0.984944283962
2019-04-03 19:28:34.60,68216036, 11.41, 0.41, 171.91, 603.059997559, -35.3637475, 149.1658453, 0.0705025419593, 0.00340409972705, 0.099465623498, 0.992534339428
2019-04-03 19:28:34.70,68315996, 11.77, -2.1, 180.47, 603.070007324, -35.3637475, 149.1658433, -0.00599703844637, 0.0178708471358, 0.102632947266, 0.994540691376
2019-04-03 19:28:34.80,68415956, 11.62, -4.61, 189.04, 603.070007324, -35.3637477, 149.1658412, -0.0824554935098, 0.0319850705564, 0.104008309543, 0.990636348724
2019-04-03 19:28:34.89,68515916, 10.98, -6.93, 197.4, 603.070007324, -35.3637478, 149.1658391, -0.15607060492, 0.0450716614723, 0.103517509997, 0.981271982193
2019-04-03 19:28:34.99,68615876, 9.97, -8.92, 205.36, 603.070007324, -35.3637479, 149.1658368, -0.224639713764, 0.0566270053387, 0.101575255394, 0.967477560043
2019-04-03 19:28:35.09,68715836, 8.77, -10.54, 212.77, 603.070007324, -35.363748, 149.1658345, -0.286869823933, 0.0664356052876, 0.0989614874125, 0.950525462627
2019-04-03 19:28:35.19,68815796, 7.55, -11.8, 219.57, 603.070007324, -35.3637483, 149.1658321, -0.342406928539, 0.0743465870619, 0.0964281484485, 0.931628525257
2019-04-03 19:28:35.29,68915756, 6.41, -12.75, 225.77, 603.070007324, -35.3637486, 149.1658296, -0.391639441252, 0.0805469974875, 0.0943987518549, 0.91171246767
2019-04-03 19:28:35.39,69015716, 5.39, -13.48, 231.44, 603.070007324, -35.3637489, 149.1658268, -0.435485810041, 0.0853841900826, 0.0929773822427, 0.891300618649
2019-04-03 19:28:35.49,69115676, 4.45, -14.02, 236.7, 603.070007324, -35.3637492, 149.1658242, -0.475172847509, 0.0890394225717, 0.0918763205409, 0.87054091692
2019-04-03 19:28:35.60,69216469, 3.56, -14.44, 241.75, 603.070007324, -35.3637497, 149.1658214, 0.512264609337, -0.0920006409287, -0.0910050794482, -0.849022388458
2019-04-03 19:28:35.70,69316429, 2.68, -14.78, 246.66, 603.070007324, -35.3637502, 149.1658185, 0.547302663326, -0.0946602895856, -0.0901028290391, -0.8266685009
2019-04-03 19:28:35.80,69416389, 1.65, -15.08, 251.59, 603.08001709, -35.3637505, 149.1658154, 0.58134919405, -0.0981293991208, -0.0883831381798, -0.802864968777
2019-04-03 19:28:35.90,69516349, 0.08, -15.34, 256.42, 603.08001709, -35.3637511, 149.1658124, 0.613121569157, -0.104447849095, -0.0831835269928, -0.778622567654
2019-04-03 19:28:36.00,69616309, -1.85, -15.44, 260.66, 603.08001709, -35.3637516, 149.1658093, 0.639601588249, -0.112812913954, -0.0747271478176, -0.756702661514
2019-04-03 19:28:36.10,69716269, -3.67, -15.38, 263.86, 603.08001709, -35.3637522, 149.165806, 0.658717036247, -0.120760820806, -0.0657309815288, -0.73972171545
2019-04-03 19:28:36.20,69816229, -4.94, -15.24, 265.8, 603.08001709, -35.3637527, 149.1658027, 0.669945895672, -0.126149222255, -0.0589170306921, -0.729237735271
2019-04-03 19:28:36.30,69916189, -5.41, -15.13, 266.5, 603.08001709, -35.3637534, 149.1657993, 0.673944354057, -0.12790581584, -0.0560073181987, -0.725466966629
2019-04-03 19:28:36.40,70016149, -5.11, -15.12, 266.12, 603.08001709, -35.3637541, 149.1657959, 0.671896874905, -0.126247137785, -0.0574762076139, -0.727538883686
2019-04-03 19:28:36.50,70116109, -4.18, -15.25, 264.92, 603.08001709, -35.3637547, 149.1657923, 0.665130019188, -0.12227331847, -0.0628801137209, -0.733960092068
2019-04-03 19:28:36.60,70216069, -2.85, -15.49, 263.18, 603.08001709, -35.3637556, 149.1657888, 0.655035495758, -0.117165543139, -0.0709491074085, -0.743079423904
2019-04-03 19:28:36.70,70316029, -1.39, -15.75, 261.17, 603.08001709, -35.3637564, 149.1657851, 0.643148064613, -0.111930556595, -0.0800483003259, -0.753275811672
2019-04-03 19:28:36.80,70415989, -0.01, -16.0, 259.18, 603.08001709, -35.3637571, 149.1657814, 0.631102383137, -0.107328765094, -0.0886178165674, -0.763110220432
2019-04-03 19:28:36.90,70515949, 1.11, -16.18, 257.45, 603.08001709, -35.363758, 149.1657778, 0.620397150517, -0.10383272171, -0.0955898165703, -0.771484792233
2019-04-03 19:28:36.99,70615909, 1.9, -16.31, 256.14, 603.08001709, -35.3637588, 149.165774, 0.612183630466, -0.101531773806, -0.100472718477, -0.777706742287
2019-04-03 19:28:37.09,70715869, 2.34, -16.37, 255.34, 603.090026855, -35.3637596, 149.1657701, 0.607126832008, -0.100282870233, -0.103078715503, -0.781482696533
2019-04-03 19:28:37.19,70815829, 2.44, -16.39, 255.07, 603.090026855, -35.3637603, 149.1657662, 0.605326592922, -0.100178085268, -0.103640079498, -0.78281724453
2019-04-03 19:28:37.29,70915789, 2.24, -16.41, 255.26, 603.090026855, -35.3637611, 149.1657622, 0.606443226337, -0.101178877056, -0.10246810317, -0.781978070736
2019-04-03 19:28:37.39,71015749, 1.79, -16.42, 255.82, 603.090026855, -35.3637618, 149.1657582, 0.609813094139, -0.103184893727, -0.099990695715, -0.779411792755
2019-04-03 19:28:37.49,71115709, 1.2, -16.46, 256.61, 603.090026855, -35.3637625, 149.165754, 0.61463457346, -0.10589427501, -0.0969324782491, -0.775638341904
2019-04-03 19:28:37.59,71215669, 0.58, -16.51, 257.51, 603.090026855, -35.3637632, 149.1657498, 0.620101332664, -0.108802571893, -0.0938729569316, -0.771248519421
2019-04-03 19:28:37.70,71316462, 0.03, -16.57, 258.41, 603.090026855, -35.3637639, 149.1657457, 0.625528872013, -0.111538156867, -0.0913586989045, -0.766763627529
2019-04-03 19:28:37.80,71416422, -0.41, -16.66, 259.18, 603.090026855, -35.3637647, 149.1657415, 0.630218863487, -0.113939031959, -0.0896254703403, -0.762764334679
2019-04-03 19:28:37.90,71516382, -0.74, -16.75, 259.79, 603.099975586, -35.3637654, 149.1657372, 0.633811354637, -0.115874551237, -0.0885267034173, -0.759617865086
2019-04-03 19:28:38.00,71616342, -0.93, -16.81, 260.18, 603.099975586, -35.3637661, 149.1657329, 0.636139810085, -0.117045499384, -0.0879759415984, -0.757553100586
2019-04-03 19:28:38.10,71716302, -0.96, -16.83, 260.35, 603.099975586, -35.3637669, 149.1657285, 0.637226223946, -0.11726809293, -0.0880651175976, -0.756594657898
2019-04-03 19:28:38.20,71816262, -0.87, -16.85, 260.33, 603.099975586, -35.3637675, 149.1657242, 0.637172520161, -0.11684756726, -0.0887876078486, -0.756620526314
2019-04-03 19:28:38.30,71916222, -0.69, -16.86, 260.15, 603.099975586, -35.3637684, 149.1657198, 0.63619685173, -0.116030469537, -0.0898178517818, -0.757445275784
2019-04-03 19:28:38.40,72016182, -0.48, -16.85, 259.88, 603.099975586, -35.3637692, 149.1657152, 0.634582161903, -0.115032799542, -0.0908943191171, -0.758822262287
2019-04-03 19:28:38.50,72116142, -0.24, -16.86, 259.55, 603.099975586, -35.3637699, 149.1657108, 0.632645905018, -0.11401604116, -0.0921983718872, -0.760433375835
2019-04-03 19:28:38.60,72216102, -0.01, -16.89, 259.22, 603.099975586, -35.3637706, 149.1657062, 0.630656301975, -0.11327688396, -0.0935658589005, -0.762027859688
2019-04-03 19:28:38.70,72316062, 0.17, -16.95, 258.93, 603.099975586, -35.3637715, 149.1657018, 0.62886184454, -0.112867459655, -0.0949113667011, -0.763403892517
2019-04-03 19:28:38.80,72416022, 0.32, -17.01, 258.7, 603.099975586, -35.3637723, 149.1656973, 0.627459287643, -0.112661391497, -0.0959806069732, -0.764454066753
2019-04-03 19:28:38.90,72515982, 0.4, -17.06, 258.56, 603.099975586, -35.363773, 149.1656927, 0.626538932323, -0.112660109997, -0.0966348424554, -0.765126466751
2019-04-03 19:28:39.00,72615942, 0.42, -17.12, 258.5, 603.099975586, -35.3637738, 149.165688, 0.626104950905, -0.113001301885, -0.0970717221498, -0.765376031399
2019-04-03 19:28:39.09,72715902, 0.39, -17.19, 258.51, 603.099975586, -35.3637746, 149.1656834, 0.626118957996, -0.113620474935, -0.097248531878, -0.765250384808
2019-04-03 19:28:39.19,72815862, 0.33, -17.22, 258.59, 603.099975586, -35.3637753, 149.1656788, 0.626534044743, -0.114090897143, -0.0970543548465, -0.764865279198
2019-04-03 19:28:39.29,72915822, 0.24, -17.23, 258.7, 603.109985352, -35.363776, 149.1656741, 0.627209365368, -0.114503733814, -0.0966249480844, -0.764304220676
2019-04-03 19:28:39.39,73015782, 0.15, -17.23, 258.84, 603.109985352, -35.3637769, 149.1656693, 0.62801194191, -0.114936806262, -0.0961810201406, -0.763635873795
2019-04-03 19:28:39.49,73115742, 0.07, -17.25, 258.97, 603.109985352, -35.3637776, 149.1656646, 0.628817081451, -0.115353368223, -0.0959055274725, -0.762944817543
2019-04-03 19:28:39.59,73215702, 0.01, -17.29, 259.09, 603.109985352, -35.3637784, 149.1656598, 0.629505336285, -0.115877196193, -0.0958124026656, -0.76230931282
2019-04-03 19:28:39.69,73315662, -0.05, -17.33, 259.18, 603.109985352, -35.3637791, 149.165655, 0.6300162673, -0.116430386901, -0.0957001894712, -0.76181691885
2019-04-03 19:28:39.80,73416455, -0.11, -17.36, 259.24, 603.109985352, -35.3637799, 149.1656502, 0.63031822443, -0.116920635104, -0.095504231751, -0.76151651144
2019-04-03 19:28:39.90,73516415, -0.16, -17.38, 259.27, 603.109985352, -35.3637807, 149.1656454, 0.630398452282, -0.117306999862, -0.0953305736184, -0.76141256094
2019-04-03 19:28:40.00,73616375, -0.17, -17.39, 259.26, 603.109985352, -35.3637815, 149.1656406, 0.630324780941, -0.117378249764, -0.0952940732241, -0.761467039585
2019-04-03 19:28:40.10,73716335, -0.12, -17.39, 259.22, 603.109985352, -35.3637822, 149.1656358, 0.630138278008, -0.117169715464, -0.0955901816487, -0.761616408825
2019-04-03 19:28:40.20,73816295, -0.05, -17.41, 259.17, 603.109985352, -35.363783, 149.165631, 0.629840016365, -0.116951823235, -0.0960796028376, -0.761835038662
2019-04-03 19:28:40.30,73916255, 0.0, -17.45, 259.1, 603.109985352, -35.3637838, 149.1656261, 0.629446208477, -0.116974040866, -0.0966787189245, -0.76208126545
2019-04-03 19:28:40.40,74016215, 0.05, -17.51, 259.04, 603.109985352, -35.3637845, 149.1656212, 0.629029929638, -0.117127679288, -0.0972243621945, -0.762331962585
2019-04-03 19:28:40.50,74116175, 0.08, -17.54, 258.98, 603.109985352, -35.3637854, 149.1656162, 0.628649115562, -0.11725358665, -0.0975380763412, -0.762586593628
2019-04-03 19:28:40.60,74216135, 0.1, -17.56, 258.94, 603.109985352, -35.3637862, 149.1656114, 0.628332436085, -0.117347858846, -0.0977519601583, -0.762805640697
2019-04-03 19:28:40.70,74316095, 0.11, -17.6, 258.9, 603.109985352, -35.3637869, 149.1656065, 0.628084421158, -0.117490492761, -0.0979948490858, -0.762956738472
2019-04-03 19:28:40.80,74416055, 0.12, -17.61, 258.88, 603.109985352, -35.3637878, 149.1656014, 0.62792301178, -0.117581412196, -0.0981485694647, -0.763055801392
2019-04-03 19:28:40.90,74516015, 0.12, -17.62, 258.87, 603.109985352, -35.3637886, 149.1655965, 0.627833127975, -0.117649592459, -0.0981983393431, -0.763112902641
2019-04-03 19:28:41.00,74615975, 0.12, -17.66, 258.86, 603.109985352, -35.3637894, 149.1655916, 0.62778031826, -0.117898784578, -0.0983277186751, -0.763101220131
2019-04-03 19:28:41.10,74715935, 0.11, -17.71, 258.87, 603.109985352, -35.3637901, 149.1655865, 0.627758204937, -0.118264123797, -0.0986040011048, -0.763027191162
2019-04-03 19:28:41.19,74815895, 0.1, -17.75, 258.87, 603.109985352, -35.363791, 149.1655817, 0.627759337425, -0.118629150093, -0.0987750813365, -0.762947499752
2019-04-03 19:28:41.29,74915855, 0.07, -17.78, 258.88, 603.109985352, -35.3637918, 149.1655767, 0.627763807774, -0.118968695402, -0.098728813231, -0.762896955013
2019-04-03 19:28:41.39,75015815, 0.03, -17.79, 258.89, 603.109985352, -35.3637925, 149.1655716, 0.627761483192, -0.119280844927, -0.0984980389476, -0.762879908085
2019-04-03 19:28:41.49,75115775, 0.0, -17.8, 258.89, 603.109985352, -35.3637934, 149.1655666, 0.627753198147, -0.119431205094, -0.0983658358455, -0.762880206108
2019-04-03 19:28:41.59,75215735, 0.01, -17.81, 258.89, 603.119995117, -35.3637942, 149.1655616, 0.627733886242, -0.119501456618, -0.0984572023153, -0.762873411179
2019-04-03 19:28:41.69,75315695, 0.01, -17.84, 258.89, 603.119995117, -35.3637949, 149.1655564, 0.627668499947, -0.119700424373, -0.0986166223884, -0.762875378132
2019-04-03 19:28:41.80,75416488, 0.01, -17.87, 258.88, 603.119995117, -35.3637958, 149.1655514, 0.62757307291, -0.119892761111, -0.0987767055631, -0.762902975082
2019-04-03 19:28:41.90,75516448, 0.02, -17.88, 258.86, 603.119995117, -35.3637966, 149.1655463, 0.627479791641, -0.119882181287, -0.098896920681, -0.762965857983
2019-04-03 19:28:42.00,75616408, 0.04, -17.88, 258.84, 603.119995117, -35.3637973, 149.1655413, 0.627375125885, -0.119843624532, -0.0989974886179, -0.763044834137
2019-04-03 19:28:42.10,75716368, 0.05, -17.89, 258.82, 603.119995117, -35.3637982, 149.1655362, 0.62725186348, -0.119858108461, -0.099108286202, -0.763129532337
2019-04-03 19:28:42.20,75816328, 0.05, -17.9, 258.8, 603.119995117, -35.363799, 149.165531, 0.627109289169, -0.119954183698, -0.099178403616, -0.763222515583
2019-04-03 19:28:42.30,75916288, 0.03, -17.94, 258.78, 603.119995117, -35.3637997, 149.165526, 0.626922011375, -0.120327681303, -0.09918474406, -0.763316810131
2019-04-03 19:28:42.40,76016248, 0.0, -17.96, 258.76, 603.119995117, -35.3638006, 149.1655209, 0.626727938652, -0.120745807886, -0.0990317761898, -0.763429939747
2019-04-03 19:28:42.50,76116208, -0.02, -17.98, 258.75, 603.119995117, -35.3638015, 149.1655156, 0.626567602158, -0.120999217033, -0.0989927053452, -0.763526439667
2019-04-03 19:28:42.60,76216168, -0.03, -18.01, 258.73, 603.119995117, -35.3638022, 149.1655106, 0.626433730125, -0.121176272631, -0.0990712270141, -0.76359808445
2019-04-03 19:28:42.70,76316128, -0.01, -18.01, 258.72, 603.119995117, -35.3638031, 149.1655055, 0.626353561878, -0.121141292155, -0.0991912931204, -0.763653755188
2019-04-03 19:28:42.80,76416088, 0.0, -18.01, 258.7, 603.119995117, -35.3638039, 149.1655003, 0.626292824745, -0.121033720672, -0.0993241220713, -0.763703346252
2019-04-03 19:28:42.90,76516048, 0.02, -18.02, 258.69, 603.119995117, -35.3638047, 149.1654951, 0.626236796379, -0.121011309326, -0.0994584709406, -0.763735413551
2019-04-03 19:28:43.00,76616008, 0.02, -18.04, 258.68, 603.119995117, -35.3638056, 149.16549, 0.62616443634, -0.121139533818, -0.0995678529143, -0.763760209084
2019-04-03 19:28:43.10,76715968, 0.01, -18.05, 258.68, 603.119995117, -35.3638064, 149.1654848, 0.626091957092, -0.121276579797, -0.0995392948389, -0.763801515102
2019-04-03 19:28:43.20,76815928, 0.0, -18.06, 258.67, 603.119995117, -35.3638071, 149.1654797, 0.626025438309, -0.121400244534, -0.0994982942939, -0.763841807842
2019-04-03 19:28:43.29,76915888, 0.01, -18.08, 258.66, 603.119995117, -35.3638081, 149.1654744, 0.625969827175, -0.121515356004, -0.099716976285, -0.76384049654
2019-04-03 19:28:43.39,77015848, 0.05, -18.11, 258.66, 603.119995117, -35.3638088, 149.1654692, 0.625938355923, -0.121518008411, -0.100146584213, -0.763809621334
2019-04-03 19:28:43.49,77115808, 0.09, -18.11, 258.65, 603.119995117, -35.3638098, 149.165464, 0.625946581364, -0.121256239712, -0.100445717573, -0.763805270195
2019-04-03 19:28:43.59,77215768, 0.12, -18.09, 258.64, 603.119995117, -35.3638106, 149.1654589, 0.625955164433, -0.120958380401, -0.10052472353, -0.763835072517
2019-04-03 19:28:43.69,77315728, 0.13, -18.07, 258.64, 603.119995117, -35.3638113, 149.1654537, 0.625945985317, -0.120780318975, -0.100467570126, -0.763878285885
2019-04-03 19:28:43.79,77415688, 0.11, -18.09, 258.63, 603.119995117, -35.3638123, 149.1654485, 0.625880181789, -0.1210225299, -0.100400343537, -0.763902723789
2019-04-03 19:28:43.90,77516481, 0.08, -18.14, 258.63, 603.119995117, -35.3638131, 149.1654432, 0.625789165497, -0.121529906988, -0.100483424962, -0.76388579607
2019-04-03 19:28:44.00,77616441, 0.06, -18.19, 258.63, 603.119995117, -35.363814, 149.165438, 0.625701725483, -0.122030340135, -0.100611947477, -0.763860762119
2019-04-03 19:28:44.10,77716401, 0.05, -18.22, 258.63, 603.119995117, -35.3638148, 149.1654327, 0.625660538673, -0.122220166028, -0.100693926215, -0.763853311539
2019-04-03 19:28:44.20,77816361, 0.04, -18.21, 258.62, 603.119995117, -35.3638156, 149.1654275, 0.625630438328, -0.12220608443, -0.100614137948, -0.76389080286
2019-04-03 19:28:44.30,77916321, 0.03, -18.18, 258.62, 603.119995117, -35.3638165, 149.1654223, 0.62559735775, -0.122105412185, -0.100315354764, -0.763973176479
2019-04-03 19:28:44.40,78016281, 0.01, -18.15, 258.61, 603.119995117, -35.3638173, 149.165417, 0.625562667847, -0.121975690126, -0.100041806698, -0.764058113098
2019-04-03 19:28:44.50,78116241, 0.02, -18.13, 258.6, 603.119995117, -35.3638182, 149.1654117, 0.62554359436, -0.121761441231, -0.0999936535954, -0.764114260674
2019-04-03 19:28:44.60,78216201, 0.04, -18.11, 258.59, 603.119995117, -35.363819, 149.1654065, 0.625519931316, -0.121574923396, -0.100020587444, -0.764159917831
2019-04-03 19:28:44.70,78316161, 0.05, -18.11, 258.59, 603.119995117, -35.3638198, 149.1654012, 0.625474333763, -0.121544361115, -0.100051879883, -0.764197945595
2019-04-03 19:28:44.80,78416121, 0.05, -18.13, 258.58, 603.119995117, -35.3638207, 149.1653959, 0.625404536724, -0.121690258384, -0.100134409964, -0.764221012592
2019-04-03 19:28:44.90,78516081, 0.02, -18.16, 258.57, 603.130004883, -35.3638216, 149.1653907, 0.625305891037, -0.122013397515, -0.10011459142, -0.764252841473
2019-04-03 19:28:45.00,78616041, 0.0, -18.17, 258.56, 603.130004883, -35.3638223, 149.1653854, 0.625223040581, -0.122247092426, -0.100052915514, -0.764291405678
2019-04-03 19:28:45.10,78716001, -0.02, -18.18, 258.56, 603.130004883, -35.3638233, 149.1653801, 0.625147879124, -0.122422233224, -0.0999009236693, -0.764344632626
2019-04-03 19:28:45.20,78815961, -0.03, -18.2, 258.55, 603.130004883, -35.363824, 149.1653749, 0.625066399574, -0.122642025352, -0.0998782515526, -0.764378964901
2019-04-03 19:28:45.29,78915921, -0.03, -18.23, 258.54, 603.130004883, -35.363825, 149.1653696, 0.624990224838, -0.122870832682, -0.100039452314, -0.764383554459
2019-04-03 19:28:45.39,79015881, -0.03, -18.25, 258.54, 603.130004883, -35.3638258, 149.1653643, 0.624937236309, -0.122955128551, -0.100195549428, -0.764392852783
2019-04-03 19:28:45.49,79115841, -0.01, -18.25, 258.53, 603.130004883, -35.3638267, 149.1653591, 0.624899089336, -0.122924789786, -0.100292555988, -0.764416158199
2019-04-03 19:28:45.59,79215801, 0.0, -18.26, 258.52, 603.130004883, -35.3638276, 149.1653538, 0.624875724316, -0.122845098376, -0.100524485111, -0.764417648315
