Start,TimeUS,Roll,Pitch,Yaw,Alt,Lat,Lng,Q1,Q2,Q3,Q4
2019-04-03 20:04:17.40,77415688, 0.0, 0.0, 353.0, 584.090026855, -35.363261, 149.1652299, 0.998134791851, 0.0, 0.0, -0.0610485821962
2019-04-03 20:04:17.50,77516481, 0.0, 0.0, 353.0, 584.090026855, -35.363261, 149.1652299, 0.998134791851, 0.0, 0.0, -0.0610485821962
2019-04-03 20:04:17.60,77616441, 0.0, 0.0, 353.0, 584.090026855, -35.363261, 149.1652299, 0.998134791851, 0.0, 0.0, -0.0610485821962
2019-04-03 20:04:17.70,77716401, 0.0, 0.0, 353.0, 584.090026855, -35.363261, 149.1652299, 0.998134791851, 0.0, 0.0, -0.0610485821962
2019-04-03 20:04:17.80,77816361, 0.0, 0.0, 353.0, 584.090026855, -35.363261, 149.1652299, 0.998134791851, 0.0, 0.0, -0.0610485821962
2019-04-03 20:04:17.90,77916321, 0.0, 0.0, 353.0, 584.090026855, -35.363261, 149.1652299, 0.998134791851, 0.0, 0.0, -0.0610485821962
2019-04-03 20:04:18.00,78016281, 0.0, 0.0, 353.0, 584.090026855, -35.363261, 149.1652299, 0.998134791851, 0.0, 0.0, -0.0610485821962
2019-04-03 20:04:18.10,78116241, 0.0, 0.0, 353.0, 584.090026855, -35.363261, 149.1652299, 0.998134791851, 0.0, 0.0, -0.0610485821962
2019-04-03 20:04:18.20,78216201, 0.0, 0.0, 353.0, 584.090026855, -35.363261, 149.1652299, 0.998134791851, 0.0, 0.0, -0.0610485821962
2019-04-03 20:04:18.30,78316161, 0.0, 0.0, 353.0, 584.090026855, -35.363261, 149.1652299, 0.998134791851, 0.0, 0.0, -0.0610485821962
2019-04-03 20:04:18.40,78416121, 0.0, 0.0, 353.0, 584.090026855, -35.363261, 149.1652299, 0.998134791851, 0.0, 0.0, -0.0610485821962
2019-04-03 20:04:18.50,78516081, 0.0, 0.0, 353.0, 584.090026855, -35.363261, 149.1652299, 0.998134791851, 0.0, 0.0, -0.0610485821962
2019-04-03 20:04:18.60,78616041, 0.0, 0.0, 353.0, 584.090026855, -35.363261, 149.1652299, 0.998134791851, 0.0, 0.0, -0.0610485821962
2019-04-03 20:04:18.70,78716001, 0.0, 0.0, 353.0, 584.090026855, -35.363261, 149.1652299, 0.998134791851, 0.0, 0.0, -0.0610485821962
2019-04-03 20:04:18.80,78815961, 0.0, 0.0, 353.0, 584.090026855, -35.363261, 149.1652299, 0.998134791851, 0.0, 0.0, -0.0610485821962
2019-04-03 20:04:18.90,78915921, 0.0, 0.0, 353.0, 584.090026855, -35.363261, 149.1652299, 0.998134791851, 0.0, 0.0, -0.0610485821962
2019-04-03 20:04:19.00,79015881, 0.0, 0.0, 353.0, 584.090026855, -35.363261, 149.1652299, 0.998134791851, 0.0, 0.0, -0.0610485821962
2019-04-03 20:04:19.10,79115841, 0.0, 0.0, 353.0, 584.090026855, -35.363261, 149.1652299, 0.998134791851, 0.0, 0.0, -0.0610485821962
2019-04-03 20:04:19.20,79215801, 0.0, 0.0, 353.0, 584.090026855, -35.363261, 149.1652299, 0.998134791851, 0.0, 0.0, -0.0610485821962
2019-04-03 20:04:19.30,79315761, 0.0, 0.0, 353.0, 584.090026855, -35.363261, 149.1652299, 0.998134791851, 0.0, 0.0, -0.0610485821962
2019-04-03 20:04:19.40,79415721, 0.0, 0.0, 353.0, 584.090026855, -35.363261, 149.1652299, 0.998134791851, 0.0, 0.0, -0.0610485821962
2019-04-03 20:04:19.49,79515681, 0.0, 0.0, 353.0, 584.090026855, -35.363261, 149.1652299, 0.998134791851, 0.0, 0.0, -0.0610485821962
2019-04-03 20:04:19.60,79616474, 0.0, 0.0, 353.0, 584.090026855, -35.363261, 149.1652299, 0.998134791851, 0.0, 0.0, -0.0610485821962
2019-04-03 20:04:19.70,79716434, 0.0, 0.0, 353.0, 584.090026855, -35.363261, 149.1652299, 0.998134791851, 0.0, 0.0, -0.0610485821962
2019-04-03 20:04:19.80,79816394, 0.0, 0.0, 353.0, 584.090026855, -35.363261, 149.1652299, 0.998134791851, 0.0, 0.0, -0.0610485821962
2019-04-03 20:04:19.90,79916354, 0.0, 0.0, 353.0, 584.090026855, -35.363261, 149.1652299, 0.998134791851, 0.0, 0.0, -0.0610485821962
2019-04-03 20:04:20.00,80016314, 0.0, 0.0, 353.0, 584.090026855, -35.363261, 149.1652299, 0.998134791851, 0.0, 0.0, -0.0610485821962
2019-04-03 20:04:20.10,80116274, 0.0, 0.0, 353.0, 584.090026855, -35.363261, 149.1652299, 0.998134791851, 0.0, 0.0, -0.0610485821962
2019-04-03 20:04:20.20,80216234, 0.0, 0.0, 353.0, 584.090026855, -35.363261, 149.1652299, 0.998134791851, 0.0, 0.0, -0.0610486268997
2019-04-03 20:04:20.30,80316194, 0.0, 0.0, 353.0, 584.090026855, -35.363261, 149.1652299, 0.998134791851, 0.0, 0.0, -0.0610486753285
2019-04-03 20:04:20.40,80416154, 0.0, 0.0, 353.0, 584.090026855, -35.363261, 149.1652299, 0.998134791851, 0.0, 0.0, -0.0610486753285
2019-04-03 20:04:20.50,80516114, 0.0, 0.0, 353.0, 584.090026855, -35.363261, 149.1652299, 0.998134791851, 0.0, 0.0, -0.0610486753285
2019-04-03 20:04:20.60,80616074, 0.0, 0.0, 353.0, 584.090026855, -35.363261, 149.1652299, 0.998134791851, 0.0, 0.0, -0.0610486753285
2019-04-03 20:04:20.70,80716034, 0.0, 0.0, 353.0, 584.090026855, -35.363261, 149.1652299, 0.998134791851, 0.0, 0.0, -0.0610486753285
2019-04-03 20:04:20.80,80815994, 0.0, 0.0, 353.0, 584.090026855, -35.363261, 149.1652299, 0.998134791851, 0.0, 0.0, -0.0610486753285
2019-04-03 20:04:20.90,80915954, 0.0, 0.0, 353.0, 584.090026855, -35.363261, 149.1652299, 0.998134791851, 0.0, 0.0, -0.0610486753285
2019-04-03 20:04:21.00,81015914, 0.0, 0.0, 353.0, 584.099975586, -35.363261, 149.1652299, 0.998134791851, 0.0, 0.0, -0.0610486753285
2019-04-03 20:04:21.10,81115874, 0.0, 0.0, 353.0, 584.099975586, -35.363261, 149.1652299, 0.998134791851, 0.0, 0.0, -0.0610486753285
2019-04-03 20:04:21.20,81215834, 0.0, 0.0, 353.0, 584.109985352, -35.363261, 149.1652299, 0.998134791851, 0.0, 0.0, -0.0610486753285
2019-04-03 20:04:21.30,81315794, 0.0, 0.0, 353.0, 584.130004883, -35.363261, 149.1652299, 0.998134791851, 0.0, 0.0, -0.0610486753285
2019-04-03 20:04:21.40,81415754, 0.0, 0.0, 353.0, 584.159973145, -35.363261, 149.1652299, 0.998134791851, 0.0, 0.0, -0.061048656702
2019-04-03 20:04:21.50,81515714, 0.0, 0.0, 353.0, 584.190002441, -35.363261, 149.1652299, 0.998134791851, 0.0, 0.0, -0.0610486753285
2019-04-03 20:04:21.59,81615674, 0.0, 0.0, 352.99, 584.229980469, -35.363261, 149.1652299, 0.998134791851, -5.37407468073e-05, -6.37799748802e-05, -0.0610487237573
2019-04-03 20:04:21.70,81716467, -0.06, -0.06, 352.99, 584.309997559, -35.363261, 149.1652299, 0.998134195805, -0.000578532053623, -0.000536164850928, -0.0610537081957
2019-04-03 20:04:21.80,81816427, -0.14, -0.13, 352.99, 584.440002441, -35.363261, 149.1652299, 0.998132288456, -0.00131714344025, -0.00110240513459, -0.0610658302903
2019-04-03 20:04:21.90,81916387, -0.18, -0.18, 352.99, 584.599975586, -35.363261, 149.1652299, 0.998129546642, -0.00169978826307, -0.00151189370081, -0.0610920861363
2019-04-03 20:04:22.00,82016347, -0.19, -0.21, 352.99, 584.75, -35.363261, 149.1652299, 0.998126924038, -0.00183013291098, -0.0017377238255, -0.0611255951226
2019-04-03 20:04:22.10,82116307, -0.18, -0.2, 352.98, 584.900024414, -35.363261, 149.1652299, 0.998125255108, -0.00167979171965, -0.00165288080461, -0.0611596405506
2019-04-03 20:04:22.20,82216267, -0.13, -0.14, 352.98, 585.059997559, -35.363261, 149.1652299, 0.998124241829, -0.00129554711748, -0.00118823209777, -0.0611956976354
2019-04-03 20:04:22.30,82316227, -0.06, -0.06, 352.98, 585.210021973, -35.363261, 149.1652299, 0.99812400341, -0.000632630137261, -0.000570721458644, -0.0612182877958
2019-04-03 20:04:22.40,82416187, -0.01, 0.0, 352.97, 585.369995117, -35.363261, 149.1652299, 0.998123466969, -0.000102399906609, 8.04213705123e-05, -0.0612331666052
2019-04-03 20:04:22.50,82516147, 0.02, 0.05, 352.97, 585.539978027, -35.363261, 149.1652299, 0.998122751713, 0.000255545572145, 0.000459103001049, -0.0612431317568
2019-04-03 20:04:22.60,82616107, 0.04, 0.05, 352.97, 585.719970703, -35.3632609, 149.1652298, 0.998122096062, 0.000408803636674, 0.000481217750348, -0.0612526498735
2019-04-03 20:04:22.70,82716067, 0.05, 0.06, 352.97, 585.900024414, -35.3632609, 149.1652298, 0.998121440411, 0.000518444634508, 0.000507427961566, -0.061261922121
2019-04-03 20:04:22.80,82816027, 0.05, 0.07, 352.97, 586.08001709, -35.3632609, 149.1652298, 0.998121142387, 0.000527122232597, 0.000629964633845, -0.0612659603357
2019-04-03 20:04:22.90,82915987, 0.05, 0.1, 352.97, 586.25, -35.3632609, 149.1652298, 0.998120725155, 0.000564078451134, 0.000877803482581, -0.0612695552409
2019-04-03 20:04:23.00,83015947, 0.05, 0.23, 352.97, 586.409973145, -35.3632609, 149.1652298, 0.998118877411, 0.000647126522381, 0.00201366422698, -0.061271674931
2019-04-03 20:04:23.10,83115907, 0.0, 0.69, 352.97, 586.559997559, -35.3632609, 149.1652298, 0.998102724552, 0.000352673319867, 0.00608738092706, -0.0612685382366
2019-04-03 20:04:23.20,83215867, -0.16, 1.49, 352.97, 586.700012207, -35.3632609, 149.1652298, 0.998035907745, -0.000616514298599, 0.0130775719881, -0.0612609349191
2019-04-03 20:04:23.30,83315827, -0.39, 2.52, 352.96, 586.840026855, -35.3632609, 149.1652298, 0.997874617577, -0.00205171783455, 0.0221664104611, -0.0612434707582
2019-04-03 20:04:23.40,83415787, -0.62, 3.66, 352.95, 586.960021973, -35.363261, 149.1652298, 0.997598111629, -0.00351765193045, 0.0322296544909, -0.0612121075392
2019-04-03 20:04:23.50,83515747, -0.85, 4.8, 352.94, 587.059997559, -35.363261, 149.1652298, 0.997217774391, -0.00483993440866, 0.0423346497118, -0.0611644200981
2019-04-03 20:04:23.60,83615707, -1.04, 5.82, 352.93, 587.159973145, -35.3632611, 149.1652298, 0.996796905994, -0.0059920088388, 0.0512654595077, -0.0610895752907
2019-04-03 20:04:23.69,83715667, -1.2, 6.6, 352.92, 587.25, -35.3632614, 149.1652298, 0.996421337128, -0.00689386064187, 0.0581194236875, -0.0609848573804
2019-04-03 20:04:23.80,83816460, -1.33, 7.16, 352.92, 587.320007324, -35.3632617, 149.1652298, 0.996122121811, -0.00773456180468, 0.0630775466561, -0.0608451254666
2019-04-03 20:04:23.90,83916420, -1.43, 7.58, 352.92, 587.390014648, -35.3632622, 149.1652297, 0.995884537697, -0.00841292645782, 0.0667803660035, -0.060692936182
2019-04-03 20:04:24.00,84016380, -1.52, 7.91, 352.93, 587.460021973, -35.3632627, 149.1652297, 0.995686650276, -0.00902430247515, 0.0697318166494, -0.0605320967734
2019-04-03 20:04:24.10,84116340, -1.61, 8.16, 352.94, 587.510009766, -35.3632633, 149.1652296, 0.995533168316, -0.00963394343853, 0.0719422623515, -0.0603757314384
2019-04-03 20:04:24.20,84216300, -1.67, 8.31, 352.95, 587.559997559, -35.3632639, 149.1652296, 0.995443820953, -0.0101100215688, 0.0732098445296, -0.0602472163737
2019-04-03 20:04:24.30,84316260, -1.73, 8.37, 352.95, 587.609985352, -35.3632646, 149.1652294, 0.9953982234, -0.0106163816527, 0.0738407596946, -0.0601437315345
2019-04-03 20:04:24.40,84416220, -1.81, 8.42, 352.96, 587.659973145, -35.3632655, 149.1652293, 0.995366871357, -0.0112457843497, 0.0742371529341, -0.0600598976016
2019-04-03 20:04:24.50,84516180, -1.88, 8.51, 352.95, 587.700012207, -35.3632665, 149.1652293, 0.995299398899, -0.0118175502867, 0.0750842168927, -0.0600158683956
2019-04-03 20:04:24.60,84616140, -1.81, 8.72, 352.88, 587.739990234, -35.3632675, 149.1652293, 0.995127856731, -0.011077192612, 0.0769321471453, -0.0606568679214
2019-04-03 20:04:24.70,84716100, -1.47, 9.11, 352.3, 587.789978027, -35.3632684, 149.1652292, 0.994575560093, -0.00748919183388, 0.080161742866, -0.0658594146371
2019-04-03 20:04:24.80,84816060, -1.05, 9.62, 350.5, 587.83001709, -35.3632696, 149.1652291, 0.993077635765, -0.00215959642082, 0.0843771472573, -0.0816861987114
2019-04-03 20:04:24.90,84916020, -1.02, 10.12, 347.05, 587.869995117, -35.3632708, 149.1652289, 0.989798486233, 0.00111151463352, 0.0886695533991, -0.111514091492
2019-04-03 20:04:25.00,85015980, -1.65, 10.43, 341.98, 587.909973145, -35.3632722, 149.1652289, 0.98367446661, 5.55196093046e-05, 0.0920447781682, -0.154636055231
2019-04-03 20:04:25.10,85115940, -2.97, 10.4, 335.55, 587.950012207, -35.3632735, 149.1652289, 0.973468840122, -0.00607530632988, 0.0940720066428, -0.20849943161
2019-04-03 20:04:25.20,85215900, -4.82, 9.92, 328.1, 588.0, -35.363275, 149.1652289, 0.958049893379, -0.0166053324938, 0.0946173220873, -0.270022839308
2019-04-03 20:04:25.30,85315860, -6.94, 8.95, 319.97, 588.039978027, -35.3632765, 149.1652289, 0.936651587486, -0.0300675239414, 0.0938834697008, -0.336103528738
2019-04-03 20:04:25.40,85415820, -9.01, 7.53, 311.49, 588.090026855, -35.363278, 149.1652289, 0.909091353416, -0.0445771962404, 0.09191390872, -0.403878331184
2019-04-03 20:04:25.50,85515780, -10.78, 5.76, 302.94, 588.140014648, -35.3632798, 149.1652289, 0.875840246677, -0.0585877411067, 0.0887941494584, -0.470730245113
2019-04-03 20:04:25.60,85615740, -12.14, 3.77, 294.55, 588.200012207, -35.3632816, 149.1652289, 0.838015198708, -0.0712505653501, 0.0847247689962, -0.534299194813
2019-04-03 20:04:25.70,85715700, -13.03, 1.74, 286.53, 588.260009766, -35.3632835, 149.1652289, 0.797179043293, -0.0818912088871, 0.0799619928002, -0.592794716358
2019-04-03 20:04:25.79,85815660, -13.46, -0.2, 278.98, 588.320007324, -35.3632854, 149.1652289, 0.754951953888, -0.0903068706393, 0.0748014450073, -0.645210802555
2019-04-03 20:04:25.90,85916453, -13.56, -2.01, 271.93, 588.380004883, -35.3632876, 149.1652288, 0.71232843399, -0.0970456674695, 0.0695112496614, -0.691620230675
2019-04-03 20:04:26.00,86016413, -13.43, -3.59, 265.46, 588.440002441, -35.3632896, 149.1652286, 0.67088329792, -0.102201521397, 0.0647837147117, -0.731623888016
2019-04-03 20:04:26.10,86116373, -13.17, -4.9, 259.46, 588.510009766, -35.3632919, 149.1652284, 0.630648195744, -0.105954885483, 0.0609773658216, -0.766379952431
2019-04-03 20:04:26.20,86216333, -12.82, -6.0, 253.86, 588.58001709, -35.3632943, 149.1652282, 0.59160220623, -0.108672708273, 0.057889290154, -0.796772122383
2019-04-03 20:04:26.30,86316293, -12.44, -6.97, 248.54, 588.650024414, -35.3632966, 149.1652279, 0.55331581831, -0.110900573432, 0.055400762707, -0.823695063591
2019-04-03 20:04:26.40,86416253, -12.04, -7.87, 243.39, 588.719970703, -35.3632991, 149.1652275, 0.515138506889, -0.113100089133, 0.0531838051975, -0.847945928574
2019-04-03 20:04:26.50,86516213, -11.58, -8.76, 238.28, 588.799987793, -35.3633017, 149.1652274, -0.476347446442, 0.115391075611, -0.0508293434978, 0.87016916275
2019-04-03 20:04:26.60,86616173, -10.99, -9.66, 233.11, 588.869995117, -35.3633042, 149.165227, -0.436256974936, 0.117718666792, -0.0479107163846, 0.89080119133
2019-04-03 20:04:26.70,86716133, -10.26, -10.59, 227.8, 588.950012207, -35.363307, 149.1652268, -0.394303917885, 0.120193630457, -0.0441792234778, 0.910014390945
2019-04-03 20:04:26.80,86816093, -9.33, -11.54, 222.29, 589.030029297, -35.3633096, 149.1652265, -0.350150227547, 0.122690707445, -0.0393539629877, 0.927789330482
2019-04-03 20:04:26.90,86916053, -8.21, -12.47, 216.56, 589.109985352, -35.3633125, 149.1652262, -0.303653925657, 0.125244736671, -0.0335901752114, 0.943917274475
2019-04-03 20:04:27.00,87016013, -6.88, -13.37, 210.61, 589.190002441, -35.3633154, 149.1652259, -0.25495916605, 0.127817898989, -0.0268288105726, 0.958091139793
2019-04-03 20:04:27.10,87115973, -5.37, -14.13, 204.46, 589.270019531, -35.3633184, 149.1652255, -0.204382374883, 0.129956379533, -0.0194272268564, 0.970031857491
2019-04-03 20:04:27.20,87215933, -3.73, -14.71, 198.17, 589.349975586, -35.3633213, 149.1652253, -0.152398377657, 0.131485536695, -0.011685022153, 0.979463994503
2019-04-03 20:04:27.30,87315893, -1.95, -15.1, 191.8, 589.440002441, -35.3633243, 149.165225, -0.0997011885047, 0.132476851344, -0.00332584930584, 0.986153423786
2019-04-03 20:04:27.40,87415853, 0.22, -15.29, 185.64, 589.520019531, -35.3633274, 149.1652246, -0.0490230284631, 0.132844895124, 0.00847222656012, 0.989887475967
2019-04-03 20:04:27.50,87515813, 2.59, -15.23, 180.26, 589.599975586, -35.3633307, 149.1652244, -0.00528181064874, 0.132475793362, 0.0227846577764, 0.990910232067
2019-04-03 20:04:27.60,87615773, 4.73, -14.97, 176.19, 589.679992676, -35.3633339, 149.1652241, 0.027488835156, 0.131457969546, 0.036586292088, 0.990264952183
2019-04-03 20:04:27.70,87715733, 6.19, -14.65, 173.68, 589.770019531, -35.3633371, 149.1652236, 0.0476759001613, 0.130132973194, 0.0464553870261, 0.98925948143
2019-04-03 20:04:27.80,87815693, 6.74, -14.44, 172.67, 589.849975586, -35.3633404, 149.1652231, 0.0558908171952, 0.128998965025, 0.0502350814641, 0.988793134689
2019-04-03 20:04:27.90,87916486, 6.37, -14.43, 172.94, 589.929992676, -35.3633437, 149.1652226, 0.0539347715676, 0.128609001637, 0.0473798029125, 0.989093482494
2019-04-03 20:04:28.00,88016446, 5.27, -14.61, 174.22, 590.020019531, -35.3633471, 149.1652221, 0.044077642262, 0.129211515188, 0.0391918905079, 0.989861369133
2019-04-03 20:04:28.10,88116406, 3.72, -14.95, 176.2, 590.099975586, -35.3633504, 149.1652215, 0.0286321900785, 0.131083965302, 0.0278510320932, 0.990566253662
2019-04-03 20:04:28.20,88216366, 1.99, -15.35, 178.58, 590.190002441, -35.3633539, 149.1652207, 0.00988792162389, 0.133815810084, 0.015566774644, 0.990834593773
2019-04-03 20:04:28.30,88316326, 0.31, -15.71, 181.08, 590.270019531, -35.3633574, 149.1652202, -0.00978689361364, 0.136635914445, 0.00398108037189, 0.990565001965
2019-04-03 20:04:28.40,88416286, -1.1, -15.95, 183.4, 590.359985352, -35.3633608, 149.1652196, -0.0281035210937, 0.138958796859, -0.00540998438373, 0.989884495735
2019-04-03 20:04:28.50,88516246, -2.14, -16.05, 185.3, 590.440002441, -35.3633644, 149.1652189, -0.0431702136993, 0.140324786305, -0.0120189758018, 0.989090919495
2019-04-03 20:04:28.60,88616206, -2.74, -16.04, 186.61, 590.530029297, -35.3633679, 149.1652184, -0.0537975169718, 0.140661984682, -0.0156447123736, 0.988471210003
2019-04-03 20:04:28.70,88716166, -2.94, -15.99, 187.3, 590.609985352, -35.3633715, 149.1652181, -0.0595100298524, 0.14041364193, -0.0165234319866, 0.988164722919
2019-04-03 20:04:28.80,88816126, -2.79, -15.94, 187.39, 590.700012207, -35.3633752, 149.1652177, -0.0604850202799, 0.139947623014, -0.0151700200513, 0.988193392754
2019-04-03 20:04:28.90,88916086, -2.4, -15.92, 186.98, 590.780029297, -35.3633788, 149.1652173, -0.0573912374675, 0.139470413327, -0.0122779645026, 0.988485455513
2019-04-03 20:04:29.00,89016046, -1.85, -15.94, 186.19, 590.869995117, -35.3633825, 149.1652169, -0.0512599050999, 0.139318630099, -0.00848236400634, 0.98888361454
2019-04-03 20:04:29.10,89116006, -1.22, -16.01, 185.18, 590.950012207, -35.3633862, 149.1652165, -0.0432996563613, 0.139616131783, -0.00426509417593, 0.98924934864
2019-04-03 20:04:29.20,89215966, -0.57, -16.11, 184.1, 591.039978027, -35.3633899, 149.1652163, -0.0347332693636, 0.140232920647, 2.2745660317e-05, 0.989509165287
2019-04-03 20:04:29.30,89315926, 0.01, -16.23, 183.07, 591.119995117, -35.3633936, 149.1652159, -0.0266100075096, 0.141117855906, 0.0038834810257, 0.989627480507
2019-04-03 20:04:29.40,89415886, 0.49, -16.32, 182.21, 591.210021973, -35.3633975, 149.1652157, -0.0197624228895, 0.141849040985, 0.00702875060961, 0.989666044712
2019-04-03 20:04:29.50,89515846, 0.83, -16.36, 181.58, 591.289978027, -35.3634013, 149.1652154, -0.0147170387208, 0.142249614, 0.00917051080614, 0.989678919315
2019-04-03 20:04:29.60,89615806, 1.01, -16.38, 181.21, 591.380004883, -35.3634051, 149.165215, -0.0117210997269, 0.14235188067, 0.0102902110666, 0.98969322443
2019-04-03 20:04:29.70,89715766, 1.05, -16.37, 181.09, 591.460021973, -35.363409, 149.1652148, -0.0107376845554, 0.142342537642, 0.0104668466374, 0.989703893661
2019-04-03 20:04:29.80,89815726, 0.95, -16.36, 181.19, 591.549987793, -35.3634129, 149.1652145, -0.0115118604153, 0.142251431942, 0.00972661282867, 0.98971581459
2019-04-03 20:04:29.89,89915686, 0.73, -16.34, 181.47, 591.630004883, -35.3634167, 149.1652141, -0.0136234927922, 0.142099544406, 0.00817085616291, 0.989724874496
2019-04-03 20:04:30.00,90016479, 0.45, -16.34, 181.86, 591.719970703, -35.3634207, 149.1652138, -0.0166506841779, 0.142062187195, 0.00622565066442, 0.989698112011
2019-04-03 20:04:30.10,90116439, 0.17, -16.34, 182.3, 591.799987793, -35.3634246, 149.1652135, -0.0200874898583, 0.14211383462, 0.00436533521861, 0.989636838436
2019-04-03 20:04:30.20,90216399, -0.06, -16.37, 182.73, 591.890014648, -35.3634286, 149.1652131, -0.0235103797168, 0.142417177558, 0.00283783744089, 0.989523410797
2019-04-03 20:04:30.30,90316359, -0.26, -16.42, 183.11, 591.969970703, -35.3634325, 149.1652129, -0.0265322905034, 0.142812758684, 0.00161158188712, 0.989392757416
2019-04-03 20:04:30.40,90416319, -0.41, -16.46, 183.4, 592.059997559, -35.3634365, 149.1652126, -0.0288769025356, 0.143197625875, 0.000635280215647, 0.989272594452
2019-04-03 20:04:30.50,90516279, -0.51, -16.49, 183.59, 592.140014648, -35.3634404, 149.1652123, -0.0304423812777, 0.143476143479, 8.89686489245e-05, 0.989185452461
2019-04-03 20:04:30.60,90616239, -0.53, -16.52, 183.69, 592.229980469, -35.3634445, 149.165212, -0.0312334112823, 0.143746942282, 2.9660486689e-05, 0.989121496677
2019-04-03 20:04:30.70,90716199, -0.5, -16.54, 183.69, 592.309997559, -35.3634484, 149.1652116, -0.0313079729676, 0.143914863467, 0.000304165645503, 0.989094674587
2019-04-03 20:04:30.80,90816159, -0.42, -16.56, 183.63, 592.400024414, -35.3634525, 149.1652114, -0.0308142844588, 0.144092574716, 0.00085331191076, 0.989083945751
2019-04-03 20:04:30.90,90916119, -0.32, -16.59, 183.51, 592.479980469, -35.3634566, 149.1652111, -0.0299435760826, 0.144355803728, 0.00163002556656, 0.989071369171
2019-04-03 20:04:31.00,91016079, -0.21, -16.63, 183.37, 592.570007324, -35.3634605, 149.1652109, -0.0288644395769, 0.144642025232, 0.00243597151712, 0.989059984684
2019-04-03 20:04:31.10,91116039, -0.11, -16.67, 183.23, 592.650024414, -35.3634647, 149.1652106, -0.0277583021671, 0.144951224327, 0.00305665400811, 0.98904466629
2019-04-03 20:04:31.20,91215999, -0.04, -16.73, 183.1, 592.739990234, -35.3634688, 149.1652104, -0.0267865173519, 0.145460724831, 0.00355489668436, 0.988994956017
2019-04-03 20:04:31.30,91315959, 0.03, -16.77, 183.01, 592.820007324, -35.3634729, 149.1652101, -0.0260970313102, 0.145786136389, 0.00415068119764, 0.988963127136
2019-04-03 20:04:31.40,91415919, 0.1, -16.79, 182.96, 592.909973145, -35.3634769, 149.1652097, -0.0257249735296, 0.145945757627, 0.00464405724779, 0.988947212696
2019-04-03 20:04:31.50,91515879, 0.13, -16.79, 182.95, 592.989990234, -35.3634811, 149.1652096, -0.0256733261049, 0.145921006799, 0.00492233829573, 0.988950788975
2019-04-03 20:04:31.60,91615839, 0.13, -16.78, 182.98, 593.08001709, -35.3634852, 149.1652092, -0.0259269662201, 0.145879104733, 0.00495241908357, 0.988950252533
2019-04-03 20:04:31.70,91715799, 0.11, -16.77, 183.04, 593.159973145, -35.3634894, 149.165209, -0.0264533143491, 0.14576394856, 0.00490904273465, 0.988953471184
2019-04-03 20:04:31.80,91815759, 0.09, -16.77, 183.13, 593.25, -35.3634935, 149.1652087, -0.0271687172353, 0.145784392953, 0.00481075933203, 0.988931536674
2019-04-03 20:04:31.90,91915719, 0.05, -16.78, 183.23, 593.33001709, -35.3634976, 149.1652085, -0.0279801357538, 0.145860984921, 0.00458906171843, 0.988898694515
2019-04-03 20:04:31.99,92015679, 0.0, -16.8, 183.33, 593.41998291, -35.3635018, 149.1652082, -0.0287936627865, 0.146081313491, 0.00418766634539, 0.988844573498
2019-04-03 20:04:32.10,92116472, -0.07, -16.86, 183.43, 593.5, -35.363506, 149.1652078, -0.0295551996678, 0.14663387835, 0.00371996778995, 0.988742232323
2019-04-03 20:04:32.20,92216432, -0.12, -16.92, 183.52, 593.590026855, -35.3635102, 149.1652076, -0.0302365813404, 0.147143229842, 0.00347596360371, 0.988646864891
2019-04-03 20:04:32.30,92316392, -0.13, -16.97, 183.59, 593.66998291, -35.3635144, 149.1652073, -0.0308191366494, 0.147516027093, 0.00348465237767, 0.988573253155
2019-04-03 20:04:32.40,92416352, -0.11, -17.0, 183.64, 593.760009766, -35.3635186, 149.1652069, -0.0312733352184, 0.147784888744, 0.00366891897283, 0.988518178463
2019-04-03 20:04:32.50,92516312, -0.09, -17.03, 183.67, 593.840026855, -35.3635228, 149.1652067, -0.0315809771419, 0.148052707314, 0.00393965886906, 0.988467276096
2019-04-03 20:04:32.60,92616272, -0.05, -17.04, 183.69, 593.929992676, -35.363527, 149.1652064, -0.0317724049091, 0.148158147931, 0.0042685889639, 0.98844397068
2019-04-03 20:04:32.70,92716232, -0.03, -17.03, 183.69, 594.010009766, -35.3635312, 149.1652062, -0.0318615958095, 0.148045748472, 0.00449326913804, 0.988456964493
2019-04-03 20:04:32.80,92816192, -0.02, -17.01, 183.69, 594.099975586, -35.3635353, 149.1652059, -0.0318729951978, 0.147842794657, 0.00451474171132, 0.988486886024
2019-04-03 20:04:32.90,92916152, -0.01, -16.97, 183.69, 594.179992676, -35.3635396, 149.1652056, -0.0318832732737, 0.147526174784, 0.00459347153082, 0.988533496857
2019-04-03 20:04:33.00,93016112, 0.0, -16.96, 183.69, 594.270019531, -35.3635438, 149.1652053, -0.0319110155106, 0.147395342588, 0.00469727953896, 0.988551616669
2019-04-03 20:04:33.10,93116072, 0.0, -16.97, 183.7, 594.349975586, -35.3635481, 149.1652049, -0.031979072839, 0.147532403469, 0.00483247172087, 0.988528311253
2019-04-03 20:04:33.20,93216032, 0.01, -17.01, 183.71, 594.440002441, -35.3635523, 149.1652047, -0.0320981219411, 0.147860556841, 0.0049513336271, 0.988474845886
2019-04-03 20:04:33.30,93315992, 0.01, -17.04, 183.73, 594.520019531, -35.3635566, 149.1652044, -0.0322584994137, 0.148115634918, 0.00498584099114, 0.988431215286
2019-04-03 20:04:33.40,93415952, 0.0, -17.07, 183.76, 594.609985352, -35.363561, 149.165204, -0.0324567295611, 0.148414224386, 0.00495356507599, 0.988380134106
2019-04-03 20:04:33.50,93515912, 0.0, -17.11, 183.78, 594.690002441, -35.3635653, 149.1652038, -0.0326896496117, 0.148687645793, 0.00491051701829, 0.98833155632
2019-04-03 20:04:33.60,93615872, 0.0, -17.14, 183.81, 594.780029297, -35.3635694, 149.1652035, -0.0329305268824, 0.148939609528, 0.00488428911194, 0.988285779953
2019-04-03 20:04:33.70,93715832, -0.02, -17.14, 183.84, 594.859985352, -35.3635738, 149.1652031, -0.0331685617566, 0.148984834552, 0.00476548075676, 0.988271594048
2019-04-03 20:04:33.80,93815792, -0.05, -17.13, 183.87, 594.950012207, -35.3635781, 149.1652028, -0.0333958677948, 0.148921012878, 0.00457115843892, 0.98827445507
2019-04-03 20:04:33.90,93915752, -0.07, -17.13, 183.9, 595.030029297, -35.3635824, 149.1652025, -0.0336230099201, 0.148907586932, 0.00440997583792, 0.988269507885
2019-04-03 20:04:34.00,94015712, -0.09, -17.14, 183.93, 595.119995117, -35.3635867, 149.1652021, -0.0338381007314, 0.149033039808, 0.00433776760474, 0.988243579865
2019-04-03 20:04:34.09,94115672, -0.09, -17.16, 183.96, 595.200012207, -35.363591, 149.1652019, -0.0340406559408, 0.149191424251, 0.00431578047574, 0.988212823868
2019-04-03 20:04:34.20,94216465, -0.1, -17.17, 183.98, 595.289978027, -35.3635954, 149.1652015, -0.0342191234231, 0.149293333292, 0.00428775092587, 0.988191366196
2019-04-03 20:04:34.30,94316425, -0.1, -17.2, 184.0, 595.369995117, -35.3635997, 149.1652011, -0.0343660488725, 0.149522021413, 0.0042801653035, 0.988151729107
2019-04-03 20:04:34.40,94416385, -0.1, -17.22, 184.01, 595.460021973, -35.3636039, 149.1652009, -0.0345051847398, 0.149701654911, 0.00437564076856, 0.988119244576
2019-04-03 20:04:34.50,94516345, -0.08, -17.24, 184.02, 595.549987793, -35.3636083, 149.1652005, -0.0346240028739, 0.149869129062, 0.00450464850292, 0.98808914423
2019-04-03 20:04:34.60,94616305, -0.05, -17.25, 184.03, 595.630004883, -35.3636127, 149.1652001, -0.0347538329661, 0.149923488498, 0.00477718934417, 0.988075077534
2019-04-03 20:04:34.70,94716265, -0.01, -17.24, 184.04, 595.710021973, -35.363617, 149.1651999, -0.0348881185055, 0.149842962623, 0.0051313736476, 0.98808079958
2019-04-03 20:04:34.80,94816225, 0.0, -17.21, 184.05, 595.799987793, -35.3636214, 149.1651996, -0.0349909067154, 0.14955458045, 0.00524288555607, 0.988120257854
2019-04-03 20:04:34.90,94916185, 0.0, -17.19, 184.06, 595.880004883, -35.3636257, 149.1651992, -0.0350836589932, 0.149375259876, 0.00522547680885, 0.988144159317
2019-04-03 20:04:35.00,95016145, -0.03, -17.2, 184.08, 595.969970703, -35.3636301, 149.1651989, -0.0351613946259, 0.149500444531, 0.00506400410086, 0.988123297691
2019-04-03 20:04:35.10,95116105, -0.05, -17.23, 184.09, 596.049987793, -35.3636343, 149.1651985, -0.0352454967797, 0.149728864431, 0.0048983306624, 0.98808658123
2019-04-03 20:04:35.20,95216065, -0.07, -17.26, 184.1, 596.140014648, -35.3636387, 149.1651982, -0.0353379547596, 0.149985745549, 0.00474061490968, 0.988045096397
2019-04-03 20:04:35.30,95316025, -0.08, -17.3, 184.12, 596.219970703, -35.3636431, 149.1651977, -0.0354504697025, 0.150360301137, 0.00470227841288, 0.98798429966
2019-04-03 20:04:35.40,95415985, -0.06, -17.35, 184.13, 596.309997559, -35.3636475, 149.1651975, -0.035584513098, 0.150778606534, 0.0048427474685, 0.987915039062
2019-04-03 20:04:35.50,95515945, -0.04, -17.38, 184.15, 596.390014648, -35.3636519, 149.1651971, -0.035738799721, 0.151003628969, 0.00512127671391, 0.987873673439
2019-04-03 20:04:35.60,95615905, -0.01, -17.37, 184.16, 596.479980469, -35.3636562, 149.1651968, -0.0358802489936, 0.150929063559, 0.00539660686627, 0.987878501415
2019-04-03 20:04:35.70,95715865, 0.01, -17.36, 184.17, 596.559997559, -35.3636605, 149.1651964, -0.0360118336976, 0.150813907385, 0.00565798068419, 0.987889826298
2019-04-03 20:04:35.80,95815825, 0.02, -17.35, 184.18, 596.650024414, -35.363665, 149.1651961, -0.0361044704914, 0.150752916932, 0.00573447300121, 0.987895309925
2019-04-03 20:04:35.90,95915785, 0.02, -17.34, 184.19, 596.729980469, -35.3636694, 149.1651957, -0.0361727140844, 0.150703981519, 0.00569605641067, 0.987900495529
2019-04-03 20:04:36.00,96015745, 0.0, -17.35, 184.19, 596.820007324, -35.3636737, 149.1651953, -0.0362280830741, 0.15075750649, 0.00557762384415, 0.987890958786
2019-04-03 20:04:36.10,96115705, -0.02, -17.35, 184.2, 596.900024414, -35.3636781, 149.1651949, -0.0362680666149, 0.150790855289, 0.0053595257923, 0.987885653973
2019-04-03 20:04:36.19,96215665, -0.05, -17.35, 184.21, 596.989990234, -35.3636824, 149.1651946, -0.0362939871848, 0.150784403086, 0.00507831946015, 0.987887144089
2019-04-03 20:04:36.30,96316458, -0.07, -17.33, 184.22, 597.070007324, -35.363687, 149.1651943, -0.0363289229572, 0.150640204549, 0.00489141140133, 0.987908840179
2019-04-03 20:04:36.40,96416418, -0.07, -17.31, 184.23, 597.159973145, -35.3636914, 149.1651939, -0.036389734596, 0.150454267859, 0.00488146301359, 0.987934947014
2019-04-03 20:04:36.50,96516378, -0.05, -17.3, 184.23, 597.239990234, -35.3636957, 149.1651934, -0.0364789478481, 0.150383129716, 0.00510675739497, 0.987941384315
2019-04-03 20:04:36.60,96616338, -0.02, -17.32, 184.24, 597.33001709, -35.3637001, 149.1651932, -0.0365561023355, 0.150494515896, 0.00532995490357, 0.987920403481
2019-04-03 20:04:36.70,96716298, -0.02, -17.32, 184.24, 597.409973145, -35.3637046, 149.1651928, -0.0365975312889, 0.150515586138, 0.00537824351341, 0.987915337086
2019-04-03 20:04:36.80,96816258, -0.03, -17.29, 184.25, 597.489990234, -35.363709, 149.1651924, -0.0366152785718, 0.150290280581, 0.00528994109482, 0.987949490547
2019-04-03 20:04:36.90,96916218, -0.04, -17.26, 184.25, 597.58001709, -35.3637134, 149.165192, -0.0366349592805, 0.149993956089, 0.00521429162472, 0.987994194031
2019-04-03 20:04:37.00,97016178, -0.06, -17.24, 184.25, 597.659973145, -35.3637177, 149.1651916, -0.0366201326251, 0.149852305651, 0.00498230103403, 0.988017439842
2019-04-03 20:04:37.10,97116138, -0.1, -17.23, 184.25, 597.75, -35.3637222, 149.1651913, -0.0365869030356, 0.14976772666, 0.00470052659512, 0.988032877445
2019-04-03 20:04:37.20,97216098, -0.1, -17.23, 184.25, 597.83001709, -35.3637266, 149.1651909, -0.036577347666, 0.149737939239, 0.00464841397479, 0.988038003445
2019-04-03 20:04:37.30,97316058, -0.09, -17.24, 184.25, 597.909973145, -35.363731, 149.1651905, -0.0365762971342, 0.14983150363, 0.00476011168212, 0.988023340702
2019-04-03 20:04:37.40,97416018, -0.09, -17.26, 184.25, 598.0, -35.3637353, 149.1651901, -0.0365540534258, 0.150029227138, 0.00477187428623, 0.987994074821
2019-04-03 20:04:37.50,97515978, -0.1, -17.27, 184.24, 598.08001709, -35.3637398, 149.1651898, -0.0365066640079, 0.15012536943, 0.00463034724817, 0.987981915474
2019-04-03 20:04:37.60,97615938, -0.1, -17.27, 184.24, 598.159973145, -35.3637442, 149.1651894, -0.036482706666, 0.150111094117, 0.00463100755587, 0.987984955311
2019-04-03 20:04:37.70,97715898, -0.07, -17.27, 184.24, 598.25, -35.3637486, 149.165189, -0.0365025140345, 0.150075733662, 0.00488531822339, 0.987988352776
2019-04-03 20:04:37.80,97815858, -0.03, -17.27, 184.24, 598.33001709, -35.3637529, 149.1651886, -0.0365403853357, 0.150072842836, 0.00521534634754, 0.987985730171
2019-04-03 20:04:37.90,97915818, -0.01, -17.26, 184.24, 598.409973145, -35.3637574, 149.1651882, -0.0365631207824, 0.150033891201, 0.00539714982733, 0.987989783287
2019-04-03 20:04:38.00,98015778, -0.01, -17.29, 184.24, 598.5, -35.3637619, 149.1651879, -0.0365628600121, 0.150213748217, 0.00544361863285, 0.987962245941
2019-04-03 20:04:38.10,98115738, 0.0, -17.31, 184.24, 598.58001709, -35.3637663, 149.1651875, -0.0365697108209, 0.150455906987, 0.00551034184173, 0.98792475462
2019-04-03 20:04:38.20,98215698, -0.01, -17.32, 184.24, 598.659973145, -35.3637706, 149.1651871, -0.0365694835782, 0.150492653251, 0.00547825871035, 0.987919330597
2019-04-03 20:04:38.30,98316491, -0.01, -17.29, 184.24, 598.75, -35.3637751, 149.1651867, -0.0365615226328, 0.150293514132, 0.0053977300413, 0.987950384617
2019-04-03 20:04:38.40,98416451, -0.01, -17.25, 184.24, 598.83001709, -35.3637795, 149.1651862, -0.0365658067167, 0.149955242872, 0.00539357215166, 0.988001644611
2019-04-03 20:04:38.50,98516411, -0.01, -17.22, 184.24, 598.91998291, -35.3637839, 149.1651858, -0.0365693867207, 0.149687796831, 0.00540482066572, 0.988041996956
2019-04-03 20:04:38.60,98616371, -0.01, -17.21, 184.24, 599.0, -35.3637882, 149.1651855, -0.0365767069161, 0.149554535747, 0.00542525015771, 0.988061785698
2019-04-03 20:04:38.70,98716331, -0.02, -17.21, 184.24, 599.08001709, -35.3637927, 149.1651852, -0.0365539081395, 0.149544641376, 0.00528017012402, 0.988065004349
2019-04-03 20:04:38.80,98816291, -0.05, -17.22, 184.24, 599.16998291, -35.3637971, 149.1651848, -0.0365190170705, 0.149641498923, 0.00506372284144, 0.988052725792
2019-04-03 20:04:38.90,98916251, -0.06, -17.24, 184.24, 599.25, -35.3638015, 149.1651843, -0.0365035533905, 0.149827435613, 0.00500232214108, 0.988025426865
2019-04-03 20:04:39.00,99016211, -0.06, -17.26, 184.24, 599.33001709, -35.3638059, 149.1651839, -0.0364915207028, 0.1500390172, 0.00500456476584, 0.987993776798
2019-04-03 20:04:39.10,99116171, -0.06, -17.28, 184.23, 599.41998291, -35.3638104, 149.1651836, -0.0364722050726, 0.150147929788, 0.00500472262502, 0.987977981567
2019-04-03 20:04:39.20,99216131, -0.05, -17.28, 184.23, 599.5, -35.3638148, 149.1651832, -0.0364623814821, 0.150224581361, 0.00507415411994, 0.987966239452
2019-04-03 20:04:39.30,99316091, -0.05, -17.29, 184.23, 599.58001709, -35.3638192, 149.1651828, -0.0364439450204, 0.150308862329, 0.00511140981689, 0.987953960896
2019-04-03 20:04:39.40,99416051, -0.05, -17.29, 184.22, 599.66998291, -35.3638235, 149.1651824, -0.0363993793726, 0.150257766247, 0.00505076441914, 0.987963676453
2019-04-03 20:04:39.50,99516011, -0.07, -17.28, 184.22, 599.75, -35.363828, 149.165182, -0.0363378748298, 0.150196313858, 0.00492002256215, 0.987975895405
2019-04-03 20:04:39.60,99615971, -0.07, -17.26, 184.21, 599.83001709, -35.3638324, 149.1651817, -0.0362831987441, 0.150050252676, 0.00485641043633, 0.988000452518
2019-04-03 20:04:39.70,99715931, -0.05, -17.25, 184.21, 599.91998291, -35.3638368, 149.1651813, -0.0362668223679, 0.149897247553, 0.00507137505338, 0.988023161888
2019-04-03 20:04:39.80,99815891, -0.02, -17.24, 184.2, 600.0, -35.3638411, 149.1651809, -0.036251090467, 0.149833709002, 0.00527175795287, 0.988032341003
2019-04-03 20:04:39.90,99915851, -0.01, -17.24, 184.2, 600.08001709, -35.3638456, 149.1651805, -0.0362284258008, 0.149801403284, 0.00535462703556, 0.988037645817
2019-04-03 20:04:40.00,100015811, -0.02, -17.24, 184.19, 600.16998291, -35.36385, 149.16518, -0.0361949875951, 0.14986602962, 0.00531083950773, 0.988029301167
2019-04-03 20:04:40.10,100115771, -0.03, -17.25, 184.19, 600.25, -35.3638544, 149.1651796, -0.0361471921206, 0.149931639433, 0.00518317706883, 0.988021790981
2019-04-03 20:04:40.20,100215731, -0.06, -17.25, 184.19, 600.33001709, -35.3638587, 149.1651793, -0.0360841453075, 0.149936035275, 0.00494027184322, 0.988024711609
2019-04-03 20:04:40.30,100315691, -0.09, -17.25, 184.19, 600.41998291, -35.3638632, 149.165179, -0.0360181219876, 0.149943709373, 0.00464817881584, 0.988027334213
2019-04-03 20:04:40.40,100416484, -0.11, -17.25, 184.18, 600.5, -35.3638677, 149.1651786, -0.0359687320888, 0.14991620183, 0.00449745543301, 0.988034009933
2019-04-03 20:04:40.50,100516444, -0.09, -17.24, 184.18, 600.58001709, -35.3638721, 149.1651781, -0.035948432982, 0.149858608842, 0.00461356434971, 0.98804295063
2019-04-03 20:04:40.60,100616404, -0.07, -17.23, 184.17, 600.66998291, -35.3638764, 149.1651777, -0.0359392613173, 0.149780496955, 0.00482258945704, 0.988054096699
2019-04-03 20:04:40.70,100716364, -0.04, -17.23, 184.17, 600.75, -35.3638809, 149.1651774, -0.0359313450754, 0.149751603603, 0.00504943262786, 0.988057672977
2019-04-03 20:04:40.80,100816324, 0.0, -17.24, 184.16, 600.83001709, -35.3638853, 149.165177, -0.035950280726, 0.149815246463, 0.00541496835649, 0.988045394421
2019-04-03 20:04:40.90,100916284, 0.01, -17.26, 184.16, 600.91998291, -35.3638897, 149.1651766, -0.0359479635954, 0.150011092424, 0.0055965995416, 0.988014757633
2019-04-03 20:04:41.00,101016244, 0.0, -17.28, 184.16, 601.0, -35.363894, 149.1651762, -0.0359072647989, 0.150138646364, 0.00547680351883, 0.987997531891
2019-04-03 20:04:41.10,101116204, -0.01, -17.3, 184.16, 601.08001709, -35.3638985, 149.1651757, -0.0358639769256, 0.150308981538, 0.005294484552, 0.98797416687
2019-04-03 20:04:41.20,101216164, -0.03, -17.31, 184.15, 601.16998291, -35.3639029, 149.1651755, -0.0358309112489, 0.150446116924, 0.00516892736778, 0.987955152988
2019-04-03 20:04:41.30,101316124, -0.02, -17.32, 184.15, 601.25, -35.3639073, 149.1651751, -0.035837046802, 0.150526866317, 0.00526778725907, 0.987942159176
2019-04-03 20:04:41.40,101416084, 0.0, -17.31, 184.15, 601.33001709, -35.3639117, 149.1651747, -0.0358698926866, 0.15043528378, 0.00552123319358, 0.987953543663
2019-04-03 20:04:41.50,101516044, 0.05, -17.29, 184.15, 601.41998291, -35.3639162, 149.1651743, -0.0359216071665, 0.150250002742, 0.00591119332239, 0.98797762394
2019-04-03 20:04:41.60,101616004, 0.1, -17.27, 184.15, 601.5, -35.3639206, 149.1651738, -0.0359688922763, 0.1500775069, 0.00631116703153, 0.987999558449
2019-04-03 20:04:41.70,101715964, 0.12, -17.26, 184.15, 601.58001709, -35.363925, 149.1651734, -0.0359888225794, 0.149963855743, 0.00653679901734, 0.988014638424
2019-04-03 20:04:41.80,101815924, 0.11, -17.26, 184.15, 601.66998291, -35.3639293, 149.1651731, -0.035966694355, 0.149921134114, 0.00639248453081, 0.988022863865
2019-04-03 20:04:41.90,101915884, 0.06, -17.26, 184.15, 601.75, -35.3639338, 149.1651728, -0.0358946956694, 0.149945795536, 0.00599302025512, 0.988024234772
2019-04-03 20:04:42.00,102015844, 0.02, -17.25, 184.14, 601.83001709, -35.3639382, 149.1651724, -0.035825252533, 0.149930790067, 0.0056330608204, 0.988031148911
2019-04-03 20:04:42.10,102115804, 0.01, -17.24, 184.14, 601.91998291, -35.3639426, 149.1651719, -0.0357869900763, 0.149853125215, 0.00551234325394, 0.988045036793
2019-04-03 20:04:42.20,102215764, 0.02, -17.24, 184.14, 602.0, -35.3639469, 149.1651715, -0.0357734560966, 0.149822846055, 0.00561310863122, 0.988049566746
2019-04-03 20:04:42.30,102315724, 0.04, -17.23, 184.13, 602.08001709, -35.3639514, 149.1651712, -0.0357663072646, 0.149747118354, 0.00583284534514, 0.988059997559
2019-04-03 20:04:42.39,102415684, 0.05, -17.25, 184.13, 602.16998291, -35.3639559, 149.1651708, -0.0357269793749, 0.149922952056, 0.00588105758652, 0.988034486771
2019-04-03 20:04:42.50,102516477, 0.05, -17.27, 184.12, 602.25, -35.3639602, 149.1651704, -0.0356725417078, 0.150034993887, 0.0058405729942, 0.988019645214
2019-04-03 20:04:42.60,102616437, 0.03, -17.26, 184.12, 602.33001709, -35.3639646, 149.16517, -0.0355996973813, 0.1499697119, 0.00569717120379, 0.988033056259
2019-04-03 20:04:42.70,102716397, 0.08, -17.23, 184.11, 602.41998291, -35.3639691, 149.1651695, -0.0356453470886, 0.149743944407, 0.0061146626249, 0.988063156605
2019-04-03 20:04:42.80,102816357, 0.75, -17.05, 184.17, 602.5, -35.3639735, 149.1651691, -0.0370345972478, 0.147912248969, 0.0119021330029, 0.98823517561
2019-04-03 20:04:42.90,102916317, 2.1, -16.76, 184.42, 602.570007324, -35.3639779, 149.1651688, -0.0408675558865, 0.144911646843, 0.0237826965749, 0.988314151764
2019-04-03 20:04:43.00,103016277, 3.63, -16.52, 184.95, 602.640014648, -35.3639821, 149.1651683, -0.0473473630846, 0.142161041498, 0.0375312231481, 0.987997949123
2019-04-03 20:04:43.10,103116237, 4.9, -16.43, 185.83, 602.700012207, -35.3639864, 149.1651678, -0.0564139559865, 0.140429660678, 0.049529761076, 0.987240493298
2019-04-03 20:04:43.20,103216197, 5.67, -16.48, 187.05, 602.75, -35.3639907, 149.1651671, -0.0678664818406, 0.13987646997, 0.0577115491033, 0.986153185368
2019-04-03 20:04:43.30,103316157, 5.93, -16.63, 188.58, 602.799987793, -35.3639949, 149.1651665, -0.0814620479941, 0.14022937417, 0.0619129277766, 0.98481798172
2019-04-03 20:04:43.40,103416117, 5.79, -16.85, 190.38, 602.840026855, -35.3639991, 149.1651657, -0.0968234166503, 0.141207873821, 0.0630427375436, 0.983214735985
2019-04-03 20:04:43.50,103516077, 5.39, -17.08, 192.37, 602.869995117, -35.3640034, 149.1651647, -0.113420449197, 0.14246840775, 0.0622391887009, 0.98130774498
2019-04-03 20:04:43.60,103616037, 4.86, -17.3, 194.45, 602.900024414, -35.3640075, 149.1651637, -0.130591571331, 0.143808811903, 0.0605043545365, 0.979083299637
2019-04-03 20:04:43.70,103715997, 4.29, -17.48, 196.53, 602.929992676, -35.3640116, 149.1651626, -0.147651970387, 0.144966736436, 0.058491434902, 0.976607561111
2019-04-03 20:04:43.80,103815957, 3.8, -17.62, 198.53, 602.950012207, -35.3640156, 149.1651614, -0.16403645277, 0.145805567503, 0.0569962784648, 0.973952889442
2019-04-03 20:04:43.90,103915917, 3.43, -17.71, 200.38, 602.969970703, -35.3640197, 149.1651599, -0.179293200374, 0.146238699555, 0.0564007796347, 0.971229732037
2019-04-03 20:04:44.00,104015877, 3.2, -17.76, 202.04, 602.979980469, -35.3640238, 149.1651585, -0.193091407418, 0.146248042583, 0.0566092245281, 0.968567311764
2019-04-03 20:04:44.10,104115837, 3.07, -17.79, 203.51, 603.0, -35.3640277, 149.165157, -0.205296441913, 0.145931854844, 0.0574820488691, 0.96605026722
2019-04-03 20:04:44.20,104215797, 3.01, -17.8, 204.78, 603.010009766, -35.3640317, 149.1651555, -0.215884283185, 0.145522609353, 0.0585593879223, 0.963736474514
2019-04-03 20:04:44.30,104315757, 2.98, -17.8, 205.87, 603.020019531, -35.3640356, 149.1651537, -0.225037559867, 0.14498244226, 0.0597493983805, 0.961648702621
2019-04-03 20:04:44.40,104415717, 2.99, -17.81, 206.82, 603.030029297, -35.3640396, 149.1651521, -0.232996255159, 0.14454805851, 0.0609794519842, 0.959739625454
2019-04-03 20:04:44.49,104515677, 3.01, -17.83, 207.66, 603.030029297, -35.3640435, 149.1651502, -0.240079715848, 0.144221246243, 0.062243103981, 0.957960188389
2019-04-03 20:04:44.60,104616470, 3.05, -17.85, 208.44, 603.039978027, -35.3640473, 149.1651482, -0.24666698277, 0.143923342228, 0.0636695325375, 0.956236243248
2019-04-03 20:04:44.70,104716430, 3.08, -17.87, 209.18, 603.039978027, -35.3640513, 149.1651461, -0.252884894609, 0.143567681313, 0.0648824349046, 0.954582512379
2019-04-03 20:04:44.80,104816390, 3.08, -17.89, 209.92, 603.049987793, -35.3640551, 149.165144, -0.258973926306, 0.143307864666, 0.065804630518, 0.952924489975
2019-04-03 20:04:44.90,104916350, 3.05, -17.89, 210.66, 603.049987793, -35.3640588, 149.1651417, -0.265082627535, 0.143018618226, 0.0664835572243, 0.951239645481
2019-04-03 20:04:45.00,105016310, 2.97, -17.89, 211.41, 603.059997559, -35.3640625, 149.1651394, -0.271249353886, 0.142771229148, 0.0667538791895, 0.949517846107
2019-04-03 20:04:45.10,105116270, 2.83, -17.89, 212.18, 603.059997559, -35.3640664, 149.1651372, -0.27745822072, 0.142580375075, 0.0665985494852, 0.947761774063
2019-04-03 20:04:45.20,105216230, 2.68, -17.89, 212.96, 603.059997559, -35.3640701, 149.1651346, -0.283675730228, 0.142522767186, 0.0662681013346, 0.945951342583
2019-04-03 20:04:45.30,105316190, 2.53, -17.89, 213.73, 603.059997559, -35.3640738, 149.1651321, -0.289855420589, 0.14244556427, 0.0660030022264, 0.944106280804
2019-04-03 20:04:45.40,105416150, 2.39, -17.88, 214.49, 603.070007324, -35.3640774, 149.1651296, -0.295911639929, 0.142329901457, 0.0657763257623, 0.942259013653
2019-04-03 20:04:45.50,105516110, 2.25, -17.89, 215.22, 603.070007324, -35.3640811, 149.1651269, -0.301738023758, 0.142289415002, 0.0655690506101, 0.940429985523
2019-04-03 20:04:45.60,105616070, 2.11, -17.93, 215.91, 603.070007324, -35.3640847, 149.1651241, -0.307203292847, 0.142622634768, 0.0653445199132, 0.938623964787
2019-04-03 20:04:45.70,105716030, 1.95, -17.97, 216.55, 603.070007324, -35.3640882, 149.1651214, -0.312278330326, 0.14300493896, 0.0650127455592, 0.936912596226
2019-04-03 20:04:45.80,105815990, 1.82, -18.0, 217.15, 603.070007324, -35.3640918, 149.1651186, -0.316955268383, 0.143301814795, 0.0647644400597, 0.935312509537
2019-04-03 20:04:45.90,105915950, 1.72, -18.04, 217.69, 603.070007324, -35.3640952, 149.1651157, -0.321217566729, 0.143634364009, 0.0646923705935, 0.933811187744
2019-04-03 20:04:46.00,106015910, 1.61, -18.06, 218.18, 603.08001709, -35.3640989, 149.1651126, -0.325069695711, 0.143791928887, 0.0645314007998, 0.932464122772
2019-04-03 20:04:46.10,106115870, 1.52, -18.08, 218.62, 603.08001709, -35.3641024, 149.1651097, -0.328534096479, 0.143942609429, 0.0643655285239, 0.931237339973
2019-04-03 20:04:46.20,106215830, 1.44, -18.08, 219.02, 603.08001709, -35.3641058, 149.1651067, -0.331674307585, 0.144015401602, 0.0642257258296, 0.930121898651
2019-04-03 20:04:46.30,106315790, 1.38, -18.08, 219.38, 603.08001709, -35.3641092, 149.1651035, -0.334556639194, 0.143937855959, 0.0642177686095, 0.929101645947
2019-04-03 20:04:46.40,106415750, 1.36, -18.07, 219.72, 603.08001709, -35.3641127, 149.1651005, -0.337246567011, 0.143748819828, 0.0644315183163, 0.928143143654
2019-04-03 20:04:46.50,106515710, 1.35, -18.05, 220.03, 603.08001709, -35.3641162, 149.1650973, -0.339770942926, 0.143464997411, 0.0646483376622, 0.927250862122
2019-04-03 20:04:46.59,106615670, 1.32, -18.04, 220.33, 603.08001709, -35.3641195, 149.1650942, -0.342147737741, 0.143213286996, 0.0647949576378, 0.926405191422
2019-04-03 20:04:46.70,106716463, 1.27, -18.03, 220.61, 603.08001709, -35.364123, 149.1650909, -0.344386339188, 0.143147662282, 0.0646778941154, 0.925593614578
2019-04-03 20:04:46.80,106816423, 1.18, -18.05, 220.88, 603.08001709, -35.3641263, 149.1650876, -0.346459686756, 0.143401026726, 0.0643963068724, 0.924799978733
2019-04-03 20:04:46.90,106916383, 1.11, -18.09, 221.14, 603.08001709, -35.3641297, 149.1650843, -0.348444312811, 0.143850967288, 0.0642618685961, 0.923993468285
2019-04-03 20:04:47.00,107016343, 1.05, -18.13, 221.39, 603.08001709, -35.364133, 149.1650809, -0.350372463465, 0.144164741039, 0.0642239823937, 0.923217713833
2019-04-03 20:04:47.10,107116303, 1.01, -18.16, 221.63, 603.08001709, -35.3641364, 149.1650776, -0.352226138115, 0.144409954548, 0.0642878934741, 0.922469258308
2019-04-03 20:04:47.20,107216263, 0.97, -18.17, 221.86, 603.08001709, -35.3641396, 149.1650742, -0.35399672389, 0.144530445337, 0.0642770305276, 0.921773135662
2019-04-03 20:04:47.30,107316223, 0.9, -18.18, 222.07, 603.08001709, -35.364143, 149.1650708, -0.355646550655, 0.144649103284, 0.0640323981643, 0.921136260033
2019-04-03 20:04:47.40,107416183, 0.82, -18.17, 222.27, 603.08001709, -35.3641463, 149.1650673, -0.357167363167, 0.144762322307, 0.0636013075709, 0.920559763908
2019-04-03 20:04:47.50,107516143, 0.72, -18.18, 222.46, 603.08001709, -35.3641496, 149.1650639, -0.358549654484, 0.145039707422, 0.0630814954638, 0.920014321804
2019-04-03 20:04:47.60,107616103, 0.65, -18.2, 222.64, 603.08001709, -35.3641529, 149.1650603, -0.359836876392, 0.145286291838, 0.0627565607429, 0.919494926929
2019-04-03 20:04:47.70,107716063, 0.6, -18.19, 222.79, 603.08001709, -35.364156, 149.1650569, -0.361047565937, 0.145328730345, 0.06257455796, 0.919025957584
2019-04-03 20:04:47.80,107816023, 0.59, -18.18, 222.94, 603.08001709, -35.3641594, 149.1650532, -0.362189859152, 0.145171552896, 0.0625909939408, 0.918600142002
2019-04-03 20:04:47.90,107915983, 0.59, -18.17, 223.07, 603.08001709, -35.3641626, 149.1650498, -0.363234043121, 0.145038530231, 0.0627330094576, 0.918199002743
2019-04-03 20:04:48.00,108015943, 0.59, -18.18, 223.18, 603.08001709, -35.3641658, 149.1650462, -0.364160835743, 0.145091578364, 0.0629336386919, 0.917809724808
2019-04-03 20:04:48.10,108115903, 0.55, -18.19, 223.29, 603.090026855, -35.3641691, 149.1650426, -0.364968210459, 0.145154505968, 0.0628008767962, 0.917488157749
2019-04-03 20:04:48.20,108215863, 0.51, -18.19, 223.39, 603.090026855, -35.3641724, 149.165039, -0.365682989359, 0.145297586918, 0.0625726655126, 0.917196393013
2019-04-03 20:04:48.30,108315823, 0.46, -18.18, 223.48, 603.090026855, -35.3641755, 149.1650354, -0.366344422102, 0.145297661424, 0.0622974224389, 0.916951179504
2019-04-03 20:04:48.40,108415783, 0.41, -18.18, 223.56, 603.090026855, -35.3641788, 149.1650317, -0.366934388876, 0.145391911268, 0.061953086406, 0.916723608971
2019-04-03 20:04:48.50,108515743, 0.36, -18.18, 223.64, 603.090026855, -35.364182, 149.1650281, -0.367499619722, 0.145501077175, 0.0616615861654, 0.916499495506
2019-04-03 20:04:48.60,108615703, 0.33, -18.19, 223.71, 603.090026855, -35.3641852, 149.1650244, -0.368038445711, 0.145645201206, 0.0615643672645, 0.916266918182
2019-04-03 20:04:48.69,108715663, 0.32, -18.18, 223.78, 603.090026855, -35.3641883, 149.1650207, -0.368558704853, 0.14562523365, 0.0615313462913, 0.916063129902
2019-04-03 20:04:48.80,108816456, 0.32, -18.17, 223.84, 603.090026855, -35.3641916, 149.165017, -0.369059413671, 0.145461454988, 0.0615400895476, 0.915886998177
2019-04-03 20:04:48.90,108916416, 0.33, -18.15, 223.89, 603.090026855, -35.3641948, 149.1650133, -0.369531184435, 0.145242407918, 0.0616578869522, 0.915723562241
2019-04-03 20:04:49.00,109016376, 0.33, -18.14, 223.95, 603.090026855, -35.364198, 149.1650096, -0.369955927134, 0.145138904452, 0.0617209821939, 0.915564239025
2019-04-03 20:04:49.10,109116336, 0.32, -18.15, 223.99, 603.090026855, -35.3642011, 149.1650058, -0.370321750641, 0.145232468843, 0.0616922862828, 0.915403425694
2019-04-03 20:04:49.20,109216296, 0.3, -18.17, 224.04, 603.090026855, -35.3642044, 149.1650022, -0.370658546686, 0.145410716534, 0.0616608187556, 0.915240883827
2019-04-03 20:04:49.30,109316256, 0.27, -18.19, 224.08, 603.090026855, -35.3642076, 149.1649985, -0.3709615767, 0.145664513111, 0.0615796670318, 0.915083229542
2019-04-03 20:04:49.40,109416216, 0.24, -18.23, 224.12, 603.090026855, -35.3642107, 149.1649948, -0.371210932732, 0.146038874984, 0.0614738687873, 0.914929568768
2019-04-03 20:04:49.50,109516176, 0.21, -18.27, 224.16, 603.090026855, -35.3642138, 149.1649909, -0.371411889791, 0.146487414837, 0.0613801367581, 0.914782583714
2019-04-03 20:04:49.60,109616136, 0.17, -18.3, 224.18, 603.090026855, -35.3642171, 149.1649873, -0.371561020613, 0.146829426289, 0.0612225905061, 0.914677739143
2019-04-03 20:04:49.70,109716096, 0.14, -18.31, 224.2, 603.090026855, -35.3642203, 149.1649835, -0.371684849262, 0.146968379617, 0.0610097795725, 0.914619326591
2019-04-03 20:04:49.80,109816056, 0.1, -18.3, 224.22, 603.090026855, -35.3642234, 149.1649798, -0.371794641018, 0.146980598569, 0.060708899051, 0.91459274292
2019-04-03 20:04:49.90,109916016, 0.09, -18.26, 224.24, 603.099975586, -35.3642265, 149.164976, -0.371925234795, 0.146735370159, 0.0605074241757, 0.914592385292
2019-04-03 20:04:50.00,110015976, 0.1, -18.23, 224.25, 603.099975586, -35.3642297, 149.1649722, -0.372059464455, 0.14646859467, 0.0605037622154, 0.914580821991
2019-04-03 20:04:50.10,110115936, 0.12, -18.23, 224.26, 603.099975586, -35.3642329, 149.1649684, -0.372176885605, 0.14636836946, 0.0606642067432, 0.914538443089
2019-04-03 20:04:50.20,110215896, 0.13, -18.25, 224.27, 603.099975586, -35.3642361, 149.1649646, -0.372266829014, 0.146520674229, 0.0608996301889, 0.914461791515
2019-04-03 20:04:50.30,110315856, 0.15, -18.28, 224.28, 603.099975586, -35.3642393, 149.1649608, -0.372362345457, 0.146666437387, 0.0611648447812, 0.914381861687
2019-04-03 20:04:50.40,110415816, 0.15, -18.31, 224.3, 603.099975586, -35.3642423, 149.164957, -0.3724347651, 0.146897926927, 0.0612585768104, 0.914308905602
2019-04-03 20:04:50.50,110515776, 0.13, -18.33, 224.31, 603.099975586, -35.3642455, 149.1649532, -0.372488170862, 0.147102415562, 0.0611955262721, 0.914258480072
2019-04-03 20:04:50.60,110615736, 0.11, -18.32, 224.32, 603.099975586, -35.3642488, 149.1649496, -0.372534185648, 0.147091582417, 0.0610077306628, 0.914254009724
2019-04-03 20:04:50.70,110715696, 0.09, -18.28, 224.32, 603.099975586, -35.3642519, 149.1649458, -0.372581988573, 0.14682893455, 0.0606953091919, 0.914297521114
2019-04-03 20:04:50.80,110816489, 0.08, -18.24, 224.33, 603.099975586, -35.3642551, 149.1649419, -0.372635781765, 0.146570712328, 0.0604809485376, 0.914331257343
2019-04-03 20:04:50.90,110916449, 0.07, -18.22, 224.33, 603.099975586, -35.3642582, 149.1649381, -0.372688859701, 0.14645190537, 0.060398530215, 0.914334118366
2019-04-03 20:04:51.00,111016409, 0.07, -18.24, 224.34, 603.099975586, -35.3642615, 149.1649343, -0.372721016407, 0.146568402648, 0.0604561641812, 0.914298534393
2019-04-03 20:04:51.10,111116369, 0.08, -18.27, 224.34, 603.099975586, -35.3642646, 149.1649305, -0.372744858265, 0.146810486913, 0.0606467686594, 0.914237380028
2019-04-03 20:04:51.20,111216329, 0.1, -18.32, 224.35, 603.099975586, -35.3642678, 149.1649267, -0.372765630484, 0.147093385458, 0.0609384924173, 0.91416400671
2019-04-03 20:04:51.30,111316289, 0.11, -18.35, 224.35, 603.099975586, -35.3642709, 149.1649229, -0.37277802825, 0.147286534309, 0.0611400492489, 0.914114415646
2019-04-03 20:04:51.40,111416249, 0.1, -18.37, 224.35, 603.099975586, -35.364274, 149.1649191, -0.372749239206, 0.147536948323, 0.061092466116, 0.914088964462
2019-04-03 20:04:51.50,111516209, 0.08, -18.4, 224.35, 603.099975586, -35.3642773, 149.1649153, -0.372718572617, 0.147780880332, 0.0610482543707, 0.914065003395
2019-04-03 20:04:51.60,111616169, 0.08, -18.4, 224.35, 603.099975586, -35.3642805, 149.1649115, -0.372720777988, 0.147843599319, 0.0610884279013, 0.914051294327
2019-04-03 20:04:51.70,111716129, 0.1, -18.4, 224.35, 603.099975586, -35.3642836, 149.1649076, -0.372741132975, 0.147781968117, 0.0611834451556, 0.91404658556
2019-04-03 20:04:51.80,111816089, 0.09, -18.37, 224.35, 603.099975586, -35.3642867, 149.1649038, -0.372748792171, 0.147527202964, 0.0610380135477, 0.91409432888
2019-04-03 20:04:51.90,111916049, 0.07, -18.33, 224.35, 603.099975586, -35.3642899, 149.1649, -0.372744441032, 0.147245556116, 0.0607530027628, 0.914160490036
2019-04-03 20:04:52.00,112016009, 0.05, -18.31, 224.35, 603.099975586, -35.3642932, 149.1648961, -0.372721612453, 0.147200793028, 0.0605170316994, 0.914192676544
2019-04-03 20:04:52.10,112115969, 0.03, -18.32, 224.35, 603.099975586, -35.3642963, 149.1648923, -0.372690051794, 0.147344127297, 0.0604085884988, 0.914189636707
2019-04-03 20:04:52.20,112215929, 0.01, -18.34, 224.35, 603.099975586, -35.3642995, 149.1648885, -0.37264046073, 0.147585824132, 0.0603016018867, 0.914177894592
2019-04-03 20:04:52.30,112315889, 0.0, -18.36, 224.34, 603.109985352, -35.3643026, 149.1648846, -0.372603327036, 0.147787392139, 0.060291968286, 0.914161145687
2019-04-03 20:04:52.40,112415849, 0.01, -18.38, 224.34, 603.109985352, -35.3643059, 149.1648808, -0.372581243515, 0.147887811065, 0.0604361630976, 0.914144337177
2019-04-03 20:04:52.50,112515809, 0.05, -18.39, 224.34, 603.109985352, -35.364309, 149.164877, -0.372581958771, 0.147852495313, 0.0607639998198, 0.914128005505
2019-04-03 20:04:52.60,112615769, 0.05, -18.4, 224.33, 603.109985352, -35.3643122, 149.1648732, -0.372532635927, 0.147910296917, 0.0607971586287, 0.914136588573
2019-04-03 20:04:52.70,112715729, 0.04, -18.39, 224.32, 603.109985352, -35.3643153, 149.1648693, -0.372470766306, 0.147904440761, 0.0606955327094, 0.914169490337
2019-04-03 20:04:52.80,112815689, 0.04, -18.38, 224.32, 603.109985352, -35.3643186, 149.1648655, -0.372427642345, 0.147815316916, 0.0606664977968, 0.91420340538
2019-04-03 20:04:52.90,112916482, 0.07, -18.37, 224.31, 603.109985352, -35.3643218, 149.1648617, -0.372426003218, 0.147607564926, 0.0608533099294, 0.91422522068
2019-04-03 20:04:53.00,113016442, 0.11, -18.36, 224.31, 603.109985352, -35.3643249, 149.1648578, -0.372423708439, 0.147454917431, 0.0610644035041, 0.914236724377
2019-04-03 20:04:53.10,113116402, 0.13, -18.36, 224.3, 603.109985352, -35.3643281, 149.164854, -0.372416049242, 0.147357061505, 0.0612198188901, 0.914245247841
2019-04-03 20:04:53.20,113216362, 0.15, -18.36, 224.3, 603.109985352, -35.3643312, 149.1648502, -0.37240204215, 0.14733697474, 0.0613745264709, 0.914243817329
2019-04-03 20:04:53.30,113316322, 0.18, -18.38, 224.29, 603.109985352, -35.3643345, 149.1648463, -0.372424691916, 0.147346243262, 0.0617172829807, 0.914209961891
2019-04-03 20:04:53.40,113416282, 0.21, -18.4, 224.29, 603.109985352, -35.3643377, 149.1648425, -0.372448861599, 0.14741127193, 0.0620357319713, 0.914168119431
2019-04-03 20:04:53.50,113516242, 0.23, -18.4, 224.29, 603.109985352, -35.3643408, 149.1648387, -0.372481524944, 0.147367849946, 0.0621954612434, 0.914150953293
2019-04-03 20:04:53.60,113616202, 0.22, -18.4, 224.3, 603.109985352, -35.3643439, 149.1648349, -0.37248134613, 0.147408038378, 0.0621122866869, 0.914150178432
2019-04-03 20:04:53.70,113716162, 0.18, -18.41, 224.3, 603.109985352, -35.3643472, 149.164831, -0.372438132763, 0.147545173764, 0.0618309266865, 0.91416478157
2019-04-03 20:04:53.80,113816122, 0.15, -18.4, 224.3, 603.109985352, -35.3643504, 149.1648272, -0.372391492128, 0.147663071752, 0.061535410583, 0.914184689522
2019-04-03 20:04:53.90,113916082, 0.12, -18.4, 224.3, 603.109985352, -35.3643536, 149.1648233, -0.372356057167, 0.147695615888, 0.0612932629883, 0.914210140705
2019-04-03 20:04:54.00,114016042, 0.09, -18.39, 224.3, 603.109985352, -35.3643567, 149.1648195, -0.372305095196, 0.147742673755, 0.0609958320856, 0.914243161678
2019-04-03 20:04:54.10,114116002, 0.07, -18.39, 224.29, 603.109985352, -35.36436, 149.1648156, -0.372256278992, 0.14782834053, 0.0608369223773, 0.914259791374
2019-04-03 20:04:54.20,114215962, 0.06, -18.4, 224.29, 603.109985352, -35.3643631, 149.1648118, -0.372211277485, 0.14791674912, 0.0608263239264, 0.914264500141
2019-04-03 20:04:54.30,114315922, 0.1, -18.41, 224.28, 603.109985352, -35.3643663, 149.1648079, -0.372192531824, 0.147861108184, 0.0611391924322, 0.914260268211
2019-04-03 20:04:54.40,114415882, 0.14, -18.41, 224.27, 603.109985352, -35.3643694, 149.164804, -0.372169464827, 0.14777444303, 0.0614506900311, 0.914262771606
2019-04-03 20:04:54.50,114515842, 0.16, -18.41, 224.26, 603.109985352, -35.3643726, 149.1648002, -0.372135013342, 0.147640556097, 0.0616034716368, 0.914288163185
2019-04-03 20:04:54.60,114615802, 0.15, -18.39, 224.25, 603.109985352, -35.3643759, 149.1647963, -0.372057139874, 0.147550061345, 0.0614016763866, 0.914348006248
2019-04-03 20:04:54.70,114715762, 0.1, -18.37, 224.25, 603.119995117, -35.3643791, 149.1647925, -0.37195199728, 0.147518068552, 0.0609861053526, 0.914423763752
2019-04-03 20:04:54.80,114815722, 0.08, -18.36, 224.24, 603.119995117, -35.3643822, 149.1647885, -0.37186768651, 0.147571116686, 0.060799241066, 0.914461970329
2019-04-03 20:04:54.89,114915682, 0.08, -18.37, 224.23, 603.119995117, -35.3643855, 149.1647848, -0.37181815505, 0.147648513317, 0.0608413331211, 0.914466798306
2019-04-03 20:04:55.00,115016475, 0.09, -18.38, 224.23, 603.119995117, -35.3643887, 149.1647808, -0.371772140265, 0.147720128298, 0.0608897320926, 0.914470732212
2019-04-03 20:04:55.10,115116435, 0.1, -18.4, 224.22, 603.119995117, -35.3643919, 149.1647769, -0.371737778187, 0.147809848189, 0.0610144548118, 0.91446185112
