Start,TimeUS,Roll,Pitch,Yaw,Alt,Lat,Lng,Q1,Q2,Q3,Q4
2019-04-03 19:32:24.80,48015786, 0.0, 0.0, 353.0, 584.090026855, -35.363261, 149.1652299, 0.998134791851, 0.0, 0.0, -0.0610485821962
2019-04-03 19:32:24.89,48115746, 0.0, 0.0, 353.0, 584.090026855, -35.363261, 149.1652299, 0.998134791851, 0.0, 0.0, -0.0610485821962
2019-04-03 19:32:24.99,48215706, 0.0, 0.0, 353.0, 584.090026855, -35.363261, 149.1652299, 0.998134791851, 0.0, 0.0, -0.0610485821962
2019-04-03 19:32:25.09,48315666, 0.0, 0.0, 353.0, 584.090026855, -35.363261, 149.1652299, 0.998134791851, 0.0, 0.0, -0.0610485821962
2019-04-03 19:32:25.20,48416459, 0.0, 0.0, 353.0, 584.090026855, -35.363261, 149.1652299, 0.998134791851, 0.0, 0.0, -0.0610485821962
2019-04-03 19:32:25.30,48516419, 0.0, 0.0, 353.0, 584.090026855, -35.363261, 149.1652299, 0.998134791851, 0.0, 0.0, -0.0610485821962
2019-04-03 19:32:25.40,48616379, 0.0, 0.0, 353.0, 584.090026855, -35.363261, 149.1652299, 0.998134791851, 0.0, 0.0, -0.0610485821962
2019-04-03 19:32:25.50,48716339, 0.0, 0.0, 353.0, 584.090026855, -35.363261, 149.1652299, 0.998134791851, 0.0, 0.0, -0.0610485821962
2019-04-03 19:32:25.60,48816299, 0.0, 0.0, 353.0, 584.090026855, -35.363261, 149.1652299, 0.998134791851, 0.0, 0.0, -0.0610485821962
2019-04-03 19:32:25.70,48916259, 0.0, 0.0, 353.0, 584.090026855, -35.363261, 149.1652299, 0.998134791851, 0.0, 0.0, -0.0610485821962
2019-04-03 19:32:25.80,49016219, 0.0, 0.0, 353.0, 584.090026855, -35.363261, 149.1652299, 0.998134791851, 0.0, 0.0, -0.0610485821962
2019-04-03 19:32:25.90,49116179, 0.0, 0.0, 353.0, 584.090026855, -35.363261, 149.1652299, 0.998134791851, 0.0, 0.0, -0.0610485821962
2019-04-03 19:32:26.00,49216139, 0.0, 0.0, 353.0, 584.090026855, -35.363261, 149.1652299, 0.998134791851, 0.0, 0.0, -0.0610485821962
2019-04-03 19:32:26.10,49316099, 0.0, 0.0, 353.0, 584.090026855, -35.363261, 149.1652299, 0.998134791851, 0.0, 0.0, -0.0610485821962
2019-04-03 19:32:26.20,49416059, 0.0, 0.0, 353.0, 584.090026855, -35.363261, 149.1652299, 0.998134791851, 0.0, 0.0, -0.0610485821962
2019-04-03 19:32:26.30,49516019, 0.0, 0.0, 353.0, 584.090026855, -35.363261, 149.1652299, 0.998134791851, 0.0, 0.0, -0.0610485821962
2019-04-03 19:32:26.40,49615979, 0.0, 0.0, 353.0, 584.090026855, -35.363261, 149.1652299, 0.998134791851, 0.0, 0.0, -0.0610485821962
2019-04-03 19:32:26.50,49715939, 0.0, 0.0, 353.0, 584.090026855, -35.363261, 149.1652299, 0.998134791851, 0.0, 0.0, -0.0610485821962
2019-04-03 19:32:26.60,49815899, 0.0, 0.0, 353.0, 584.090026855, -35.363261, 149.1652299, 0.998134791851, 0.0, 0.0, -0.0610485821962
2019-04-03 19:32:26.70,49915859, 0.0, 0.0, 353.0, 584.090026855, -35.363261, 149.1652299, 0.998134791851, 0.0, 0.0, -0.0610485821962
2019-04-03 19:32:26.80,50015819, 0.0, 0.0, 353.0, 584.090026855, -35.363261, 149.1652299, 0.998134791851, 0.0, 0.0, -0.0610485821962
2019-04-03 19:32:26.89,50115779, 0.0, 0.0, 353.0, 584.090026855, -35.363261, 149.1652299, 0.998134791851, 0.0, 0.0, -0.0610485821962
2019-04-03 19:32:26.99,50215739, 0.0, 0.0, 353.0, 584.090026855, -35.363261, 149.1652299, 0.998134791851, 0.0, 0.0, -0.0610485821962
2019-04-03 19:32:27.09,50315699, 0.0, 0.0, 353.0, 584.090026855, -35.363261, 149.1652299, 0.998134791851, 0.0, 0.0, -0.0610485821962
2019-04-03 19:32:27.19,50415659, 0.0, 0.0, 353.0, 584.090026855, -35.363261, 149.1652299, 0.998134791851, 0.0, 0.0, -0.0610485821962
2019-04-03 19:32:27.30,50516452, 0.0, 0.0, 353.0, 584.090026855, -35.363261, 149.1652299, 0.998134791851, 0.0, 0.0, -0.0610485821962
2019-04-03 19:32:27.40,50616412, 0.0, 0.0, 353.0, 584.090026855, -35.363261, 149.1652299, 0.998134791851, 0.0, 0.0, -0.0610485821962
2019-04-03 19:32:27.50,50716372, 0.0, 0.0, 353.0, 584.090026855, -35.363261, 149.1652299, 0.998134791851, 0.0, 0.0, -0.0610485821962
2019-04-03 19:32:27.60,50816332, 0.0, 0.0, 353.0, 584.090026855, -35.363261, 149.1652299, 0.998134791851, 0.0, 0.0, -0.0610485821962
2019-04-03 19:32:27.70,50916292, 0.0, 0.0, 353.0, 584.090026855, -35.363261, 149.1652299, 0.998134791851, 0.0, 0.0, -0.0610485821962
2019-04-03 19:32:27.80,51016252, 0.0, 0.0, 353.0, 584.090026855, -35.363261, 149.1652299, 0.998134791851, 0.0, 0.0, -0.0610485821962
2019-04-03 19:32:27.90,51116212, 0.0, 0.0, 353.0, 584.090026855, -35.363261, 149.1652299, 0.998134791851, 0.0, 0.0, -0.0610485821962
2019-04-03 19:32:28.00,51216172, 0.0, 0.0, 353.0, 584.090026855, -35.363261, 149.1652299, 0.998134791851, 0.0, 0.0, -0.0610485821962
2019-04-03 19:32:28.10,51316132, 0.0, 0.0, 353.0, 584.090026855, -35.363261, 149.1652299, 0.998134791851, 0.0, 0.0, -0.0610485821962
2019-04-03 19:32:28.20,51416092, 0.0, 0.0, 353.0, 584.090026855, -35.363261, 149.1652299, 0.998134791851, 0.0, 0.0, -0.0610485821962
2019-04-03 19:32:28.30,51516052, 0.0, 0.0, 353.0, 584.090026855, -35.363261, 149.1652299, 0.998134791851, 0.0, 0.0, -0.0610485821962
2019-04-03 19:32:28.40,51616012, 0.0, 0.0, 353.0, 584.090026855, -35.363261, 149.1652299, 0.998134791851, 0.0, 0.0, -0.0610485821962
2019-04-03 19:32:28.50,51715972, 0.0, 0.0, 353.0, 584.090026855, -35.363261, 149.1652299, 0.998134791851, 0.0, 0.0, -0.0610485821962
2019-04-03 19:32:28.60,51815932, 0.0, 0.0, 353.0, 584.090026855, -35.363261, 149.1652299, 0.998134791851, 0.0, 0.0, -0.0610485821962
2019-04-03 19:32:28.70,51915892, 0.0, 0.0, 353.0, 584.090026855, -35.363261, 149.1652299, 0.998134791851, 0.0, 0.0, -0.0610485821962
2019-04-03 19:32:28.80,52015852, 0.0, 0.0, 353.0, 584.090026855, -35.363261, 149.1652299, 0.998134791851, 0.0, 0.0, -0.0610485821962
2019-04-03 19:32:28.90,52115812, 0.0, 0.0, 353.0, 584.090026855, -35.363261, 149.1652299, 0.998134791851, 0.0, 0.0, -0.0610485821962
2019-04-03 19:32:28.99,52215772, 0.0, 0.0, 353.0, 584.090026855, -35.363261, 149.1652299, 0.998134791851, 0.0, 0.0, -0.0610485821962
2019-04-03 19:32:29.09,52315732, 0.0, 0.0, 353.0, 584.090026855, -35.363261, 149.1652299, 0.998134791851, 0.0, 0.0, -0.0610485821962
2019-04-03 19:32:29.19,52415692, 0.0, 0.0, 353.0, 584.090026855, -35.363261, 149.1652299, 0.998134791851, 0.0, 0.0, -0.0610485821962
2019-04-03 19:32:29.30,52516485, 0.0, 0.0, 353.0, 584.090026855, -35.363261, 149.1652299, 0.998134791851, 0.0, 0.0, -0.0610485896468
2019-04-03 19:32:29.40,52616445, 0.0, 0.0, 353.0, 584.090026855, -35.363261, 149.1652299, 0.998134791851, 0.0, 0.0, -0.0610486753285
2019-04-03 19:32:29.50,52716405, 0.0, 0.0, 353.0, 584.090026855, -35.363261, 149.1652299, 0.998134791851, 0.0, 0.0, -0.0610486753285
2019-04-03 19:32:29.60,52816365, 0.0, 0.0, 353.0, 584.090026855, -35.363261, 149.1652299, 0.998134791851, 0.0, 0.0, -0.0610486753285
2019-04-03 19:32:29.70,52916325, 0.0, 0.0, 353.0, 584.090026855, -35.363261, 149.1652299, 0.998134791851, 0.0, 0.0, -0.0610486753285
2019-04-03 19:32:29.80,53016285, 0.0, 0.0, 353.0, 584.090026855, -35.363261, 149.1652299, 0.998134791851, 0.0, 0.0, -0.0610486753285
2019-04-03 19:32:29.90,53116245, 0.0, 0.0, 353.0, 584.090026855, -35.363261, 149.1652299, 0.998134791851, 0.0, 0.0, -0.0610486753285
2019-04-03 19:32:30.00,53216205, 0.0, 0.0, 353.0, 584.090026855, -35.363261, 149.1652299, 0.998134791851, 0.0, 0.0, -0.0610486753285
2019-04-03 19:32:30.10,53316165, 0.0, 0.0, 353.0, 584.099975586, -35.363261, 149.1652299, 0.998134791851, 0.0, 0.0, -0.0610486753285
2019-04-03 19:32:30.20,53416125, 0.0, 0.0, 353.0, 584.099975586, -35.363261, 149.1652299, 0.998134791851, 0.0, 0.0, -0.0610486753285
2019-04-03 19:32:30.30,53516085, 0.0, 0.0, 353.0, 584.109985352, -35.363261, 149.1652299, 0.998134791851, 0.0, 0.0, -0.0610486641526
2019-04-03 19:32:30.40,53616045, 0.0, 0.0, 353.0, 584.130004883, -35.363261, 149.1652299, 0.998134791851, 0.0, 0.0, -0.0610486529768
2019-04-03 19:32:30.50,53716005, 0.0, 0.0, 353.0, 584.159973145, -35.363261, 149.1652299, 0.998134791851, 0.0, 0.0, -0.0610486753285
2019-04-03 19:32:30.60,53815965, 0.0, 0.0, 353.0, 584.200012207, -35.363261, 149.1652299, 0.998134791851, 0.0, 0.0, -0.0610486753285
2019-04-03 19:32:30.70,53915925, -0.01, 0.0, 352.99, 584.239990234, -35.363261, 149.1652299, 0.998134732246, -0.000148304621689, -3.19531463902e-05, -0.0610497891903
2019-04-03 19:32:30.80,54015885, -0.07, 0.0, 352.99, 584.33001709, -35.363261, 149.1652299, 0.998134076595, -0.00069234194234, 3.84760060115e-05, -0.0610566958785
2019-04-03 19:32:30.90,54115845, -0.14, -0.01, 352.99, 584.469970703, -35.363261, 149.1652299, 0.998132944107, -0.00123451661784, -4.55877816421e-05, -0.0610661022365
2019-04-03 19:32:31.00,54215805, -0.16, -0.04, 352.99, 584.630004883, -35.363261, 149.1652299, 0.998131632805, -0.00147088931408, -0.000290150084766, -0.0610824897885
2019-04-03 19:32:31.09,54315765, -0.15, -0.06, 352.99, 584.780029297, -35.363261, 149.1652299, 0.998130261898, -0.00137323339004, -0.000444936245913, -0.0611063167453
2019-04-03 19:32:31.19,54415725, -0.12, -0.07, 352.99, 584.929992676, -35.363261, 149.1652299, 0.99812912941, -0.00113894883543, -0.000592675118241, -0.0611281245947
2019-04-03 19:32:31.29,54515685, -0.08, -0.08, 352.98, 585.090026855, -35.363261, 149.1652299, 0.998128056526, -0.000803095230367, -0.000690969231073, -0.0611495897174
2019-04-03 19:32:31.40,54616478, -0.05, -0.07, 352.98, 585.239990234, -35.363261, 149.1652299, 0.99812746048, -0.000525369308889, -0.000614316842984, -0.061163932085
2019-04-03 19:32:31.50,54716438, -0.04, -0.07, 352.98, 585.409973145, -35.363261, 149.1652299, 0.998126745224, -0.000441017007688, -0.000619291095063, -0.0611758492887
2019-04-03 19:32:31.60,54816398, -0.03, -0.08, 352.98, 585.58001709, -35.363261, 149.1652299, 0.998126327991, -0.000355358526576, -0.000739867449738, -0.0611820593476
2019-04-03 19:32:31.70,54916358, -0.01, -0.1, 352.98, 585.75, -35.363261, 149.1652299, 0.998126268387, -0.000148922990775, -0.000866027199663, -0.0611820407212
2019-04-03 19:32:31.80,55016318, 0.0, -0.09, 352.98, 585.929992676, -35.363261, 149.1652299, 0.998126268387, -6.28668349236e-05, -0.000840495107695, -0.0611819177866
2019-04-03 19:32:31.90,55116278, 0.0, -0.07, 352.98, 586.119995117, -35.363261, 149.1652298, 0.998126924038, -9.72506240942e-05, -0.000677327043377, -0.0611732117832
2019-04-03 19:32:32.00,55216238, -0.03, -0.06, 352.98, 586.309997559, -35.363261, 149.1652298, 0.99812823534, -0.0003108587116, -0.000539172091521, -0.0611526034772
2019-04-03 19:32:32.10,55316198, -0.05, -0.05, 352.99, 586.5, -35.363261, 149.1652298, 0.998129487038, -0.00051440030802, -0.000477246678201, -0.061131272465
2019-04-03 19:32:32.20,55416158, -0.07, -0.04, 352.99, 586.690002441, -35.363261, 149.1652298, 0.998130202293, -0.00063903623959, -0.000388832850149, -0.0611185468733
2019-04-03 19:32:32.30,55516118, -0.07, -0.03, 352.99, 586.869995117, -35.363261, 149.1652298, 0.998130381107, -0.000676716503222, -0.000285146263195, -0.0611171014607
2019-04-03 19:32:32.40,55616078, -0.06, -0.02, 352.99, 587.039978027, -35.363261, 149.1652298, 0.998130142689, -0.000621928076725, -0.000168226571986, -0.0611220188439
2019-04-03 19:32:32.50,55716038, -0.07, 0.02, 352.99, 587.210021973, -35.363261, 149.1652298, 0.998129427433, -0.000636917364318, 0.000237305910559, -0.0611331239343
2019-04-03 19:32:32.60,55815998, -0.28, 0.24, 352.98, 587.359985352, -35.363261, 149.1652298, 0.998123049736, -0.00236577610485, 0.00230619567446, -0.0611510910094
2019-04-03 19:32:32.70,55915958, -0.78, 0.69, 352.98, 587.5, -35.363261, 149.1652298, 0.998085439205, -0.00649613048881, 0.00649154745042, -0.0611650310457
2019-04-03 19:32:32.80,56015918, -1.52, 1.32, 352.96, 587.630004883, -35.363261, 149.1652298, 0.997972846031, -0.0125636914745, 0.0123379221186, -0.0611574463546
2019-04-03 19:32:32.90,56115878, -2.39, 2.02, 352.94, 587.75, -35.363261, 149.1652298, 0.997756063938, -0.0197465308011, 0.0189484227449, -0.0611058734357
2019-04-03 19:32:33.00,56215838, -3.28, 2.73, 352.92, 587.849975586, -35.363261, 149.1652297, 0.997443377972, -0.027127629146, 0.0255570542067, -0.0609727688134
2019-04-03 19:32:33.10,56315798, -4.09, 3.35, 352.9, 587.940002441, -35.363261, 149.1652296, 0.997082710266, -0.0338626503944, 0.0314305834472, -0.0607575811446
2019-04-03 19:32:33.19,56415758, -4.74, 3.84, 352.89, 588.020019531, -35.3632611, 149.1652293, 0.996747851372, -0.0392020717263, 0.0360555574298, -0.0604723654687
2019-04-03 19:32:33.29,56515718, -5.19, 4.2, 352.9, 588.099975586, -35.3632614, 149.1652292, 0.996487140656, -0.0429760850966, 0.0393678061664, -0.0601381771266
2019-04-03 19:32:33.39,56615678, -5.52, 4.46, 352.91, 588.159973145, -35.3632616, 149.1652289, 0.996288359165, -0.0456664562225, 0.0418386571109, -0.0597802139819
2019-04-03 19:32:33.50,56716471, -5.78, 4.69, 352.93, 588.219970703, -35.363262, 149.1652284, 0.996117115021, -0.0478165857494, 0.0439755544066, -0.0594177283347
2019-04-03 19:32:33.60,56816431, -6.02, 4.9, 352.95, 588.270019531, -35.3632623, 149.1652279, 0.995952486992, -0.04981103912, 0.0459126122296, -0.0590723454952
2019-04-03 19:32:33.70,56916391, -6.25, 5.12, 352.96, 588.320007324, -35.3632628, 149.1652274, 0.995783448219, -0.0516695976257, 0.0478781759739, -0.0587651394308
2019-04-03 19:32:33.80,57016351, -6.43, 5.3, 352.97, 588.359985352, -35.3632633, 149.1652269, 0.995638012886, -0.0531642697752, 0.0495632253587, -0.0584981665015
2019-04-03 19:32:33.90,57116311, -6.56, 5.43, 352.98, 588.400024414, -35.3632639, 149.1652263, 0.995533585548, -0.0542262196541, 0.0507606528699, -0.0582737140357
2019-04-03 19:32:34.00,57216271, -6.67, 5.51, 352.99, 588.440002441, -35.3632645, 149.1652255, 0.995454967022, -0.0551286190748, 0.0515297278762, -0.0580943673849
2019-04-03 19:32:34.10,57316231, -6.76, 5.58, 353.0, 588.469970703, -35.3632651, 149.1652248, 0.995386481285, -0.0558924935758, 0.0521498471498, -0.0579840131104
2019-04-03 19:32:34.20,57416191, -6.88, 5.68, 352.98, 588.510009766, -35.3632659, 149.1652239, 0.995284318924, -0.0567915700376, 0.0531041920185, -0.0579982809722
2019-04-03 19:32:34.30,57516151, -6.91, 6.01, 352.73, 588.539978027, -35.3632665, 149.165223, 0.995005369186, -0.0567700341344, 0.0560639500618, -0.0599855445325
2019-04-03 19:32:34.40,57616111, -6.87, 6.58, 351.62, 588.570007324, -35.3632675, 149.1652221, 0.994146347046, -0.0554993599653, 0.0615709796548, -0.069295682013
2019-04-03 19:32:34.50,57716071, -7.02, 7.12, 349.02, 588.599975586, -35.3632683, 149.1652211, 0.991995692253, -0.054896838963, 0.0675899088383, -0.0914471894503
2019-04-03 19:32:34.60,57816031, -7.52, 7.29, 344.77, 588.640014648, -35.3632693, 149.16522, 0.987597763538, -0.0565214902163, 0.0715762376785, -0.127800047398
2019-04-03 19:32:34.70,57915991, -8.39, 6.84, 339.05, 588.66998291, -35.3632702, 149.1652188, 0.979757428169, -0.0609909556806, 0.0718483999372, -0.176616236567
2019-04-03 19:32:34.80,58015951, -9.48, 5.71, 332.2, 588.700012207, -35.3632714, 149.1652178, 0.967190980911, -0.0682125762105, 0.0680847838521, -0.235059723258
2019-04-03 19:32:34.90,58115911, -10.6, 3.94, 324.53, 588.739990234, -35.3632726, 149.1652165, 0.948826789856, -0.0775312706828, 0.0607711859047, -0.300039172173
2019-04-03 19:32:35.00,58215871, -11.53, 1.69, 316.34, 588.780029297, -35.3632738, 149.1652154, 0.924047708511, -0.0877938494086, 0.0510570704937, -0.368539392948
2019-04-03 19:32:35.10,58315831, -12.08, -0.78, 307.85, 588.820007324, -35.3632751, 149.165214, 0.892904043198, -0.0975372344255, 0.0401345938444, -0.437719225883
2019-04-03 19:32:35.20,58415791, -12.17, -3.31, 299.29, 588.859985352, -35.3632766, 149.1652128, 0.856162548065, -0.105984672904, 0.0287635847926, -0.504901647568
2019-04-03 19:32:35.29,58515751, -11.78, -5.69, 290.88, 588.900024414, -35.363278, 149.1652114, 0.81531059742, -0.112466223538, 0.0174771212041, -0.567727565765
2019-04-03 19:32:35.39,58615711, -10.97, -7.76, 282.81, 588.950012207, -35.3632796, 149.1652097, 0.772209763527, -0.116641968489, 0.00681901862845, -0.624532043934
2019-04-03 19:32:35.49,58715671, -9.92, -9.46, 275.24, 588.989990234, -35.3632811, 149.1652082, 0.728619217873, -0.119081921875, -0.00260971533135, -0.674482584
2019-04-03 19:32:35.60,58816464, -8.79, -10.83, 268.19, 589.039978027, -35.3632827, 149.1652064, 0.685558319092, -0.120705671608, -0.0106749963015, -0.717862069607
2019-04-03 19:32:35.70,58916424, -7.69, -11.87, 261.81, 589.099975586, -35.3632842, 149.1652045, 0.64460849762, -0.121727466583, -0.0171837639064, -0.754564166069
2019-04-03 19:32:35.80,59016384, -6.66, -12.67, 255.97, 589.150024414, -35.3632859, 149.1652026, 0.605665683746, -0.122377254069, -0.0222905110568, -0.785936415195
2019-04-03 19:32:35.90,59116344, -5.73, -13.25, 250.58, 589.200012207, -35.3632878, 149.1652006, 0.568459451199, -0.12275634706, -0.0260494146496, -0.813084304333
2019-04-03 19:32:36.00,59216304, -4.86, -13.69, 245.49, 589.260009766, -35.3632895, 149.1651986, 0.532357692719, -0.122986912727, -0.0289665106684, -0.837036728859
2019-04-03 19:32:36.10,59316264, -4.03, -14.05, 240.57, 589.320007324, -35.3632914, 149.1651963, -0.496494144201, 0.123202264309, 0.031522154808, 0.858674049377
2019-04-03 19:32:36.20,59416224, -3.15, -14.37, 235.66, 589.380004883, -35.3632932, 149.1651942, -0.459964364767, 0.123376570642, 0.0342342890799, 0.878657519817
2019-04-03 19:32:36.30,59516184, -2.11, -14.66, 230.65, 589.440002441, -35.3632951, 149.1651919, -0.422061830759, 0.123219236732, 0.038022108376, 0.897348940372
2019-04-03 19:32:36.40,59616144, -0.56, -14.92, 225.65, 589.5, -35.363297, 149.1651896, -0.384058117867, 0.121603354812, 0.0458499342203, 0.914116919041
2019-04-03 19:32:36.50,59716104, 1.37, -15.03, 221.13, 589.559997559, -35.3632992, 149.1651872, -0.349763214588, 0.118294112384, 0.0571116618812, 0.927583098412
2019-04-03 19:32:36.60,59816064, 3.28, -14.97, 217.58, 589.619995117, -35.3633011, 149.1651848, -0.322807967663, 0.114117540419, 0.0688498318195, 0.937033593655
2019-04-03 19:32:36.70,59916024, 4.71, -14.81, 215.27, 589.690002441, -35.3633033, 149.1651823, -0.305234909058, 0.110410064459, 0.0779394507408, 0.942638158798
2019-04-03 19:32:36.80,60015984, 5.41, -14.68, 214.22, 589.75, -35.3633054, 149.1651796, -0.297289222479, 0.108262598515, 0.0823178812861, 0.945051372051
2019-04-03 19:32:36.90,60115944, 5.27, -14.66, 214.31, 589.809997559, -35.3633076, 149.165177, -0.297849088907, 0.108345888555, 0.0811901688576, 0.944963097572
2019-04-03 19:32:37.00,60215904, 4.43, -14.75, 215.29, 589.880004883, -35.3633096, 149.1651742, -0.305131435394, 0.110673293471, 0.0754364058375, 0.942844390869
2019-04-03 19:32:37.10,60315864, 3.11, -14.96, 216.9, 589.940002441, -35.3633118, 149.1651714, -0.317085951567, 0.11491831392, 0.0667978674173, 0.939035832882
2019-04-03 19:32:37.20,60415824, 1.62, -15.22, 218.88, 590.010009766, -35.3633139, 149.1651685, -0.331646621227, 0.120251186192, 0.057380668819, 0.933947324753
2019-04-03 19:32:37.29,60515784, 0.2, -15.48, 220.93, 590.070007324, -35.3633162, 149.1651656, -0.346749424934, 0.125563398004, 0.0487648807466, 0.92823523283
2019-04-03 19:32:37.39,60615744, -0.97, -15.66, 222.82, 590.140014648, -35.3633185, 149.1651626, -0.360561043024, 0.129963800311, 0.0419512875378, 0.92268371582
2019-04-03 19:32:37.49,60715704, -1.79, -15.78, 224.33, 590.200012207, -35.3633207, 149.1651597, -0.371707767248, 0.132975384593, 0.0374650359154, 0.918012678623
2019-04-03 19:32:37.59,60815664, -2.24, -15.82, 225.35, 590.270019531, -35.363323, 149.1651568, -0.379337847233, 0.134508013725, 0.0351761393249, 0.91475301981
2019-04-03 19:32:37.70,60916457, -2.38, -15.81, 225.85, 590.340026855, -35.3633254, 149.1651537, -0.383169084787, 0.134706765413, 0.0346316210926, 0.913146317005
2019-04-03 19:32:37.80,61016417, -2.25, -15.79, 225.85, 590.400024414, -35.3633279, 149.1651508, -0.383347541094, 0.134089082479, 0.0356064289808, 0.913124859333
2019-04-03 19:32:37.90,61116377, -1.89, -15.78, 225.45, 590.469970703, -35.3633304, 149.1651479, -0.38052251935, 0.132989481091, 0.0379290468991, 0.91437292099
2019-04-03 19:32:38.00,61216337, -1.39, -15.81, 224.75, 590.539978027, -35.363333, 149.1651449, -0.3754979074, 0.131820991635, 0.0411938913167, 0.916475653648
2019-04-03 19:32:38.10,61316297, -0.83, -15.88, 223.89, 590.599975586, -35.3633356, 149.165142, -0.369190633297, 0.130854770541, 0.0449558235705, 0.918996334076
2019-04-03 19:32:38.20,61416257, -0.27, -15.99, 222.98, 590.66998291, -35.3633382, 149.1651389, -0.362512379885, 0.130282446742, 0.0487560480833, 0.921539008617
2019-04-03 19:32:38.30,61516217, 0.2, -16.07, 222.14, 590.729980469, -35.3633409, 149.165136, -0.356264024973, 0.129834607244, 0.0519445464015, 0.923861861229
2019-04-03 19:32:38.40,61616177, 0.57, -16.1, 221.45, 590.799987793, -35.3633435, 149.1651329, -0.351093679667, 0.129280284047, 0.0542468950152, 0.92578458786
2019-04-03 19:32:38.50,61716137, 0.8, -16.12, 220.96, 590.869995117, -35.3633461, 149.1651298, -0.347371250391, 0.128957867622, 0.0555925481021, 0.92715293169
2019-04-03 19:32:38.60,61816097, 0.88, -16.15, 220.69, 590.929992676, -35.3633489, 149.1651268, -0.345237821341, 0.129067480564, 0.0560119301081, 0.927909016609
2019-04-03 19:32:38.70,61916057, 0.84, -16.17, 220.62, 591.0, -35.3633516, 149.1651236, -0.344663769007, 0.129373937845, 0.0557205751538, 0.928097248077
2019-04-03 19:32:38.80,62016017, 0.72, -16.2, 220.73, 591.059997559, -35.3633543, 149.1651206, -0.345422565937, 0.129961699247, 0.0549792386591, 0.927777171135
2019-04-03 19:32:38.90,62115977, 0.54, -16.24, 220.98, 591.130004883, -35.3633571, 149.1651173, -0.347182452679, 0.130670428276, 0.0538802407682, 0.927084982395
2019-04-03 19:32:39.00,62215937, 0.34, -16.28, 221.3, 591.200012207, -35.3633598, 149.1651143, -0.349567383528, 0.131457477808, 0.0527337230742, 0.926142930984
2019-04-03 19:32:39.10,62315897, 0.14, -16.3, 221.66, 591.260009766, -35.3633625, 149.1651111, -0.352211594582, 0.13212865591, 0.0516057647765, 0.925108611584
2019-04-03 19:32:39.20,62415857, -0.03, -16.33, 222.0, 591.33001709, -35.3633654, 149.1651078, -0.354774355888, 0.13271650672, 0.0506581738591, 0.924097001553
2019-04-03 19:32:39.30,62515817, -0.16, -16.36, 222.3, 591.390014648, -35.3633681, 149.1651047, -0.356984853745, 0.133240327239, 0.0499995015562, 0.923205733299
2019-04-03 19:32:39.39,62615777, -0.27, -16.39, 222.52, 591.460021973, -35.363371, 149.1651015, -0.358652681112, 0.133752197027, 0.0495280958712, 0.922510445118
2019-04-03 19:32:39.49,62715737, -0.34, -16.44, 222.67, 591.530029297, -35.3633739, 149.1650982, -0.359696418047, 0.134272515774, 0.0492198355496, 0.922044873238
2019-04-03 19:32:39.59,62815697, -0.37, -16.48, 222.73, 591.590026855, -35.3633766, 149.1650949, -0.360133647919, 0.134736642241, 0.0492038540542, 0.921807348728
2019-04-03 19:32:39.70,62916490, -0.33, -16.52, 222.72, 591.659973145, -35.3633796, 149.1650918, -0.360065758228, 0.134923785925, 0.0496386215091, 0.921783208847
2019-04-03 19:32:39.80,63016450, -0.25, -16.54, 222.65, 591.729980469, -35.3633825, 149.1650885, -0.359609663486, 0.134798780084, 0.0502657741308, 0.921945512295
2019-04-03 19:32:39.90,63116410, -0.15, -16.52, 222.54, 591.789978027, -35.3633854, 149.1650852, -0.358897984028, 0.134385958314, 0.0509191378951, 0.922247231007
2019-04-03 19:32:40.00,63216370, -0.06, -16.5, 222.43, 591.859985352, -35.3633884, 149.1650819, -0.358057498932, 0.133984193206, 0.0514479726553, 0.922602951527
2019-04-03 19:32:40.10,63316330, 0.01, -16.5, 222.31, 591.929992676, -35.3633912, 149.1650786, -0.357198446989, 0.13382358849, 0.051908172667, 0.922933399677
2019-04-03 19:32:40.20,63416290, 0.07, -16.51, 222.21, 591.989990234, -35.3633942, 149.1650754, -0.356461465359, 0.133743420243, 0.0523321442306, 0.923205971718
2019-04-03 19:32:40.30,63516250, 0.11, -16.53, 222.14, 592.059997559, -35.3633972, 149.1650721, -0.355915546417, 0.133872210979, 0.0526158362627, 0.92338180542
2019-04-03 19:32:40.40,63616210, 0.13, -16.58, 222.1, 592.130004883, -35.3634001, 149.1650688, -0.355627089739, 0.134183108807, 0.052906036377, 0.92343121767
2019-04-03 19:32:40.50,63716170, 0.13, -16.63, 222.1, 592.190002441, -35.3634031, 149.1650655, -0.355584532022, 0.134619444609, 0.053045604378, 0.923376142979
2019-04-03 19:32:40.60,63816130, 0.11, -16.7, 222.13, 592.260009766, -35.3634061, 149.1650621, -0.355774909258, 0.135213375092, 0.0531516559422, 0.923209905624
2019-04-03 19:32:40.70,63916090, 0.09, -16.75, 222.18, 592.33001709, -35.3634091, 149.1650588, -0.3561642766, 0.135627642274, 0.0531817525625, 0.922997236252
2019-04-03 19:32:40.80,64016050, 0.05, -16.78, 222.25, 592.390014648, -35.3634121, 149.1650554, -0.356665760279, 0.135956168175, 0.053061388433, 0.922762155533
2019-04-03 19:32:40.90,64116010, 0.01, -16.81, 222.33, 592.460021973, -35.3634151, 149.165052, -0.357227653265, 0.136272206903, 0.0529175363481, 0.922506392002
2019-04-03 19:32:41.00,64215970, 0.0, -16.81, 222.41, 592.520019531, -35.363418, 149.1650487, -0.357817143202, 0.136325597763, 0.0528267398477, 0.92227524519
2019-04-03 19:32:41.10,64315930, 0.0, -16.81, 222.48, 592.590026855, -35.363421, 149.1650453, -0.358392238617, 0.136277213693, 0.0529624000192, 0.922051250935
2019-04-03 19:32:41.20,64415890, 0.0, -16.83, 222.54, 592.659973145, -35.363424, 149.1650419, -0.358861833811, 0.136435687542, 0.05303504318, 0.921840965748
2019-04-03 19:32:41.30,64515850, -0.01, -16.85, 222.59, 592.719970703, -35.3634271, 149.1650384, -0.359239280224, 0.136611744761, 0.0531026422977, 0.921663999557
2019-04-03 19:32:41.40,64615810, -0.01, -16.86, 222.62, 592.789978027, -35.3634301, 149.165035, -0.359525084496, 0.136654675007, 0.0531554892659, 0.921543121338
2019-04-03 19:32:41.49,64715770, -0.01, -16.87, 222.65, 592.859985352, -35.3634332, 149.1650316, -0.359714388847, 0.136708050966, 0.0531979463995, 0.921458899975
2019-04-03 19:32:41.59,64815730, -0.03, -16.89, 222.66, 592.91998291, -35.3634362, 149.1650282, -0.359797388315, 0.13691316545, 0.0531740561128, 0.921397387981
2019-04-03 19:32:41.69,64915690, -0.05, -16.94, 222.67, 592.989990234, -35.3634394, 149.1650248, -0.359801977873, 0.137370318174, 0.053152218461, 0.92132884264
2019-04-03 19:32:41.80,65016483, -0.06, -16.97, 222.67, 593.059997559, -35.3634425, 149.1650213, -0.359808772802, 0.137639865279, 0.0531781092286, 0.92128443718
2019-04-03 19:32:41.90,65116443, -0.04, -16.95, 222.67, 593.119995117, -35.3634456, 149.1650178, -0.359844088554, 0.137500926852, 0.0532780215144, 0.921285629272
2019-04-03 19:32:42.00,65216403, 0.0, -16.94, 222.67, 593.190002441, -35.3634486, 149.1650144, -0.359910696745, 0.137283667922, 0.0535492114723, 0.921276271343
2019-04-03 19:32:42.10,65316363, 0.01, -16.95, 222.68, 593.260009766, -35.3634517, 149.1650109, -0.359986037016, 0.137275710702, 0.0538224317133, 0.921232104301
2019-04-03 19:32:42.20,65416323, 0.01, -16.98, 222.69, 593.320007324, -35.3634548, 149.1650075, -0.360041022301, 0.137465193868, 0.0538777969778, 0.921179115772
2019-04-03 19:32:42.30,65516283, -0.02, -17.01, 222.7, 593.390014648, -35.3634579, 149.1650039, -0.36007758975, 0.137883782387, 0.0536646433175, 0.921114742756
2019-04-03 19:32:42.40,65616243, -0.05, -17.04, 222.72, 593.460021973, -35.363461, 149.1650005, -0.360164761543, 0.138225719333, 0.053525403142, 0.921037495136
2019-04-03 19:32:42.50,65716203, -0.05, -17.07, 222.74, 593.530029297, -35.3634641, 149.164997, -0.360331594944, 0.13843010366, 0.0536673106253, 0.920933246613
2019-04-03 19:32:42.60,65816163, -0.04, -17.09, 222.77, 593.590026855, -35.3634671, 149.1649934, -0.360537230968, 0.138571098447, 0.0538355447352, 0.920821785927
2019-04-03 19:32:42.70,65916123, -0.02, -17.11, 222.79, 593.659973145, -35.3634702, 149.16499, -0.360762834549, 0.138612210751, 0.0540596358478, 0.920714080334
2019-04-03 19:32:42.80,66016083, -0.01, -17.13, 222.82, 593.729980469, -35.3634733, 149.1649865, -0.360974937677, 0.138732895255, 0.0542215779424, 0.920603275299
2019-04-03 19:32:42.90,66116043, -0.01, -17.16, 222.84, 593.789978027, -35.3634766, 149.164983, -0.361152738333, 0.138960927725, 0.0543398037553, 0.920492112637
2019-04-03 19:32:43.00,66216003, -0.02, -17.19, 222.86, 593.859985352, -35.3634797, 149.1649794, -0.361310124397, 0.139201492071, 0.0544269867241, 0.920388877392
2019-04-03 19:32:43.10,66315963, -0.01, -17.21, 222.88, 593.929992676, -35.3634828, 149.1649759, -0.361473858356, 0.139336854219, 0.0546343661845, 0.920291781425
2019-04-03 19:32:43.20,66415923, 0.01, -17.23, 222.9, 593.989990234, -35.363486, 149.1649723, -0.361638069153, 0.139396697283, 0.0549567379057, 0.920199036598
2019-04-03 19:32:43.30,66515883, 0.03, -17.23, 222.92, 594.059997559, -35.363489, 149.1649688, -0.361773520708, 0.139361768961, 0.055089276284, 0.920143127441
2019-04-03 19:32:43.40,66615843, 0.0, -17.23, 222.93, 594.130004883, -35.3634921, 149.1649653, -0.361835509539, 0.139451399446, 0.0549200214446, 0.920115292072
2019-04-03 19:32:43.50,66715803, -0.01, -17.25, 222.94, 594.190002441, -35.3634954, 149.1649617, -0.361866891384, 0.139690577984, 0.054791405797, 0.920074343681
2019-04-03 19:32:43.59,66815763, -0.04, -17.27, 222.95, 594.260009766, -35.3634985, 149.1649582, -0.361891299486, 0.139879226685, 0.054593026638, 0.920047879219
2019-04-03 19:32:43.69,66915723, -0.07, -17.27, 222.95, 594.33001709, -35.3635017, 149.1649545, -0.36192715168, 0.139968022704, 0.0544118359685, 0.920031011105
2019-04-03 19:32:43.79,67015683, -0.07, -17.26, 222.96, 594.390014648, -35.3635048, 149.164951, -0.36199426651, 0.139922335744, 0.0543886944652, 0.920012950897
2019-04-03 19:32:43.90,67116476, -0.06, -17.26, 222.97, 594.460021973, -35.3635079, 149.1649474, -0.362074971199, 0.139833152294, 0.0544745661318, 0.919989645481
2019-04-03 19:32:44.00,67216436, -0.05, -17.26, 222.98, 594.530029297, -35.3635112, 149.1649438, -0.362143158913, 0.139837488532, 0.0545345321298, 0.919958591461
2019-04-03 19:32:44.10,67316396, -0.06, -17.29, 222.99, 594.590026855, -35.3635143, 149.1649402, -0.362192302942, 0.140062093735, 0.0545830130577, 0.919902205467
2019-04-03 19:32:44.20,67416356, -0.06, -17.33, 223.0, 594.659973145, -35.3635175, 149.1649367, -0.3622366786, 0.140411138535, 0.0547000318766, 0.91982460022
2019-04-03 19:32:44.30,67516316, -0.05, -17.35, 223.0, 594.729980469, -35.3635206, 149.164933, -0.362316727638, 0.140497162938, 0.0548880174756, 0.919768750668
2019-04-03 19:32:44.40,67616276, -0.03, -17.34, 223.01, 594.789978027, -35.3635237, 149.1649295, -0.362403720617, 0.140418589115, 0.055018864572, 0.919738590717
2019-04-03 19:32:44.50,67716236, -0.01, -17.34, 223.02, 594.859985352, -35.363527, 149.1649258, -0.362490087748, 0.140373766422, 0.0551498271525, 0.919703602791
2019-04-03 19:32:44.60,67816196, -0.01, -17.36, 223.03, 594.929992676, -35.3635302, 149.1649223, -0.362565636635, 0.140505835414, 0.0552870891988, 0.919645369053
2019-04-03 19:32:44.70,67916156, 0.0, -17.38, 223.04, 594.989990234, -35.3635334, 149.1649186, -0.362644970417, 0.1406211555, 0.0554701387882, 0.919585466385
2019-04-03 19:32:44.80,68016116, 0.01, -17.4, 223.05, 595.059997559, -35.3635364, 149.1649149, -0.362719655037, 0.140715241432, 0.055598154664, 0.919533848763
2019-04-03 19:32:44.90,68116076, 0.01, -17.41, 223.06, 595.130004883, -35.3635396, 149.1649114, -0.362791895866, 0.14080272615, 0.0557169355452, 0.91948479414
2019-04-03 19:32:45.00,68216036, 0.0, -17.43, 223.07, 595.190002441, -35.3635429, 149.1649077, -0.362848192453, 0.140937581658, 0.0556753985584, 0.919444441795
2019-04-03 19:32:45.10,68315996, -0.02, -17.44, 223.08, 595.260009766, -35.3635461, 149.1649042, -0.362882345915, 0.141136214137, 0.0555208995938, 0.919409811497
2019-04-03 19:32:45.20,68415956, -0.03, -17.45, 223.08, 595.33001709, -35.3635492, 149.1649004, -0.362927943468, 0.141223952174, 0.0553906746209, 0.919386208057
2019-04-03 19:32:45.30,68515916, -0.05, -17.44, 223.09, 595.390014648, -35.3635525, 149.1648969, -0.362983375788, 0.141190126538, 0.0552692897618, 0.919376850128
2019-04-03 19:32:45.40,68615876, -0.05, -17.43, 223.1, 595.460021973, -35.3635557, 149.1648933, -0.363045305014, 0.141153886914, 0.0552450269461, 0.919359445572
2019-04-03 19:32:45.50,68715836, -0.03, -17.44, 223.11, 595.530029297, -35.3635589, 149.1648895, -0.363115757704, 0.141156554222, 0.0554169937968, 0.919320821762
2019-04-03 19:32:45.60,68815796, 0.0, -17.46, 223.11, 595.590026855, -35.363562, 149.164886, -0.363184720278, 0.141202315688, 0.0557694137096, 0.919265210629
2019-04-03 19:32:45.69,68915756, 0.02, -17.47, 223.11, 595.659973145, -35.3635653, 149.1648822, -0.36323210597, 0.141165405512, 0.0560185350478, 0.919237017632
2019-04-03 19:32:45.79,69015716, 0.03, -17.48, 223.11, 595.729980469, -35.3635685, 149.1648787, -0.36324647069, 0.141244277358, 0.0561235696077, 0.919212818146
2019-04-03 19:32:45.89,69115676, 0.02, -17.48, 223.12, 595.789978027, -35.3635717, 149.164875, -0.363251626492, 0.141293436289, 0.0561006292701, 0.919204652309
2019-04-03 19:32:46.00,69216469, 0.01, -17.49, 223.12, 595.859985352, -35.3635748, 149.1648712, -0.363247990608, 0.1413731426, 0.0560407936573, 0.919197499752
2019-04-03 19:32:46.10,69316429, 0.0, -17.49, 223.12, 595.91998291, -35.3635781, 149.1648677, -0.363249033689, 0.141446590424, 0.0559785738587, 0.919189572334
2019-04-03 19:32:46.20,69416389, 0.0, -17.53, 223.12, 595.989990234, -35.3635813, 149.164864, -0.363241553307, 0.141742244363, 0.0559464544058, 0.919148981571
2019-04-03 19:32:46.30,69516349, -0.01, -17.55, 223.13, 596.059997559, -35.3635845, 149.1648603, -0.36324134469, 0.142014279962, 0.0559458471835, 0.919107079506
2019-04-03 19:32:46.40,69616309, -0.02, -17.57, 223.13, 596.119995117, -35.3635876, 149.1648567, -0.363254576921, 0.142165094614, 0.0559661500156, 0.919077277184
2019-04-03 19:32:46.50,69716269, -0.01, -17.57, 223.13, 596.190002441, -35.363591, 149.164853, -0.363297253847, 0.142137572169, 0.0560904629529, 0.919057071209
2019-04-03 19:32:46.60,69816229, 0.0, -17.57, 223.14, 596.260009766, -35.3635942, 149.1648492, -0.363351166248, 0.14201849699, 0.0562238171697, 0.91904604435
2019-04-03 19:32:46.70,69916189, 0.02, -17.55, 223.14, 596.320007324, -35.3635973, 149.1648457, -0.363404840231, 0.141824156046, 0.0562888160348, 0.919050812721
2019-04-03 19:32:46.80,70016149, 0.02, -17.53, 223.14, 596.390014648, -35.3636006, 149.164842, -0.363436698914, 0.141665145755, 0.0562166124582, 0.919067203999
2019-04-03 19:32:46.90,70116109, 0.0, -17.52, 223.15, 596.450012207, -35.3636038, 149.1648382, -0.363443613052, 0.141613617539, 0.0560859255493, 0.919080376625
2019-04-03 19:32:47.00,70216069, 0.0, -17.51, 223.15, 596.520019531, -35.363607, 149.1648346, -0.363440185785, 0.141616821289, 0.055942479521, 0.919089972973
2019-04-03 19:32:47.10,70316029, -0.01, -17.51, 223.15, 596.590026855, -35.3636103, 149.1648309, -0.363438099623, 0.141614064574, 0.055831335485, 0.919097959995
2019-04-03 19:32:47.20,70415989, -0.02, -17.5, 223.15, 596.659973145, -35.3636135, 149.1648272, -0.363429486752, 0.141630291939, 0.0557363852859, 0.919104635715
2019-04-03 19:32:47.30,70515949, -0.03, -17.52, 223.15, 596.719970703, -35.3636167, 149.1648234, -0.363399654627, 0.141781896353, 0.0557195730507, 0.919094085693
2019-04-03 19:32:47.40,70615909, -0.03, -17.55, 223.14, 596.789978027, -35.36362, 149.1648198, -0.363370090723, 0.141992673278, 0.0558593533933, 0.919064760208
2019-04-03 19:32:47.50,70715869, 0.0, -17.57, 223.14, 596.859985352, -35.3636232, 149.1648161, -0.363368391991, 0.142044618726, 0.0561254508793, 0.919041156769
2019-04-03 19:32:47.60,70815829, 0.02, -17.57, 223.14, 596.91998291, -35.3636264, 149.1648124, -0.363378435373, 0.142024129629, 0.0563976168633, 0.919023752213
2019-04-03 19:32:47.70,70915789, 0.04, -17.57, 223.14, 596.989990234, -35.3636297, 149.1648086, -0.363381624222, 0.14194893837, 0.0565402023494, 0.919025301933
2019-04-03 19:32:47.79,71015749, 0.03, -17.56, 223.13, 597.059997559, -35.3636329, 149.164805, -0.363347887993, 0.141903087497, 0.0564284510911, 0.919052600861
2019-04-03 19:32:47.89,71115709, 0.0, -17.55, 223.13, 597.119995117, -35.3636361, 149.1648013, -0.363296359777, 0.14193610847, 0.0561443194747, 0.919085264206
2019-04-03 19:32:47.99,71215669, -0.02, -17.54, 223.13, 597.190002441, -35.3636393, 149.1647975, -0.363265544176, 0.141932994127, 0.0558751709759, 0.919114351273
2019-04-03 19:32:48.10,71316462, -0.02, -17.54, 223.13, 597.260009766, -35.3636427, 149.1647937, -0.363265872002, 0.141936928034, 0.0558503344655, 0.919115126133
2019-04-03 19:32:48.20,71416422, -0.03, -17.57, 223.13, 597.33001709, -35.3636459, 149.1647901, -0.3632568717, 0.142142817378, 0.055903095752, 0.919083595276
2019-04-03 19:32:48.30,71516382, -0.04, -17.6, 223.13, 597.390014648, -35.363649, 149.1647864, -0.363231360912, 0.142433449626, 0.0558757930994, 0.919050395489
2019-04-03 19:32:48.40,71616342, -0.06, -17.6, 223.13, 597.460021973, -35.3636524, 149.1647827, -0.363198786974, 0.142538353801, 0.0557117201388, 0.919056952
2019-04-03 19:32:48.50,71716302, -0.07, -17.58, 223.13, 597.530029297, -35.3636556, 149.1647788, -0.363191694021, 0.142391979694, 0.0556162446737, 0.919088244438
2019-04-03 19:32:48.60,71816262, -0.04, -17.56, 223.13, 597.590026855, -35.3636587, 149.1647751, -0.363207548857, 0.142117828131, 0.0557196363807, 0.91911816597
2019-04-03 19:32:48.70,71916222, -0.02, -17.52, 223.12, 597.659973145, -35.3636621, 149.1647715, -0.363212227821, 0.141788437963, 0.0557665973902, 0.919164299965
2019-04-03 19:32:48.80,72016182, -0.01, -17.48, 223.12, 597.729980469, -35.3636653, 149.1647678, -0.363204091787, 0.141379103065, 0.0556954927742, 0.919234871864
2019-04-03 19:32:48.90,72116142, 0.0, -17.44, 223.11, 597.789978027, -35.3636685, 149.164764, -0.363198965788, 0.141047552228, 0.0557386688888, 0.919285237789
2019-04-03 19:32:49.00,72216102, 0.0, -17.44, 223.11, 597.859985352, -35.3636718, 149.1647602, -0.36315497756, 0.141057476401, 0.055794775486, 0.91929769516
2019-04-03 19:32:49.10,72316062, 0.01, -17.47, 223.1, 597.91998291, -35.3636751, 149.1647566, -0.363110750914, 0.14119450748, 0.0559408180416, 0.919285237789
2019-04-03 19:32:49.20,72416022, 0.03, -17.49, 223.09, 597.989990234, -35.3636782, 149.1647529, -0.363080173731, 0.141320064664, 0.0561275221407, 0.91926664114
2019-04-03 19:32:49.30,72515982, 0.04, -17.5, 223.09, 598.059997559, -35.3636816, 149.1647492, -0.363063663244, 0.14135633409, 0.0562357679009, 0.919260919094
2019-04-03 19:32:49.40,72615942, 0.05, -17.52, 223.09, 598.119995117, -35.3636848, 149.1647454, -0.36304423213, 0.141542762518, 0.0563627406955, 0.919232130051
2019-04-03 19:32:49.50,72715902, 0.04, -17.55, 223.09, 598.190002441, -35.3636879, 149.1647418, -0.363028943539, 0.141778692603, 0.056418672204, 0.919198453426
2019-04-03 19:32:49.60,72815862, 0.04, -17.54, 223.09, 598.25, -35.3636913, 149.164738, -0.363036245108, 0.141728848219, 0.0563531704247, 0.919207215309
2019-04-03 19:32:49.70,72915822, 0.04, -17.51, 223.09, 598.320007324, -35.3636945, 149.1647343, -0.363068819046, 0.141465127468, 0.0562832057476, 0.919239282608
2019-04-03 19:32:49.79,73015782, 0.05, -17.48, 223.09, 598.380004883, -35.3636978, 149.1647305, -0.363103240728, 0.14122363925, 0.0562641508877, 0.919264018536
2019-04-03 19:32:49.89,73115742, 0.07, -17.48, 223.1, 598.450012207, -35.363701, 149.1647269, -0.363138496876, 0.141103193164, 0.0563933774829, 0.919260621071
2019-04-03 19:32:49.99,73215702, 0.08, -17.5, 223.09, 598.520019531, -35.3637042, 149.1647232, -0.363140016794, 0.141222000122, 0.0565553978086, 0.919231832027
2019-04-03 19:32:50.09,73315662, 0.07, -17.51, 223.09, 598.58001709, -35.3637074, 149.1647194, -0.363110780716, 0.141396164894, 0.0565111301839, 0.919219374657
2019-04-03 19:32:50.20,73416455, 0.04, -17.52, 223.09, 598.650024414, -35.3637108, 149.1647156, -0.363070398569, 0.141531720757, 0.0563276186585, 0.919225692749
2019-04-03 19:32:50.30,73516415, 0.02, -17.51, 223.09, 598.710021973, -35.363714, 149.1647119, -0.363039910793, 0.141544982791, 0.0561254993081, 0.919248044491
2019-04-03 19:32:50.40,73616375, 0.01, -17.49, 223.09, 598.780029297, -35.3637171, 149.1647082, -0.363030433655, 0.141405299306, 0.0559824258089, 0.919282019138
2019-04-03 19:32:50.50,73716335, 0.03, -17.47, 223.09, 598.840026855, -35.3637205, 149.1647045, -0.363059788942, 0.141164585948, 0.0560319200158, 0.919304430485
2019-04-03 19:32:50.60,73816295, 0.05, -17.46, 223.09, 598.909973145, -35.3637237, 149.1647008, -0.363077998161, 0.141073033214, 0.0562134161592, 0.919300198555
2019-04-03 19:32:50.70,73916255, 0.07, -17.48, 223.09, 598.979980469, -35.363727, 149.164697, -0.36306527257, 0.141136050224, 0.0563839301467, 0.91928511858
2019-04-03 19:32:50.80,74016215, 0.08, -17.49, 223.08, 599.039978027, -35.3637302, 149.1646932, -0.363041460514, 0.141223669052, 0.0565008707345, 0.919273853302
2019-04-03 19:32:50.90,74116175, 0.08, -17.49, 223.08, 599.109985352, -35.3637334, 149.1646896, -0.363012373447, 0.141236439347, 0.0565172210336, 0.919282376766
2019-04-03 19:32:51.00,74216135, 0.08, -17.49, 223.07, 599.16998291, -35.3637366, 149.1646859, -0.36297929287, 0.141174450517, 0.0564933232963, 0.919306457043
2019-04-03 19:32:51.10,74316095, 0.08, -17.49, 223.07, 599.239990234, -35.3637399, 149.1646821, -0.362943410873, 0.141165152192, 0.0565061569214, 0.919321238995
2019-04-03 19:32:51.20,74416055, 0.09, -17.48, 223.06, 599.309997559, -35.3637431, 149.1646784, -0.362911760807, 0.141080737114, 0.0565405525267, 0.919344604015
2019-04-03 19:32:51.30,74516015, 0.1, -17.47, 223.06, 599.369995117, -35.3637463, 149.1646747, -0.362885713577, 0.140973746777, 0.0566044412553, 0.919367313385
2019-04-03 19:32:51.40,74615975, 0.11, -17.48, 223.05, 599.440002441, -35.3637496, 149.164671, -0.362848222256, 0.141061127186, 0.0567130334675, 0.919362068176
2019-04-03 19:32:51.50,74715935, 0.13, -17.52, 223.05, 599.5, -35.3637529, 149.1646673, -0.362817376852, 0.141281053424, 0.0569348856807, 0.919326722622
2019-04-03 19:32:51.60,74815895, 0.12, -17.55, 223.05, 599.570007324, -35.363756, 149.1646635, -0.362782359123, 0.141520693898, 0.0570211932063, 0.919298350811
2019-04-03 19:32:51.70,74915855, 0.1, -17.55, 223.04, 599.630004883, -35.3637593, 149.1646599, -0.362738281488, 0.141642197967, 0.0568735226989, 0.919306159019
2019-04-03 19:32:51.80,75015815, 0.05, -17.54, 223.04, 599.700012207, -35.3637625, 149.1646561, -0.362664669752, 0.141707330942, 0.0564299151301, 0.919352531433
2019-04-03 19:32:51.89,75115775, 0.02, -17.53, 223.04, 599.770019531, -35.3637657, 149.1646524, -0.362604886293, 0.141690820456, 0.0561223775148, 0.919397473335
2019-04-03 19:32:51.99,75215735, 0.03, -17.52, 223.03, 599.83001709, -35.363769, 149.1646486, -0.362569451332, 0.141640216112, 0.0561303980649, 0.919418752193
2019-04-03 19:32:52.09,75315695, 0.04, -17.53, 223.03, 599.900024414, -35.3637722, 149.164645, -0.362544178963, 0.14168857038, 0.0563012585044, 0.919410824776
2019-04-03 19:32:52.20,75416488, 0.07, -17.54, 223.02, 599.960021973, -35.3637754, 149.1646412, -0.362531095743, 0.141697794199, 0.0565150789917, 0.919401466846
2019-04-03 19:32:52.30,75516448, 0.09, -17.53, 223.02, 600.030029297, -35.3637787, 149.1646375, -0.362542331219, 0.141530752182, 0.0566670969129, 0.919413387775
2019-04-03 19:32:52.40,75616408, 0.1, -17.53, 223.02, 600.099975586, -35.363782, 149.1646337, -0.362539023161, 0.14144064486, 0.0567609108984, 0.919422745705
2019-04-03 19:32:52.50,75716368, 0.11, -17.53, 223.02, 600.159973145, -35.3637851, 149.16463, -0.362522602081, 0.141441851854, 0.056801725179, 0.919426500797
2019-04-03 19:32:52.60,75816328, 0.09, -17.53, 223.01, 600.229980469, -35.3637884, 149.1646262, -0.362479448318, 0.141525313258, 0.0566745996475, 0.91943860054
2019-04-03 19:32:52.70,75916288, 0.05, -17.54, 223.01, 600.289978027, -35.3637917, 149.1646226, -0.362395435572, 0.141730904579, 0.0563959889114, 0.919457137585
2019-04-03 19:32:52.80,76016248, 0.0, -17.54, 223.0, 600.359985352, -35.3637948, 149.1646188, -0.36229455471, 0.141875520349, 0.0559844225645, 0.919499754906
2019-04-03 19:32:52.90,76116208, -0.01, -17.54, 223.0, 600.429992676, -35.363798, 149.1646151, -0.362210839987, 0.141970768571, 0.0557586401701, 0.9195317626
2019-04-03 19:32:53.00,76216168, -0.02, -17.56, 222.99, 600.489990234, -35.3638014, 149.1646113, -0.362127512693, 0.142113611102, 0.0557388067245, 0.919543683529
2019-04-03 19:32:53.10,76316128, 0.0, -17.56, 222.98, 600.559997559, -35.3638046, 149.1646077, -0.362074315548, 0.142038971186, 0.0559312142432, 0.91956448555
2019-04-03 19:32:53.20,76416088, 0.03, -17.55, 222.97, 600.619995117, -35.3638077, 149.1646039, -0.362030893564, 0.141908675432, 0.0561635158956, 0.919587492943
2019-04-03 19:32:53.30,76516048, 0.04, -17.55, 222.96, 600.690002441, -35.3638111, 149.1646002, -0.361977934837, 0.141837671399, 0.0562736317515, 0.919612586498
2019-04-03 19:32:53.40,76616008, 0.04, -17.55, 222.95, 600.75, -35.3638143, 149.1645964, -0.361905872822, 0.141870439053, 0.0562766864896, 0.9196357131
2019-04-03 19:32:53.50,76715968, 0.03, -17.55, 222.94, 600.820007324, -35.3638176, 149.1645927, -0.361831843853, 0.141857981682, 0.0561733096838, 0.919673085213
2019-04-03 19:32:53.60,76815928, 0.02, -17.53, 222.94, 600.890014648, -35.3638208, 149.164589, -0.361775279045, 0.141759470105, 0.0560322701931, 0.919719159603
2019-04-03 19:32:53.70,76915888, 0.03, -17.54, 222.93, 600.950012207, -35.363824, 149.1645853, -0.361738681793, 0.141840815544, 0.0561386570334, 0.919714510441
2019-04-03 19:32:53.80,77015848, 0.07, -17.57, 222.93, 601.020019531, -35.3638272, 149.1645816, -0.361736088991, 0.141933336854, 0.0564607568085, 0.919681549072
2019-04-03 19:32:53.90,77115808, 0.11, -17.56, 222.92, 601.08001709, -35.3638305, 149.1645778, -0.361772269011, 0.141734525561, 0.0567771419883, 0.919678509235
2019-04-03 19:32:53.99,77215768, 0.13, -17.53, 222.92, 601.150024414, -35.3638338, 149.1645742, -0.361801892519, 0.141391068697, 0.0568550601602, 0.919714927673
2019-04-03 19:32:54.09,77315728, 0.14, -17.5, 222.92, 601.219970703, -35.3638369, 149.1645704, -0.361816078424, 0.14115101099, 0.0568379536271, 0.919747233391
2019-04-03 19:32:54.19,77415688, 0.11, -17.51, 222.92, 601.280029297, -35.3638403, 149.1645667, -0.361769229174, 0.141363456845, 0.0566480830312, 0.9197447896
2019-04-03 19:32:54.30,77516481, 0.08, -17.56, 222.92, 601.349975586, -35.3638435, 149.1645629, -0.361707806587, 0.14187477529, 0.0565270073712, 0.919697642326
2019-04-03 19:32:54.40,77616441, 0.06, -17.6, 222.92, 601.409973145, -35.3638468, 149.1645591, -0.361673861742, 0.142239809036, 0.0565006956458, 0.919656217098
2019-04-03 19:32:54.50,77716401, 0.05, -17.62, 222.92, 601.479980469, -35.36385, 149.1645555, -0.36166280508, 0.14236330986, 0.0565035641193, 0.919641256332
2019-04-03 19:32:54.60,77816361, 0.05, -17.6, 222.92, 601.549987793, -35.3638532, 149.1645518, -0.361674696207, 0.142204657197, 0.0564550608397, 0.919664144516
2019-04-03 19:32:54.70,77916321, 0.05, -17.56, 222.92, 601.609985352, -35.3638565, 149.1645481, -0.361673623323, 0.141890928149, 0.0562717877328, 0.919724225998
2019-04-03 19:32:54.80,78016281, 0.04, -17.51, 222.92, 601.679992676, -35.3638597, 149.1645443, -0.361654192209, 0.141577512026, 0.0560532025993, 0.919793486595
2019-04-03 19:32:54.90,78116241, 0.04, -17.47, 222.91, 601.739990234, -35.3638629, 149.1645405, -0.361641347408, 0.14125521481, 0.0559495911002, 0.919854402542
2019-04-03 19:32:55.00,78216201, 0.05, -17.46, 222.91, 601.809997559, -35.3638661, 149.1645369, -0.361613869667, 0.14111956954, 0.0559656433761, 0.919885098934
2019-04-03 19:32:55.10,78316161, 0.04, -17.47, 222.9, 601.880004883, -35.3638695, 149.1645332, -0.361547470093, 0.14121298492, 0.0559452474117, 0.919898092747
2019-04-03 19:32:55.20,78416121, 0.03, -17.49, 222.89, 601.940002441, -35.3638727, 149.1645294, -0.361459046602, 0.141420915723, 0.0559007227421, 0.919903576374
2019-04-03 19:32:55.30,78516081, 0.02, -17.5, 222.88, 602.010009766, -35.3638758, 149.1645256, -0.361375302076, 0.141555473208, 0.055814832449, 0.919921040535
2019-04-03 19:32:55.40,78616041, 0.01, -17.5, 222.88, 602.070007324, -35.3638792, 149.164522, -0.361307233572, 0.141566604376, 0.0557522922754, 0.919949829578
2019-04-03 19:32:55.50,78716001, 0.0, -17.48, 222.87, 602.140014648, -35.3638824, 149.1645183, -0.361239820719, 0.141508772969, 0.055591698736, 0.919994950294
2019-04-03 19:32:55.60,78815961, 0.0, -17.49, 222.86, 602.210021973, -35.3638857, 149.1645146, -0.361174106598, 0.141562893987, 0.0555042624474, 0.920017659664
2019-04-03 19:32:55.70,78915921, -0.01, -17.51, 222.86, 602.270019531, -35.3638889, 149.1645107, -0.361118137836, 0.141739428043, 0.0555226579309, 0.920011341572
2019-04-03 19:32:55.80,79015881, -0.01, -17.52, 222.85, 602.340026855, -35.3638921, 149.164507, -0.361076205969, 0.141864597797, 0.0555468834937, 0.920007050037
2019-04-03 19:32:55.90,79115841, 0.0, -17.52, 222.85, 602.400024414, -35.3638953, 149.1645034, -0.361067146063, 0.14184628427, 0.0556441731751, 0.920007586479
2019-04-03 19:32:56.00,79215801, 0.02, -17.53, 222.85, 602.469970703, -35.3638986, 149.1644997, -0.361079603434, 0.141824543476, 0.0558791831136, 0.919991731644
2019-04-03 19:32:56.09,79315761, 0.05, -17.54, 222.85, 602.539978027, -35.3639019, 149.1644959, -0.361103713512, 0.141761049628, 0.0561554692686, 0.919975280762
2019-04-03 19:32:56.19,79415721, 0.07, -17.35, 222.85, 602.599975586, -35.363905, 149.1644921, -0.361213475466, 0.140220448375, 0.0557647012174, 0.92019200325
2019-04-03 19:32:56.29,79515681, 0.06, -16.74, 222.85, 602.659973145, -35.3639083, 149.1644885, -0.361483335495, 0.135314136744, 0.0536944717169, 0.920943439007
2019-04-03 19:32:56.40,79616474, -0.02, -16.42, 222.84, 602.719970703, -35.3639116, 149.1644848, -0.361440330744, 0.13310483098, 0.0519470535219, 0.921382367611
2019-04-03 19:32:56.50,79716434, -0.16, -16.65, 222.81, 602.770019531, -35.3639147, 149.1644811, -0.360941976309, 0.135358959436, 0.0515379831195, 0.921272337437
2019-04-03 19:32:56.60,79816394, -0.29, -17.16, 222.75, 602.809997559, -35.3639178, 149.1644775, -0.360081613064, 0.139897465706, 0.0519948005676, 0.920905292034
2019-04-03 19:32:56.70,79916354, -0.4, -17.69, 222.67, 602.849975586, -35.3639211, 149.1644739, -0.358988165855, 0.144543781877, 0.0526879765093, 0.920575141907
2019-04-03 19:32:56.80,80016314, -0.46, -18.08, 222.55, 602.890014648, -35.3639243, 149.1644703, -0.357787638903, 0.1479036659, 0.0533302724361, 0.920471847057
2019-04-03 19:32:56.90,80116274, -0.44, -18.29, 222.41, 602.91998291, -35.3639274, 149.1644667, -0.356576561928, 0.149590551853, 0.0539449229836, 0.920633375645
2019-04-03 19:32:57.00,80216234, -0.37, -18.33, 222.25, 602.950012207, -35.3639305, 149.1644632, -0.355390429497, 0.149787425995, 0.054439406842, 0.921030759811
2019-04-03 19:32:57.10,80316194, -0.28, -18.3, 222.09, 602.969970703, -35.3639338, 149.1644595, -0.354206681252, 0.149325355887, 0.0548093505204, 0.921539783478
2019-04-03 19:32:57.20,80416154, -0.22, -18.25, 221.93, 602.989990234, -35.363937, 149.164456, -0.353003233671, 0.14886868, 0.0549440383911, 0.922067224979
2019-04-03 19:32:57.30,80516114, -0.17, -18.24, 221.78, 603.0, -35.3639402, 149.1644523, -0.351855695248, 0.148632779717, 0.0550875104964, 0.92253524065
2019-04-03 19:32:57.40,80616074, -0.14, -18.23, 221.64, 603.020019531, -35.3639433, 149.1644489, -0.350797384977, 0.148562192917, 0.055185161531, 0.922943711281
2019-04-03 19:32:57.50,80716034, -0.11, -18.24, 221.52, 603.030029297, -35.3639466, 149.1644452, -0.34985986352, 0.148618519306, 0.0552718639374, 0.923285245895
2019-04-03 19:32:57.60,80815994, -0.09, -18.27, 221.42, 603.039978027, -35.3639498, 149.1644417, -0.349057167768, 0.148832499981, 0.0553565062582, 0.923549473286
2019-04-03 19:32:57.70,80915954, -0.09, -18.28, 221.34, 603.049987793, -35.3639529, 149.164438, -0.348385870457, 0.148967206478, 0.05531636253, 0.92378360033
2019-04-03 19:32:57.80,81015914, -0.09, -18.28, 221.27, 603.049987793, -35.3639561, 149.1644346, -0.347824722528, 0.148988351226, 0.0551889836788, 0.923999249935
2019-04-03 19:32:57.90,81115874, -0.1, -18.27, 221.21, 603.059997559, -35.3639595, 149.1644309, -0.347355097532, 0.148998513818, 0.0550634302199, 0.924181759357
2019-04-03 19:32:58.00,81215834, -0.12, -18.26, 221.16, 603.059997559, -35.3639627, 149.1644274, -0.346938043833, 0.148985236883, 0.0548026636243, 0.924356043339
2019-04-03 19:32:58.10,81315794, -0.14, -18.25, 221.11, 603.070007324, -35.363966, 149.1644239, -0.346545487642, 0.149008229375, 0.0545413531363, 0.924515008926
2019-04-03 19:32:58.19,81415754, -0.13, -18.27, 221.07, 603.070007324, -35.3639692, 149.1644203, -0.346184253693, 0.149139121175, 0.0546314679086, 0.924623906612
2019-04-03 19:32:58.29,81515714, -0.11, -18.29, 221.02, 603.070007324, -35.3639724, 149.1644168, -0.345813244581, 0.149261921644, 0.0547435134649, 0.924736320972
2019-04-03 19:32:58.39,81615674, -0.1, -18.28, 220.97, 603.08001709, -35.3639758, 149.1644131, -0.345427304506, 0.149169310927, 0.0547487214208, 0.924895167351
2019-04-03 19:32:58.50,81716467, -0.09, -18.26, 220.92, 603.08001709, -35.3639791, 149.1644096, -0.345001369715, 0.149030059576, 0.0546864047647, 0.925080299377
2019-04-03 19:32:58.60,81816427, -0.09, -18.25, 220.86, 603.08001709, -35.3639824, 149.1644059, -0.344541400671, 0.148972764611, 0.0546025708318, 0.925265848637
2019-04-03 19:32:58.70,81916387, -0.09, -18.26, 220.8, 603.08001709, -35.3639856, 149.1644025, -0.344064712524, 0.149012863636, 0.054564088583, 0.925439059734
2019-04-03 19:32:58.80,82016347, -0.09, -18.27, 220.74, 603.090026855, -35.3639888, 149.1643988, -0.343565762043, 0.149184554815, 0.0544925741851, 0.92560094595
2019-04-03 19:32:58.90,82116307, -0.1, -18.29, 220.68, 603.090026855, -35.3639922, 149.1643954, -0.343080073595, 0.149326622486, 0.0544327534735, 0.925761699677
2019-04-03 19:32:59.00,82216267, -0.1, -18.28, 220.62, 603.090026855, -35.3639955, 149.1643918, -0.342621654272, 0.149343162775, 0.0543336980045, 0.925934612751
2019-04-03 19:32:59.10,82316227, -0.07, -18.27, 220.57, 603.090026855, -35.3639989, 149.1643882, -0.342234909534, 0.149170354009, 0.0544322989881, 0.926099658012
2019-04-03 19:32:59.20,82416187, -0.03, -18.24, 220.52, 603.090026855, -35.3640022, 149.1643847, -0.341907888651, 0.148880138993, 0.054603356868, 0.926257133484
2019-04-03 19:32:59.30,82516147, 0.0, -18.24, 220.48, 603.090026855, -35.3640055, 149.1643811, -0.341606765985, 0.14875651896, 0.0548349507153, 0.92637437582
2019-04-03 19:32:59.40,82616107, 0.02, -18.25, 220.44, 603.090026855, -35.3640088, 149.1643776, -0.341300457716, 0.148783996701, 0.054998409003, 0.926473200321
2019-04-03 19:32:59.50,82716067, 0.02, -18.26, 220.4, 603.090026855, -35.3640122, 149.1643741, -0.34099265933, 0.148901745677, 0.0550550334156, 0.926564216614
2019-04-03 19:32:59.60,82816027, 0.01, -18.28, 220.36, 603.090026855, -35.3640155, 149.1643705, -0.340681970119, 0.149127259851, 0.0549287386239, 0.926649749279
2019-04-03 19:32:59.70,82915987, 0.0, -18.28, 220.33, 603.090026855, -35.3640187, 149.164367, -0.340413182974, 0.149185597897, 0.0547965317965, 0.926746964455
2019-04-03 19:32:59.80,83015947, 0.0, -18.27, 220.3, 603.090026855, -35.3640222, 149.1643633, -0.340193897486, 0.149076327682, 0.0547914877534, 0.926845312119
2019-04-03 19:32:59.90,83115907, 0.03, -18.26, 220.28, 603.090026855, -35.3640254, 149.1643599, -0.340012967587, 0.148951023817, 0.054942574352, 0.926922917366
2019-04-03 19:33:00.00,83215867, 0.04, -18.29, 220.25, 603.090026855, -35.3640289, 149.1643562, -0.339809477329, 0.149103015661, 0.0550412125885, 0.926967263222
2019-04-03 19:33:00.10,83315827, 0.02, -18.31, 220.23, 603.099975586, -35.3640321, 149.1643528, -0.339581519365, 0.149333417416, 0.0549187771976, 0.927020967007
2019-04-03 19:33:00.20,83415787, 0.02, -18.32, 220.21, 603.099975586, -35.3640356, 149.1643492, -0.339388072491, 0.149489119649, 0.0549087673426, 0.92706733942
2019-04-03 19:33:00.29,83515747, 0.03, -18.33, 220.18, 603.099975586, -35.3640389, 149.1643456, -0.339235156775, 0.149542286992, 0.0550685860217, 0.92710518837
2019-04-03 19:33:00.39,83615707, 0.07, -18.33, 220.16, 603.099975586, -35.3640423, 149.1643422, -0.339108616114, 0.149458900094, 0.0552906543016, 0.927151739597
2019-04-03 19:33:00.49,83715667, 0.1, -18.33, 220.14, 603.099975586, -35.3640457, 149.1643385, -0.338997989893, 0.149331480265, 0.055541433394, 0.927197754383
2019-04-03 19:33:00.60,83816460, 0.11, -18.33, 220.13, 603.099975586, -35.364049, 149.1643351, -0.338861733675, 0.149320453405, 0.0556219033897, 0.927244484425
2019-04-03 19:33:00.70,83916420, 0.12, -18.33, 220.11, 603.099975586, -35.3640524, 149.1643315, -0.338727176189, 0.14929151535, 0.0556126311421, 0.927298843861
2019-04-03 19:33:00.80,84016380, 0.12, -18.32, 220.09, 603.090026855, -35.3640557, 149.1643279, -0.338595479727, 0.149254605174, 0.0555792525411, 0.927354872227
2019-04-03 19:33:00.90,84116340, 0.11, -18.32, 220.08, 603.090026855, -35.3640592, 149.1643244, -0.338463753462, 0.149224609137, 0.0554826520383, 0.927413582802
2019-04-03 19:33:01.00,84216300, 0.11, -18.33, 220.06, 603.090026855, -35.3640625, 149.1643209, -0.338336288929, 0.149332031608, 0.0555165931582, 0.92744076252
2019-04-03 19:33:01.10,84316260, 0.1, -18.35, 220.05, 603.090026855, -35.3640659, 149.1643173, -0.338191568851, 0.149550408125, 0.0554661192, 0.927461385727
2019-04-03 19:33:01.20,84416220, 0.07, -18.37, 220.03, 603.090026855, -35.3640693, 149.1643138, -0.338030546904, 0.149817362428, 0.0552488043904, 0.927489995956
2019-04-03 19:33:01.30,84516180, 0.03, -18.37, 220.02, 603.090026855, -35.3640727, 149.1643102, -0.337873399258, 0.149913042784, 0.0549625977874, 0.927548825741
2019-04-03 19:33:01.40,84616140, 0.02, -18.35, 220.0, 603.090026855, -35.3640761, 149.1643067, -0.337747454643, 0.149771258235, 0.0547628700733, 0.927629411221
2019-04-03 19:33:01.50,84716100, 0.02, -18.33, 219.99, 603.090026855, -35.3640794, 149.1643032, -0.337643325329, 0.149596005678, 0.0546886846423, 0.927699923515
2019-04-03 19:33:01.60,84816060, 0.05, -18.31, 219.97, 603.090026855, -35.3640828, 149.1642996, -0.337569475174, 0.149385944009, 0.0548666976392, 0.927750170231
2019-04-03 19:33:01.70,84916020, 0.1, -18.31, 219.96, 603.090026855, -35.3640861, 149.1642961, -0.337519019842, 0.149216577411, 0.0552381947637, 0.927773714066
2019-04-03 19:33:01.80,85015980, 0.15, -18.32, 219.95, 603.090026855, -35.3640896, 149.1642925, -0.3374761343, 0.149223059416, 0.0557029284537, 0.927760541439
2019-04-03 19:33:01.90,85115940, 0.17, -18.35, 219.94, 603.090026855, -35.3640929, 149.164289, -0.337400317192, 0.14940738678, 0.0559326373041, 0.927744567394
2019-04-03 19:33:02.00,85215900, 0.17, -18.38, 219.93, 603.090026855, -35.3640964, 149.1642855, -0.337302863598, 0.149611398578, 0.0559157393873, 0.927748203278
2019-04-03 19:33:02.10,85315860, 0.13, -18.37, 219.92, 603.090026855, -35.3640998, 149.1642819, -0.337202042341, 0.149687126279, 0.0556325428188, 0.927789628506
2019-04-03 19:33:02.20,85415820, 0.1, -18.35, 219.91, 603.090026855, -35.3641031, 149.1642784, -0.337125241756, 0.149579688907, 0.055293712765, 0.92785513401
2019-04-03 19:33:02.29,85515780, 0.08, -18.32, 219.91, 603.090026855, -35.3641066, 149.1642748, -0.337070465088, 0.149430587888, 0.0550679787993, 0.927912473679
2019-04-03 19:33:02.39,85615740, 0.07, -18.3, 219.9, 603.090026855, -35.3641099, 149.1642713, -0.337018013, 0.149331495166, 0.0548714660108, 0.927959144115
2019-04-03 19:33:02.49,85715700, 0.06, -18.3, 219.9, 603.090026855, -35.3641134, 149.1642678, -0.336964190006, 0.149329140782, 0.0548135973513, 0.927982449532
2019-04-03 19:33:02.59,85815660, 0.06, -18.31, 219.89, 603.090026855, -35.3641168, 149.1642642, -0.336915135384, 0.149387642741, 0.0548417940736, 0.927989184856
2019-04-03 19:33:02.70,85916453, 0.06, -18.35, 219.89, 603.090026855, -35.3641201, 149.1642607, -0.336844623089, 0.149745956063, 0.0549720004201, 0.927949309349
2019-04-03 19:33:02.80,86016413, 0.06, -18.4, 219.88, 603.090026855, -35.3641236, 149.164257, -0.336763560772, 0.150163218379, 0.0551001988351, 0.927903711796
2019-04-03 19:33:02.90,86116373, 0.06, -18.41, 219.87, 603.090026855, -35.3641269, 149.1642536, -0.336704581976, 0.150237306952, 0.0551038980484, 0.927912890911
2019-04-03 19:33:03.00,86216333, 0.06, -18.4, 219.87, 603.090026855, -35.3641304, 149.1642501, -0.336662650108, 0.150130316615, 0.0550411827862, 0.92794919014
