Start,TimeUS,Roll,Pitch,Yaw,Alt,Lat,Lng,Q1,Q2,Q3,Q4
2019-04-03 21:08:59.30,43316000, 0.0, 0.0, 353.0, 584.090026855, -35.363261, 149.1652299, 0.998134791851, 0.0, 0.0, -0.0610485821962
2019-04-03 21:08:59.41,43435119, 0.0, 0.0, 353.0, 584.090026855, -35.363261, 149.1652299, 0.998134791851, 0.0, 0.0, -0.0610485821962
2019-04-03 21:08:59.51,43535079, 0.0, 0.0, 353.0, 584.090026855, -35.363261, 149.1652299, 0.998134791851, 0.0, 0.0, -0.0610485821962
2019-04-03 21:08:59.61,43635039, 0.0, 0.0, 353.0, 584.090026855, -35.363261, 149.1652299, 0.998134791851, 0.0, 0.0, -0.0610485821962
2019-04-03 21:08:59.71,43734999, 0.0, 0.0, 353.0, 584.090026855, -35.363261, 149.1652299, 0.998134791851, 0.0, 0.0, -0.0610485821962
2019-04-03 21:08:59.81,43834959, 0.0, 0.0, 353.0, 584.090026855, -35.363261, 149.1652299, 0.998134791851, 0.0, 0.0, -0.0610485821962
2019-04-03 21:08:59.91,43934919, 0.0, 0.0, 353.0, 584.090026855, -35.363261, 149.1652299, 0.998134791851, 0.0, 0.0, -0.0610485821962
2019-04-03 21:09:00.01,44034879, 0.0, 0.0, 353.0, 584.090026855, -35.363261, 149.1652299, 0.998134791851, 0.0, 0.0, -0.0610485821962
2019-04-03 21:09:00.11,44134839, 0.0, 0.0, 353.0, 584.090026855, -35.363261, 149.1652299, 0.998134791851, 0.0, 0.0, -0.0610485821962
2019-04-03 21:09:00.21,44234799, 0.0, 0.0, 353.0, 584.090026855, -35.363261, 149.1652299, 0.998134791851, 0.0, 0.0, -0.0610485821962
2019-04-03 21:09:00.31,44334759, 0.0, 0.0, 353.0, 584.090026855, -35.363261, 149.1652299, 0.998134791851, 0.0, 0.0, -0.0610485821962
2019-04-03 21:09:00.41,44434719, 0.0, 0.0, 353.0, 584.090026855, -35.363261, 149.1652299, 0.998134791851, 0.0, 0.0, -0.0610485821962
2019-04-03 21:09:00.51,44534679, 0.0, 0.0, 353.0, 584.090026855, -35.363261, 149.1652299, 0.998134791851, 0.0, 0.0, -0.0610485821962
2019-04-03 21:09:00.61,44634639, 0.0, 0.0, 353.0, 584.090026855, -35.363261, 149.1652299, 0.998134791851, 0.0, 0.0, -0.0610485821962
2019-04-03 21:09:00.71,44734599, 0.0, 0.0, 353.0, 584.090026855, -35.363261, 149.1652299, 0.998134791851, 0.0, 0.0, -0.0610485821962
2019-04-03 21:09:00.81,44834559, 0.0, 0.0, 353.0, 584.090026855, -35.363261, 149.1652299, 0.998134791851, 0.0, 0.0, -0.0610485821962
2019-04-03 21:09:00.91,44934519, 0.0, 0.0, 353.0, 584.090026855, -35.363261, 149.1652299, 0.998134791851, 0.0, 0.0, -0.0610485821962
2019-04-03 21:09:01.01,45034479, 0.0, 0.0, 353.0, 584.090026855, -35.363261, 149.1652299, 0.998134791851, 0.0, 0.0, -0.0610485821962
2019-04-03 21:09:01.11,45134439, 0.0, 0.0, 353.0, 584.090026855, -35.363261, 149.1652299, 0.998134791851, 0.0, 0.0, -0.0610485821962
2019-04-03 21:09:01.21,45234399, 0.0, 0.0, 353.0, 584.090026855, -35.363261, 149.1652299, 0.998134791851, 0.0, 0.0, -0.0610485821962
2019-04-03 21:09:01.31,45334359, 0.0, 0.0, 353.0, 584.090026855, -35.363261, 149.1652299, 0.998134791851, 0.0, 0.0, -0.0610485821962
2019-04-03 21:09:01.42,45435152, 0.0, 0.0, 353.0, 584.090026855, -35.363261, 149.1652299, 0.998134791851, 0.0, 0.0, -0.0610485821962
2019-04-03 21:09:01.51,45535112, 0.0, 0.0, 353.0, 584.090026855, -35.363261, 149.1652299, 0.998134791851, 0.0, 0.0, -0.0610485821962
2019-04-03 21:09:01.61,45635072, 0.0, 0.0, 353.0, 584.090026855, -35.363261, 149.1652299, 0.998134791851, 0.0, 0.0, -0.0610485821962
2019-04-03 21:09:01.71,45735032, 0.0, 0.0, 353.0, 584.090026855, -35.363261, 149.1652299, 0.998134791851, 0.0, 0.0, -0.0610485821962
2019-04-03 21:09:01.81,45834992, 0.0, 0.0, 353.0, 584.090026855, -35.363261, 149.1652299, 0.998134791851, 0.0, 0.0, -0.0610485821962
2019-04-03 21:09:01.91,45934952, 0.0, 0.0, 353.0, 584.090026855, -35.363261, 149.1652299, 0.998134791851, 0.0, 0.0, -0.0610485821962
2019-04-03 21:09:02.01,46034912, 0.0, 0.0, 353.0, 584.090026855, -35.363261, 149.1652299, 0.998134791851, 0.0, 0.0, -0.0610485821962
2019-04-03 21:09:02.11,46134872, 0.0, 0.0, 353.0, 584.090026855, -35.363261, 149.1652299, 0.998134791851, 0.0, 0.0, -0.0610485821962
2019-04-03 21:09:02.21,46234832, 0.0, 0.0, 353.0, 584.090026855, -35.363261, 149.1652299, 0.998134791851, 0.0, 0.0, -0.0610485821962
2019-04-03 21:09:02.31,46334792, 0.0, 0.0, 353.0, 584.090026855, -35.363261, 149.1652299, 0.998134791851, 0.0, 0.0, -0.0610485821962
2019-04-03 21:09:02.41,46434752, 0.0, 0.0, 353.0, 584.090026855, -35.363261, 149.1652299, 0.998134791851, 0.0, 0.0, -0.0610485821962
2019-04-03 21:09:02.51,46534712, 0.0, 0.0, 353.0, 584.090026855, -35.363261, 149.1652299, 0.998134791851, 0.0, 0.0, -0.0610485821962
2019-04-03 21:09:02.61,46634672, 0.0, 0.0, 353.0, 584.090026855, -35.363261, 149.1652299, 0.998134791851, 0.0, 0.0, -0.0610485821962
2019-04-03 21:09:02.71,46734632, 0.0, 0.0, 353.0, 584.090026855, -35.363261, 149.1652299, 0.998134791851, 0.0, 0.0, -0.0610485821962
2019-04-03 21:09:02.81,46834592, 0.0, 0.0, 353.0, 584.090026855, -35.363261, 149.1652299, 0.998134791851, 0.0, 0.0, -0.0610485821962
2019-04-03 21:09:02.91,46934552, 0.0, 0.0, 353.0, 584.090026855, -35.363261, 149.1652299, 0.998134791851, 0.0, 0.0, -0.0610485821962
2019-04-03 21:09:03.01,47034512, 0.0, 0.0, 353.0, 584.090026855, -35.363261, 149.1652299, 0.998134791851, 0.0, 0.0, -0.0610485821962
2019-04-03 21:09:03.11,47134472, 0.0, 0.0, 353.0, 584.090026855, -35.363261, 149.1652299, 0.998134791851, 0.0, 0.0, -0.0610485821962
2019-04-03 21:09:03.21,47234432, 0.0, 0.0, 353.0, 584.090026855, -35.363261, 149.1652299, 0.998134791851, 0.0, 0.0, -0.0610485821962
2019-04-03 21:09:03.31,47334392, 0.0, 0.0, 353.0, 584.090026855, -35.363261, 149.1652299, 0.998134791851, 0.0, 0.0, -0.0610485821962
2019-04-03 21:09:03.41,47434352, 0.0, 0.0, 353.0, 584.090026855, -35.363261, 149.1652299, 0.998134791851, 0.0, 0.0, -0.0610485821962
2019-04-03 21:09:03.52,47535145, 0.0, 0.0, 353.0, 584.090026855, -35.363261, 149.1652299, 0.998134791851, 0.0, 0.0, -0.0610485821962
2019-04-03 21:09:03.61,47635105, 0.0, 0.0, 353.0, 584.090026855, -35.363261, 149.1652299, 0.998134791851, 0.0, 0.0, -0.0610485821962
2019-04-03 21:09:03.71,47735065, 0.0, 0.0, 353.0, 584.090026855, -35.363261, 149.1652299, 0.998134791851, 0.0, 0.0, -0.0610485821962
2019-04-03 21:09:03.81,47835025, 0.0, 0.0, 353.0, 584.090026855, -35.363261, 149.1652299, 0.998134791851, 0.0, 0.0, -0.0610485821962
2019-04-03 21:09:03.91,47934985, 0.0, 0.0, 353.0, 584.090026855, -35.363261, 149.1652299, 0.998134791851, 0.0, 0.0, -0.0610485821962
2019-04-03 21:09:04.01,48034945, 0.0, 0.0, 353.0, 584.090026855, -35.363261, 149.1652299, 0.998134791851, 0.0, 0.0, -0.0610485821962
2019-04-03 21:09:04.11,48134905, 0.0, 0.0, 353.0, 584.090026855, -35.363261, 149.1652299, 0.998134791851, 0.0, 0.0, -0.0610485821962
2019-04-03 21:09:04.21,48234865, 0.0, 0.0, 353.0, 584.090026855, -35.363261, 149.1652299, 0.998134791851, 0.0, 0.0, -0.0610485821962
2019-04-03 21:09:04.31,48334825, 0.0, 0.0, 353.0, 584.090026855, -35.363261, 149.1652299, 0.998134791851, 0.0, 0.0, -0.0610485821962
2019-04-03 21:09:04.41,48434785, 0.0, 0.0, 353.0, 584.090026855, -35.363261, 149.1652299, 0.998134791851, 0.0, 0.0, -0.0610485821962
2019-04-03 21:09:04.51,48534745, 0.0, 0.0, 353.0, 584.090026855, -35.363261, 149.1652299, 0.998134791851, 0.0, 0.0, -0.0610485821962
2019-04-03 21:09:04.61,48634705, 0.0, 0.0, 353.0, 584.090026855, -35.363261, 149.1652299, 0.998134791851, 0.0, 0.0, -0.0610485821962
2019-04-03 21:09:04.71,48734665, 0.0, 0.0, 353.0, 584.090026855, -35.363261, 149.1652299, 0.998134791851, 0.0, 0.0, -0.0610485821962
2019-04-03 21:09:04.81,48834625, 0.0, 0.0, 353.0, 584.090026855, -35.363261, 149.1652299, 0.998134791851, 0.0, 0.0, -0.0610485821962
2019-04-03 21:09:04.91,48934585, 0.0, 0.0, 353.0, 584.090026855, -35.363261, 149.1652299, 0.998134791851, 0.0, 0.0, -0.0610485821962
2019-04-03 21:09:05.01,49034545, 0.0, 0.0, 353.0, 584.090026855, -35.363261, 149.1652299, 0.998134791851, 0.0, 0.0, -0.0610485821962
2019-04-03 21:09:05.11,49134505, 0.0, 0.0, 353.0, 584.090026855, -35.363261, 149.1652299, 0.998134791851, 0.0, 0.0, -0.0610485821962
2019-04-03 21:09:05.21,49234465, 0.0, 0.0, 353.0, 584.090026855, -35.363261, 149.1652299, 0.998134791851, 0.0, 0.0, -0.0610485821962
2019-04-03 21:09:05.31,49334425, 0.0, 0.0, 353.0, 584.090026855, -35.363261, 149.1652299, 0.998134791851, 0.0, 0.0, -0.0610485821962
2019-04-03 21:09:05.41,49434385, 0.0, 0.0, 353.0, 584.090026855, -35.363261, 149.1652299, 0.998134791851, 0.0, 0.0, -0.0610485821962
2019-04-03 21:09:05.51,49534345, 0.0, 0.0, 353.0, 584.090026855, -35.363261, 149.1652299, 0.998134791851, 0.0, 0.0, -0.0610485821962
2019-04-03 21:09:05.62,49635138, 0.0, 0.0, 353.0, 584.090026855, -35.363261, 149.1652299, 0.998134791851, 0.0, 0.0, -0.0610485821962
2019-04-03 21:09:05.71,49735098, 0.0, 0.0, 353.0, 584.090026855, -35.363261, 149.1652299, 0.998134791851, 0.0, 0.0, -0.0610485821962
2019-04-03 21:09:05.81,49835058, 0.0, 0.0, 353.0, 584.090026855, -35.363261, 149.1652299, 0.998134791851, 0.0, 0.0, -0.0610485821962
2019-04-03 21:09:05.91,49935018, 0.0, 0.0, 353.0, 584.090026855, -35.363261, 149.1652299, 0.998134791851, 0.0, 0.0, -0.0610485821962
2019-04-03 21:09:06.01,50034978, 0.0, 0.0, 353.0, 584.090026855, -35.363261, 149.1652299, 0.998134791851, 0.0, 0.0, -0.0610485821962
2019-04-03 21:09:06.11,50134938, 0.0, 0.0, 353.0, 584.090026855, -35.363261, 149.1652299, 0.998134791851, 0.0, 0.0, -0.0610485821962
2019-04-03 21:09:06.21,50234898, 0.0, 0.0, 353.0, 584.090026855, -35.363261, 149.1652299, 0.998134791851, 0.0, 0.0, -0.0610485821962
2019-04-03 21:09:06.31,50334858, 0.0, 0.0, 353.0, 584.090026855, -35.363261, 149.1652299, 0.998134791851, 0.0, 0.0, -0.0610485821962
2019-04-03 21:09:06.41,50434818, 0.0, 0.0, 353.0, 584.090026855, -35.363261, 149.1652299, 0.998134791851, 0.0, 0.0, -0.0610485821962
2019-04-03 21:09:06.51,50534778, 0.0, 0.0, 353.0, 584.090026855, -35.363261, 149.1652299, 0.998134791851, 0.0, 0.0, -0.0610485821962
2019-04-03 21:09:06.61,50634738, 0.0, 0.0, 353.0, 584.090026855, -35.363261, 149.1652299, 0.998134791851, 0.0, 0.0, -0.0610485821962
2019-04-03 21:09:06.71,50734698, 0.0, 0.0, 353.0, 584.090026855, -35.363261, 149.1652299, 0.998134791851, 0.0, 0.0, -0.0610485821962
2019-04-03 21:09:06.81,50834658, 0.0, 0.0, 353.0, 584.090026855, -35.363261, 149.1652299, 0.998134791851, 0.0, 0.0, -0.0610485821962
2019-04-03 21:09:06.91,50934618, 0.0, 0.0, 353.0, 584.090026855, -35.363261, 149.1652299, 0.998134791851, 0.0, 0.0, -0.0610485821962
2019-04-03 21:09:07.01,51034578, 0.0, 0.0, 353.0, 584.090026855, -35.363261, 149.1652299, 0.998134791851, 0.0, 0.0, -0.0610485821962
2019-04-03 21:09:07.11,51134538, 0.0, 0.0, 353.0, 584.090026855, -35.363261, 149.1652299, 0.998134791851, 0.0, 0.0, -0.0610485821962
2019-04-03 21:09:07.21,51234498, 0.0, 0.0, 353.0, 584.090026855, -35.363261, 149.1652299, 0.998134791851, 0.0, 0.0, -0.0610485821962
2019-04-03 21:09:07.31,51334458, 0.0, 0.0, 353.0, 584.090026855, -35.363261, 149.1652299, 0.998134791851, 0.0, 0.0, -0.0610485821962
2019-04-03 21:09:07.41,51434418, 0.0, 0.0, 353.0, 584.090026855, -35.363261, 149.1652299, 0.998134791851, 0.0, 0.0, -0.0610485821962
2019-04-03 21:09:07.51,51534378, 0.0, 0.0, 353.0, 584.090026855, -35.363261, 149.1652299, 0.998134791851, 0.0, 0.0, -0.0610485821962
2019-04-03 21:09:07.61,51634338, 0.0, 0.0, 353.0, 584.090026855, -35.363261, 149.1652299, 0.998134791851, 0.0, 0.0, -0.0610485821962
2019-04-03 21:09:07.72,51735131, 0.0, 0.0, 353.0, 584.090026855, -35.363261, 149.1652299, 0.998134791851, 0.0, 0.0, -0.0610485821962
2019-04-03 21:09:07.81,51835091, 0.0, 0.0, 353.0, 584.090026855, -35.363261, 149.1652299, 0.998134791851, 0.0, 0.0, -0.0610485821962
2019-04-03 21:09:07.91,51935051, 0.0, 0.0, 353.0, 584.090026855, -35.363261, 149.1652299, 0.998134791851, 0.0, 0.0, -0.0610485821962
2019-04-03 21:09:08.01,52035011, 0.0, 0.0, 353.0, 584.090026855, -35.363261, 149.1652299, 0.998134791851, 0.0, 0.0, -0.0610485821962
2019-04-03 21:09:08.11,52134971, 0.0, 0.0, 353.0, 584.090026855, -35.363261, 149.1652299, 0.998134791851, 0.0, 0.0, -0.0610485821962
2019-04-03 21:09:08.21,52234931, 0.0, 0.0, 353.0, 584.090026855, -35.363261, 149.1652299, 0.998134791851, 0.0, 0.0, -0.0610485821962
2019-04-03 21:09:08.31,52334891, 0.0, 0.0, 353.0, 584.090026855, -35.363261, 149.1652299, 0.998134791851, 0.0, 0.0, -0.0610485821962
2019-04-03 21:09:08.41,52434851, 0.0, 0.0, 353.0, 584.090026855, -35.363261, 149.1652299, 0.998134791851, 0.0, 0.0, -0.0610485821962
2019-04-03 21:09:08.51,52534811, 0.0, 0.0, 353.0, 584.090026855, -35.363261, 149.1652299, 0.998134791851, 0.0, 0.0, -0.0610485821962
2019-04-03 21:09:08.61,52634771, 0.0, 0.0, 353.0, 584.090026855, -35.363261, 149.1652299, 0.998134791851, 0.0, 0.0, -0.0610485821962
2019-04-03 21:09:08.71,52734731, 0.0, 0.0, 353.0, 584.090026855, -35.363261, 149.1652299, 0.998134791851, 0.0, 0.0, -0.0610485821962
2019-04-03 21:09:08.81,52834691, 0.0, 0.0, 353.0, 584.090026855, -35.363261, 149.1652299, 0.998134791851, 0.0, 0.0, -0.0610485821962
2019-04-03 21:09:08.91,52934651, 0.0, 0.0, 353.0, 584.090026855, -35.363261, 149.1652299, 0.998134791851, 0.0, 0.0, -0.0610485821962
2019-04-03 21:09:09.01,53034611, 0.0, 0.0, 353.0, 584.090026855, -35.363261, 149.1652299, 0.998134791851, 0.0, 0.0, -0.0610485821962
2019-04-03 21:09:09.11,53134571, 0.0, 0.0, 353.0, 584.090026855, -35.363261, 149.1652299, 0.998134791851, 0.0, 0.0, -0.0610485821962
2019-04-03 21:09:10.41,54434884, 0.0, 0.0, 353.0, 584.090026855, -35.363261, 149.1652299, 0.998134791851, 0.0, 0.0, -0.0610485821962
2019-04-03 21:09:10.51,54534844, 0.0, 0.0, 353.0, 584.090026855, -35.363261, 149.1652299, 0.998134791851, 0.0, 0.0, -0.0610485821962
2019-04-03 21:09:10.61,54634804, 0.0, 0.0, 353.0, 584.090026855, -35.363261, 149.1652299, 0.998134791851, 0.0, 0.0, -0.0610485821962
2019-04-03 21:09:10.71,54734764, 0.0, 0.0, 353.0, 584.090026855, -35.363261, 149.1652299, 0.998134791851, 0.0, 0.0, -0.0610485821962
2019-04-03 21:09:10.81,54834724, 0.0, 0.0, 353.0, 584.090026855, -35.363261, 149.1652299, 0.998134791851, 0.0, 0.0, -0.0610485821962
2019-04-03 21:09:10.91,54934684, 0.0, 0.0, 353.0, 584.090026855, -35.363261, 149.1652299, 0.998134791851, 0.0, 0.0, -0.0610485821962
2019-04-03 21:09:11.01,55034644, 0.0, 0.0, 353.0, 584.090026855, -35.363261, 149.1652299, 0.998134791851, 0.0, 0.0, -0.0610485821962
2019-04-03 21:09:11.11,55134604, 0.0, 0.0, 353.0, 584.090026855, -35.363261, 149.1652299, 0.998134791851, 0.0, 0.0, -0.0610485821962
2019-04-03 21:09:11.21,55234564, 0.0, 0.0, 353.0, 584.090026855, -35.363261, 149.1652299, 0.998134791851, 0.0, 0.0, -0.0610485821962
2019-04-03 21:09:11.31,55334524, 0.0, 0.0, 353.0, 584.090026855, -35.363261, 149.1652299, 0.998134791851, 0.0, 0.0, -0.0610485821962
2019-04-03 21:09:11.41,55434484, 0.0, 0.0, 353.0, 584.090026855, -35.363261, 149.1652299, 0.998134791851, 0.0, 0.0, -0.0610485821962
2019-04-03 21:09:11.51,55534444, 0.0, 0.0, 353.0, 584.090026855, -35.363261, 149.1652299, 0.998134791851, 0.0, 0.0, -0.0610485821962
2019-04-03 21:09:11.61,55634404, 0.0, 0.0, 353.0, 584.090026855, -35.363261, 149.1652299, 0.998134791851, 0.0, 0.0, -0.0610485821962
2019-04-03 21:09:11.71,55734364, 0.0, 0.0, 353.0, 584.090026855, -35.363261, 149.1652299, 0.998134791851, 0.0, 0.0, -0.0610485821962
2019-04-03 21:09:11.82,55835157, 0.0, 0.0, 353.0, 584.090026855, -35.363261, 149.1652299, 0.998134791851, 0.0, 0.0, -0.0610485821962
2019-04-03 21:09:11.91,55935117, 0.0, 0.0, 353.0, 584.090026855, -35.363261, 149.1652299, 0.998134791851, 0.0, 0.0, -0.0610485821962
2019-04-03 21:09:12.01,56035077, 0.0, 0.0, 353.0, 584.090026855, -35.363261, 149.1652299, 0.998134791851, 0.0, 0.0, -0.0610485821962
2019-04-03 21:09:12.11,56135037, 0.0, 0.0, 353.0, 584.090026855, -35.363261, 149.1652299, 0.998134791851, 0.0, 0.0, -0.0610485821962
2019-04-03 21:09:12.21,56234997, 0.0, 0.0, 353.0, 584.090026855, -35.363261, 149.1652299, 0.998134791851, 0.0, 0.0, -0.0610485821962
2019-04-03 21:09:12.31,56334957, 0.0, 0.0, 353.0, 584.090026855, -35.363261, 149.1652299, 0.998134791851, 0.0, 0.0, -0.0610485821962
2019-04-03 21:09:12.41,56434917, 0.0, 0.0, 353.0, 584.090026855, -35.363261, 149.1652299, 0.998134791851, 0.0, 0.0, -0.0610485821962
2019-04-03 21:09:12.51,56534877, 0.0, 0.0, 353.0, 584.090026855, -35.363261, 149.1652299, 0.998134791851, 0.0, 0.0, -0.0610485821962
2019-04-03 21:09:12.61,56634837, 0.0, 0.0, 353.0, 584.090026855, -35.363261, 149.1652299, 0.998134791851, 0.0, 0.0, -0.0610485821962
2019-04-03 21:09:12.71,56734797, 0.0, 0.0, 353.0, 584.090026855, -35.363261, 149.1652299, 0.998134791851, 0.0, 0.0, -0.0610485821962
2019-04-03 21:09:12.81,56834757, 0.0, 0.0, 353.0, 584.090026855, -35.363261, 149.1652299, 0.998134791851, 0.0, 0.0, -0.0610485821962
2019-04-03 21:09:12.91,56934717, 0.0, 0.0, 353.0, 584.090026855, -35.363261, 149.1652299, 0.998134791851, 0.0, 0.0, -0.0610485821962
2019-04-03 21:09:13.01,57034677, 0.0, 0.0, 353.0, 584.090026855, -35.363261, 149.1652299, 0.998134791851, 0.0, 0.0, -0.0610485821962
2019-04-03 21:09:13.11,57134637, 0.0, 0.0, 353.0, 584.090026855, -35.363261, 149.1652299, 0.998134791851, 0.0, 0.0, -0.0610485821962
2019-04-03 21:09:13.21,57234597, 0.0, 0.0, 353.0, 584.090026855, -35.363261, 149.1652299, 0.998134791851, 0.0, 0.0, -0.0610485821962
2019-04-03 21:09:13.31,57334557, 0.0, 0.0, 353.0, 584.090026855, -35.363261, 149.1652299, 0.998134791851, 0.0, 0.0, -0.0610485821962
2019-04-03 21:09:13.41,57434517, 0.0, 0.0, 353.0, 584.090026855, -35.363261, 149.1652299, 0.998134791851, 0.0, 0.0, -0.0610485821962
2019-04-03 21:09:13.51,57534477, 0.0, 0.0, 353.0, 584.090026855, -35.363261, 149.1652299, 0.998134791851, 0.0, 0.0, -0.0610485821962
2019-04-03 21:09:13.61,57634437, 0.0, 0.0, 353.0, 584.090026855, -35.363261, 149.1652299, 0.998134791851, 0.0, 0.0, -0.0610485821962
2019-04-03 21:09:13.71,57734397, 0.0, 0.0, 353.0, 584.090026855, -35.363261, 149.1652299, 0.998134791851, 0.0, 0.0, -0.0610485821962
2019-04-03 21:09:13.81,57834357, 0.0, 0.0, 353.0, 584.090026855, -35.363261, 149.1652299, 0.998134791851, 0.0, 0.0, -0.0610485821962
2019-04-03 21:09:13.92,57935150, 0.0, 0.0, 353.0, 584.090026855, -35.363261, 149.1652299, 0.998134791851, 0.0, 0.0, -0.0610485821962
2019-04-03 21:09:14.01,58035110, 0.0, 0.0, 353.0, 584.090026855, -35.363261, 149.1652299, 0.998134791851, 0.0, 0.0, -0.0610485821962
2019-04-03 21:09:14.11,58135070, 0.0, 0.0, 353.0, 584.090026855, -35.363261, 149.1652299, 0.998134791851, 0.0, 0.0, -0.0610485821962
2019-04-03 21:09:14.21,58235030, 0.0, 0.0, 353.0, 584.090026855, -35.363261, 149.1652299, 0.998134791851, 0.0, 0.0, -0.0610485821962
2019-04-03 21:09:14.31,58334990, 0.0, 0.0, 353.0, 584.090026855, -35.363261, 149.1652299, 0.998134791851, 0.0, 0.0, -0.0610485821962
2019-04-03 21:09:14.41,58434950, 0.0, 0.0, 353.0, 584.090026855, -35.363261, 149.1652299, 0.998134791851, 0.0, 0.0, -0.0610485821962
2019-04-03 21:09:14.51,58534910, 0.0, 0.0, 353.0, 584.090026855, -35.363261, 149.1652299, 0.998134791851, 0.0, 0.0, -0.0610485821962
2019-04-03 21:09:14.61,58634870, 0.0, 0.0, 353.0, 584.090026855, -35.363261, 149.1652299, 0.998134791851, 0.0, 0.0, -0.0610485821962
2019-04-03 21:09:14.71,58734830, 0.0, 0.0, 353.0, 584.090026855, -35.363261, 149.1652299, 0.998134791851, 0.0, 0.0, -0.0610485821962
2019-04-03 21:09:14.81,58834790, 0.0, 0.0, 353.0, 584.090026855, -35.363261, 149.1652299, 0.998134791851, 0.0, 0.0, -0.0610485821962
2019-04-03 21:09:14.91,58934750, 0.0, 0.0, 353.0, 584.090026855, -35.363261, 149.1652299, 0.998134791851, 0.0, 0.0, -0.0610485821962
2019-04-03 21:09:15.01,59034710, 0.0, 0.0, 353.0, 584.090026855, -35.363261, 149.1652299, 0.998134791851, 0.0, 0.0, -0.0610485821962
2019-04-03 21:09:15.11,59134670, 0.0, 0.0, 353.0, 584.090026855, -35.363261, 149.1652299, 0.998134791851, 0.0, 0.0, -0.0610485821962
2019-04-03 21:09:15.21,59234630, 0.0, 0.0, 353.0, 584.090026855, -35.363261, 149.1652299, 0.998134791851, 0.0, 0.0, -0.0610485821962
2019-04-03 21:09:15.31,59334590, 0.0, 0.0, 353.0, 584.090026855, -35.363261, 149.1652299, 0.998134791851, 0.0, 0.0, -0.0610485821962
2019-04-03 21:09:15.41,59434550, 0.0, 0.0, 353.0, 584.090026855, -35.363261, 149.1652299, 0.998134791851, 0.0, 0.0, -0.0610485821962
2019-04-03 21:09:15.51,59534510, 0.0, 0.0, 353.0, 584.090026855, -35.363261, 149.1652299, 0.998134791851, 0.0, 0.0, -0.0610485821962
2019-04-03 21:09:15.61,59634470, 0.0, 0.0, 353.0, 584.090026855, -35.363261, 149.1652299, 0.998134791851, 0.0, 0.0, -0.0610485821962
2019-04-03 21:09:15.71,59734430, 0.0, 0.0, 353.0, 584.090026855, -35.363261, 149.1652299, 0.998134791851, 0.0, 0.0, -0.0610485821962
2019-04-03 21:09:15.81,59834390, 0.0, 0.0, 353.0, 584.090026855, -35.363261, 149.1652299, 0.998134791851, 0.0, 0.0, -0.0610485821962
2019-04-03 21:09:15.91,59934350, 0.0, 0.0, 353.0, 584.090026855, -35.363261, 149.1652299, 0.998134791851, 0.0, 0.0, -0.0610485821962
2019-04-03 21:09:16.02,60035143, 0.0, 0.0, 353.0, 584.090026855, -35.363261, 149.1652299, 0.998134791851, 0.0, 0.0, -0.0610485821962
2019-04-03 21:09:16.11,60135103, 0.0, 0.0, 353.0, 584.090026855, -35.363261, 149.1652299, 0.998134791851, 0.0, 0.0, -0.0610485821962
2019-04-03 21:09:16.21,60235063, 0.0, 0.0, 353.0, 584.090026855, -35.363261, 149.1652299, 0.998134791851, 0.0, 0.0, -0.0610486753285
2019-04-03 21:09:16.31,60335023, 0.0, 0.0, 353.0, 584.090026855, -35.363261, 149.1652299, 0.998134791851, 0.0, 0.0, -0.0610486753285
2019-04-03 21:09:16.41,60434983, 0.0, 0.0, 353.0, 584.090026855, -35.363261, 149.1652299, 0.998134791851, 0.0, 0.0, -0.0610486753285
2019-04-03 21:09:16.51,60534943, 0.0, 0.0, 353.0, 584.090026855, -35.363261, 149.1652299, 0.998134791851, 0.0, 0.0, -0.0610486753285
2019-04-03 21:09:16.61,60634903, 0.0, 0.0, 353.0, 584.090026855, -35.363261, 149.1652299, 0.998134791851, 0.0, 0.0, -0.0610486753285
2019-04-03 21:09:16.71,60734863, 0.0, 0.0, 353.0, 584.090026855, -35.363261, 149.1652299, 0.998134791851, 0.0, 0.0, -0.0610486753285
2019-04-03 21:09:16.81,60834823, 0.0, 0.0, 353.0, 584.090026855, -35.363261, 149.1652299, 0.998134791851, 0.0, 0.0, -0.0610486753285
2019-04-03 21:09:16.91,60934783, 0.0, 0.0, 353.0, 584.090026855, -35.363261, 149.1652299, 0.998134791851, 0.0, 0.0, -0.0610486753285
2019-04-03 21:09:17.01,61034743, 0.0, 0.0, 353.0, 584.099975586, -35.363261, 149.1652299, 0.998134791851, 0.0, 0.0, -0.0610486753285
2019-04-03 21:09:17.11,61134703, 0.0, 0.0, 353.0, 584.099975586, -35.363261, 149.1652299, 0.998134791851, 0.0, 0.0, -0.0610486753285
2019-04-03 21:09:17.21,61234663, 0.0, 0.0, 353.0, 584.119995117, -35.363261, 149.1652299, 0.998134791851, 0.0, 0.0, -0.0610486753285
2019-04-03 21:09:17.31,61334623, 0.0, 0.0, 353.0, 584.140014648, -35.363261, 149.1652299, 0.998134791851, 0.0, 0.0, -0.0610486753285
2019-04-03 21:09:17.41,61434583, 0.0, 0.0, 353.0, 584.16998291, -35.363261, 149.1652299, 0.998134791851, 0.0, 0.0, -0.0610486529768
2019-04-03 21:09:17.51,61534543, 0.0, 0.0, 353.0, 584.200012207, -35.363261, 149.1652299, 0.998134791851, 0.0, 0.0, -0.0610486753285
2019-04-03 21:09:17.61,61634503, -0.03, -0.02, 352.99, 584.260009766, -35.363261, 149.1652299, 0.998134553432, -0.000284187641228, -0.00016773219977, -0.061052121222
2019-04-03 21:09:17.71,61734463, -0.12, -0.09, 352.99, 584.359985352, -35.363261, 149.1652299, 0.998132884502, -0.00111806066707, -0.000794769148342, -0.0610649585724
2019-04-03 21:09:17.81,61834423, -0.22, -0.19, 352.99, 584.510009766, -35.363261, 149.1652299, 0.998129248619, -0.0020667577628, -0.00154515262693, -0.0610853359103
2019-04-03 21:09:17.91,61934383, -0.27, -0.22, 352.99, 584.659973145, -35.363261, 149.1652299, 0.998126387596, -0.00247751967981, -0.00180428032763, -0.0611093975604
2019-04-03 21:09:18.01,62034343, -0.25, -0.2, 352.99, 584.820007324, -35.363261, 149.1652299, 0.998125433922, -0.00237131956965, -0.00163040787447, -0.0611339509487
2019-04-03 21:09:18.12,62135136, -0.2, -0.14, 352.98, 584.969970703, -35.363261, 149.1652299, 0.99812579155, -0.00187479692977, -0.00112714665011, -0.0611565187573
2019-04-03 21:09:18.21,62235096, -0.13, -0.07, 352.98, 585.119995117, -35.363261, 149.1652299, 0.998126149178, -0.00117457809392, -0.000616906909272, -0.0611763447523
2019-04-03 21:09:18.31,62335056, -0.05, -0.01, 352.98, 585.280029297, -35.363261, 149.1652299, 0.998125731945, -0.000482810399262, -0.000113063440949, -0.0611953176558
2019-04-03 21:09:18.41,62435016, 0.0, 0.02, 352.98, 585.450012207, -35.363261, 149.1652298, 0.998124837875, 8.18212502054e-05, 0.00023234449327, -0.0612111128867
2019-04-03 21:09:18.51,62534976, 0.04, 0.04, 352.98, 585.619995117, -35.363261, 149.1652298, 0.998124301434, 0.00043768400792, 0.000365127052646, -0.0612168721855
2019-04-03 21:09:18.61,62634936, 0.04, 0.02, 352.98, 585.799987793, -35.363261, 149.1652298, 0.998124599457, 0.000413318135543, 0.000206097654882, -0.0612133815885
2019-04-03 21:09:18.71,62734896, 0.01, 0.0, 352.98, 585.979980469, -35.363261, 149.1652298, 0.998124480247, 0.000124654688989, -9.32318289415e-05, -0.0612165853381
2019-04-03 21:09:18.81,62834856, 0.0, -0.04, 352.98, 586.159973145, -35.363261, 149.1652298, 0.998124241829, -8.01474234322e-05, -0.000377387361368, -0.0612199492753
2019-04-03 21:09:18.91,62934816, 0.0, -0.06, 352.98, 586.349975586, -35.363261, 149.1652298, 0.998124182224, -6.62310267217e-05, -0.000527702155523, -0.0612196810544
2019-04-03 21:09:19.01,63034776, 0.01, -0.04, 352.98, 586.539978027, -35.363261, 149.1652298, 0.998124837875, 6.9955138315e-05, -0.000430977117503, -0.0612101517618
2019-04-03 21:09:19.11,63134736, 0.03, 0.0, 352.98, 586.739990234, -35.363261, 149.1652298, 0.99812567234, 0.000273721350823, -1.98662201001e-05, -0.0611973814666
2019-04-03 21:09:19.21,63234696, 0.03, 0.04, 352.98, 586.940002441, -35.363261, 149.1652298, 0.998125970364, 0.000347803725163, 0.000385651102988, -0.0611908659339
2019-04-03 21:09:19.31,63334656, 0.03, 0.08, 352.98, 587.140014648, -35.3632609, 149.1652298, 0.998125851154, 0.000360907841241, 0.000759057817049, -0.0611888952553
2019-04-03 21:09:19.41,63434616, 0.03, 0.11, 352.98, 587.340026855, -35.3632609, 149.1652298, 0.99812579155, 0.000394679984311, 0.00096730410587, -0.0611864887178
2019-04-03 21:09:19.51,63534576, 0.03, 0.1, 352.98, 587.539978027, -35.3632609, 149.1652298, 0.998125970364, 0.000354480347596, 0.000892253301572, -0.0611854940653
2019-04-03 21:09:19.61,63634536, 0.03, 0.07, 352.98, 587.75, -35.3632609, 149.1652298, 0.998125731945, 0.000334715325153, 0.000664294231683, -0.0611922033131
2019-04-03 21:09:19.71,63734496, 0.01, 0.02, 352.98, 587.960021973, -35.3632609, 149.1652298, 0.998125374317, 0.000115241942694, 0.000234048537095, -0.061201825738
2019-04-03 21:09:19.81,63834456, 0.0, -0.02, 352.98, 588.16998291, -35.3632609, 149.1652298, 0.998124301434, -8.3691214968e-05, -0.000251608784311, -0.0612191855907
2019-04-03 21:09:19.91,63934416, -0.02, -0.05, 352.97, 588.380004883, -35.3632609, 149.1652297, 0.998122155666, -0.000215545660467, -0.000440523668658, -0.0612524673343
2019-04-03 21:09:20.01,64034376, -0.03, -0.05, 352.97, 588.590026855, -35.3632609, 149.1652297, 0.99811989069, -0.000375467294361, -0.000470176339149, -0.0612893477082
2019-04-03 21:09:20.11,64134336, -0.05, -0.04, 352.96, 588.799987793, -35.3632609, 149.1652297, 0.99811822176, -0.000532501668204, -0.000394523696741, -0.0613154470921
2019-04-03 21:09:20.22,64235129, -0.05, -0.01, 352.96, 589.020019531, -35.3632609, 149.1652297, 0.998117268085, -0.000464469456347, -0.000130962813273, -0.0613323301077
2019-04-03 21:09:20.31,64335089, -0.03, -0.01, 352.96, 589.229980469, -35.3632609, 149.1652297, 0.998117089272, -0.000298676488455, -0.00013316811237, -0.0613369643688
2019-04-03 21:09:20.41,64435049, -0.02, -0.04, 352.96, 589.450012207, -35.3632609, 149.1652297, 0.998116791248, -0.00023573297949, -0.000345053354977, -0.06134102121
2019-04-03 21:09:20.51,64535009, -0.01, -0.05, 352.96, 589.66998291, -35.3632609, 149.1652297, 0.99811643362, -0.000193007464986, -0.000497689645272, -0.0613460503519
2019-04-03 21:09:20.61,64634969, -0.01, -0.04, 352.96, 589.890014648, -35.3632609, 149.1652297, 0.998116791248, -0.000189372440218, -0.00041773961857, -0.0613402575254
2019-04-03 21:09:20.71,64734929, -0.02, -0.04, 352.96, 590.099975586, -35.3632609, 149.1652297, 0.998117208481, -0.000243847403908, -0.000347705266904, -0.0613347440958
2019-04-03 21:09:20.81,64834889, -0.05, -0.04, 352.96, 590.320007324, -35.3632608, 149.1652297, 0.99811655283, -0.000496556516737, -0.000380090525141, -0.0613436102867
2019-04-03 21:09:20.91,64934849, -0.08, -0.06, 352.96, 590.520019531, -35.3632608, 149.1652297, 0.998115122318, -0.000812318874523, -0.000508322438691, -0.0613615624607
2019-04-03 21:09:21.01,65034809, -0.1, -0.05, 352.96, 590.719970703, -35.3632608, 149.1652297, 0.998113274574, -0.000982667086646, -0.000400203629397, -0.0613900795579
2019-04-03 21:09:21.11,65134769, -0.09, -0.02, 352.95, 590.909973145, -35.3632608, 149.1652296, 0.998111307621, -0.000863859779201, -0.000135493624839, -0.0614256635308
2019-04-03 21:09:21.21,65234729, -0.06, 0.0, 352.95, 591.08001709, -35.3632608, 149.1652296, 0.998109281063, -0.000569640076719, 4.72984756925e-05, -0.0614619143307
2019-04-03 21:09:21.31,65334689, -0.05, 0.01, 352.94, 591.25, -35.3632608, 149.1652296, 0.998106896877, -0.000440008123405, 0.000182710165973, -0.0615011043847
2019-04-03 21:09:21.41,65434649, -0.15, 0.13, 352.94, 591.400024414, -35.3632608, 149.1652296, 0.998102962971, -0.00128030427732, 0.00121698097792, -0.0615412667394
2019-04-03 21:09:21.51,65534609, -0.47, 0.45, 352.93, 591.530029297, -35.3632608, 149.1652296, 0.998085796833, -0.00391126144677, 0.00422890577465, -0.0615759901702
2019-04-03 21:09:21.61,65634569, -0.98, 1.0, 352.92, 591.659973145, -35.3632608, 149.1652296, 0.998025357723, -0.00801617186517, 0.00930241681635, -0.0615998953581
2019-04-03 21:09:21.71,65734529, -1.6, 1.72, 352.91, 591.770019531, -35.3632608, 149.1652294, 0.99788916111, -0.013052447699, 0.0158937107772, -0.0615976564586
2019-04-03 21:09:21.81,65834489, -2.29, 2.54, 352.88, 591.869995117, -35.3632608, 149.1652294, 0.997656404972, -0.0186116974801, 0.0233986452222, -0.0615458749235
2019-04-03 21:09:21.91,65934449, -2.97, 3.35, 352.86, 591.960021973, -35.3632609, 149.1652293, 0.997345149517, -0.02406463027, 0.0308382697403, -0.0614212229848
2019-04-03 21:09:22.01,66034409, -3.55, 4.03, 352.84, 592.039978027, -35.363261, 149.1652293, 0.997021794319, -0.0287395380437, 0.0370789952576, -0.0612105019391
2019-04-03 21:09:22.11,66134369, -3.99, 4.55, 352.84, 592.109985352, -35.363261, 149.1652291, 0.996743798256, -0.0323078744113, 0.0417819656432, -0.060929056257
2019-04-03 21:09:22.21,66234329, -4.31, 4.93, 352.85, 592.16998291, -35.3632614, 149.1652289, 0.996526181698, -0.0348445773125, 0.0452621392906, -0.0606038421392
2019-04-03 21:09:22.31,66335122, -4.53, 5.24, 352.87, 592.229980469, -35.3632616, 149.1652286, 0.996352553368, -0.0366218239069, 0.0480538010597, -0.0602603964508
2019-04-03 21:09:22.41,66435082, -4.72, 5.51, 352.88, 592.270019531, -35.363262, 149.1652283, 0.99619603157, -0.0381212979555, 0.0504895299673, -0.0599250346422
2019-04-03 21:09:22.51,66535042, -4.95, 5.79, 352.9, 592.309997559, -35.3632625, 149.1652279, 0.996007740498, -0.0399476997554, 0.0531186461449, -0.059591807425
2019-04-03 21:09:22.61,66635002, -5.19, 6.05, 352.91, 592.349975586, -35.3632629, 149.1652274, 0.99582272768, -0.0418770834804, 0.0554138086736, -0.0592691004276
2019-04-03 21:09:22.71,66734962, -5.39, 6.23, 352.92, 592.380004883, -35.3632635, 149.1652269, 0.995670378208, -0.0435102470219, 0.0571585707366, -0.0589936412871
2019-04-03 21:09:22.81,66834922, -5.55, 6.38, 352.93, 592.409973145, -35.3632641, 149.1652265, 0.995542883873, -0.0448796190321, 0.0585310794413, -0.0587737560272
2019-04-03 21:09:22.91,66934882, -5.67, 6.49, 352.93, 592.440002441, -35.3632649, 149.1652259, 0.99544698, -0.0458426959813, 0.0595559105277, -0.0586247071624
2019-04-03 21:09:23.01,67034842, -5.74, 6.59, 352.93, 592.469970703, -35.3632656, 149.1652253, 0.995374798775, -0.0463970564306, 0.0604026466608, -0.0585487708449
2019-04-03 21:09:23.11,67134802, -5.79, 6.72, 352.92, 592.489990234, -35.3632665, 149.1652245, 0.995283305645, -0.0467928051949, 0.0615726672113, -0.058569252491
2019-04-03 21:09:23.21,67234762, -5.75, 7.04, 352.72, 592.510009766, -35.3632672, 149.1652238, 0.995039343834, -0.0461368970573, 0.0643847361207, -0.0601889677346
2019-04-03 21:09:23.31,67334722, -5.61, 7.58, 351.74, 592.539978027, -35.3632683, 149.1652231, 0.994260847569, -0.0440214425325, 0.069409519434, -0.0684821009636
2019-04-03 21:09:23.41,67434682, -5.64, 8.14, 349.31, 592.559997559, -35.3632693, 149.1652222, 0.992268621922, -0.0422874391079, 0.0751721337438, -0.0892411842942
2019-04-03 21:09:23.51,67534642, -6.09, 8.43, 345.21, 592.58001709, -35.3632704, 149.1652214, 0.98810338974, -0.0431059226394, 0.0796538218856, -0.124293603003
2019-04-03 21:09:23.61,67634602, -7.02, 8.22, 339.58, 592.599975586, -35.3632714, 149.1652206, 0.98058193922, -0.0474201329052, 0.0812602043152, -0.172067329288
2019-04-03 21:09:23.71,67734562, -8.29, 7.37, 332.77, 592.619995117, -35.3632728, 149.1652197, 0.968456685543, -0.0550467371941, 0.0792905241251, -0.229727163911
2019-04-03 21:09:23.81,67834522, -9.7, 5.87, 325.11, 592.640014648, -35.3632741, 149.1652188, 0.950655400753, -0.0652585476637, 0.0740571767092, -0.294127941132
2019-04-03 21:09:23.91,67934482, -11.0, 3.85, 316.92, 592.659973145, -35.3632755, 149.1652178, 0.926548063755, -0.0768740549684, 0.0663656666875, -0.362208098173
2019-04-03 21:09:24.01,68034442, -12.01, 1.49, 308.45, 592.679992676, -35.3632769, 149.1652169, 0.896112620831, -0.088641770184, 0.0571921952069, -0.431107848883
2019-04-03 21:09:24.11,68134402, -12.58, -1.02, 299.94, 592.710021973, -35.3632785, 149.1652159, 0.860060214996, -0.0993601083755, 0.0471732281148, -0.498195499182
2019-04-03 21:09:24.21,68234362, -12.68, -3.48, 291.6, 592.729980469, -35.3632801, 149.1652149, 0.819768667221, -0.108317062259, 0.037051782012, -0.561136305332
2019-04-03 21:09:24.32,68335155, -12.34, -5.74, 283.54, 592.760009766, -35.3632817, 149.1652136, 0.77666503191, -0.115191265941, 0.0272807367146, -0.618690669537
2019-04-03 21:09:24.41,68435115, -11.66, -7.67, 276.02, 592.789978027, -35.3632835, 149.1652124, 0.7332431674, -0.119919039309, 0.0183697361499, -0.669056415558
2019-04-03 21:09:24.51,68535075, -10.8, -9.25, 269.07, 592.809997559, -35.3632853, 149.1652111, 0.690554916859, -0.12305919081, 0.0105847232044, -0.712655842304
2019-04-03 21:09:24.61,68635035, -9.88, -10.51, 262.68, 592.840026855, -35.3632871, 149.1652096, 0.649442613125, -0.125194460154, 0.00407656189054, -0.75002270937
2019-04-03 21:09:24.71,68734995, -8.96, -11.5, 256.82, 592.869995117, -35.363289, 149.1652081, 0.610173881054, -0.12662948668, -0.0012036585249, -0.782081484795
2019-04-03 21:09:24.81,68834955, -8.06, -12.28, 251.38, 592.900024414, -35.3632909, 149.1652064, 0.572517216206, -0.127531290054, -0.00548290926963, -0.809894919395
2019-04-03 21:09:24.91,68934915, -7.22, -12.91, 246.22, 592.929992676, -35.363293, 149.1652049, 0.535831570625, -0.128212615848, -0.00886747613549, -0.834486305714
2019-04-03 21:09:25.01,69034875, -6.41, -13.45, 241.22, 592.960021973, -35.363295, 149.165203, -0.49929562211, 0.128935366869, 0.0117743210867, 0.856703519821
2019-04-03 21:09:25.11,69134835, -5.56, -13.94, 236.23, 593.0, -35.3632973, 149.1652013, -0.462066590786, 0.129616618156, 0.0146257793531, 0.877200126648
2019-04-03 21:09:25.21,69234795, -4.61, -14.41, 231.15, 593.030029297, -35.3632994, 149.1651995, -0.423398882151, 0.130325034261, 0.0180679820478, 0.896338284016
2019-04-03 21:09:25.31,69334755, -3.51, -14.85, 225.88, 593.059997559, -35.3633017, 149.1651976, -0.382709205151, 0.130874842405, 0.0223761778325, 0.914278268814
2019-04-03 21:09:25.41,69434715, -2.06, -15.26, 220.41, 593.090026855, -35.363304, 149.1651957, -0.340093493462, 0.130819007754, 0.0291342381388, 0.930792093277
2019-04-03 21:09:25.51,69534675, -0.02, -15.54, 215.07, 593.130004883, -35.3633064, 149.1651938, -0.298511624336, 0.128992795944, 0.0404962971807, 0.944781303406
2019-04-03 21:09:25.61,69634635, 2.26, -15.57, 210.43, 593.159973145, -35.3633088, 149.1651918, -0.2625695467, 0.125587433577, 0.0544159412384, 0.955156505108
2019-04-03 21:09:25.71,69734595, 4.3, -15.39, 206.96, 593.190002441, -35.3633112, 149.1651896, -0.235812112689, 0.121503762901, 0.0674171075225, 0.961813092232
2019-04-03 21:09:25.81,69834555, 5.66, -15.14, 204.89, 593.229980469, -35.3633137, 149.1651876, -0.219772264361, 0.11793845892, 0.0762165784836, 0.965392053127
2019-04-03 21:09:25.91,69934515, 6.13, -14.94, 204.16, 593.260009766, -35.3633162, 149.1651853, -0.214059770107, 0.1159247756, 0.0790549740195, 0.9666903615
2019-04-03 21:09:26.01,70034475, 5.72, -14.92, 204.57, 593.289978027, -35.3633187, 149.1651831, -0.217073425651, 0.116176500916, 0.0759404450655, 0.966237664223
2019-04-03 21:09:26.11,70134435, 4.61, -15.07, 205.85, 593.33001709, -35.3633212, 149.1651806, -0.226730614901, 0.118790179491, 0.0682474076748, 0.964274048805
2019-04-03 21:09:26.21,70234395, 3.1, -15.34, 207.72, 593.359985352, -35.3633237, 149.1651781, -0.240849435329, 0.123146519065, 0.0580760575831, 0.960964977741
2019-04-03 21:09:26.31,70334355, 1.47, -15.64, 209.89, 593.400024414, -35.3633264, 149.1651757, -0.25721552968, 0.128182798624, 0.0474598743021, 0.956638336182
2019-04-03 21:09:26.42,70435148, -0.05, -15.89, 212.09, 593.440002441, -35.363329, 149.1651732, -0.273743599653, 0.133037790656, 0.0378168597817, 0.951806306839
2019-04-03 21:09:26.51,70535108, -1.27, -16.07, 214.02, 593.469970703, -35.3633316, 149.1651707, -0.288237452507, 0.136895239353, 0.0303495880216, 0.947236955166
2019-04-03 21:09:26.61,70635068, -2.1, -16.16, 215.51, 593.510009766, -35.3633344, 149.1651681, -0.299484014511, 0.139417380095, 0.0256015732884, 0.94351297617
2019-04-03 21:09:26.71,70735028, -2.5, -16.19, 216.46, 593.549987793, -35.3633371, 149.1651657, -0.306729763746, 0.140532657504, 0.0235155653208, 0.941070914268
2019-04-03 21:09:26.81,70834988, -2.53, -16.2, 216.84, 593.58001709, -35.36334, 149.1651633, -0.309801638126, 0.140627130866, 0.0237393658608, 0.940044343472
2019-04-03 21:09:26.91,70934948, -2.28, -16.21, 216.71, 593.619995117, -35.3633429, 149.1651608, -0.309034407139, 0.140022233129, 0.0256210844964, 0.940337777138
2019-04-03 21:09:27.01,71034908, -1.86, -16.22, 216.17, 593.650024414, -35.3633458, 149.1651584, -0.305119454861, 0.139157146215, 0.0284751672298, 0.941661596298
2019-04-03 21:09:27.11,71134868, -1.33, -16.26, 215.35, 593.690002441, -35.3633488, 149.1651559, -0.299031585455, 0.138264805079, 0.0319211259484, 0.943633437157
2019-04-03 21:09:27.21,71234828, -0.76, -16.3, 214.4, 593.729980469, -35.3633517, 149.1651535, -0.291842907667, 0.137438356876, 0.0356750376523, 0.945867717266
2019-04-03 21:09:27.31,71334788, -0.18, -16.37, 213.44, 593.760009766, -35.3633547, 149.1651509, -0.284549683332, 0.13687568903, 0.0394055098295, 0.948020935059
2019-04-03 21:09:27.41,71434748, 0.3, -16.46, 212.58, 593.799987793, -35.3633577, 149.1651484, -0.277970969677, 0.136702463031, 0.0426623634994, 0.949855029583
2019-04-03 21:09:27.51,71534708, 0.65, -16.54, 211.89, 593.840026855, -35.3633608, 149.165146, -0.272699773312, 0.136749684811, 0.0449525415897, 0.951269507408
2019-04-03 21:09:27.61,71634668, 0.85, -16.57, 211.43, 593.869995117, -35.363364, 149.1651435, -0.269110530615, 0.136758312583, 0.0462020412087, 0.952230036259
2019-04-03 21:09:27.71,71734628, 0.94, -16.58, 211.21, 593.909973145, -35.3633671, 149.165141, -0.267329394817, 0.136682465672, 0.0466209985316, 0.952722132206
2019-04-03 21:09:27.81,71834588, 0.91, -16.57, 211.2, 593.950012207, -35.3633702, 149.1651384, -0.267217665911, 0.136719360948, 0.0463564246893, 0.952761054039
2019-04-03 21:09:27.91,71934548, 0.77, -16.56, 211.36, 593.979980469, -35.3633733, 149.1651358, -0.268452703953, 0.136902630329, 0.0454014539719, 0.952433466911
2019-04-03 21:09:28.01,72034508, 0.56, -16.55, 211.66, 594.020019531, -35.3633765, 149.1651331, -0.270642608404, 0.137188121676, 0.0439699999988, 0.951839625835
2019-04-03 21:09:28.11,72134468, 0.33, -16.56, 212.02, 594.049987793, -35.3633796, 149.1651306, -0.273377656937, 0.137659192085, 0.0425415933132, 0.951054573059
2019-04-03 21:09:28.21,72234428, 0.1, -16.6, 212.4, 594.090026855, -35.3633827, 149.1651279, -0.276230156422, 0.138393864036, 0.0411883406341, 0.950182914734
2019-04-03 21:09:28.31,72334388, -0.08, -16.66, 212.75, 594.130004883, -35.3633861, 149.1651253, -0.278865963221, 0.139235377312, 0.040109872818, 0.949335873127
2019-04-03 21:09:28.41,72434348, -0.23, -16.72, 213.04, 594.159973145, -35.3633893, 149.1651226, -0.281045407057, 0.13998773694, 0.0394133254886, 0.94861137867
2019-04-03 21:09:28.52,72535141, -0.31, -16.77, 213.24, 594.200012207, -35.3633926, 149.1651201, -0.282634288073, 0.140548735857, 0.0391074605286, 0.948068857193
2019-04-03 21:09:28.61,72635101, -0.34, -16.82, 213.36, 594.239990234, -35.3633958, 149.1651173, -0.283533930779, 0.14098238945, 0.0391369760036, 0.94773453474
2019-04-03 21:09:28.71,72735061, -0.33, -16.85, 213.39, 594.270019531, -35.363399, 149.1651148, -0.283787995577, 0.1412101686, 0.0393648557365, 0.947615146637
2019-04-03 21:09:28.81,72835021, -0.28, -16.85, 213.35, 594.309997559, -35.3634024, 149.165112, -0.283506035805, 0.141092032194, 0.0397169813514, 0.947702467442
2019-04-03 21:09:28.91,72934981, -0.2, -16.84, 213.25, 594.349975586, -35.3634057, 149.1651095, -0.282843232155, 0.140852063894, 0.0402271039784, 0.947914659977
2019-04-03 21:09:29.01,73034941, -0.11, -16.85, 213.13, 594.380004883, -35.363409, 149.1651068, -0.281946986914, 0.14073805511, 0.040858771652, 0.948171555996
2019-04-03 21:09:29.11,73134901, 0.0, -16.88, 213.0, 594.41998291, -35.3634124, 149.165104, -0.280987232924, 0.140746355057, 0.0416350699961, 0.948421418667
2019-04-03 21:09:29.21,73234861, 0.08, -16.92, 212.88, 594.450012207, -35.3634157, 149.1651014, -0.280093222857, 0.14093580842, 0.0423950403929, 0.948624014854
2019-04-03 21:09:29.31,73334821, 0.15, -16.96, 212.78, 594.489990234, -35.3634191, 149.1650987, -0.279351949692, 0.141143918037, 0.0428842417896, 0.948789656162
2019-04-03 21:09:29.41,73434781, 0.16, -16.99, 212.72, 594.530029297, -35.3634224, 149.1650961, -0.278819054365, 0.141365408897, 0.0430220067501, 0.948907196522
2019-04-03 21:09:29.51,73534741, 0.16, -17.0, 212.69, 594.559997559, -35.3634258, 149.1650933, -0.278570026159, 0.141507744789, 0.0429712198675, 0.948961436749
2019-04-03 21:09:29.61,73634701, 0.16, -17.01, 212.7, 594.599975586, -35.3634292, 149.1650905, -0.278622806072, 0.141522839665, 0.0429935716093, 0.94894272089
2019-04-03 21:09:29.71,73734661, 0.16, -17.01, 212.73, 594.640014648, -35.3634325, 149.1650879, -0.278933525085, 0.141505628824, 0.0430746860802, 0.948850274086
2019-04-03 21:09:29.81,73834621, 0.16, -17.03, 212.79, 594.66998291, -35.363436, 149.1650852, -0.279425024986, 0.141707062721, 0.043178781867, 0.948670864105
2019-04-03 21:09:29.91,73934581, 0.14, -17.07, 212.87, 594.710021973, -35.3634395, 149.1650824, -0.280026346445, 0.142049103975, 0.0432228334248, 0.948440372944
2019-04-03 21:09:30.01,74034541, 0.11, -17.11, 212.95, 594.75, -35.3634428, 149.1650797, -0.280657470226, 0.142405822873, 0.0431453101337, 0.948203861713
2019-04-03 21:09:30.11,74134501, 0.07, -17.13, 213.04, 594.780029297, -35.3634463, 149.1650769, -0.281270354986, 0.142611533403, 0.0429614335299, 0.947999596596
2019-04-03 21:09:30.21,74234461, 0.03, -17.15, 213.11, 594.820007324, -35.3634498, 149.1650742, -0.281839907169, 0.142846599221, 0.0428007952869, 0.947802305222
2019-04-03 21:09:30.31,74334421, 0.0, -17.17, 213.17, 594.849975586, -35.3634531, 149.1650713, -0.282327562571, 0.143097490072, 0.0426994301379, 0.94762390852
2019-04-03 21:09:30.41,74434381, 0.0, -17.19, 213.23, 594.890014648, -35.3634567, 149.1650687, -0.282734185457, 0.143220812082, 0.0427599437535, 0.947481274605
2019-04-03 21:09:30.51,74534341, 0.0, -17.2, 213.26, 594.929992676, -35.3634601, 149.1650659, -0.283008128405, 0.143327862024, 0.0428641065955, 0.947378635406
2019-04-03 21:09:30.62,74635134, 0.01, -17.23, 213.28, 594.960021973, -35.3634635, 149.1650631, -0.283169895411, 0.143554598093, 0.0430713966489, 0.947286486626
2019-04-03 21:09:30.71,74735094, 0.03, -17.27, 213.29, 595.0, -35.3634671, 149.1650603, -0.283241450787, 0.143818929791, 0.0433489233255, 0.947212398052
2019-04-03 21:09:30.81,74835054, 0.04, -17.3, 213.28, 595.039978027, -35.3634706, 149.1650575, -0.283239513636, 0.144047290087, 0.0434974990785, 0.947171449661
2019-04-03 21:09:30.91,74935014, 0.03, -17.33, 213.28, 595.070007324, -35.3634741, 149.1650546, -0.283183246851, 0.144278109074, 0.0434723608196, 0.947154283524
2019-04-03 21:09:31.01,75034974, 0.0, -17.35, 213.27, 595.109985352, -35.3634775, 149.1650518, -0.283080220222, 0.144570663571, 0.0432486571372, 0.947150707245
2019-04-03 21:09:31.11,75134934, 0.0, -17.38, 213.27, 595.150024414, -35.3634811, 149.1650491, -0.283023804426, 0.14478071034, 0.0432081744075, 0.947137355804
2019-04-03 21:09:31.21,75234894, 0.01, -17.4, 213.27, 595.179992676, -35.3634846, 149.1650463, -0.283045440912, 0.144931927323, 0.0434325560927, 0.947097480297
2019-04-03 21:09:31.31,75334854, 0.03, -17.42, 213.28, 595.219970703, -35.3634881, 149.1650435, -0.2831184268, 0.145084410906, 0.0436782464385, 0.947041034698
2019-04-03 21:09:31.41,75434814, 0.05, -17.44, 213.29, 595.260009766, -35.3634915, 149.1650406, -0.283237040043, 0.14518892765, 0.0439176112413, 0.946978449821
2019-04-03 21:09:31.51,75534774, 0.07, -17.45, 213.31, 595.289978027, -35.3634951, 149.1650378, -0.283405661583, 0.145135223866, 0.0441308543086, 0.946926355362
2019-04-03 21:09:31.61,75634734, 0.08, -17.46, 213.33, 595.33001709, -35.3634987, 149.165035, -0.283598214388, 0.145202100277, 0.0442633032799, 0.946852266788
2019-04-03 21:09:31.71,75734694, 0.08, -17.47, 213.35, 595.369995117, -35.3635022, 149.1650321, -0.283800721169, 0.145295858383, 0.0442904867232, 0.946775913239
2019-04-03 21:09:31.81,75834654, 0.05, -17.49, 213.38, 595.400024414, -35.3635058, 149.1650292, -0.283966481686, 0.145527526736, 0.0441492274404, 0.946697235107
2019-04-03 21:09:31.91,75934614, 0.0, -17.52, 213.41, 595.440002441, -35.3635092, 149.1650263, -0.284095197916, 0.14593437314, 0.0438127741218, 0.946611642838
2019-04-03 21:09:32.01,76034574, -0.04, -17.54, 213.43, 595.479980469, -35.3635128, 149.1650235, -0.284234702587, 0.146178454161, 0.0434816256166, 0.946547329426
2019-04-03 21:09:32.11,76134534, -0.06, -17.55, 213.45, 595.510009766, -35.3635164, 149.1650206, -0.28439155221, 0.146316722035, 0.0433594584465, 0.946484446526
2019-04-03 21:09:32.21,76234494, -0.08, -17.56, 213.48, 595.549987793, -35.36352, 149.1650177, -0.284544318914, 0.146449863911, 0.0433000139892, 0.946420669556
2019-04-03 21:09:32.31,76334454, -0.07, -17.58, 213.49, 595.590026855, -35.3635236, 149.1650149, -0.284695625305, 0.146547496319, 0.0433905757964, 0.946355879307
2019-04-03 21:09:32.41,76434414, -0.04, -17.59, 213.51, 595.619995117, -35.3635272, 149.165012, -0.284835964441, 0.146584376693, 0.0436887964606, 0.946294248104
2019-04-03 21:09:32.51,76534374, -0.02, -17.6, 213.52, 595.659973145, -35.3635307, 149.1650091, -0.284940361977, 0.146639764309, 0.0439020432532, 0.946244418621
2019-04-03 21:09:32.61,76634334, -0.02, -17.62, 213.52, 595.700012207, -35.3635343, 149.1650062, -0.284989088774, 0.146732762456, 0.0439543426037, 0.946212887764
2019-04-03 21:09:32.72,76735127, -0.03, -17.62, 213.53, 595.729980469, -35.363538, 149.1650033, -0.285009324551, 0.146747216582, 0.0438770204782, 0.946208059788
2019-04-03 21:09:32.81,76835087, -0.03, -17.61, 213.53, 595.770019531, -35.3635414, 149.1650004, -0.285037755966, 0.146688073874, 0.0438702404499, 0.946209013462
2019-04-03 21:09:32.91,76935047, -0.02, -17.63, 213.53, 595.809997559, -35.363545, 149.1649975, -0.285084456205, 0.146848857403, 0.0440557897091, 0.946161389351
2019-04-03 21:09:33.01,77035007, 0.01, -17.67, 213.54, 595.840026855, -35.3635487, 149.1649946, -0.285172849894, 0.147053092718, 0.0444694459438, 0.946083664894
2019-04-03 21:09:33.11,77134967, 0.05, -17.68, 213.55, 595.880004883, -35.3635523, 149.1649917, -0.285292714834, 0.146995782852, 0.0448337607086, 0.946039259434
2019-04-03 21:09:33.21,77234927, 0.08, -17.66, 213.56, 595.91998291, -35.3635559, 149.1649888, -0.285428464413, 0.146772861481, 0.0450019240379, 0.946024954319
2019-04-03 21:09:33.31,77334887, 0.08, -17.65, 213.57, 595.950012207, -35.3635595, 149.1649859, -0.285546422005, 0.146721184254, 0.0450562573969, 0.945994734764
2019-04-03 21:09:33.41,77434847, 0.05, -17.69, 213.59, 595.989990234, -35.3635632, 149.164983, -0.285609334707, 0.147109150887, 0.0448775999248, 0.945923984051
2019-04-03 21:09:33.51,77534807, 0.01, -17.75, 213.61, 596.030029297, -35.3635668, 149.16498, -0.285688698292, 0.14769884944, 0.0447862558067, 0.94581246376
2019-04-03 21:09:33.61,77634767, 0.0, -17.8, 213.62, 596.059997559, -35.3635704, 149.164977, -0.285789310932, 0.148109018803, 0.0447605326772, 0.945719182491
2019-04-03 21:09:33.71,77734727, -0.01, -17.81, 213.64, 596.099975586, -35.3635741, 149.1649742, -0.285899698734, 0.148265331984, 0.0447114780545, 0.945663630962
2019-04-03 21:09:33.81,77834687, -0.02, -17.79, 213.65, 596.140014648, -35.3635777, 149.1649713, -0.28601360321, 0.148087024689, 0.0445690266788, 0.945663809776
2019-04-03 21:09:33.91,77934647, -0.03, -17.74, 213.67, 596.16998291, -35.3635813, 149.1649683, -0.286119431257, 0.147742509842, 0.0443836450577, 0.945694446564
2019-04-03 21:09:34.01,78034607, -0.03, -17.71, 213.68, 596.210021973, -35.363585, 149.1649654, -0.286224335432, 0.147425726056, 0.0442931950092, 0.945716381073
2019-04-03 21:09:34.11,78134567, -0.02, -17.67, 213.69, 596.25, -35.3635886, 149.1649624, -0.286331772804, 0.147127822042, 0.0442977361381, 0.945730030537
2019-04-03 21:09:34.21,78234527, -0.01, -17.67, 213.7, 596.280029297, -35.3635922, 149.1649594, -0.286415040493, 0.147061750293, 0.0444242879748, 0.945709109306
2019-04-03 21:09:34.31,78334487, -0.01, -17.69, 213.7, 596.320007324, -35.3635959, 149.1649565, -0.286446899176, 0.147235244513, 0.0444614253938, 0.945670723915
2019-04-03 21:09:34.41,78434447, -0.01, -17.72, 213.7, 596.359985352, -35.3635995, 149.1649535, -0.286461532116, 0.147526830435, 0.0445344261825, 0.945617437363
2019-04-03 21:09:34.51,78534407, -0.02, -17.75, 213.71, 596.390014648, -35.3636032, 149.1649506, -0.286477029324, 0.147731944919, 0.0445484817028, 0.94558006525
2019-04-03 21:09:34.61,78634367, -0.03, -17.75, 213.71, 596.429992676, -35.3636068, 149.1649476, -0.286498367786, 0.147752568126, 0.0444648824632, 0.9455742836
2019-04-03 21:09:34.71,78734327, -0.06, -17.74, 213.72, 596.469970703, -35.3636105, 149.1649445, -0.286505490541, 0.147745221853, 0.0442325398326, 0.945584177971
2019-04-03 21:09:34.81,78835120, -0.07, -17.75, 213.72, 596.510009766, -35.3636141, 149.1649416, -0.286523282528, 0.147837430239, 0.0441230647266, 0.945569515228
2019-04-03 21:09:34.91,78935080, -0.08, -17.77, 213.73, 596.539978027, -35.3636178, 149.1649387, -0.286544054747, 0.148048087955, 0.0441266298294, 0.945530116558
2019-04-03 21:09:35.01,79035040, -0.08, -17.79, 213.73, 596.58001709, -35.3636214, 149.1649357, -0.286575525999, 0.148202449083, 0.0441539511085, 0.945495069027
2019-04-03 21:09:35.11,79135000, -0.07, -17.79, 213.74, 596.619995117, -35.3636251, 149.1649326, -0.286625981331, 0.148225352168, 0.0442635640502, 0.945471048355
2019-04-03 21:09:35.21,79234960, -0.05, -17.81, 213.74, 596.650024414, -35.3636288, 149.1649297, -0.286687940359, 0.14830429852, 0.0445063561201, 0.945428490639
2019-04-03 21:09:35.31,79334920, -0.02, -17.82, 213.75, 596.690002441, -35.3636324, 149.1649268, -0.286752343178, 0.148358151317, 0.0447650812566, 0.945388317108
2019-04-03 21:09:35.41,79434880, -0.01, -17.83, 213.75, 596.719970703, -35.3636361, 149.1649238, -0.286808401346, 0.148350059986, 0.0448989905417, 0.945366203785
2019-04-03 21:09:35.51,79534840, -0.01, -17.82, 213.76, 596.760009766, -35.3636397, 149.1649208, -0.286847829819, 0.148295551538, 0.0448879301548, 0.945363342762
2019-04-03 21:09:35.61,79634800, -0.01, -17.83, 213.76, 596.799987793, -35.3636434, 149.1649177, -0.286873847246, 0.148372679949, 0.0449073649943, 0.945342421532
2019-04-03 21:09:35.71,79734760, -0.01, -17.86, 213.76, 596.83001709, -35.3636471, 149.1649148, -0.286890685558, 0.148576751351, 0.0449617467821, 0.945302665234
2019-04-03 21:09:35.81,79834720, -0.01, -17.87, 213.77, 596.869995117, -35.3636507, 149.1649119, -0.286910861731, 0.148727342486, 0.0449778884649, 0.945272088051
2019-04-03 21:09:35.91,79934680, -0.04, -17.88, 213.77, 596.909973145, -35.3636544, 149.1649089, -0.286906212568, 0.148844614625, 0.0448207147419, 0.945262491703
2019-04-03 21:09:36.01,80034640, -0.05, -17.87, 213.77, 596.940002441, -35.363658, 149.1649058, -0.286908060312, 0.148765519261, 0.0446493811905, 0.945282518864
2019-04-03 21:09:36.11,80134600, -0.05, -17.84, 213.77, 596.979980469, -35.3636617, 149.1649028, -0.286932975054, 0.148581057787, 0.0446107946336, 0.945305764675
2019-04-03 21:09:36.21,80234560, -0.04, -17.82, 213.78, 597.020019531, -35.3636654, 149.1648999, -0.286978900433, 0.148387432098, 0.044673807919, 0.94531929493
2019-04-03 21:09:36.31,80334520, -0.02, -17.83, 213.78, 597.059997559, -35.363669, 149.1648967, -0.287022590637, 0.148380890489, 0.04480881989, 0.945300638676
2019-04-03 21:09:36.41,80434480, -0.02, -17.86, 213.78, 597.090026855, -35.3636727, 149.1648937, -0.287040352821, 0.14858789742, 0.0449180863798, 0.945257604122
2019-04-03 21:09:36.51,80534440, 0.0, -17.9, 213.78, 597.130004883, -35.3636764, 149.1648908, -0.287064135075, 0.148942291737, 0.0451928414404, 0.945181488991
2019-04-03 21:09:36.61,80634400, 0.0, -17.93, 213.79, 597.16998291, -35.3636802, 149.1648878, -0.287094831467, 0.149110287428, 0.0453662872314, 0.945137321949
2019-04-03 21:09:36.71,80734360, 0.01, -17.93, 213.79, 597.200012207, -35.3636839, 149.1648847, -0.287121236324, 0.149147853255, 0.0454415716231, 0.945119798183
2019-04-03 21:09:36.82,80835153, 0.01, -17.94, 213.79, 597.239990234, -35.3636876, 149.1648818, -0.287139832973, 0.149189591408, 0.0454748310149, 0.945105910301
2019-04-03 21:09:36.91,80935113, 0.01, -17.93, 213.79, 597.280029297, -35.3636913, 149.1648788, -0.287156134844, 0.149090707302, 0.0454138293862, 0.945119559765
2019-04-03 21:09:37.01,81035073, 0.0, -17.9, 213.8, 597.320007324, -35.363695, 149.1648756, -0.287183731794, 0.148893341422, 0.0453198179603, 0.945146799088
2019-04-03 21:09:37.11,81135033, 0.01, -17.88, 213.8, 597.349975586, -35.3636987, 149.1648727, -0.287213861942, 0.148717671633, 0.0452957861125, 0.945166409016
2019-04-03 21:09:37.21,81234993, 0.0, -17.87, 213.8, 597.390014648, -35.3637024, 149.1648697, -0.287231713533, 0.148603945971, 0.0452379733324, 0.945181667805
2019-04-03 21:09:37.31,81334953, 0.0, -17.87, 213.8, 597.429992676, -35.3637061, 149.1648667, -0.287237405777, 0.148642152548, 0.0452152006328, 0.945174992085
2019-04-03 21:09:37.41,81434913, 0.03, -17.91, 213.8, 597.460021973, -35.3637097, 149.1648636, -0.287265509367, 0.148883670568, 0.0455279350281, 0.945113420486
2019-04-03 21:09:37.51,81534873, 0.04, -17.94, 213.8, 597.5, -35.3637134, 149.1648606, -0.287287116051, 0.149097412825, 0.0457521565259, 0.945062339306
2019-04-03 21:09:37.61,81634833, 0.06, -17.95, 213.81, 597.539978027, -35.363717, 149.1648576, -0.287308722734, 0.149149343371, 0.0459003709257, 0.945040404797
2019-04-03 21:09:37.71,81734793, 0.07, -17.95, 213.81, 597.570007324, -35.3637207, 149.1648545, -0.287324160337, 0.149102687836, 0.0459522046149, 0.945040583611
2019-04-03 21:09:37.81,81834753, 0.06, -17.93, 213.81, 597.609985352, -35.3637244, 149.1648516, -0.287318915129, 0.148983553052, 0.0458562113345, 0.945065557957
2019-04-03 21:09:37.91,81934713, 0.05, -17.92, 213.8, 597.650024414, -35.3637282, 149.1648485, -0.287295818329, 0.148879870772, 0.04573552683, 0.945094764233
2019-04-03 21:09:38.01,82034673, 0.03, -17.92, 213.8, 597.679992676, -35.3637319, 149.1648454, -0.287242799997, 0.148940101266, 0.0455414243042, 0.945110797882
2019-04-03 21:09:38.11,82134633, 0.0, -17.92, 213.8, 597.719970703, -35.3637356, 149.1648424, -0.28718239069, 0.149052277207, 0.0453539900482, 0.945120513439
2019-04-03 21:09:38.21,82234593, 0.0, -17.92, 213.79, 597.75, -35.3637393, 149.1648394, -0.287136226892, 0.149091571569, 0.0452312491834, 0.945134222507
2019-04-03 21:09:38.31,82334553, 0.0, -17.91, 213.79, 597.789978027, -35.363743, 149.1648363, -0.287131547928, 0.148944139481, 0.045332338661, 0.94515401125
2019-04-03 21:09:38.41,82434513, 0.03, -17.89, 213.79, 597.83001709, -35.3637467, 149.1648333, -0.28712901473, 0.148717880249, 0.0454464666545, 0.94518494606
2019-04-03 21:09:38.51,82534473, 0.05, -17.88, 213.78, 597.859985352, -35.3637504, 149.1648303, -0.287128657103, 0.148610800505, 0.0456141382456, 0.945193827152
2019-04-03 21:09:38.61,82634433, 0.06, -17.89, 213.78, 597.900024414, -35.3637541, 149.1648272, -0.287116736174, 0.148609086871, 0.045736502856, 0.945191800594
2019-04-03 21:09:38.71,82734393, 0.07, -17.9, 213.78, 597.940002441, -35.3637578, 149.1648242, -0.287092596292, 0.148682788014, 0.0457953773439, 0.945184707642
2019-04-03 21:09:38.81,82834353, 0.05, -17.91, 213.77, 597.969970703, -35.3637614, 149.1648212, -0.28703981638, 0.148857206106, 0.0456848815084, 0.945178568363
2019-04-03 21:09:38.92,82935146, 0.04, -17.9, 213.77, 598.010009766, -35.3637653, 149.1648181, -0.287018716335, 0.148810699582, 0.0456231348217, 0.945195317268
2019-04-03 21:09:39.01,83035106, 0.06, -17.88, 213.77, 598.049987793, -35.363769, 149.164815, -0.287037611008, 0.148576274514, 0.0456805676222, 0.945223629475
2019-04-03 21:09:39.11,83135066, 0.07, -17.87, 213.77, 598.08001709, -35.3637727, 149.1648119, -0.287044525146, 0.148490414023, 0.0457285940647, 0.945232748985
2019-04-03 21:09:39.21,83235026, 0.06, -17.9, 213.77, 598.119995117, -35.3637764, 149.1648089, -0.287012755871, 0.148763373494, 0.0457071885467, 0.945200502872
2019-04-03 21:09:39.31,83334986, 0.04, -17.94, 213.77, 598.159973145, -35.3637801, 149.1648059, -0.286965191364, 0.149096518755, 0.0456419922411, 0.945165634155
2019-04-03 21:09:39.41,83434946, 0.03, -17.97, 213.76, 598.190002441, -35.3637838, 149.1648028, -0.286934107542, 0.149362459779, 0.0456902049482, 0.945130705833
2019-04-03 21:09:39.51,83534906, 0.06, -17.98, 213.76, 598.229980469, -35.3637875, 149.1647998, -0.28693318367, 0.149432048202, 0.045913271606, 0.945109188557
2019-04-03 21:09:39.61,83634866, 0.09, -17.98, 213.76, 598.270019531, -35.3637912, 149.1647968, -0.286941617727, 0.149375334382, 0.0461632013321, 0.945103466511
2019-04-03 21:09:39.71,83734826, 0.11, -17.98, 213.75, 598.299987793, -35.3637948, 149.1647937, -0.286926358938, 0.149305924773, 0.046295363456, 0.945112526417
2019-04-03 21:09:39.81,83834786, 0.1, -17.97, 213.75, 598.340026855, -35.3637985, 149.1647907, -0.286884397268, 0.149239733815, 0.0462555624545, 0.945137679577
2019-04-03 21:09:39.91,83934746, 0.1, -17.96, 213.74, 598.380004883, -35.3638022, 149.1647875, -0.286835074425, 0.1491830796, 0.0462028495967, 0.945164203644
2019-04-03 21:09:40.01,84034706, 0.09, -17.95, 213.74, 598.409973145, -35.3638059, 149.1647846, -0.286779493093, 0.149083212018, 0.0460641868412, 0.945203602314
2019-04-03 21:09:40.11,84134666, 0.08, -17.94, 213.73, 598.450012207, -35.3638097, 149.1647815, -0.286718100309, 0.149073585868, 0.0459762811661, 0.945227980614
2019-04-03 21:09:40.21,84234626, 0.08, -17.96, 213.72, 598.479980469, -35.3638135, 149.1647784, -0.286655455828, 0.149189770222, 0.0460263416171, 0.945226252079
2019-04-03 21:09:40.31,84334586, 0.08, -17.98, 213.72, 598.520019531, -35.3638172, 149.1647754, -0.286573976278, 0.149406194687, 0.0460029989481, 0.945217907429
2019-04-03 21:09:40.41,84434546, 0.05, -18.0, 213.71, 598.559997559, -35.3638209, 149.1647724, -0.286472827196, 0.14964966476, 0.045828320086, 0.94521856308
2019-04-03 21:09:40.51,84534506, 0.02, -18.0, 213.7, 598.590026855, -35.3638246, 149.1647693, -0.286387145519, 0.149667710066, 0.0455585978925, 0.945254683495
