Start,TimeUS,Roll,Pitch,Yaw,Alt,Lat,Lng,Q1,Q2,Q3,Q4
2019-04-03 21:26:30.30,72515982, 0.0, 0.0, 353.0, 584.090026855, -35.363261, 149.1652299, 0.998134791851, 0.0, 0.0, -0.0610485821962
2019-04-03 21:26:30.40,72615942, 0.0, 0.0, 353.0, 584.090026855, -35.363261, 149.1652299, 0.998134791851, 0.0, 0.0, -0.0610485821962
2019-04-03 21:26:30.49,72715902, 0.0, 0.0, 353.0, 584.090026855, -35.363261, 149.1652299, 0.998134791851, 0.0, 0.0, -0.0610485821962
2019-04-03 21:26:30.59,72815862, 0.0, 0.0, 353.0, 584.090026855, -35.363261, 149.1652299, 0.998134791851, 0.0, 0.0, -0.0610485821962
2019-04-03 21:26:30.69,72915822, 0.0, 0.0, 353.0, 584.090026855, -35.363261, 149.1652299, 0.998134791851, 0.0, 0.0, -0.0610485821962
2019-04-03 21:26:30.79,73015782, 0.0, 0.0, 353.0, 584.090026855, -35.363261, 149.1652299, 0.998134791851, 0.0, 0.0, -0.0610485821962
2019-04-03 21:26:30.89,73115742, 0.0, 0.0, 353.0, 584.090026855, -35.363261, 149.1652299, 0.998134791851, 0.0, 0.0, -0.0610485821962
2019-04-03 21:26:30.99,73215702, 0.0, 0.0, 353.0, 584.090026855, -35.363261, 149.1652299, 0.998134791851, 0.0, 0.0, -0.0610485821962
2019-04-03 21:26:31.09,73315662, 0.0, 0.0, 353.0, 584.090026855, -35.363261, 149.1652299, 0.998134791851, 0.0, 0.0, -0.0610485821962
2019-04-03 21:26:31.20,73416455, 0.0, 0.0, 353.0, 584.090026855, -35.363261, 149.1652299, 0.998134791851, 0.0, 0.0, -0.0610485821962
2019-04-03 21:26:31.30,73516415, 0.0, 0.0, 353.0, 584.090026855, -35.363261, 149.1652299, 0.998134791851, 0.0, 0.0, -0.0610485821962
2019-04-03 21:26:31.40,73616375, 0.0, 0.0, 353.0, 584.090026855, -35.363261, 149.1652299, 0.998134791851, 0.0, 0.0, -0.0610485821962
2019-04-03 21:26:31.50,73716335, 0.0, 0.0, 353.0, 584.090026855, -35.363261, 149.1652299, 0.998134791851, 0.0, 0.0, -0.0610485821962
2019-04-03 21:26:31.60,73816295, 0.0, 0.0, 353.0, 584.090026855, -35.363261, 149.1652299, 0.998134791851, 0.0, 0.0, -0.0610485821962
2019-04-03 21:26:31.70,73916255, 0.0, 0.0, 353.0, 584.090026855, -35.363261, 149.1652299, 0.998134791851, 0.0, 0.0, -0.0610485821962
2019-04-03 21:26:31.80,74016215, 0.0, 0.0, 353.0, 584.090026855, -35.363261, 149.1652299, 0.998134791851, 0.0, 0.0, -0.0610485821962
2019-04-03 21:26:31.90,74116175, 0.0, 0.0, 353.0, 584.090026855, -35.363261, 149.1652299, 0.998134791851, 0.0, 0.0, -0.0610485821962
2019-04-03 21:26:32.00,74216135, 0.0, 0.0, 353.0, 584.090026855, -35.363261, 149.1652299, 0.998134791851, 0.0, 0.0, -0.0610485821962
2019-04-03 21:26:32.10,74316095, 0.0, 0.0, 353.0, 584.090026855, -35.363261, 149.1652299, 0.998134791851, 0.0, 0.0, -0.0610485821962
2019-04-03 21:26:32.20,74416055, 0.0, 0.0, 353.0, 584.090026855, -35.363261, 149.1652299, 0.998134791851, 0.0, 0.0, -0.0610485821962
2019-04-03 21:26:32.30,74516015, 0.0, 0.0, 353.0, 584.090026855, -35.363261, 149.1652299, 0.998134791851, 0.0, 0.0, -0.0610485821962
2019-04-03 21:26:32.40,74615975, 0.0, 0.0, 353.0, 584.090026855, -35.363261, 149.1652299, 0.998134791851, 0.0, 0.0, -0.0610485821962
2019-04-03 21:26:32.49,74715935, 0.0, 0.0, 353.0, 584.090026855, -35.363261, 149.1652299, 0.998134791851, 0.0, 0.0, -0.0610485821962
2019-04-03 21:26:32.59,74815895, 0.0, 0.0, 353.0, 584.090026855, -35.363261, 149.1652299, 0.998134791851, 0.0, 0.0, -0.0610485821962
2019-04-03 21:26:32.69,74915855, 0.0, 0.0, 353.0, 584.090026855, -35.363261, 149.1652299, 0.998134791851, 0.0, 0.0, -0.0610485821962
2019-04-03 21:26:32.79,75015815, 0.0, 0.0, 353.0, 584.090026855, -35.363261, 149.1652299, 0.998134791851, 0.0, 0.0, -0.0610485933721
2019-04-03 21:26:32.89,75115775, 0.0, 0.0, 353.0, 584.090026855, -35.363261, 149.1652299, 0.998134791851, 0.0, 0.0, -0.0610486753285
2019-04-03 21:26:32.99,75215735, 0.0, 0.0, 353.0, 584.090026855, -35.363261, 149.1652299, 0.998134791851, 0.0, 0.0, -0.0610486753285
2019-04-03 21:26:33.09,75315695, 0.0, 0.0, 353.0, 584.090026855, -35.363261, 149.1652299, 0.998134791851, 0.0, 0.0, -0.0610486753285
2019-04-03 21:26:33.20,75416488, 0.0, 0.0, 353.0, 584.090026855, -35.363261, 149.1652299, 0.998134791851, 0.0, 0.0, -0.0610486753285
2019-04-03 21:26:33.30,75516448, 0.0, 0.0, 353.0, 584.090026855, -35.363261, 149.1652299, 0.998134791851, 0.0, 0.0, -0.0610486753285
2019-04-03 21:26:33.40,75616408, 0.0, 0.0, 353.0, 584.090026855, -35.363261, 149.1652299, 0.998134791851, 0.0, 0.0, -0.0610486753285
2019-04-03 21:26:33.50,75716368, 0.0, 0.0, 353.0, 584.099975586, -35.363261, 149.1652299, 0.998134791851, 0.0, 0.0, -0.0610486753285
2019-04-03 21:26:33.60,75816328, 0.0, 0.0, 353.0, 584.099975586, -35.363261, 149.1652299, 0.998134791851, 0.0, 0.0, -0.0610486753285
2019-04-03 21:26:33.70,75916288, 0.0, 0.0, 353.0, 584.109985352, -35.363261, 149.1652299, 0.998134791851, 0.0, 0.0, -0.0610486753285
2019-04-03 21:26:33.80,76016248, 0.0, 0.0, 353.0, 584.130004883, -35.363261, 149.1652299, 0.998134791851, 0.0, 0.0, -0.0610486753285
2019-04-03 21:26:33.90,76116208, 0.0, 0.0, 353.0, 584.150024414, -35.363261, 149.1652299, 0.998134791851, 0.0, 0.0, -0.0610486753285
2019-04-03 21:26:34.00,76216168, 0.0, 0.0, 353.0, 584.190002441, -35.363261, 149.1652299, 0.998134791851, 0.0, 0.0, -0.0610486753285
2019-04-03 21:26:34.10,76316128, 0.0, 0.0, 352.99, 584.229980469, -35.363261, 149.1652299, 0.998134791851, -6.03493244853e-05, -6.17423866061e-05, -0.0610493682325
2019-04-03 21:26:34.20,76416088, -0.06, -0.05, 352.99, 584.309997559, -35.363261, 149.1652299, 0.998133659363, -0.000574583944399, -0.000425333913881, -0.061063002795
2019-04-03 21:26:34.30,76516048, -0.15, -0.12, 352.99, 584.440002441, -35.363261, 149.1652299, 0.998130679131, -0.00138731114566, -0.00100739265326, -0.0610924959183
2019-04-03 21:26:34.40,76616008, -0.23, -0.19, 352.99, 584.590026855, -35.363261, 149.1652299, 0.998126447201, -0.00212271790951, -0.00157203432173, -0.0611283220351
2019-04-03 21:26:34.50,76715968, -0.26, -0.21, 352.98, 584.75, -35.363261, 149.1652299, 0.998123288155, -0.00245176628232, -0.00172087154351, -0.0611633397639
2019-04-03 21:26:34.59,76815928, -0.25, -0.18, 352.98, 584.900024414, -35.363261, 149.1652299, 0.998121917248, -0.00233568949625, -0.00149342219811, -0.0611955560744
2019-04-03 21:26:34.69,76915888, -0.18, -0.15, 352.98, 585.049987793, -35.363261, 149.1652299, 0.998121976852, -0.00170249573421, -0.00125254667364, -0.0612209960818
2019-04-03 21:26:34.79,77015848, -0.07, -0.13, 352.97, 585.200012207, -35.363261, 149.1652299, 0.99812245369, -0.000744879362173, -0.00110813113861, -0.0612351484597
2019-04-03 21:26:34.89,77115808, 0.03, -0.08, 352.97, 585.369995117, -35.363261, 149.1652298, 0.998122572899, 0.000252630969044, -0.000731520645786, -0.0612429492176
2019-04-03 21:26:34.99,77215768, 0.1, -0.01, 352.97, 585.539978027, -35.363261, 149.1652298, 0.998122274876, 0.000903001753613, -0.0002102535218, -0.0612454302609
2019-04-03 21:26:35.09,77315728, 0.13, 0.02, 352.97, 585.710021973, -35.363261, 149.1652298, 0.998122394085, 0.00115295301657, 0.000190960810869, -0.061239130795
2019-04-03 21:26:35.19,77415688, 0.09, 0.02, 352.97, 585.890014648, -35.363261, 149.1652298, 0.998123526573, 0.000843267131131, 0.000144121906487, -0.0612262263894
2019-04-03 21:26:35.30,77516481, 0.04, -0.03, 352.97, 586.070007324, -35.363261, 149.1652298, 0.998123943806, 0.000412785127992, -0.00028881925391, -0.0612235367298
2019-04-03 21:26:35.40,77616441, 0.01, -0.08, 352.98, 586.260009766, -35.3632609, 149.1652298, 0.99812412262, 4.63895812572e-05, -0.000776605447754, -0.0612179562449
2019-04-03 21:26:35.50,77716401, 0.0, -0.11, 352.98, 586.450012207, -35.3632609, 149.1652298, 0.998123824596, -3.70705820387e-05, -0.000985376886092, -0.0612196847796
2019-04-03 21:26:35.60,77816361, 0.0, -0.09, 352.98, 586.650024414, -35.3632609, 149.1652298, 0.99812400341, -2.37654257944e-05, -0.00084394600708, -0.0612188018858
2019-04-03 21:26:35.70,77916321, 0.0, -0.05, 352.98, 586.840026855, -35.3632609, 149.1652298, 0.998124480247, -4.40958465333e-05, -0.000450958294095, -0.0612151287496
2019-04-03 21:26:35.80,78016281, -0.01, 0.0, 352.98, 587.039978027, -35.3632609, 149.1652298, 0.998124420643, -9.65254585026e-05, -1.89416150533e-05, -0.0612179711461
2019-04-03 21:26:35.90,78116241, -0.01, 0.04, 352.97, 587.25, -35.3632609, 149.1652298, 0.998123764992, -0.000101424651803, 0.000431746128015, -0.0612266995013
2019-04-03 21:26:36.00,78216201, 0.0, 0.08, 352.97, 587.450012207, -35.3632609, 149.1652298, 0.998122274876, 3.76010029868e-05, 0.000713526154868, -0.0612492449582
2019-04-03 21:26:36.10,78316161, 0.0, 0.08, 352.97, 587.650024414, -35.3632609, 149.1652298, 0.998120427132, 4.07518273278e-05, 0.000765272881836, -0.0612787529826
2019-04-03 21:26:36.20,78416121, -0.01, 0.07, 352.97, 587.859985352, -35.3632609, 149.1652298, 0.998118698597, -7.16642971383e-05, 0.000663395563606, -0.0613071322441
2019-04-03 21:26:36.30,78516081, -0.03, 0.06, 352.96, 588.070007324, -35.3632609, 149.1652298, 0.998117864132, -0.000285698508378, 0.000544648908544, -0.0613221116364
2019-04-03 21:26:36.40,78616041, -0.05, 0.07, 352.96, 588.280029297, -35.3632609, 149.1652298, 0.998117148876, -0.000468994578114, 0.000707900442649, -0.0613307729363
2019-04-03 21:26:36.50,78716001, -0.09, 0.09, 352.96, 588.479980469, -35.3632609, 149.1652298, 0.99811643362, -0.000768447003793, 0.000914592004847, -0.0613369755447
2019-04-03 21:26:36.60,78815961, -0.12, 0.09, 352.96, 588.679992676, -35.3632609, 149.1652298, 0.998115897179, -0.00107936398126, 0.000916849763598, -0.0613404735923
2019-04-03 21:26:36.69,78915921, -0.14, 0.07, 352.96, 588.859985352, -35.3632609, 149.1652298, 0.99811565876, -0.00123876065481, 0.000699070515111, -0.0613445490599
2019-04-03 21:26:36.79,79015881, -0.14, 0.03, 352.96, 589.039978027, -35.3632609, 149.1652298, 0.998115062714, -0.00127824640367, 0.000392750458559, -0.0613558404148
2019-04-03 21:26:36.89,79115841, -0.15, 0.0, 352.96, 589.200012207, -35.3632609, 149.1652297, 0.998114228249, -0.00131574145053, 0.000124003097881, -0.06136963889
2019-04-03 21:26:36.99,79215801, -0.28, -0.08, 352.96, 589.349975586, -35.3632609, 149.1652297, 0.998110592365, -0.00248701451346, -0.000615544384345, -0.0613899715245
2019-04-03 21:26:37.09,79315761, -0.67, -0.27, 352.95, 589.489990234, -35.3632609, 149.1652297, 0.998092472553, -0.00598992593586, -0.0020558508113, -0.0614114254713
2019-04-03 21:26:37.19,79415721, -1.34, -0.56, 352.96, 589.619995117, -35.3632609, 149.1652297, 0.998029708862, -0.0120154134929, -0.00419118721038, -0.0614388547838
2019-04-03 21:26:37.29,79515681, -2.23, -0.9, 352.96, 589.729980469, -35.3632609, 149.1652296, 0.997885763645, -0.0199856758118, -0.00669650407508, -0.0614801570773
2019-04-03 21:26:37.40,79616474, -3.25, -1.3, 352.97, 589.83001709, -35.3632609, 149.1652294, 0.997636556625, -0.0290136709809, -0.00963691808283, -0.0615360736847
2019-04-03 21:26:37.50,79716434, -4.21, -1.71, 352.99, 589.91998291, -35.3632608, 149.1652293, 0.997310340405, -0.0375877246261, -0.0126635581255, -0.0616356246173
2019-04-03 21:26:37.60,79816394, -5.0, -2.04, 352.99, 590.0, -35.3632608, 149.1652292, 0.996972858906, -0.0446971133351, -0.015113552101, -0.0617969930172
2019-04-03 21:26:37.70,79916354, -5.61, -2.27, 352.99, 590.059997559, -35.3632607, 149.1652289, 0.996676623821, -0.0500597320497, -0.0168393496424, -0.0620178095996
2019-04-03 21:26:37.80,80016314, -6.04, -2.44, 352.97, 590.119995117, -35.3632607, 149.1652284, 0.996437430382, -0.0539484545588, -0.0180084165186, -0.0622714273632
2019-04-03 21:26:37.90,80116274, -6.37, -2.55, 352.95, 590.179992676, -35.3632605, 149.1652281, 0.996242105961, -0.0568924173713, -0.0188423898071, -0.0625299066305
2019-04-03 21:26:38.00,80216234, -6.67, -2.66, 352.94, 590.219970703, -35.3632604, 149.1652274, 0.996059060097, -0.0595080889761, -0.0196107849479, -0.0627741739154
2019-04-03 21:26:38.10,80316194, -6.98, -2.8, 352.93, 590.270019531, -35.3632603, 149.1652269, 0.995857596397, -0.0622613541782, -0.0205952748656, -0.0629842951894
2019-04-03 21:26:38.20,80416154, -7.32, -2.95, 352.92, 590.299987793, -35.3632601, 149.1652262, 0.995624423027, -0.0653225854039, -0.0217823330313, -0.0631702318788
2019-04-03 21:26:38.30,80516114, -7.61, -3.11, 352.92, 590.340026855, -35.3632599, 149.1652253, 0.995413243771, -0.0679227337241, -0.0229848958552, -0.0633305758238
2019-04-03 21:26:38.40,80616074, -7.82, -3.22, 352.92, 590.369995117, -35.3632598, 149.1652244, 0.995255947113, -0.0697814300656, -0.0237767025828, -0.063489317894
2019-04-03 21:26:38.50,80716034, -7.95, -3.27, 352.91, 590.400024414, -35.3632595, 149.1652234, 0.995153427124, -0.0709595009685, -0.024193815887, -0.0636323392391
2019-04-03 21:26:38.60,80815994, -8.03, -3.32, 352.9, 590.41998291, -35.3632592, 149.1652222, 0.995085835457, -0.0717028081417, -0.0245120804757, -0.0637338459492
2019-04-03 21:26:38.70,80915954, -8.12, -3.33, 352.89, 590.450012207, -35.363259, 149.1652212, 0.995025932789, -0.0724344477057, -0.0246028956026, -0.0638065412641
2019-04-03 21:26:38.79,81015914, -8.25, -3.34, 352.89, 590.469970703, -35.3632587, 149.1652198, 0.994936585426, -0.0735849812627, -0.0246394351125, -0.06386962533
2019-04-03 21:26:38.89,81115874, -8.53, -3.23, 352.75, 590.489990234, -35.3632585, 149.1652186, 0.994705915451, -0.0759923830628, -0.0233773738146, -0.0651061609387
2019-04-03 21:26:38.99,81215834, -9.03, -2.93, 351.91, 590.520019531, -35.3632582, 149.1652171, 0.993944525719, -0.0803224518895, -0.0198965948075, -0.0722955688834
2019-04-03 21:26:39.09,81315794, -9.62, -2.72, 349.68, 590.539978027, -35.3632579, 149.1652155, 0.991983234882, -0.0856825113297, -0.0160217378289, -0.0914938077331
2019-04-03 21:26:39.19,81415754, -10.04, -2.97, 345.83, 590.559997559, -35.3632576, 149.165214, 0.987935483456, -0.0900854244828, -0.0148932822049, -0.12508533895
2019-04-03 21:26:39.29,81515714, -10.13, -3.84, 340.46, 590.58001709, -35.3632573, 149.1652123, 0.980591118336, -0.0926976129413, -0.017911395058, -0.171835437417
2019-04-03 21:26:39.39,81615674, -9.76, -5.24, 333.84, 590.599975586, -35.363257, 149.1652105, 0.968633890152, -0.0931687355042, -0.0251701883972, -0.228985711932
2019-04-03 21:26:39.50,81716467, -8.87, -7.05, 326.2, 590.630004883, -35.3632567, 149.1652086, 0.95075827837, -0.0917398035526, -0.0361956767738, -0.293823808432
2019-04-03 21:26:39.60,81816427, -7.47, -8.98, 317.91, 590.650024414, -35.3632565, 149.1652067, 0.92664539814, -0.0887333750725, -0.0495942533016, -0.361932605505
2019-04-03 21:26:39.70,81916387, -5.6, -10.78, 309.2, 590.679992676, -35.3632561, 149.1652045, 0.896292507648, -0.0842879191041, -0.0639314576983, -0.430660039186
2019-04-03 21:26:39.80,82016347, -3.41, -12.25, 300.33, 590.700012207, -35.3632559, 149.1652024, 0.860589027405, -0.0787329375744, -0.0777967348695, -0.497127056122
2019-04-03 21:26:39.90,82116307, -1.01, -13.2, 291.65, 590.729980469, -35.3632555, 149.1652001, 0.82126480341, -0.0718950256705, -0.090199649334, -0.558765947819
2019-04-03 21:26:40.00,82216267, 1.64, -13.61, 283.66, 590.760009766, -35.3632552, 149.1651977, 0.78161752224, -0.0620577335358, -0.102002128959, -0.61222422123
2019-04-03 21:26:40.10,82316227, 4.27, -13.54, 277.11, 590.789978027, -35.3632548, 149.1651953, 0.746781766415, -0.050235427916, -0.112807117403, -0.653504431248
2019-04-03 21:26:40.20,82416187, 6.38, -13.19, 272.55, 590.820007324, -35.3632543, 149.1651927, 0.721205830574, -0.0392894931138, -0.121131263673, -0.680915415287
2019-04-03 21:26:40.30,82516147, 7.65, -12.85, 270.05, 590.849975586, -35.3632537, 149.1651901, 0.706724107265, -0.0320364497602, -0.125900581479, -0.695459425449
2019-04-03 21:26:40.40,82616107, 7.94, -12.71, 269.4, 590.880004883, -35.3632531, 149.1651873, 0.70285063982, -0.0300624631345, -0.126629322767, -0.699329912663
2019-04-03 21:26:40.50,82716067, 7.32, -12.84, 270.22, 590.91998291, -35.3632523, 149.1651846, 0.707673430443, -0.0337909422815, -0.123860031366, -0.694777071476
2019-04-03 21:26:40.60,82816027, 5.96, -13.24, 272.16, 590.950012207, -35.3632514, 149.1651817, 0.718711495399, -0.0426526926458, -0.118792034686, -0.683756530285
2019-04-03 21:26:40.70,82915987, 4.15, -13.81, 274.85, 590.989990234, -35.3632507, 149.1651788, 0.733527779579, -0.0547757707536, -0.112862281501, -0.667981088161
2019-04-03 21:26:40.80,83015947, 2.2, -14.42, 277.96, 591.030029297, -35.3632498, 149.1651757, 0.749968826771, -0.0680206939578, -0.107220418751, -0.6491715312
2019-04-03 21:26:40.89,83115907, 0.31, -14.95, 281.16, 591.070007324, -35.3632488, 149.1651727, 0.766188383102, -0.0805232748389, -0.102257363498, -0.629297077656
2019-04-03 21:26:40.99,83215867, -1.31, -15.32, 284.1, 591.109985352, -35.363248, 149.1651695, 0.780553758144, -0.0909924805164, -0.0981586426497, -0.610590815544
2019-04-03 21:26:41.09,83315827, -2.55, -15.5, 286.49, 591.150024414, -35.363247, 149.1651661, 0.791914463043, -0.0984133705497, -0.0948734655976, -0.595134675503
2019-04-03 21:26:41.19,83415787, -3.28, -15.53, 288.13, 591.190002441, -35.3632463, 149.1651628, 0.79969727993, -0.10228753835, -0.0927633270621, -0.584308564663
2019-04-03 21:26:41.29,83515747, -3.5, -15.49, 288.97, 591.229980469, -35.3632455, 149.1651594, 0.803780734539, -0.102930948138, -0.0920439809561, -0.578679263592
2019-04-03 21:26:41.39,83615707, -3.3, -15.43, 289.04, 591.270019531, -35.3632446, 149.1651559, 0.804393768311, -0.101152226329, -0.0927678719163, -0.578025102615
2019-04-03 21:26:41.49,83715667, -2.77, -15.43, 288.48, 591.309997559, -35.3632439, 149.1651522, 0.802031517029, -0.0978933647275, -0.0949370414019, -0.581506073475
2019-04-03 21:26:41.60,83816460, -2.04, -15.5, 287.46, 591.349975586, -35.3632432, 149.1651484, 0.797352313995, -0.0940040647984, -0.0982712507248, -0.587992608547
2019-04-03 21:26:41.70,83916420, -1.22, -15.6, 286.19, 591.390014648, -35.3632424, 149.1651448, 0.791313111782, -0.089996278286, -0.102190621197, -0.596054792404
2019-04-03 21:26:41.80,84016380, -0.41, -15.71, 284.84, 591.429992676, -35.3632416, 149.165141, 0.784785985947, -0.0862432271242, -0.1061764732, -0.60448294878
2019-04-03 21:26:41.90,84116340, 0.28, -15.81, 283.59, 591.469970703, -35.3632409, 149.165137, 0.778591096401, -0.0831449255347, -0.109673589468, -0.612253665924
2019-04-03 21:26:42.00,84216300, 0.84, -15.9, 282.57, 591.510009766, -35.3632401, 149.1651331, 0.773403048515, -0.080829501152, -0.112533465028, -0.618587553501
2019-04-03 21:26:42.10,84316260, 1.2, -15.97, 281.84, 591.549987793, -35.3632394, 149.1651292, 0.76965290308, -0.0795372352004, -0.114430487156, -0.623068213463
2019-04-03 21:26:42.20,84416220, 1.34, -16.02, 281.44, 591.590026855, -35.3632385, 149.1651252, 0.767532527447, -0.0792873203754, -0.11525361985, -0.625558912754
2019-04-03 21:26:42.30,84516180, 1.29, -16.04, 281.36, 591.630004883, -35.3632377, 149.1651211, 0.767023563385, -0.0798067077994, -0.115062743425, -0.62615197897
2019-04-03 21:26:42.40,84616140, 1.1, -16.05, 281.54, 591.66998291, -35.3632368, 149.1651171, 0.767882108688, -0.0809134170413, -0.114227503538, -0.625109732151
2019-04-03 21:26:42.50,84716100, 0.82, -16.06, 281.92, 591.710021973, -35.363236, 149.165113, 0.769732475281, -0.0824856087565, -0.113033249974, -0.622841536999
2019-04-03 21:26:42.60,84816060, 0.51, -16.09, 282.42, 591.760009766, -35.3632351, 149.1651087, 0.772171735764, -0.0842128619552, -0.111875548959, -0.619792580605
2019-04-03 21:26:42.70,84916020, 0.21, -16.13, 282.95, 591.799987793, -35.3632342, 149.1651046, 0.774796783924, -0.0859199464321, -0.110929213464, -0.616443395615
2019-04-03 21:26:42.80,85015980, -0.04, -16.19, 283.46, 591.840026855, -35.3632334, 149.1651003, 0.777250885963, -0.0875262692571, -0.110341586173, -0.613224983215
2019-04-03 21:26:42.89,85115940, -0.26, -16.25, 283.88, 591.880004883, -35.3632324, 149.1650961, 0.779286682606, -0.0889917016029, -0.109914809465, -0.610501050949
2019-04-03 21:26:42.99,85215900, -0.44, -16.3, 284.19, 591.91998291, -35.3632316, 149.1650917, 0.780759215355, -0.090168222785, -0.109545409679, -0.608510196209
2019-04-03 21:26:43.09,85315860, -0.55, -16.33, 284.38, 591.960021973, -35.3632306, 149.1650874, 0.781625509262, -0.0908594876528, -0.10926348716, -0.60734474659
2019-04-03 21:26:43.19,85415820, -0.56, -16.33, 284.44, 592.010009766, -35.3632298, 149.1650829, 0.78192538023, -0.0909219682217, -0.109284207225, -0.606945574284
2019-04-03 21:26:43.29,85515780, -0.49, -16.33, 284.39, 592.049987793, -35.3632288, 149.1650785, 0.781731545925, -0.090463668108, -0.109660021961, -0.607195854187
2019-04-03 21:26:43.39,85615740, -0.38, -16.34, 284.26, 592.090026855, -35.3632281, 149.1650741, 0.781116485596, -0.0899081900716, -0.110197305679, -0.607972145081
2019-04-03 21:26:43.49,85715700, -0.26, -16.37, 284.08, 592.130004883, -35.3632272, 149.1650697, 0.780225455761, -0.0894022583961, -0.110917404294, -0.609058976173
2019-04-03 21:26:43.59,85815660, -0.13, -16.42, 283.88, 592.16998291, -35.3632263, 149.1650651, 0.779215097427, -0.0889538004994, -0.111765109003, -0.610261917114
2019-04-03 21:26:43.70,85916453, -0.01, -16.49, 283.69, 592.219970703, -35.3632254, 149.1650606, 0.778199493885, -0.0887138620019, -0.112773925066, -0.61140614748
2019-04-03 21:26:43.80,86016413, 0.08, -16.58, 283.52, 592.260009766, -35.3632245, 149.165056, 0.777313053608, -0.0886795967817, -0.113692514598, -0.612367868423
2019-04-03 21:26:43.90,86116373, 0.14, -16.62, 283.4, 592.299987793, -35.3632236, 149.1650515, 0.776673138142, -0.088594801724, -0.11421726644, -0.613093972206
2019-04-03 21:26:44.00,86216333, 0.17, -16.63, 283.33, 592.340026855, -35.3632227, 149.1650469, 0.776310741901, -0.0885166823864, -0.114403836429, -0.613529324532
2019-04-03 21:26:44.10,86316293, 0.17, -16.63, 283.31, 592.380004883, -35.3632216, 149.1650422, 0.776202261448, -0.0885688140988, -0.114350780845, -0.613668859005
2019-04-03 21:26:44.20,86416253, 0.12, -16.63, 283.34, 592.41998291, -35.3632208, 149.1650377, 0.776297450066, -0.088892146945, -0.114177338779, -0.613534033298
2019-04-03 21:26:44.30,86516213, 0.06, -16.65, 283.4, 592.469970703, -35.3632199, 149.165033, 0.776560544968, -0.0892991870642, -0.114012762904, -0.613172471523
2019-04-03 21:26:44.40,86616173, 0.02, -16.67, 283.48, 592.510009766, -35.3632189, 149.1650283, 0.776943266392, -0.0896419510245, -0.113961853087, -0.61264693737
2019-04-03 21:26:44.50,86716133, -0.02, -16.7, 283.57, 592.549987793, -35.3632179, 149.1650237, 0.777374386787, -0.0899791121483, -0.114005841315, -0.612042069435
2019-04-03 21:26:44.60,86816093, -0.04, -16.73, 283.66, 592.590026855, -35.3632171, 149.165019, 0.777812480927, -0.0902146920562, -0.114145763218, -0.611424386501
2019-04-03 21:26:44.70,86916053, -0.05, -16.75, 283.74, 592.640014648, -35.363216, 149.1650143, 0.77820956707, -0.090343259275, -0.114307522774, -0.610869705677
2019-04-03 21:26:44.80,87016013, -0.04, -16.79, 283.8, 592.679992676, -35.3632152, 149.1650095, 0.778509140015, -0.0904411748052, -0.114702500403, -0.61039930582
2019-04-03 21:26:44.90,87115973, -0.03, -16.82, 283.85, 592.719970703, -35.3632142, 149.1650048, 0.778718352318, -0.0904672071338, -0.115028470755, -0.610067129135
2019-04-03 21:26:44.99,87215933, -0.02, -16.84, 283.87, 592.760009766, -35.3632133, 149.165, 0.778844058514, -0.0904519855976, -0.115165643394, -0.609882950783
2019-04-03 21:26:45.09,87315893, -0.02, -16.84, 283.88, 592.809997559, -35.3632123, 149.1649952, 0.778878748417, -0.0904905125499, -0.115210577846, -0.609824478626
2019-04-03 21:26:45.19,87415853, -0.03, -16.86, 283.88, 592.849975586, -35.3632114, 149.1649904, 0.77883285284, -0.0906124040484, -0.115268334746, -0.609854102135
2019-04-03 21:26:45.29,87515813, -0.04, -16.88, 283.86, 592.890014648, -35.3632104, 149.1649856, 0.778720974922, -0.0908516943455, -0.115326471627, -0.609950363636
2019-04-03 21:26:45.39,87615773, -0.05, -16.91, 283.84, 592.929992676, -35.3632094, 149.1649808, 0.778583407402, -0.0910409837961, -0.115495301783, -0.610065877438
2019-04-03 21:26:45.49,87715733, -0.03, -16.94, 283.82, 592.979980469, -35.3632085, 149.1649759, 0.778464138508, -0.0911039561033, -0.115772724152, -0.61015599966
2019-04-03 21:26:45.59,87815693, -0.01, -16.97, 283.81, 593.020019531, -35.3632075, 149.1649711, 0.778356552124, -0.0911878272891, -0.11610031873, -0.610218524933
2019-04-03 21:26:45.70,87916486, 0.0, -17.02, 283.8, 593.059997559, -35.3632066, 149.1649661, 0.778267621994, -0.0913682058454, -0.116408392787, -0.610246300697
2019-04-03 21:26:45.80,88016446, 0.0, -17.04, 283.79, 593.109985352, -35.3632056, 149.1649612, 0.778236269951, -0.0914775580168, -0.116608671844, -0.61023157835
2019-04-03 21:26:45.90,88116406, 0.01, -17.07, 283.8, 593.150024414, -35.3632045, 149.1649564, 0.778250455856, -0.091499760747, -0.116932213306, -0.610148310661
2019-04-03 21:26:46.00,88216366, 0.03, -17.11, 283.81, 593.190002441, -35.3632037, 149.1649515, 0.778293609619, -0.0915574580431, -0.117304861546, -0.610013008118
2019-04-03 21:26:46.10,88316326, 0.03, -17.14, 283.83, 593.229980469, -35.3632026, 149.1649465, 0.77835214138, -0.0917507335544, -0.117513217032, -0.60986918211
2019-04-03 21:26:46.20,88416286, 0.02, -17.18, 283.85, 593.280029297, -35.3632017, 149.1649416, 0.778429746628, -0.0919521152973, -0.117726668715, -0.609698653221
2019-04-03 21:26:46.30,88516246, 0.01, -17.2, 283.88, 593.320007324, -35.3632007, 149.1649368, 0.778525769711, -0.0920979008079, -0.117820613086, -0.609535813332
2019-04-03 21:26:46.40,88616206, 0.0, -17.2, 283.9, 593.359985352, -35.3631997, 149.1649319, 0.778637826443, -0.092137992382, -0.117860935628, -0.609378814697
2019-04-03 21:26:46.50,88716166, 0.01, -17.2, 283.92, 593.409973145, -35.3631988, 149.1649268, 0.778751790524, -0.0921037346125, -0.117898195982, -0.609231173992
2019-04-03 21:26:46.60,88816126, 0.0, -17.21, 283.94, 593.450012207, -35.3631978, 149.164922, 0.77884209156, -0.0921202674508, -0.117913842201, -0.609110176563
2019-04-03 21:26:46.70,88916086, 0.0, -17.2, 283.95, 593.489990234, -35.3631968, 149.164917, 0.778919696808, -0.0920958593488, -0.117834493518, -0.609029948711
2019-04-03 21:26:46.80,89016046, -0.01, -17.2, 283.96, 593.530029297, -35.3631958, 149.1649119, 0.778954267502, -0.0922538787127, -0.117747291923, -0.608978688717
2019-04-03 21:26:46.90,89116006, -0.04, -17.22, 283.97, 593.58001709, -35.3631947, 149.164907, 0.778958320618, -0.0924943611026, -0.11775919795, -0.608934760094
2019-04-03 21:26:47.00,89215966, -0.04, -17.25, 283.98, 593.619995117, -35.3631938, 149.1649019, 0.778945207596, -0.0927238538861, -0.117955714464, -0.608878552914
2019-04-03 21:26:47.09,89315926, -0.05, -17.3, 283.98, 593.659973145, -35.3631928, 149.1648971, 0.778918743134, -0.0929860025644, -0.118262037635, -0.608812987804
2019-04-03 21:26:47.19,89415886, -0.04, -17.35, 283.98, 593.710021973, -35.3631917, 149.1648919, 0.778896093369, -0.0931760817766, -0.118610717356, -0.608745098114
2019-04-03 21:26:47.29,89515846, -0.02, -17.37, 283.99, 593.75, -35.3631908, 149.164887, 0.778897881508, -0.0931980162859, -0.118916146457, -0.608679890633
2019-04-03 21:26:47.39,89615806, 0.0, -17.39, 283.99, 593.789978027, -35.3631898, 149.164882, 0.778919696808, -0.0930841714144, -0.119225971401, -0.608608782291
2019-04-03 21:26:47.49,89715766, 0.05, -17.4, 283.99, 593.83001709, -35.3631886, 149.164877, 0.778966844082, -0.092805787921, -0.119493722916, -0.608538389206
2019-04-03 21:26:47.59,89815726, 0.07, -17.39, 284.0, 593.880004883, -35.3631877, 149.1648718, 0.779015600681, -0.0925890803337, -0.119569435716, -0.60849416256
2019-04-03 21:26:47.69,89915686, 0.07, -17.37, 284.0, 593.91998291, -35.3631867, 149.1648669, 0.779059112072, -0.0925071910024, -0.119398832321, -0.608484387398
2019-04-03 21:26:47.80,90016479, 0.04, -17.34, 284.01, 593.960021973, -35.3631856, 149.1648617, 0.779094398022, -0.0925142988563, -0.119113393128, -0.608494102955
2019-04-03 21:26:47.90,90116439, 0.03, -17.32, 284.01, 594.010009766, -35.3631847, 149.1648567, 0.779137670994, -0.0924499407411, -0.118913523853, -0.608487546444
2019-04-03 21:26:48.00,90216399, 0.04, -17.33, 284.02, 594.049987793, -35.3631836, 149.1648516, 0.779159188271, -0.0924744680524, -0.119022659957, -0.608434975147
2019-04-03 21:26:48.10,90316359, 0.04, -17.36, 284.02, 594.090026855, -35.3631826, 149.1648466, 0.779164910316, -0.0925901085138, -0.119207017124, -0.608373939991
2019-04-03 21:26:48.20,90416319, 0.03, -17.39, 284.03, 594.130004883, -35.3631816, 149.1648415, 0.779150128365, -0.0928409695625, -0.119340963662, -0.608328342438
2019-04-03 21:26:48.30,90516279, 0.01, -17.41, 284.03, 594.179992676, -35.3631805, 149.1648363, 0.779142379761, -0.0930535197258, -0.119412988424, -0.608291625977
2019-04-03 21:26:48.40,90616239, 0.0, -17.43, 284.04, 594.219970703, -35.3631795, 149.1648313, 0.779137134552, -0.0932495966554, -0.119528599083, -0.608245611191
2019-04-03 21:26:48.50,90716199, 0.0, -17.44, 284.04, 594.260009766, -35.3631784, 149.1648262, 0.77915173769, -0.0932882428169, -0.11956448853, -0.608213961124
2019-04-03 21:26:48.60,90816159, 0.0, -17.45, 284.05, 594.299987793, -35.3631774, 149.164821, 0.779163062572, -0.0933266952634, -0.119608767331, -0.608184814453
2019-04-03 21:26:48.70,90916119, 0.01, -17.47, 284.05, 594.349975586, -35.3631764, 149.164816, 0.779167115688, -0.0933754444122, -0.119802437723, -0.608134031296
2019-04-03 21:26:48.80,91016079, 0.01, -17.5, 284.05, 594.390014648, -35.3631753, 149.1648109, 0.779151439667, -0.0935332775116, -0.119998805225, -0.608091175556
2019-04-03 21:26:48.90,91116039, 0.0, -17.53, 284.05, 594.429992676, -35.3631743, 149.1648057, 0.779116094112, -0.0938088968396, -0.120099842548, -0.608074009418
2019-04-03 21:26:49.00,91215999, -0.02, -17.58, 284.06, 594.479980469, -35.3631733, 149.1648007, 0.77904933691, -0.0942381471395, -0.120347231627, -0.608044326305
2019-04-03 21:26:49.10,91315959, -0.02, -17.6, 284.06, 594.520019531, -35.3631722, 149.1647955, 0.779034733772, -0.0943187475204, -0.120560690761, -0.608008205891
2019-04-03 21:26:49.19,91415919, 0.0, -17.61, 284.06, 594.559997559, -35.3631711, 149.1647903, 0.779053390026, -0.0942165628076, -0.120671778917, -0.607978105545
2019-04-03 21:26:49.29,91515879, 0.0, -17.59, 284.06, 594.609985352, -35.3631701, 149.1647853, 0.779084742069, -0.094069853425, -0.120631687343, -0.607968628407
2019-04-03 21:26:49.39,91615839, 0.01, -17.58, 284.06, 594.650024414, -35.3631691, 149.1647801, 0.779110193253, -0.0939398035407, -0.120591744781, -0.607964098454
2019-04-03 21:26:49.49,91715799, 0.03, -17.56, 284.06, 594.690002441, -35.363168, 149.164775, 0.779145479202, -0.0937276110053, -0.120538309216, -0.607962191105
2019-04-03 21:26:49.59,91815759, 0.04, -17.55, 284.06, 594.729980469, -35.363167, 149.1647697, 0.779161572456, -0.0935755893588, -0.120560221374, -0.607960581779
2019-04-03 21:26:49.69,91915719, 0.06, -17.55, 284.06, 594.780029297, -35.3631659, 149.1647647, 0.77916264534, -0.0934790149331, -0.120627753437, -0.607960700989
2019-04-03 21:26:49.79,92015679, 0.06, -17.57, 284.06, 594.820007324, -35.3631649, 149.1647595, 0.779134452343, -0.0935598909855, -0.120724841952, -0.607965111732
2019-04-03 21:26:49.90,92116472, 0.04, -17.61, 284.05, 594.859985352, -35.3631637, 149.1647543, 0.779067397118, -0.0939183309674, -0.120960012078, -0.607949078083
2019-04-03 21:26:50.00,92216432, 0.03, -17.67, 284.05, 594.909973145, -35.3631628, 149.1647491, 0.779001295567, -0.0942870751023, -0.121251799166, -0.607918560505
2019-04-03 21:26:50.10,92316392, 0.03, -17.71, 284.05, 594.950012207, -35.3631617, 149.1647439, 0.778958022594, -0.0945144370198, -0.121534965932, -0.607882142067
2019-04-03 21:26:50.20,92416352, 0.05, -17.74, 284.05, 594.989990234, -35.3631607, 149.1647387, 0.778945028782, -0.0945314690471, -0.121827043593, -0.607837677002
2019-04-03 21:26:50.30,92516312, 0.07, -17.75, 284.06, 595.030029297, -35.3631595, 149.1647336, 0.778947770596, -0.0944621935487, -0.122074589133, -0.607795238495
2019-04-03 21:26:50.40,92616272, 0.09, -17.76, 284.06, 595.070007324, -35.3631585, 149.1647284, 0.778964817524, -0.0943311229348, -0.122239604592, -0.607760608196
2019-04-03 21:26:50.50,92716232, 0.11, -17.74, 284.06, 595.119995117, -35.3631575, 149.1647232, 0.778999388218, -0.0941557511687, -0.122204057872, -0.607750654221
2019-04-03 21:26:50.60,92816192, 0.1, -17.71, 284.06, 595.159973145, -35.3631564, 149.164718, 0.779034018517, -0.094029918313, -0.121953733265, -0.607776045799
2019-04-03 21:26:50.70,92916152, 0.08, -17.66, 284.06, 595.200012207, -35.3631552, 149.1647128, 0.779073536396, -0.0938910022378, -0.121547877789, -0.607828140259
2019-04-03 21:26:50.80,93016112, 0.07, -17.64, 284.06, 595.239990234, -35.3631543, 149.1647075, 0.779088377953, -0.0938466787338, -0.121274828911, -0.607870519161
2019-04-03 21:26:50.90,93116072, 0.06, -17.64, 284.06, 595.289978027, -35.3631532, 149.1647023, 0.779075682163, -0.093894071877, -0.121285781264, -0.607877254486
2019-04-03 21:26:51.00,93216032, 0.07, -17.67, 284.06, 595.33001709, -35.3631521, 149.1646972, 0.779042422771, -0.0940340310335, -0.121507979929, -0.607853889465
2019-04-03 21:26:51.10,93315992, 0.07, -17.71, 284.06, 595.369995117, -35.363151, 149.164692, 0.779000580311, -0.0941917449236, -0.121754683554, -0.607833683491
2019-04-03 21:26:51.20,93415952, 0.06, -17.74, 284.05, 595.409973145, -35.36315, 149.1646868, 0.778942763805, -0.0944385975599, -0.121977418661, -0.607824802399
2019-04-03 21:26:51.29,93515912, 0.07, -17.77, 284.05, 595.460021973, -35.3631489, 149.1646816, 0.778903782368, -0.0945506989956, -0.122145064175, -0.60782366991
2019-04-03 21:26:51.39,93615872, 0.07, -17.78, 284.05, 595.5, -35.3631478, 149.1646763, 0.778874337673, -0.0945785865188, -0.122270189226, -0.607831954956
2019-04-03 21:26:51.49,93715832, 0.07, -17.77, 284.04, 595.539978027, -35.3631467, 149.1646711, 0.77885144949, -0.0945902019739, -0.122189119458, -0.607875704765
2019-04-03 21:26:51.59,93815792, 0.05, -17.75, 284.04, 595.590026855, -35.3631456, 149.1646659, 0.778827369213, -0.094632729888, -0.121951542795, -0.607947766781
2019-04-03 21:26:51.69,93915752, 0.03, -17.74, 284.03, 595.630004883, -35.3631446, 149.1646606, 0.778799116611, -0.0947012379766, -0.121788039804, -0.608006000519
2019-04-03 21:26:51.79,94015712, 0.02, -17.75, 284.03, 595.66998291, -35.3631435, 149.1646553, 0.778752446175, -0.0948224812746, -0.121801353991, -0.608044207096
2019-04-03 21:26:51.89,94115672, 0.02, -17.77, 284.02, 595.710021973, -35.3631424, 149.1646501, 0.778709948063, -0.094899982214, -0.121904410422, -0.608065903187
2019-04-03 21:26:52.00,94216465, 0.02, -17.78, 284.02, 595.760009766, -35.3631412, 149.1646448, 0.778668880463, -0.0949646830559, -0.121980026364, -0.608093261719
2019-04-03 21:26:52.10,94316425, 0.02, -17.8, 284.01, 595.799987793, -35.3631401, 149.1646395, 0.778609871864, -0.0951329097152, -0.12210740149, -0.608116924763
2019-04-03 21:26:52.20,94416385, 0.02, -17.83, 284.0, 595.840026855, -35.3631392, 149.1646343, 0.778555691242, -0.095240354538, -0.122266791761, -0.608137488365
2019-04-03 21:26:52.30,94516345, 0.03, -17.84, 284.0, 595.880004883, -35.3631381, 149.164629, 0.778515934944, -0.0952645912766, -0.122444018722, -0.608148872852
2019-04-03 21:26:52.40,94616305, 0.06, -17.85, 283.99, 595.929992676, -35.363137, 149.1646238, 0.778505384922, -0.0951120778918, -0.122638776898, -0.608147084713
2019-04-03 21:26:52.50,94716265, 0.1, -17.84, 283.99, 595.969970703, -35.3631358, 149.1646185, 0.778520107269, -0.0947999581695, -0.122768834233, -0.608150720596
2019-04-03 21:26:52.60,94816225, 0.11, -17.8, 283.98, 596.010009766, -35.3631348, 149.1646134, 0.778544127941, -0.0945347473025, -0.122580304742, -0.608199238777
2019-04-03 21:26:52.70,94916185, 0.11, -17.78, 283.98, 596.049987793, -35.3631337, 149.164608, 0.778550624847, -0.0944137051702, -0.122398093343, -0.608246386051
2019-04-03 21:26:52.80,95016145, 0.1, -17.79, 283.98, 596.099975586, -35.3631327, 149.1646029, 0.778512239456, -0.0945436954498, -0.122399076819, -0.608275175095
2019-04-03 21:26:52.90,95116105, 0.08, -17.81, 283.97, 596.140014648, -35.3631315, 149.1645975, 0.77847546339, -0.0947175249457, -0.122438460588, -0.608287274837
2019-04-03 21:26:53.00,95216065, 0.06, -17.83, 283.97, 596.179992676, -35.3631304, 149.1645922, 0.778429031372, -0.0949651449919, -0.122480496764, -0.608299612999
2019-04-03 21:26:53.10,95316025, 0.05, -17.86, 283.97, 596.219970703, -35.3631294, 149.1645871, 0.778369963169, -0.0952552482486, -0.122667305171, -0.608292222023
2019-04-03 21:26:53.20,95415985, 0.06, -17.91, 283.97, 596.270019531, -35.3631283, 149.1645817, 0.778318345547, -0.0954358950257, -0.123005650938, -0.608261585236
2019-04-03 21:26:53.30,95515945, 0.08, -17.93, 283.97, 596.309997559, -35.3631272, 149.1645764, 0.778293311596, -0.0954162329435, -0.123305618763, -0.608235955238
2019-04-03 21:26:53.39,95615905, 0.11, -17.93, 283.96, 596.349975586, -35.363126, 149.1645713, 0.778304994106, -0.0951812043786, -0.123427063227, -0.608233213425
2019-04-03 21:26:53.49,95715865, 0.15, -17.91, 283.96, 596.390014648, -35.3631249, 149.1645659, 0.778328597546, -0.0948802530766, -0.123500950634, -0.608235061169
2019-04-03 21:26:53.59,95815825, 0.16, -17.89, 283.96, 596.440002441, -35.363124, 149.1645606, 0.778346955776, -0.094682700932, -0.123429201543, -0.608256936073
2019-04-03 21:26:53.69,95915785, 0.16, -17.88, 283.95, 596.479980469, -35.3631229, 149.1645553, 0.778356254101, -0.0945719256997, -0.123320110142, -0.608284413815
2019-04-03 21:26:53.79,96015745, 0.15, -17.87, 283.95, 596.520019531, -35.3631218, 149.1645501, 0.77833122015, -0.094644844532, -0.123259715736, -0.608317315578
2019-04-03 21:26:53.89,96115705, 0.13, -17.88, 283.95, 596.559997559, -35.3631206, 149.1645448, 0.778289318085, -0.0948354378343, -0.123126581311, -0.608368217945
2019-04-03 21:26:53.99,96215665, 0.08, -17.86, 283.94, 596.609985352, -35.3631196, 149.1645395, 0.778244554996, -0.0950749963522, -0.122804895043, -0.608453094959
2019-04-03 21:26:54.10,96316458, 0.06, -17.85, 283.94, 596.650024414, -35.3631185, 149.1645342, 0.778220772743, -0.0951510816813, -0.122539825737, -0.608525037766
2019-04-03 21:26:54.20,96416418, 0.05, -17.83, 283.93, 596.690002441, -35.3631174, 149.1645289, 0.778213441372, -0.0950999632478, -0.122417330742, -0.60856705904
2019-04-03 21:26:54.30,96516378, 0.08, -17.84, 283.93, 596.729980469, -35.3631163, 149.1645237, 0.778204441071, -0.0949706658721, -0.12263481319, -0.608554959297
2019-04-03 21:26:54.40,96616338, 0.12, -17.87, 283.93, 596.770019531, -35.3631151, 149.1645184, 0.778178751469, -0.0948826521635, -0.123019337654, -0.608523964882
2019-04-03 21:26:54.50,96716298, 0.13, -17.89, 283.92, 596.820007324, -35.3631141, 149.1645131, 0.778136730194, -0.0949150547385, -0.123168475926, -0.608542442322
2019-04-03 21:26:54.60,96816258, 0.12, -17.88, 283.91, 596.859985352, -35.363113, 149.1645078, 0.778095722198, -0.0949537083507, -0.123048909009, -0.608613014221
2019-04-03 21:26:54.70,96916218, 0.1, -17.86, 283.9, 596.900024414, -35.3631119, 149.1645025, 0.778059124947, -0.094979993999, -0.122870691121, -0.608691751957
2019-04-03 21:26:54.80,97016178, 0.08, -17.85, 283.9, 596.940002441, -35.3631108, 149.1644972, 0.77800577879, -0.0951065793633, -0.122655123472, -0.608783602715
2019-04-03 21:26:54.90,97116138, 0.04, -17.84, 283.89, 596.979980469, -35.3631096, 149.1644919, 0.77794021368, -0.095292173326, -0.122406318784, -0.608888447285
2019-04-03 21:26:55.00,97216098, 0.05, -17.85, 283.88, 597.030029297, -35.3631085, 149.1644866, 0.777882039547, -0.095304377377, -0.122446216643, -0.608952879906
2019-04-03 21:26:55.10,97316058, 0.06, -17.85, 283.87, 597.070007324, -35.3631075, 149.1644813, 0.777830898762, -0.0952270776033, -0.122571930289, -0.609004974365
2019-04-03 21:26:55.20,97416018, 0.06, -17.86, 283.86, 597.109985352, -35.3631064, 149.1644759, 0.77776825428, -0.0952843725681, -0.122626051307, -0.609065115452
2019-04-03 21:26:55.30,97515978, 0.05, -17.87, 283.85, 597.150024414, -35.3631052, 149.1644706, 0.777700781822, -0.0954559072852, -0.122585378587, -0.60913258791
2019-04-03 21:26:55.39,97615938, 0.05, -17.87, 283.84, 597.200012207, -35.3631041, 149.1644653, 0.777657389641, -0.0954652279615, -0.122583933175, -0.609186768532
2019-04-03 21:26:55.49,97715898, 0.07, -17.87, 283.83, 597.239990234, -35.3631029, 149.16446, 0.777640879154, -0.095296561718, -0.122683472931, -0.609214305878
2019-04-03 21:26:55.59,97815858, 0.11, -17.87, 283.83, 597.280029297, -35.363102, 149.1644547, 0.77763646841, -0.095054872334, -0.122860327363, -0.609222054482
2019-04-03 21:26:55.69,97915818, 0.14, -17.87, 283.82, 597.320007324, -35.3631009, 149.1644495, 0.777627766132, -0.0948477238417, -0.123007215559, -0.60923576355
2019-04-03 21:26:55.79,98015778, 0.15, -17.89, 283.81, 597.369995117, -35.3630998, 149.1644442, 0.777583479881, -0.0948472246528, -0.123231902719, -0.609246909618
2019-04-03 21:26:55.89,98115738, 0.17, -17.92, 283.81, 597.409973145, -35.3630987, 149.1644389, 0.777522742748, -0.0949529334903, -0.123531423509, -0.609247386456
2019-04-03 21:26:55.99,98215698, 0.16, -17.94, 283.8, 597.450012207, -35.3630975, 149.1644336, 0.777479171753, -0.0950841829181, -0.123592890799, -0.609270036221
2019-04-03 21:26:56.10,98316491, 0.15, -17.92, 283.8, 597.489990234, -35.3630963, 149.1644282, 0.77746963501, -0.0951044410467, -0.123407363892, -0.609316647053
2019-04-03 21:26:56.20,98416451, 0.14, -17.89, 283.8, 597.530029297, -35.3630953, 149.1644229, 0.777483046055, -0.0950055196881, -0.123130433261, -0.609371006489
2019-04-03 21:26:56.30,98516411, 0.13, -17.86, 283.79, 597.58001709, -35.3630942, 149.1644176, 0.777494370937, -0.0949036851525, -0.122897975147, -0.609419345856
2019-04-03 21:26:56.40,98616371, 0.12, -17.85, 283.79, 597.619995117, -35.3630931, 149.1644122, 0.777477025986, -0.0948935300112, -0.12279766798, -0.609463214874
2019-04-03 21:26:56.50,98716331, 0.11, -17.85, 283.78, 597.659973145, -35.363092, 149.1644069, 0.777442514896, -0.0949800014496, -0.122708357871, -0.60951179266
2019-04-03 21:26:56.60,98816291, 0.09, -17.85, 283.78, 597.700012207, -35.3630908, 149.1644016, 0.77740073204, -0.095107614994, -0.122656904161, -0.609555542469
2019-04-03 21:26:56.70,98916251, 0.1, -17.87, 283.77, 597.75, -35.3630898, 149.1643963, 0.777361810207, -0.0951676741242, -0.122749187052, -0.60957723856
2019-04-03 21:26:56.80,99016211, 0.11, -17.89, 283.77, 597.789978027, -35.3630887, 149.1643911, 0.777320504189, -0.0952049046755, -0.122962318361, -0.609581172466
2019-04-03 21:26:56.90,99116171, 0.12, -17.91, 283.76, 597.83001709, -35.3630876, 149.1643858, 0.777279734612, -0.0952447801828, -0.123124569654, -0.609594106674
2019-04-03 21:26:57.00,99216131, 0.13, -17.92, 283.76, 597.869995117, -35.3630865, 149.1643805, 0.777242362499, -0.0952656194568, -0.123243786395, -0.609614431858
2019-04-03 21:26:57.10,99316091, 0.11, -17.93, 283.75, 597.91998291, -35.3630854, 149.1643752, 0.777194142342, -0.0953986570239, -0.123247586191, -0.60965436697
2019-04-03 21:26:57.20,99416051, 0.09, -17.92, 283.75, 597.960021973, -35.3630844, 149.1643699, 0.777160108089, -0.0955203324556, -0.123034887016, -0.609721601009
2019-04-03 21:26:57.30,99516011, 0.07, -17.91, 283.74, 598.0, -35.3630833, 149.1643646, 0.777131021023, -0.0955956503749, -0.122884809971, -0.609777212143
2019-04-03 21:26:57.40,99615971, 0.07, -17.9, 283.74, 598.039978027, -35.3630822, 149.1643592, 0.777121722698, -0.0955420956016, -0.122808173299, -0.609812855721
2019-04-03 21:26:57.49,99715931, 0.1, -17.89, 283.74, 598.090026855, -35.363081, 149.1643538, 0.777141749859, -0.0952766761184, -0.122883394361, -0.60981374979
2019-04-03 21:26:57.59,99815891, 0.14, -17.87, 283.73, 598.130004883, -35.3630799, 149.1643485, 0.777161180973, -0.0949864387512, -0.122981883585, -0.609814405441
2019-04-03 21:26:57.69,99915851, 0.16, -17.87, 283.73, 598.16998291, -35.3630789, 149.1643432, 0.777152597904, -0.0948391258717, -0.123068466783, -0.609830796719
2019-04-03 21:26:57.79,100015811, 0.15, -17.89, 283.72, 598.210021973, -35.3630778, 149.1643379, 0.777093589306, -0.0950223580003, -0.123170375824, -0.609856903553
2019-04-03 21:26:57.89,100115771, 0.13, -17.91, 283.72, 598.25, -35.3630767, 149.1643327, 0.777025938034, -0.0952533259988, -0.123193182051, -0.609902441502
2019-04-03 21:26:57.99,100215731, 0.11, -17.92, 283.71, 598.289978027, -35.3630756, 149.1643274, 0.776965379715, -0.0954428166151, -0.123090147972, -0.609970748425
2019-04-03 21:26:58.09,100315691, 0.08, -17.92, 283.7, 598.340026855, -35.3630744, 149.1643221, 0.77689242363, -0.095696978271, -0.122967898846, -0.610048472881
2019-04-03 21:26:58.20,100416484, 0.07, -17.92, 283.69, 598.380004883, -35.3630734, 149.1643167, 0.776847541332, -0.0957374423742, -0.122945547104, -0.610103845596
2019-04-03 21:26:58.30,100516444, 0.1, -17.9, 283.69, 598.41998291, -35.3630723, 149.1643114, 0.776852488518, -0.0954717546701, -0.122944518924, -0.610139369965
2019-04-03 21:26:58.40,100616404, 0.12, -17.88, 283.68, 598.460021973, -35.3630712, 149.1643061, 0.776862382889, -0.0952013581991, -0.122912757099, -0.610175430775
2019-04-03 21:26:58.50,100716364, 0.14, -17.88, 283.68, 598.510009766, -35.3630701, 149.1643008, 0.776859164238, -0.0950470715761, -0.123009219766, -0.610184073448
2019-04-03 21:26:58.60,100816324, 0.17, -17.89, 283.67, 598.549987793, -35.3630689, 149.1642953, 0.776847183704, -0.0949334129691, -0.123251415789, -0.610168159008
2019-04-03 21:26:58.70,100916284, 0.19, -17.92, 283.67, 598.590026855, -35.3630679, 149.1642901, 0.77682363987, -0.0949451997876, -0.123474180698, -0.610151290894
2019-04-03 21:26:58.80,101016244, 0.17, -17.93, 283.67, 598.630004883, -35.3630668, 149.1642848, 0.776781022549, -0.0951607599854, -0.123494617641, -0.61016780138
2019-04-03 21:26:58.90,101116204, 0.15, -17.96, 283.67, 598.66998291, -35.3630657, 149.1642795, 0.776730835438, -0.095412813127, -0.123553290963, -0.610180497169
2019-04-03 21:26:59.00,101216164, 0.14, -17.96, 283.66, 598.719970703, -35.3630646, 149.1642742, 0.776705622673, -0.0954990237951, -0.123580940068, -0.610193490982
2019-04-03 21:26:59.10,101316124, 0.17, -17.96, 283.66, 598.760009766, -35.3630634, 149.1642689, 0.776721358299, -0.0953134298325, -0.123647876084, -0.610188901424
2019-04-03 21:26:59.20,101416084, 0.19, -17.95, 283.66, 598.799987793, -35.3630623, 149.1642635, 0.776743531227, -0.0950685441494, -0.123706661165, -0.610186994076
2019-04-03 21:26:59.30,101516044, 0.22, -17.93, 283.66, 598.840026855, -35.3630613, 149.1642582, 0.776769638062, -0.0947891250253, -0.123740412295, -0.610190391541
2019-04-03 21:26:59.40,101616004, 0.25, -17.92, 283.65, 598.880004883, -35.3630602, 149.1642528, 0.776792526245, -0.0945281386375, -0.123806685209, -0.610188305378
2019-04-03 21:26:59.50,101715964, 0.27, -17.91, 283.65, 598.929992676, -35.3630591, 149.1642475, 0.776803612709, -0.094380185008, -0.123910188675, -0.610176026821
2019-04-03 21:26:59.59,101815924, 0.26, -17.92, 283.65, 598.969970703, -35.3630579, 149.1642422, 0.776776373386, -0.0945192649961, -0.123878352344, -0.610195636749
2019-04-03 21:26:59.69,101915884, 0.23, -17.93, 283.65, 599.010009766, -35.3630568, 149.1642369, 0.776740431786, -0.0947556421161, -0.123767606914, -0.610227227211
2019-04-03 21:26:59.79,102015844, 0.21, -17.91, 283.65, 599.049987793, -35.3630558, 149.1642316, 0.776738286018, -0.0948029831052, -0.123576410115, -0.610261380672
2019-04-03 21:26:59.89,102115804, 0.21, -17.89, 283.65, 599.090026855, -35.3630547, 149.1642263, 0.776768147945, -0.0946347415447, -0.123442664742, -0.610276520252
2019-04-03 21:26:59.99,102215764, 0.23, -17.89, 283.65, 599.140014648, -35.3630536, 149.1642209, 0.776782095432, -0.0945381745696, -0.123482577503, -0.610265731812
2019-04-03 21:27:00.09,102315724, 0.24, -17.89, 283.65, 599.179992676, -35.3630524, 149.1642156, 0.77679425478, -0.094459541142, -0.12356647104, -0.610245406628
2019-04-03 21:27:00.19,102415684, 0.23, -17.91, 283.65, 599.219970703, -35.3630513, 149.1642102, 0.776770830154, -0.0946107804775, -0.123697765172, -0.610225200653
2019-04-03 21:27:00.30,102516477, 0.22, -17.93, 283.65, 599.260009766, -35.3630503, 149.1642048, 0.77674561739, -0.0948054417968, -0.123735375702, -0.610219419003
2019-04-03 21:27:00.40,102616437, 0.2, -17.93, 283.65, 599.299987793, -35.3630492, 149.1641996, 0.776736617088, -0.0949230492115, -0.123652227223, -0.610229492188
2019-04-03 21:27:00.50,102716397, 0.19, -17.93, 283.65, 599.349975586, -35.363048, 149.1641943, 0.776722311974, -0.0950124040246, -0.123544372618, -0.610255658627
2019-04-03 21:27:00.60,102816357, 0.17, -17.93, 283.65, 599.390014648, -35.3630469, 149.164189, 0.77668774128, -0.0951025262475, -0.12347175926, -0.610300242901
2019-04-03 21:27:00.70,102916317, 0.17, -17.95, 283.64, 599.429992676, -35.3630458, 149.1641836, 0.776634454727, -0.095235876739, -0.123576305807, -0.610326111317
2019-04-03 21:27:00.80,103016277, 0.15, -17.98, 283.64, 599.469970703, -35.3630446, 149.1641783, 0.776542901993, -0.0955605506897, -0.123710550368, -0.610364675522
2019-04-03 21:27:00.90,103116237, 0.14, -18.01, 283.63, 599.510009766, -35.3630436, 149.164173, 0.776461899281, -0.0958030372858, -0.123851805925, -0.61040109396
2019-04-03 21:27:01.00,103216197, 0.15, -18.01, 283.62, 599.559997559, -35.3630425, 149.1641677, 0.776427805424, -0.0957689881325, -0.1238720119, -0.610445678234
2019-04-03 21:27:01.10,103316157, 0.15, -17.98, 283.61, 599.599975586, -35.3630414, 149.1641622, 0.776424527168, -0.0955572575331, -0.123674675822, -0.610522985458
2019-04-03 21:27:01.20,103416117, 0.15, -17.93, 283.6, 599.640014648, -35.3630403, 149.164157, 0.776433467865, -0.0952973216772, -0.123332425952, -0.610621511936
2019-04-03 21:27:01.30,103516077, 0.15, -17.89, 283.6, 599.679992676, -35.3630391, 149.1641517, 0.776429951191, -0.0951229035854, -0.123064823449, -0.610707163811
2019-04-03 21:27:01.40,103616037, 0.14, -17.9, 283.59, 599.729980469, -35.3630381, 149.1641464, 0.776364088058, -0.0952935218811, -0.123046904802, -0.610767900944
2019-04-03 21:27:01.50,103715997, 0.1, -17.94, 283.58, 599.770019531, -35.363037, 149.164141, 0.776257932186, -0.0957136452198, -0.123086899519, -0.610829114914
2019-04-03 21:27:01.60,103815957, 0.08, -17.97, 283.57, 599.809997559, -35.3630359, 149.1641357, 0.776157855988, -0.0960528329015, -0.123201824725, -0.610879838467
2019-04-03 21:27:01.69,103915917, 0.09, -18.0, 283.56, 599.849975586, -35.3630348, 149.1641304, 0.776089608669, -0.0961466059089, -0.123406946659, -0.610910415649
2019-04-03 21:27:01.79,104015877, 0.13, -17.99, 283.55, 599.900024414, -35.3630336, 149.1641251, 0.776085317135, -0.0958280265331, -0.123562067747, -0.610934615135
2019-04-03 21:27:01.89,104115837, 0.18, -17.94, 283.54, 599.940002441, -35.3630325, 149.1641196, 0.776125729084, -0.0952543914318, -0.123544000089, -0.610976576805
2019-04-03 21:27:01.99,104215797, 0.2, -17.9, 283.54, 599.979980469, -35.3630315, 149.1641144, 0.776146650314, -0.0948786735535, -0.123364657164, -0.611044645309
2019-04-03 21:27:02.09,104315757, 0.2, -17.87, 283.53, 600.020019531, -35.3630304, 149.1641091, 0.776142835617, -0.094754204154, -0.123078659177, -0.611126542091
2019-04-03 21:27:02.19,104415717, 0.16, -17.86, 283.53, 600.070007324, -35.3630293, 149.1641037, 0.776090919971, -0.0949773713946, -0.122859910131, -0.611201763153
2019-04-03 21:27:02.29,104515677, 0.12, -17.89, 283.52, 600.109985352, -35.3630281, 149.1640984, 0.776017785072, -0.0953635945916, -0.122819930315, -0.611242592335
2019-04-03 21:27:02.40,104616470, 0.11, -17.92, 283.52, 600.150024414, -35.363027, 149.1640929, 0.775959014893, -0.0956473872066, -0.122992642224, -0.611238121986
2019-04-03 21:27:02.50,104716430, 0.11, -17.95, 283.52, 600.190002441, -35.363026, 149.1640876, 0.775922715664, -0.0957947969437, -0.123209752142, -0.61121737957
2019-04-03 21:27:02.60,104816390, 0.12, -17.97, 283.52, 600.239990234, -35.3630249, 149.1640823, 0.77589827776, -0.0958825945854, -0.123385027051, -0.611199319363
2019-04-03 21:27:02.70,104916350, 0.13, -17.97, 283.52, 600.280029297, -35.3630238, 149.164077, 0.775900840759, -0.0958179086447, -0.12343903631, -0.611195266247
2019-04-03 21:27:02.80,105016310, 0.13, -17.95, 283.52, 600.320007324, -35.3630227, 149.1640717, 0.775916814804, -0.0956984907389, -0.123283468187, -0.611225068569
2019-04-03 21:27:02.90,105116270, 0.11, -17.91, 283.51, 600.359985352, -35.3630215, 149.1640663, 0.77594345808, -0.0955797508359, -0.122916825116, -0.61128371954
2019-04-03 21:27:03.00,105216230, 0.09, -17.88, 283.51, 600.400024414, -35.3630205, 149.164061, 0.775954902172, -0.0955490544438, -0.122622057796, -0.61133313179
2019-04-03 21:27:03.10,105316190, 0.11, -17.86, 283.51, 600.450012207, -35.3630194, 149.1640557, 0.775983810425, -0.0953787863255, -0.122561387718, -0.611335217953
2019-04-03 21:27:03.20,105416150, 0.14, -17.85, 283.51, 600.489990234, -35.3630183, 149.1640502, 0.776024520397, -0.0950848311186, -0.122669748962, -0.611307561398
2019-04-03 21:27:03.30,105516110, 0.19, -17.85, 283.51, 600.530029297, -35.3630172, 149.1640449, 0.776060760021, -0.094761736691, -0.122921928763, -0.611261129379
2019-04-03 21:27:03.40,105616070, 0.21, -17.88, 283.51, 600.570007324, -35.363016, 149.1640397, 0.776052057743, -0.0947391539812, -0.123200193048, -0.611219584942
2019-04-03 21:27:03.50,105716030, 0.22, -17.89, 283.51, 600.619995117, -35.363015, 149.1640343, 0.776043236256, -0.09477365762, -0.123341187835, -0.611197054386
2019-04-03 21:27:03.60,105815990, 0.23, -17.91, 283.51, 600.659973145, -35.3630139, 149.164029, 0.776041150093, -0.0947896614671, -0.123495578766, -0.611166059971
2019-04-03 21:27:03.70,105915950, 0.23, -17.93, 283.52, 600.700012207, -35.3630128, 149.1640236, 0.77603417635, -0.0948470011353, -0.123672120273, -0.611130237579
2019-04-03 21:27:03.79,106015910, 0.22, -17.94, 283.52, 600.739990234, -35.3630117, 149.1640182, 0.776021182537, -0.0950008705258, -0.123726040125, -0.611111998558
2019-04-03 21:27:03.89,106115870, 0.2, -17.96, 283.52, 600.789978027, -35.3630106, 149.1640129, 0.77599465847, -0.0952392071486, -0.123725384474, -0.611108720303
2019-04-03 21:27:03.99,106215830, 0.18, -17.95, 283.52, 600.83001709, -35.3630096, 149.1640076, 0.775989234447, -0.0953428894281, -0.123566173017, -0.611131668091
2019-04-03 21:27:04.09,106315790, 0.17, -17.93, 283.52, 600.869995117, -35.3630085, 149.1640023, 0.776004254818, -0.0952922999859, -0.123387925327, -0.611156463623
2019-04-03 21:27:04.19,106415750, 0.2, -17.91, 283.52, 600.909973145, -35.3630074, 149.163997, 0.776045143604, -0.0949901565909, -0.123396568, -0.611149847507
2019-04-03 21:27:04.29,106515710, 0.24, -17.89, 283.52, 600.960021973, -35.3630062, 149.1639916, 0.776091516018, -0.0946277007461, -0.123445309699, -0.611137330532
2019-04-03 21:27:04.39,106615670, 0.27, -17.87, 283.52, 601.0, -35.3630051, 149.1639863, 0.776138722897, -0.0942806974053, -0.123467236757, -0.611126542091
2019-04-03 21:27:04.50,106716463, 0.28, -17.85, 283.52, 601.039978027, -35.3630041, 149.1639808, 0.776166796684, -0.0941093415022, -0.123434871435, -0.611123859882
2019-04-03 21:27:04.60,106816423, 0.25, -17.87, 283.52, 601.08001709, -35.363003, 149.1639755, 0.776129007339, -0.0944069027901, -0.123395040631, -0.611133992672
2019-04-03 21:27:04.70,106916383, 0.22, -17.92, 283.52, 601.130004883, -35.3630019, 149.1639703, 0.776056647301, -0.0949183925986, -0.123534888029, -0.61111843586
2019-04-03 21:27:04.80,107016343, 0.21, -17.96, 283.52, 601.16998291, -35.3630008, 149.163965, 0.776002764702, -0.0952230840921, -0.123792052269, -0.611087441444
2019-04-03 21:27:04.90,107116303, 0.22, -18.0, 283.52, 601.210021973, -35.3629996, 149.1639596, 0.775970160961, -0.0953128933907, -0.124134756625, -0.611045300961
2019-04-03 21:27:05.00,107216263, 0.25, -18.02, 283.52, 601.260009766, -35.3629986, 149.1639543, 0.775969624519, -0.0952038764954, -0.124384857714, -0.611012160778
2019-04-03 21:27:05.10,107316223, 0.27, -18.01, 283.52, 601.299987793, -35.3629975, 149.163949, 0.775993525982, -0.0950099304318, -0.12441034615, -0.61100679636
2019-04-03 21:27:05.20,107416183, 0.26, -17.97, 283.52, 601.340026855, -35.3629964, 149.1639435, 0.776016056538, -0.094908811152, -0.124129712582, -0.611050844193
2019-04-03 21:27:05.30,107516143, 0.23, -17.96, 283.52, 601.380004883, -35.3629953, 149.1639382, 0.776007652283, -0.095007032156, -0.123867712915, -0.611099481583
2019-04-03 21:27:05.40,107616103, 0.22, -17.96, 283.52, 601.429992676, -35.3629941, 149.1639329, 0.775982558727, -0.0951704531908, -0.12383697927, -0.611112117767
2019-04-03 21:27:05.50,107716063, 0.22, -17.97, 283.52, 601.469970703, -35.3629931, 149.1639276, 0.775974273682, -0.0952085182071, -0.123905412853, -0.611102879047
2019-04-03 21:27:05.60,107816023, 0.24, -17.97, 283.52, 601.510009766, -35.362992, 149.1639223, 0.775991141796, -0.0950546041131, -0.123978182673, -0.6110907197
2019-04-03 21:27:05.70,107915983, 0.27, -17.96, 283.52, 601.549987793, -35.3629909, 149.163917, 0.776027262211, -0.094784758985, -0.124054461718, -0.611071288586
2019-04-03 21:27:05.80,108015943, 0.29, -17.95, 283.52, 601.599975586, -35.3629898, 149.1639117, 0.776057064533, -0.0945653617382, -0.124157145619, -0.611046552658
2019-04-03 21:27:05.89,108115903, 0.29, -17.95, 283.52, 601.640014648, -35.3629886, 149.1639062, 0.776053071022, -0.0945721790195, -0.124120280147, -0.611058056355
2019-04-03 21:27:05.99,108215863, 0.27, -17.95, 283.51, 601.679992676, -35.3629875, 149.1639009, 0.776020646095, -0.0947376787663, -0.124073274434, -0.61108314991
2019-04-03 21:27:06.09,108315823, 0.26, -17.95, 283.51, 601.719970703, -35.3629865, 149.1638956, 0.776003539562, -0.0948306322098, -0.123974636197, -0.611110508442
2019-04-03 21:27:06.19,108415783, 0.22, -17.95, 283.51, 601.770019531, -35.3629854, 149.1638903, 0.775975465775, -0.095043875277, -0.123776510358, -0.611153125763
2019-04-03 21:27:06.29,108515743, 0.19, -17.95, 283.51, 601.809997559, -35.3629843, 149.163885, 0.775945723057, -0.0952554196119, -0.123603492975, -0.61119300127
2019-04-03 21:27:06.39,108615703, 0.18, -17.95, 283.51, 601.849975586, -35.3629831, 149.1638797, 0.775923013687, -0.0953403115273, -0.123577721417, -0.611213803291
2019-04-03 21:27:06.49,108715663, 0.19, -17.94, 283.51, 601.900024414, -35.3629819, 149.1638743, 0.775931358337, -0.0951852872968, -0.12350268662, -0.61124253273
2019-04-03 21:27:06.60,108816456, 0.21, -17.9, 283.5, 601.940002441, -35.3629808, 149.1638688, 0.775960087776, -0.0948836877942, -0.123403541744, -0.611272931099
2019-04-03 21:27:06.70,108916416, 0.25, -17.88, 283.5, 601.979980469, -35.3629798, 149.1638635, 0.775991678238, -0.0945115014911, -0.123403310776, -0.611290574074
2019-04-03 21:27:06.80,109016376, 0.27, -17.86, 283.49, 602.030029297, -35.3629787, 149.1638582, 0.776008009911, -0.0942216143012, -0.123405948281, -0.611314058304
2019-04-03 21:27:06.90,109116336, 0.28, -17.87, 283.49, 602.070007324, -35.3629776, 149.1638529, 0.775969743729, -0.0942603871226, -0.123491369188, -0.611339390278
2019-04-03 21:27:07.00,109216296, 0.27, -17.89, 283.48, 602.109985352, -35.3629764, 149.1638476, 0.775913536549, -0.0944225415587, -0.123637802899, -0.611356139183
2019-04-03 21:27:07.10,109316256, 0.26, -17.92, 283.48, 602.150024414, -35.3629753, 149.1638423, 0.77584785223, -0.0946515873075, -0.123744733632, -0.611382424831
2019-04-03 21:27:07.20,109416216, 0.25, -17.96, 283.47, 602.200012207, -35.3629743, 149.1638369, 0.775768816471, -0.0949547514319, -0.123913504183, -0.611401498318
2019-04-03 21:27:07.30,109516176, 0.24, -18.0, 283.47, 602.239990234, -35.3629732, 149.1638315, 0.775689005852, -0.0952637866139, -0.124123506248, -0.611412107944
2019-04-03 21:27:07.40,109616136, 0.22, -18.02, 283.46, 602.280029297, -35.362972, 149.1638262, 0.775621712208, -0.0954979658127, -0.124229833484, -0.611439287663
2019-04-03 21:27:07.50,109716096, 0.21, -18.02, 283.45, 602.320007324, -35.3629709, 149.1638209, 0.775580763817, -0.0955988690257, -0.124116942286, -0.61149841547
2019-04-03 21:27:07.60,109816056, 0.18, -17.99, 283.45, 602.369995117, -35.3629698, 149.1638156, 0.77557104826, -0.0955913737416, -0.1237616539, -0.611583948135
2019-04-03 21:27:07.70,109916016, 0.18, -17.94, 283.45, 602.409973145, -35.3629686, 149.1638103, 0.775602936745, -0.0953496471047, -0.123411521316, -0.61165201664
