Start,TimeUS,Roll,Pitch,Yaw,Alt,Lat,Lng,Q1,Q2,Q3,Q4
2019-04-02 21:51:41.60,101416084, 0.0, 0.0, 353.0, 584.090026855, -35.363261, 149.1652299, 0.998134791851, 0.0, 0.0, -0.0610485821962
2019-04-02 21:51:41.71,101535203, 0.0, 0.0, 353.0, 584.090026855, -35.363261, 149.1652299, 0.998134791851, 0.0, 0.0, -0.0610485821962
2019-04-02 21:51:41.81,101635163, 0.0, 0.0, 353.0, 584.090026855, -35.363261, 149.1652299, 0.998134791851, 0.0, 0.0, -0.0610485821962
2019-04-02 21:51:41.91,101735123, 0.0, 0.0, 353.0, 584.090026855, -35.363261, 149.1652299, 0.998134791851, 0.0, 0.0, -0.0610485821962
2019-04-02 21:51:42.01,101835083, 0.0, 0.0, 353.0, 584.090026855, -35.363261, 149.1652299, 0.998134791851, 0.0, 0.0, -0.0610485821962
2019-04-02 21:51:42.11,101935043, 0.0, 0.0, 353.0, 584.090026855, -35.363261, 149.1652299, 0.998134791851, 0.0, 0.0, -0.0610485821962
2019-04-02 21:51:42.21,102035003, 0.0, 0.0, 353.0, 584.090026855, -35.363261, 149.1652299, 0.998134791851, 0.0, 0.0, -0.0610485821962
2019-04-02 21:51:42.31,102134963, 0.0, 0.0, 353.0, 584.090026855, -35.363261, 149.1652299, 0.998134791851, 0.0, 0.0, -0.0610485821962
2019-04-02 21:51:42.41,102234923, 0.0, 0.0, 353.0, 584.090026855, -35.363261, 149.1652299, 0.998134791851, 0.0, 0.0, -0.0610485821962
2019-04-02 21:51:42.51,102334883, 0.0, 0.0, 353.0, 584.090026855, -35.363261, 149.1652299, 0.998134791851, 0.0, 0.0, -0.0610485821962
2019-04-02 21:51:42.61,102434843, 0.0, 0.0, 353.0, 584.090026855, -35.363261, 149.1652299, 0.998134791851, 0.0, 0.0, -0.0610485821962
2019-04-02 21:51:42.71,102534803, 0.0, 0.0, 353.0, 584.090026855, -35.363261, 149.1652299, 0.998134791851, 0.0, 0.0, -0.0610485821962
2019-04-02 21:51:42.81,102634763, 0.0, 0.0, 353.0, 584.090026855, -35.363261, 149.1652299, 0.998134791851, 0.0, 0.0, -0.0610485821962
2019-04-02 21:51:42.91,102734723, 0.0, 0.0, 353.0, 584.090026855, -35.363261, 149.1652299, 0.998134791851, 0.0, 0.0, -0.0610485821962
2019-04-02 21:51:43.01,102834683, 0.0, 0.0, 353.0, 584.090026855, -35.363261, 149.1652299, 0.998134791851, 0.0, 0.0, -0.0610485821962
2019-04-02 21:51:43.11,102934643, 0.0, 0.0, 353.0, 584.090026855, -35.363261, 149.1652299, 0.998134791851, 0.0, 0.0, -0.0610485821962
2019-04-02 21:51:43.21,103034603, 0.0, 0.0, 353.0, 584.090026855, -35.363261, 149.1652299, 0.998134791851, 0.0, 0.0, -0.0610485821962
2019-04-02 21:51:43.31,103134563, 0.0, 0.0, 353.0, 584.090026855, -35.363261, 149.1652299, 0.998134791851, 0.0, 0.0, -0.0610485821962
2019-04-02 21:51:43.41,103234523, 0.0, 0.0, 353.0, 584.090026855, -35.363261, 149.1652299, 0.998134791851, 0.0, 0.0, -0.0610485821962
2019-04-02 21:51:43.51,103334483, 0.0, 0.0, 353.0, 584.090026855, -35.363261, 149.1652299, 0.998134791851, 0.0, 0.0, -0.0610485821962
2019-04-02 21:51:43.61,103434443, 0.0, 0.0, 353.0, 584.090026855, -35.363261, 149.1652299, 0.998134791851, 0.0, 0.0, -0.0610485821962
2019-04-02 21:51:43.71,103535236, 0.0, 0.0, 353.0, 584.090026855, -35.363261, 149.1652299, 0.998134791851, 0.0, 0.0, -0.0610485821962
2019-04-02 21:51:43.81,103635196, 0.0, 0.0, 353.0, 584.090026855, -35.363261, 149.1652299, 0.998134791851, 0.0, 0.0, -0.0610485821962
2019-04-02 21:51:43.91,103735156, 0.0, 0.0, 353.0, 584.090026855, -35.363261, 149.1652299, 0.998134791851, 0.0, 0.0, -0.0610485821962
2019-04-02 21:51:44.01,103835116, 0.0, 0.0, 353.0, 584.090026855, -35.363261, 149.1652299, 0.998134791851, 0.0, 0.0, -0.0610485821962
2019-04-02 21:51:44.11,103935076, 0.0, 0.0, 353.0, 584.090026855, -35.363261, 149.1652299, 0.998134791851, 0.0, 0.0, -0.0610485821962
2019-04-02 21:51:44.21,104035036, 0.0, 0.0, 353.0, 584.090026855, -35.363261, 149.1652299, 0.998134791851, 0.0, 0.0, -0.0610485821962
2019-04-02 21:51:44.31,104134996, 0.0, 0.0, 353.0, 584.090026855, -35.363261, 149.1652299, 0.998134791851, 0.0, 0.0, -0.0610485821962
2019-04-02 21:51:44.41,104234956, 0.0, 0.0, 353.0, 584.090026855, -35.363261, 149.1652299, 0.998134791851, 0.0, 0.0, -0.0610485821962
2019-04-02 21:51:44.51,104334916, 0.0, 0.0, 353.0, 584.090026855, -35.363261, 149.1652299, 0.998134791851, 0.0, 0.0, -0.0610485821962
2019-04-02 21:51:44.61,104434876, 0.0, 0.0, 353.0, 584.090026855, -35.363261, 149.1652299, 0.998134791851, 0.0, 0.0, -0.0610485821962
2019-04-02 21:51:44.71,104534836, 0.0, 0.0, 353.0, 584.090026855, -35.363261, 149.1652299, 0.998134791851, 0.0, 0.0, -0.0610485821962
2019-04-02 21:51:44.81,104634796, 0.0, 0.0, 353.0, 584.090026855, -35.363261, 149.1652299, 0.998134791851, 0.0, 0.0, -0.0610485821962
2019-04-02 21:51:44.91,104734756, 0.0, 0.0, 353.0, 584.090026855, -35.363261, 149.1652299, 0.998134791851, 0.0, 0.0, -0.0610485821962
2019-04-02 21:51:45.01,104834716, 0.0, 0.0, 353.0, 584.090026855, -35.363261, 149.1652299, 0.998134791851, 0.0, 0.0, -0.0610485821962
2019-04-02 21:51:45.11,104934676, 0.0, 0.0, 353.0, 584.090026855, -35.363261, 149.1652299, 0.998134791851, 0.0, 0.0, -0.0610485821962
2019-04-02 21:51:45.21,105034636, 0.0, 0.0, 353.0, 584.090026855, -35.363261, 149.1652299, 0.998134791851, 0.0, 0.0, -0.0610485821962
2019-04-02 21:51:45.31,105134596, 0.0, 0.0, 353.0, 584.090026855, -35.363261, 149.1652299, 0.998134791851, 0.0, 0.0, -0.0610485821962
2019-04-02 21:51:45.41,105234556, 0.0, 0.0, 353.0, 584.090026855, -35.363261, 149.1652299, 0.998134791851, 0.0, 0.0, -0.0610485821962
2019-04-02 21:51:45.51,105334516, 0.0, 0.0, 353.0, 584.090026855, -35.363261, 149.1652299, 0.998134791851, 0.0, 0.0, -0.0610485821962
2019-04-02 21:51:45.61,105434476, 0.0, 0.0, 353.0, 584.090026855, -35.363261, 149.1652299, 0.998134791851, 0.0, 0.0, -0.0610485821962
2019-04-02 21:51:45.71,105534436, 0.0, 0.0, 353.0, 584.090026855, -35.363261, 149.1652299, 0.998134791851, 0.0, 0.0, -0.0610485821962
2019-04-02 21:51:45.81,105635229, 0.0, 0.0, 353.0, 584.090026855, -35.363261, 149.1652299, 0.998134791851, 0.0, 0.0, -0.0610485821962
2019-04-02 21:51:45.91,105735189, 0.0, 0.0, 353.0, 584.090026855, -35.363261, 149.1652299, 0.998134791851, 0.0, 0.0, -0.0610485821962
2019-04-02 21:51:46.01,105835149, 0.0, 0.0, 353.0, 584.090026855, -35.363261, 149.1652299, 0.998134791851, 0.0, 0.0, -0.0610485821962
2019-04-02 21:51:46.11,105935109, 0.0, 0.0, 353.0, 584.090026855, -35.363261, 149.1652299, 0.998134791851, 0.0, 0.0, -0.0610485821962
2019-04-02 21:51:46.21,106035069, 0.0, 0.0, 353.0, 584.090026855, -35.363261, 149.1652299, 0.998134791851, 0.0, 0.0, -0.0610485821962
2019-04-02 21:51:46.31,106135029, 0.0, 0.0, 353.0, 584.090026855, -35.363261, 149.1652299, 0.998134791851, 0.0, 0.0, -0.0610485821962
2019-04-02 21:51:46.41,106234989, 0.0, 0.0, 353.0, 584.090026855, -35.363261, 149.1652299, 0.998134791851, 0.0, 0.0, -0.0610485821962
2019-04-02 21:51:46.51,106334949, 0.0, 0.0, 353.0, 584.090026855, -35.363261, 149.1652299, 0.998134791851, 0.0, 0.0, -0.0610485821962
2019-04-02 21:51:46.61,106434909, 0.0, 0.0, 353.0, 584.090026855, -35.363261, 149.1652299, 0.998134791851, 0.0, 0.0, -0.0610485821962
2019-04-02 21:51:46.71,106534869, 0.0, 0.0, 353.0, 584.090026855, -35.363261, 149.1652299, 0.998134791851, 0.0, 0.0, -0.0610485821962
2019-04-02 21:51:46.81,106634829, 0.0, 0.0, 353.0, 584.090026855, -35.363261, 149.1652299, 0.998134791851, 0.0, 0.0, -0.0610485821962
2019-04-02 21:51:46.91,106734789, 0.0, 0.0, 353.0, 584.090026855, -35.363261, 149.1652299, 0.998134791851, 0.0, 0.0, -0.0610485821962
2019-04-02 21:51:47.01,106834749, 0.0, 0.0, 353.0, 584.090026855, -35.363261, 149.1652299, 0.998134791851, 0.0, 0.0, -0.0610485821962
2019-04-02 21:51:47.11,106934709, 0.0, 0.0, 353.0, 584.090026855, -35.363261, 149.1652299, 0.998134791851, 0.0, 0.0, -0.0610485821962
2019-04-02 21:51:47.21,107034669, 0.0, 0.0, 353.0, 584.090026855, -35.363261, 149.1652299, 0.998134791851, 0.0, 0.0, -0.0610485821962
2019-04-02 21:51:47.31,107134629, 0.0, 0.0, 353.0, 584.090026855, -35.363261, 149.1652299, 0.998134791851, 0.0, 0.0, -0.0610485821962
2019-04-02 21:51:47.41,107234589, 0.0, 0.0, 353.0, 584.090026855, -35.363261, 149.1652299, 0.998134791851, 0.0, 0.0, -0.0610485821962
2019-04-02 21:51:47.51,107334549, 0.0, 0.0, 353.0, 584.090026855, -35.363261, 149.1652299, 0.998134791851, 0.0, 0.0, -0.0610485821962
2019-04-02 21:51:47.61,107434509, 0.0, 0.0, 353.0, 584.090026855, -35.363261, 149.1652299, 0.998134791851, 0.0, 0.0, -0.0610485821962
2019-04-02 21:51:47.71,107534469, 0.0, 0.0, 353.0, 584.090026855, -35.363261, 149.1652299, 0.998134791851, 0.0, 0.0, -0.0610485821962
2019-04-02 21:51:47.81,107634429, 0.0, 0.0, 353.0, 584.090026855, -35.363261, 149.1652299, 0.998134791851, 0.0, 0.0, -0.0610485821962
2019-04-02 21:51:47.91,107735222, 0.0, 0.0, 353.0, 584.090026855, -35.363261, 149.1652299, 0.998134791851, 0.0, 0.0, -0.0610485821962
2019-04-02 21:51:48.01,107835182, 0.0, 0.0, 353.0, 584.090026855, -35.363261, 149.1652299, 0.998134791851, 0.0, 0.0, -0.0610485821962
2019-04-02 21:51:48.11,107935142, 0.0, 0.0, 353.0, 584.090026855, -35.363261, 149.1652299, 0.998134791851, 0.0, 0.0, -0.0610485821962
2019-04-02 21:51:48.21,108035102, 0.0, 0.0, 353.0, 584.090026855, -35.363261, 149.1652299, 0.998134791851, 0.0, 0.0, -0.0610485821962
2019-04-02 21:51:48.31,108135062, 0.0, 0.0, 353.0, 584.090026855, -35.363261, 149.1652299, 0.998134791851, 0.0, 0.0, -0.0610485821962
2019-04-02 21:51:48.41,108235022, 0.0, 0.0, 353.0, 584.090026855, -35.363261, 149.1652299, 0.998134791851, 0.0, 0.0, -0.0610485821962
2019-04-02 21:51:48.51,108334982, 0.0, 0.0, 353.0, 584.090026855, -35.363261, 149.1652299, 0.998134791851, 0.0, 0.0, -0.0610485821962
2019-04-02 21:51:48.61,108434942, 0.0, 0.0, 353.0, 584.090026855, -35.363261, 149.1652299, 0.998134791851, 0.0, 0.0, -0.0610485821962
2019-04-02 21:51:48.71,108534902, 0.0, 0.0, 353.0, 584.090026855, -35.363261, 149.1652299, 0.998134791851, 0.0, 0.0, -0.0610485821962
2019-04-02 21:51:48.81,108634862, 0.0, 0.0, 353.0, 584.090026855, -35.363261, 149.1652299, 0.998134791851, 0.0, 0.0, -0.0610485821962
2019-04-02 21:51:48.91,108734822, 0.0, 0.0, 353.0, 584.090026855, -35.363261, 149.1652299, 0.998134791851, 0.0, 0.0, -0.0610485821962
2019-04-02 21:51:49.01,108834782, 0.0, 0.0, 353.0, 584.090026855, -35.363261, 149.1652299, 0.998134791851, 0.0, 0.0, -0.0610485821962
2019-04-02 21:51:49.11,108934742, 0.0, 0.0, 353.0, 584.090026855, -35.363261, 149.1652299, 0.998134791851, 0.0, 0.0, -0.0610485821962
2019-04-02 21:51:49.21,109034702, 0.0, 0.0, 353.0, 584.090026855, -35.363261, 149.1652299, 0.998134791851, 0.0, 0.0, -0.0610485821962
2019-04-02 21:51:49.31,109134662, 0.0, 0.0, 353.0, 584.090026855, -35.363261, 149.1652299, 0.998134791851, 0.0, 0.0, -0.0610485821962
2019-04-02 21:51:49.41,109234622, 0.0, 0.0, 353.0, 584.090026855, -35.363261, 149.1652299, 0.998134791851, 0.0, 0.0, -0.0610485821962
2019-04-02 21:51:49.51,109334582, 0.0, 0.0, 353.0, 584.090026855, -35.363261, 149.1652299, 0.998134791851, 0.0, 0.0, -0.0610485821962
2019-04-02 21:51:49.61,109434542, 0.0, 0.0, 353.0, 584.090026855, -35.363261, 149.1652299, 0.998134791851, 0.0, 0.0, -0.0610485821962
2019-04-02 21:51:49.71,109534502, 0.0, 0.0, 353.0, 584.090026855, -35.363261, 149.1652299, 0.998134791851, 0.0, 0.0, -0.0610485821962
2019-04-02 21:51:49.81,109634462, 0.0, 0.0, 353.0, 584.090026855, -35.363261, 149.1652299, 0.998134791851, 0.0, 0.0, -0.0610485821962
2019-04-02 21:51:49.91,109734422, 0.0, 0.0, 353.0, 584.090026855, -35.363261, 149.1652299, 0.998134791851, 0.0, 0.0, -0.0610485821962
2019-04-02 21:51:50.01,109835215, 0.0, 0.0, 353.0, 584.090026855, -35.363261, 149.1652299, 0.998134791851, 0.0, 0.0, -0.0610485821962
2019-04-02 21:51:50.11,109935175, 0.0, 0.0, 353.0, 584.090026855, -35.363261, 149.1652299, 0.998134791851, 0.0, 0.0, -0.0610485821962
2019-04-02 21:51:50.21,110035135, 0.0, 0.0, 353.0, 584.090026855, -35.363261, 149.1652299, 0.998134791851, 0.0, 0.0, -0.0610485821962
2019-04-02 21:51:50.31,110135095, 0.0, 0.0, 353.0, 584.090026855, -35.363261, 149.1652299, 0.998134791851, 0.0, 0.0, -0.0610485821962
2019-04-02 21:51:50.41,110235055, 0.0, 0.0, 353.0, 584.090026855, -35.363261, 149.1652299, 0.998134791851, 0.0, 0.0, -0.0610485821962
2019-04-02 21:51:50.51,110335015, 0.0, 0.0, 353.0, 584.090026855, -35.363261, 149.1652299, 0.998134791851, 0.0, 0.0, -0.0610485821962
2019-04-02 21:51:50.61,110434975, 0.0, 0.0, 353.0, 584.090026855, -35.363261, 149.1652299, 0.998134791851, 0.0, 0.0, -0.0610485821962
2019-04-02 21:51:50.71,110534935, 0.0, 0.0, 353.0, 584.090026855, -35.363261, 149.1652299, 0.998134791851, 0.0, 0.0, -0.0610485821962
2019-04-02 21:51:50.81,110634895, 0.0, 0.0, 353.0, 584.090026855, -35.363261, 149.1652299, 0.998134791851, 0.0, 0.0, -0.0610485821962
2019-04-02 21:51:50.91,110734855, 0.0, 0.0, 353.0, 584.090026855, -35.363261, 149.1652299, 0.998134791851, 0.0, 0.0, -0.0610485821962
2019-04-02 21:51:51.01,110834815, 0.0, 0.0, 353.0, 584.090026855, -35.363261, 149.1652299, 0.998134791851, 0.0, 0.0, -0.0610485821962
2019-04-02 21:51:51.11,110934775, 0.0, 0.0, 353.0, 584.090026855, -35.363261, 149.1652299, 0.998134791851, 0.0, 0.0, -0.0610485821962
2019-04-02 21:51:51.21,111034735, 0.0, 0.0, 353.0, 584.090026855, -35.363261, 149.1652299, 0.998134791851, 0.0, 0.0, -0.0610485821962
2019-04-02 21:51:51.31,111134695, 0.0, 0.0, 353.0, 584.090026855, -35.363261, 149.1652299, 0.998134791851, 0.0, 0.0, -0.0610485821962
2019-04-02 21:51:51.41,111234655, 0.0, 0.0, 353.0, 584.090026855, -35.363261, 149.1652299, 0.998134791851, 0.0, 0.0, -0.0610485821962
2019-04-02 21:51:58.11,117934474, 0.0, 0.0, 353.0, 584.090026855, -35.363261, 149.1652299, 0.998134791851, 0.0, 0.0, -0.0610485821962
2019-04-02 21:51:58.21,118034434, 0.0, 0.0, 353.0, 584.090026855, -35.363261, 149.1652299, 0.998134791851, 0.0, 0.0, -0.0610485821962
2019-04-02 21:51:58.31,118135227, 0.0, 0.0, 353.0, 584.090026855, -35.363261, 149.1652299, 0.998134791851, 0.0, 0.0, -0.0610485821962
2019-04-02 21:51:58.41,118235187, 0.0, 0.0, 353.0, 584.090026855, -35.363261, 149.1652299, 0.998134791851, 0.0, 0.0, -0.0610485821962
2019-04-02 21:51:58.51,118335147, 0.0, 0.0, 353.0, 584.090026855, -35.363261, 149.1652299, 0.998134791851, 0.0, 0.0, -0.0610485821962
2019-04-02 21:51:58.61,118435107, 0.0, 0.0, 353.0, 584.090026855, -35.363261, 149.1652299, 0.998134791851, 0.0, 0.0, -0.0610485821962
2019-04-02 21:51:58.71,118535067, 0.0, 0.0, 353.0, 584.090026855, -35.363261, 149.1652299, 0.998134791851, 0.0, 0.0, -0.0610485821962
2019-04-02 21:51:58.81,118635027, 0.0, 0.0, 353.0, 584.090026855, -35.363261, 149.1652299, 0.998134791851, 0.0, 0.0, -0.0610485821962
2019-04-02 21:51:58.91,118734987, 0.0, 0.0, 353.0, 584.090026855, -35.363261, 149.1652299, 0.998134791851, 0.0, 0.0, -0.0610485821962
2019-04-02 21:51:59.01,118834947, 0.0, 0.0, 353.0, 584.090026855, -35.363261, 149.1652299, 0.998134791851, 0.0, 0.0, -0.0610485821962
2019-04-02 21:51:59.11,118934907, 0.0, 0.0, 353.0, 584.090026855, -35.363261, 149.1652299, 0.998134791851, 0.0, 0.0, -0.0610485821962
2019-04-02 21:51:59.21,119034867, 0.0, 0.0, 353.0, 584.090026855, -35.363261, 149.1652299, 0.998134791851, 0.0, 0.0, -0.0610485821962
2019-04-02 21:51:59.31,119134827, 0.0, 0.0, 353.0, 584.090026855, -35.363261, 149.1652299, 0.998134791851, 0.0, 0.0, -0.0610485821962
2019-04-02 21:51:59.41,119234787, 0.0, 0.0, 353.0, 584.090026855, -35.363261, 149.1652299, 0.998134791851, 0.0, 0.0, -0.0610485821962
2019-04-02 21:51:59.51,119334747, 0.0, 0.0, 353.0, 584.090026855, -35.363261, 149.1652299, 0.998134791851, 0.0, 0.0, -0.0610485821962
2019-04-02 21:51:59.61,119434707, 0.0, 0.0, 353.0, 584.090026855, -35.363261, 149.1652299, 0.998134791851, 0.0, 0.0, -0.0610485821962
2019-04-02 21:51:59.71,119534667, 0.0, 0.0, 353.0, 584.090026855, -35.363261, 149.1652299, 0.998134791851, 0.0, 0.0, -0.0610485821962
2019-04-02 21:51:59.81,119634627, 0.0, 0.0, 353.0, 584.090026855, -35.363261, 149.1652299, 0.998134791851, 0.0, 0.0, -0.0610485821962
2019-04-02 21:51:59.91,119734587, 0.0, 0.0, 353.0, 584.090026855, -35.363261, 149.1652299, 0.998134791851, 0.0, 0.0, -0.0610485821962
2019-04-02 21:52:00.01,119834547, 0.0, 0.0, 353.0, 584.090026855, -35.363261, 149.1652299, 0.998134791851, 0.0, 0.0, -0.0610485821962
2019-04-02 21:52:00.11,119934507, 0.0, 0.0, 353.0, 584.090026855, -35.363261, 149.1652299, 0.998134791851, 0.0, 0.0, -0.0610485821962
2019-04-02 21:52:00.21,120034467, 0.0, 0.0, 353.0, 584.090026855, -35.363261, 149.1652299, 0.998134791851, 0.0, 0.0, -0.0610485821962
2019-04-02 21:52:00.31,120134427, 0.0, 0.0, 353.0, 584.090026855, -35.363261, 149.1652299, 0.998134791851, 0.0, 0.0, -0.0610485821962
2019-04-02 21:52:00.41,120235220, 0.0, 0.0, 353.0, 584.090026855, -35.363261, 149.1652299, 0.998134791851, 0.0, 0.0, -0.0610485821962
2019-04-02 21:52:00.51,120335180, 0.0, 0.0, 353.0, 584.090026855, -35.363261, 149.1652299, 0.998134791851, 0.0, 0.0, -0.0610485821962
2019-04-02 21:52:00.61,120435140, 0.0, 0.0, 353.0, 584.090026855, -35.363261, 149.1652299, 0.998134791851, 0.0, 0.0, -0.0610485821962
2019-04-02 21:52:00.71,120535100, 0.0, 0.0, 353.0, 584.090026855, -35.363261, 149.1652299, 0.998134791851, 0.0, 0.0, -0.0610485821962
2019-04-02 21:52:00.81,120635060, 0.0, 0.0, 353.0, 584.090026855, -35.363261, 149.1652299, 0.998134791851, 0.0, 0.0, -0.0610485821962
2019-04-02 21:52:00.91,120735020, 0.0, 0.0, 353.0, 584.090026855, -35.363261, 149.1652299, 0.998134791851, 0.0, 0.0, -0.0610485821962
2019-04-02 21:52:01.01,120834980, 0.0, 0.0, 353.0, 584.090026855, -35.363261, 149.1652299, 0.998134791851, 0.0, 0.0, -0.0610485821962
2019-04-02 21:52:01.11,120934940, 0.0, 0.0, 353.0, 584.090026855, -35.363261, 149.1652299, 0.998134791851, 0.0, 0.0, -0.0610485821962
2019-04-02 21:52:01.21,121034900, 0.0, 0.0, 353.0, 584.090026855, -35.363261, 149.1652299, 0.998134791851, 0.0, 0.0, -0.0610485821962
2019-04-02 21:52:01.31,121134860, 0.0, 0.0, 353.0, 584.090026855, -35.363261, 149.1652299, 0.998134791851, 0.0, 0.0, -0.0610485821962
2019-04-02 21:52:01.41,121234820, 0.0, 0.0, 353.0, 584.090026855, -35.363261, 149.1652299, 0.998134791851, 0.0, 0.0, -0.0610485821962
2019-04-02 21:52:01.51,121334780, 0.0, 0.0, 353.0, 584.090026855, -35.363261, 149.1652299, 0.998134791851, 0.0, 0.0, -0.0610485821962
2019-04-02 21:52:01.61,121434740, 0.0, 0.0, 353.0, 584.090026855, -35.363261, 149.1652299, 0.998134791851, 0.0, 0.0, -0.0610485821962
2019-04-02 21:52:01.71,121534700, 0.0, 0.0, 353.0, 584.090026855, -35.363261, 149.1652299, 0.998134791851, 0.0, 0.0, -0.0610485821962
2019-04-02 21:52:01.81,121634660, 0.0, 0.0, 353.0, 584.090026855, -35.363261, 149.1652299, 0.998134791851, 0.0, 0.0, -0.0610485821962
2019-04-02 21:52:01.91,121734620, 0.0, 0.0, 353.0, 584.090026855, -35.363261, 149.1652299, 0.998134791851, 0.0, 0.0, -0.0610485821962
2019-04-02 21:52:02.01,121834580, 0.0, 0.0, 353.0, 584.090026855, -35.363261, 149.1652299, 0.998134791851, 0.0, 0.0, -0.0610485821962
2019-04-02 21:52:02.11,121934540, 0.0, 0.0, 353.0, 584.090026855, -35.363261, 149.1652299, 0.998134791851, 0.0, 0.0, -0.0610485821962
2019-04-02 21:52:02.21,122034500, 0.0, 0.0, 353.0, 584.090026855, -35.363261, 149.1652299, 0.998134791851, 0.0, 0.0, -0.0610485821962
2019-04-02 21:52:02.31,122134460, 0.0, 0.0, 353.0, 584.090026855, -35.363261, 149.1652299, 0.998134791851, 0.0, 0.0, -0.0610485821962
2019-04-02 21:52:02.41,122234420, 0.0, 0.0, 353.0, 584.090026855, -35.363261, 149.1652299, 0.998134791851, 0.0, 0.0, -0.0610485821962
2019-04-02 21:52:02.51,122335213, 0.0, 0.0, 353.0, 584.090026855, -35.363261, 149.1652299, 0.998134791851, 0.0, 0.0, -0.0610485821962
2019-04-02 21:52:02.61,122435173, 0.0, 0.0, 353.0, 584.090026855, -35.363261, 149.1652299, 0.998134791851, 0.0, 0.0, -0.0610485821962
2019-04-02 21:52:02.71,122535133, 0.0, 0.0, 353.0, 584.090026855, -35.363261, 149.1652299, 0.998134791851, 0.0, 0.0, -0.0610485821962
2019-04-02 21:52:02.81,122635093, 0.0, 0.0, 353.0, 584.090026855, -35.363261, 149.1652299, 0.998134791851, 0.0, 0.0, -0.0610485821962
2019-04-02 21:52:02.91,122735053, 0.0, 0.0, 353.0, 584.090026855, -35.363261, 149.1652299, 0.998134791851, 0.0, 0.0, -0.0610485821962
2019-04-02 21:52:03.01,122835013, 0.0, 0.0, 353.0, 584.090026855, -35.363261, 149.1652299, 0.998134791851, 0.0, 0.0, -0.0610485821962
2019-04-02 21:52:03.11,122934973, 0.0, 0.0, 353.0, 584.090026855, -35.363261, 149.1652299, 0.998134791851, 0.0, 0.0, -0.0610485821962
2019-04-02 21:52:03.21,123034933, 0.0, 0.0, 353.0, 584.090026855, -35.363261, 149.1652299, 0.998134791851, 0.0, 0.0, -0.0610485821962
2019-04-02 21:52:03.31,123134893, 0.0, 0.0, 353.0, 584.090026855, -35.363261, 149.1652299, 0.998134791851, 0.0, 0.0, -0.0610485821962
2019-04-02 21:52:03.41,123234853, 0.0, 0.0, 353.0, 584.090026855, -35.363261, 149.1652299, 0.998134791851, 0.0, 0.0, -0.0610485821962
2019-04-02 21:52:03.51,123334813, 0.0, 0.0, 353.0, 584.090026855, -35.363261, 149.1652299, 0.998134791851, 0.0, 0.0, -0.0610485821962
2019-04-02 21:52:03.61,123434773, 0.0, 0.0, 353.0, 584.090026855, -35.363261, 149.1652299, 0.998134791851, 0.0, 0.0, -0.0610485821962
2019-04-02 21:52:03.71,123534733, 0.0, 0.0, 353.0, 584.090026855, -35.363261, 149.1652299, 0.998134791851, 0.0, 0.0, -0.0610485821962
2019-04-02 21:52:03.81,123634693, 0.0, 0.0, 353.0, 584.090026855, -35.363261, 149.1652299, 0.998134791851, 0.0, 0.0, -0.0610485821962
2019-04-02 21:52:03.91,123734653, 0.0, 0.0, 353.0, 584.090026855, -35.363261, 149.1652299, 0.998134791851, 0.0, 0.0, -0.0610485821962
2019-04-02 21:52:04.01,123834613, 0.0, 0.0, 353.0, 584.090026855, -35.363261, 149.1652299, 0.998134791851, 0.0, 0.0, -0.0610485821962
2019-04-02 21:52:04.11,123934573, 0.0, 0.0, 353.0, 584.090026855, -35.363261, 149.1652299, 0.998134791851, 0.0, 0.0, -0.0610485821962
2019-04-02 21:52:04.21,124034533, 0.0, 0.0, 353.0, 584.090026855, -35.363261, 149.1652299, 0.998134791851, 0.0, 0.0, -0.0610485821962
2019-04-02 21:52:04.31,124134493, 0.0, 0.0, 353.0, 584.090026855, -35.363261, 149.1652299, 0.998134791851, 0.0, 0.0, -0.0610485821962
2019-04-02 21:52:04.41,124234453, 0.0, 0.0, 353.0, 584.090026855, -35.363261, 149.1652299, 0.998134791851, 0.0, 0.0, -0.0610486753285
2019-04-02 21:52:04.51,124334413, 0.0, 0.0, 353.0, 584.090026855, -35.363261, 149.1652299, 0.998134791851, 0.0, 0.0, -0.0610486753285
2019-04-02 21:52:04.61,124435206, 0.0, 0.0, 353.0, 584.090026855, -35.363261, 149.1652299, 0.998134791851, 0.0, 0.0, -0.0610486753285
2019-04-02 21:52:04.71,124535166, 0.0, 0.0, 353.0, 584.090026855, -35.363261, 149.1652299, 0.998134791851, 0.0, 0.0, -0.0610486753285
2019-04-02 21:52:04.81,124635126, 0.0, 0.0, 353.0, 584.090026855, -35.363261, 149.1652299, 0.998134791851, 0.0, 0.0, -0.0610486753285
2019-04-02 21:52:04.91,124735086, 0.0, 0.0, 353.0, 584.090026855, -35.363261, 149.1652299, 0.998134791851, 0.0, 0.0, -0.0610486753285
2019-04-02 21:52:05.01,124835046, 0.0, 0.0, 353.0, 584.090026855, -35.363261, 149.1652299, 0.998134791851, 0.0, 0.0, -0.0610486753285
2019-04-02 21:52:05.11,124935006, 0.0, 0.0, 353.0, 584.090026855, -35.363261, 149.1652299, 0.998134791851, 0.0, 0.0, -0.0610486753285
2019-04-02 21:52:05.21,125034966, 0.0, 0.0, 353.0, 584.099975586, -35.363261, 149.1652299, 0.998134791851, 0.0, 0.0, -0.0610486753285
2019-04-02 21:52:05.31,125134926, 0.0, 0.0, 353.0, 584.099975586, -35.363261, 149.1652299, 0.998134791851, 0.0, 0.0, -0.0610486753285
2019-04-02 21:52:05.41,125234886, 0.0, 0.0, 353.0, 584.109985352, -35.363261, 149.1652299, 0.998134791851, 0.0, 0.0, -0.0610486753285
2019-04-02 21:52:05.51,125334846, 0.0, 0.0, 353.0, 584.130004883, -35.363261, 149.1652299, 0.998134791851, 0.0, 0.0, -0.0610486753285
2019-04-02 21:52:05.61,125434806, 0.0, 0.0, 353.0, 584.159973145, -35.363261, 149.1652299, 0.998134791851, 0.0, 0.0, -0.0610486753285
2019-04-02 21:52:05.71,125534766, 0.0, 0.0, 352.99, 584.190002441, -35.363261, 149.1652299, 0.998134791851, 0.0, 0.0, -0.0610487312078
2019-04-02 21:52:05.81,125634726, -0.01, -0.01, 352.99, 584.229980469, -35.363261, 149.1652299, 0.998134613037, -0.000147388695041, -0.000117873758427, -0.0610515549779
2019-04-02 21:52:05.91,125734686, -0.12, -0.11, 352.99, 584.309997559, -35.363261, 149.1652299, 0.998132407665, -0.00112036208156, -0.000909965310711, -0.0610713101923
2019-04-02 21:52:06.01,125834646, -0.28, -0.24, 352.99, 584.450012207, -35.363261, 149.1652299, 0.998125553131, -0.0026148261968, -0.00199349899776, -0.0611112676561
2019-04-02 21:52:06.11,125934606, -0.39, -0.35, 352.98, 584.599975586, -35.363261, 149.1652299, 0.998116791248, -0.00362959108315, -0.00291111902334, -0.0611660927534
2019-04-02 21:52:06.21,126034566, -0.41, -0.4, 352.98, 584.760009766, -35.363261, 149.1652299, 0.998110890388, -0.00380494818091, -0.00329893338494, -0.0612316727638
2019-04-02 21:52:06.31,126134526, -0.35, -0.37, 352.97, 584.909973145, -35.363261, 149.1652299, 0.998109340668, -0.00333519093692, -0.00308527820744, -0.0612953789532
2019-04-02 21:52:06.41,126234486, -0.28, -0.29, 352.96, 585.059997559, -35.363261, 149.1652299, 0.99810987711, -0.00265725119971, -0.00241701770574, -0.0613497160375
2019-04-02 21:52:06.51,126334446, -0.21, -0.17, 352.96, 585.219970703, -35.363261, 149.1652299, 0.998110949993, -0.00200448441319, -0.00140153232496, -0.0613887049258
2019-04-02 21:52:06.61,126435239, -0.15, -0.04, 352.95, 585.380004883, -35.363261, 149.1652298, 0.998110949993, -0.00141178327613, -0.000339919031831, -0.0614205785096
2019-04-02 21:52:06.71,126535199, -0.1, 0.02, 352.95, 585.549987793, -35.3632609, 149.1652298, 0.998110294342, -0.00090554606868, 0.00028062183992, -0.0614409446716
2019-04-02 21:52:06.81,126635159, -0.07, 0.03, 352.95, 585.729980469, -35.3632609, 149.1652298, 0.998109281063, -0.000612822943367, 0.000372366834199, -0.0614606104791
2019-04-02 21:52:06.91,126735119, -0.04, 0.0, 352.95, 585.909973145, -35.3632609, 149.1652298, 0.998108923435, -0.000424584723078, 7.50554463593e-05, -0.0614685714245
2019-04-02 21:52:07.01,126835079, -0.04, -0.04, 352.95, 586.090026855, -35.3632609, 149.1652298, 0.998109161854, -0.000421838019975, -0.000330325536197, -0.0614647865295
2019-04-02 21:52:07.11,126935039, -0.06, -0.07, 352.95, 586.280029297, -35.3632609, 149.1652298, 0.998109519482, -0.000595651858021, -0.000600961386226, -0.0614550970495
2019-04-02 21:52:07.21,127034999, -0.07, -0.07, 352.95, 586.469970703, -35.3632609, 149.1652298, 0.998109638691, -0.000716718262993, -0.000589826260693, -0.0614515729249
2019-04-02 21:52:07.31,127134959, -0.06, -0.04, 352.95, 586.659973145, -35.3632608, 149.1652297, 0.998110175133, -0.000563374778721, -0.000347783352481, -0.0614461116493
2019-04-02 21:52:07.41,127234919, -0.01, 0.0, 352.95, 586.859985352, -35.3632608, 149.1652297, 0.998111009598, -0.000176307978109, -2.36038449657e-05, -0.0614368729293
2019-04-02 21:52:07.51,127334879, 0.01, 0.02, 352.95, 587.049987793, -35.3632608, 149.1652297, 0.99811142683, 0.000121742770716, 0.000238598120632, -0.0614292770624
2019-04-02 21:52:07.61,127434839, 0.02, 0.02, 352.95, 587.260009766, -35.3632608, 149.1652297, 0.998111367226, 0.000194359905436, 0.000208082346944, -0.0614304617047
2019-04-02 21:52:07.71,127534799, 0.01, 0.01, 352.95, 587.460021973, -35.3632608, 149.1652296, 0.998110353947, 0.000150005755131, 0.00014701008331, -0.0614462904632
2019-04-02 21:52:07.81,127634759, -0.01, 0.0, 352.95, 587.659973145, -35.3632608, 149.1652296, 0.998109221458, -8.72377422638e-05, 5.12040351168e-05, -0.0614654831588
2019-04-02 21:52:07.91,127734719, -0.03, 0.0, 352.95, 587.869995117, -35.3632608, 149.1652296, 0.998108029366, -0.000329691101797, -4.31793232565e-05, -0.0614841207862
2019-04-02 21:52:08.01,127834679, -0.04, 0.0, 352.94, 588.08001709, -35.3632608, 149.1652296, 0.998106598854, -0.000425170466769, -5.95741803409e-05, -0.0615061335266
2019-04-02 21:52:08.11,127934639, -0.03, 0.0, 352.94, 588.289978027, -35.3632608, 149.1652296, 0.998106122017, -0.000323875108734, -4.06653598475e-05, -0.0615152381361
2019-04-02 21:52:08.21,128034599, -0.03, -0.01, 352.94, 588.5, -35.3632608, 149.1652296, 0.99810564518, -0.000338119221851, -6.82475947542e-05, -0.0615224763751
2019-04-02 21:52:08.31,128134559, -0.04, -0.01, 352.94, 588.710021973, -35.3632608, 149.1652294, 0.998104989529, -0.000390560599044, -0.000136574250064, -0.0615331716835
2019-04-02 21:52:08.41,128234519, -0.04, -0.03, 352.94, 588.929992676, -35.3632607, 149.1652294, 0.998103618622, -0.000385976862162, -0.00026539969258, -0.0615547411144
2019-04-02 21:52:08.51,128334479, -0.02, -0.05, 352.93, 589.140014648, -35.3632607, 149.1652294, 0.998101592064, -0.00026913441252, -0.000500460562762, -0.0615871399641
2019-04-02 21:52:08.61,128434439, -0.01, -0.09, 352.93, 589.359985352, -35.3632607, 149.1652294, 0.998099148273, -0.000164182216395, -0.00080443546176, -0.061623185873
2019-04-02 21:52:08.71,128535232, -0.02, -0.12, 352.92, 589.58001709, -35.3632607, 149.1652294, 0.998095750809, -0.000288802257273, -0.00106444698758, -0.0616738647223
2019-04-02 21:52:08.81,128635192, -0.05, -0.13, 352.91, 589.799987793, -35.3632607, 149.1652294, 0.998091042042, -0.000560354616027, -0.00116997165605, -0.0617460981011
2019-04-02 21:52:08.91,128735152, -0.07, -0.13, 352.91, 590.020019531, -35.3632607, 149.1652293, 0.998085677624, -0.000747562327888, -0.00111715379171, -0.061832100153
2019-04-02 21:52:09.01,128835112, -0.07, -0.14, 352.9, 590.229980469, -35.3632607, 149.1652293, 0.998080134392, -0.000753132801037, -0.00126315664966, -0.0619186088443
2019-04-02 21:52:09.11,128935072, -0.07, -0.17, 352.89, 590.460021973, -35.3632607, 149.1652293, 0.998074889183, -0.000709797081072, -0.00144532916602, -0.0619991309941
2019-04-02 21:52:09.21,129035032, -0.09, -0.18, 352.88, 590.679992676, -35.3632607, 149.1652293, 0.998070299625, -0.000956847157795, -0.00158013519831, -0.0620669573545
2019-04-02 21:52:09.31,129134992, -0.12, -0.19, 352.87, 590.900024414, -35.3632607, 149.1652293, 0.998067319393, -0.00116800575051, -0.00165576790459, -0.0621093958616
2019-04-02 21:52:09.41,129234952, -0.11, -0.2, 352.87, 591.119995117, -35.3632607, 149.1652293, 0.998065948486, -0.00108929595444, -0.0017631854862, -0.0621300339699
2019-04-02 21:52:09.51,129334912, -0.07, -0.21, 352.87, 591.340026855, -35.3632605, 149.1652293, 0.998065173626, -0.000776334782131, -0.00181676202919, -0.0621459670365
2019-04-02 21:52:09.61,129434872, -0.03, -0.2, 352.87, 591.570007324, -35.3632605, 149.1652293, 0.998064041138, -0.000423800112912, -0.00173658353742, -0.0621689818799
2019-04-02 21:52:09.71,129534832, -0.01, -0.17, 352.86, 591.789978027, -35.3632605, 149.1652292, 0.998062610626, -0.000188414836884, -0.00154061953072, -0.0621981956065
2019-04-02 21:52:09.81,129634792, 0.0, -0.16, 352.86, 592.020019531, -35.3632605, 149.1652292, 0.998060822487, -4.10119355365e-05, -0.00145009241533, -0.062228731811
2019-04-02 21:52:09.91,129734752, 0.01, -0.16, 352.86, 592.239990234, -35.3632605, 149.1652292, 0.99805867672, 1.72972740984e-05, -0.00142273853999, -0.0622638836503
2019-04-02 21:52:10.01,129834712, 0.02, -0.15, 352.85, 592.469970703, -35.3632604, 149.1652291, 0.998056411743, 0.000155239671585, -0.00135534338187, -0.0623016282916
2019-04-02 21:52:10.11,129934672, 0.05, -0.12, 352.85, 592.700012207, -35.3632604, 149.1652291, 0.998053967953, 0.000419503601734, -0.00115196721163, -0.0623435936868
2019-04-02 21:52:10.21,130034632, 0.06, -0.09, 352.84, 592.91998291, -35.3632604, 149.1652291, 0.998051166534, 0.000520109198987, -0.000861510867253, -0.0623928196728
2019-04-02 21:52:10.31,130134592, 0.07, -0.05, 352.83, 593.150024414, -35.3632604, 149.1652291, 0.998048305511, 0.000584054156207, -0.000528578821104, -0.062442380935
2019-04-02 21:52:10.41,130234552, 0.09, -0.01, 352.83, 593.380004883, -35.3632604, 149.1652289, 0.998045504093, 0.000779075897299, -0.000210699057789, -0.0624866932631
2019-04-02 21:52:10.51,130334512, 0.09, 0.03, 352.83, 593.590026855, -35.3632604, 149.1652289, 0.998042702675, 0.000867847469635, 0.000294322817354, -0.062529630959
2019-04-02 21:52:10.61,130434472, 0.09, 0.11, 352.82, 593.799987793, -35.3632604, 149.1652289, 0.998039364815, 0.000902588595636, 0.000987738720141, -0.0625752881169
2019-04-02 21:52:10.71,130534432, 0.1, 0.18, 352.81, 594.0, -35.3632604, 149.1652289, 0.998035430908, 0.000983684789389, 0.00157750898506, -0.062625028193
2019-04-02 21:52:10.81,130635225, 0.1, 0.21, 352.81, 594.190002441, -35.3632604, 149.1652289, 0.998031616211, 0.00102563155815, 0.00179524172563, -0.0626786574721
2019-04-02 21:52:10.91,130735185, 0.11, 0.19, 352.8, 594.369995117, -35.3632603, 149.1652289, 0.998028516769, 0.00111787894275, 0.00162133667618, -0.0627311840653
2019-04-02 21:52:11.01,130835145, 0.13, 0.16, 352.8, 594.530029297, -35.3632603, 149.1652289, 0.998025596142, 0.00125826033764, 0.00135006161872, -0.0627815946937
2019-04-02 21:52:11.11,130935105, 0.2, 0.15, 352.79, 594.690002441, -35.3632603, 149.1652289, 0.998021781445, 0.001836912008, 0.00122304656543, -0.0628307014704
2019-04-02 21:52:11.21,131035065, 0.49, 0.08, 352.79, 594.83001709, -35.3632603, 149.1652289, 0.998011767864, 0.00433107279241, 0.000463227275759, -0.0628771185875
2019-04-02 21:52:11.31,131135025, 1.04, -0.09, 352.78, 594.950012207, -35.3632603, 149.1652289, 0.997976303101, 0.00906978081912, -0.00136369036045, -0.0629221573472
2019-04-02 21:52:11.41,131234985, 1.82, -0.35, 352.77, 595.070007324, -35.3632603, 149.1652289, 0.997884333134, 0.0157269407064, -0.00407658051699, -0.0629518851638
2019-04-02 21:52:11.51,131334945, 2.78, -0.67, 352.76, 595.16998291, -35.3632603, 149.1652291, 0.997703611851, 0.023886969313, -0.00737569434568, -0.062948256731
2019-04-02 21:52:11.61,131434905, 3.81, -1.01, 352.74, 595.260009766, -35.3632603, 149.1652292, 0.997424423695, 0.03267243132, -0.0109669761732, -0.0629027187824
2019-04-02 21:52:11.71,131534865, 4.8, -1.33, 352.73, 595.340026855, -35.3632602, 149.1652293, 0.997078835964, 0.0410700924695, -0.0142387105152, -0.0628033950925
2019-04-02 21:52:11.81,131634825, 5.61, -1.59, 352.72, 595.409973145, -35.3632601, 149.1652296, 0.99673807621, 0.047962628305, -0.016966111958, -0.0626496896148
2019-04-02 21:52:11.91,131734785, 6.22, -1.81, 352.72, 595.469970703, -35.3632599, 149.1652298, 0.9964453578, 0.053140912205, -0.0192290581763, -0.0624738559127
2019-04-02 21:52:12.01,131834745, 6.67, -2.0, 352.72, 595.520019531, -35.3632598, 149.1652302, 0.996207356453, 0.056971270591, -0.0211145412177, -0.0622843466699
2019-04-02 21:52:12.11,131934705, 7.03, -2.15, 352.73, 595.570007324, -35.3632597, 149.1652306, 0.996006309986, 0.0600570105016, -0.0226002950221, -0.0620787292719
2019-04-02 21:52:12.21,132034665, 7.37, -2.26, 352.74, 595.609985352, -35.3632595, 149.1652312, 0.995815575123, 0.0629135370255, -0.0237790048122, -0.0618695542216
2019-04-02 21:52:12.31,132134625, 7.66, -2.36, 352.75, 595.640014648, -35.3632592, 149.1652318, 0.995644807816, 0.0653581544757, -0.0247752089053, -0.0616921111941
2019-04-02 21:52:12.41,132234585, 7.89, -2.44, 352.75, 595.66998291, -35.363259, 149.1652326, 0.995502233505, 0.0673260912299, -0.0255694072694, -0.061552464962
2019-04-02 21:52:12.51,132334545, 8.07, -2.52, 352.75, 595.700012207, -35.3632586, 149.1652335, 0.995383322239, 0.068843215704, -0.0263617448509, -0.0614636577666
2019-04-02 21:52:12.61,132434505, 8.18, -2.6, 352.75, 595.729980469, -35.3632584, 149.1652344, 0.995299696922, 0.0697932094336, -0.0271039381623, -0.0614240095019
2019-04-02 21:52:12.71,132534465, 8.26, -2.67, 352.74, 595.75, -35.363258, 149.1652354, 0.995238125324, 0.0703998431563, -0.0277861729264, -0.0614237077534
2019-04-02 21:52:12.81,132634425, 8.39, -2.72, 352.75, 595.770019531, -35.3632577, 149.1652365, 0.995148539543, 0.0715676769614, -0.0282941926271, -0.0612935163081
2019-04-02 21:52:12.91,132735218, 8.7, -2.53, 353.07, 595.789978027, -35.3632572, 149.1652377, 0.995155394077, 0.0744001269341, -0.0265795961022, -0.0585142448545
2019-04-02 21:52:13.01,132835178, 9.16, -2.14, 354.38, 595.799987793, -35.3632567, 149.1652389, 0.995504796505, 0.0788797363639, -0.0225787572563, -0.0473118647933
2019-04-02 21:52:13.11,132935138, 9.66, -2.02, 357.24, 595.820007324, -35.3632562, 149.1652402, 0.99603831768, 0.0837656036019, -0.0196184944361, -0.0224973130971
2019-04-02 21:52:13.21,133035098, 10.02, -2.49, 1.71, 595.83001709, -35.3632558, 149.1652417, 0.995804309845, 0.0876243710518, -0.020357567817, 0.016773417592
2019-04-02 21:52:13.31,133135058, 10.06, -3.63, 7.58, 595.849975586, -35.3632553, 149.1652432, 0.993281424046, 0.0895453691483, -0.0256828162819, 0.0686585232615
2019-04-02 21:52:13.41,133235018, 9.64, -5.29, 14.6, 595.859985352, -35.3632549, 149.1652447, 0.986832737923, 0.0891627892852, -0.0349833071232, 0.130335539579
2019-04-02 21:52:13.51,133334978, 8.73, -7.25, 22.47, 595.880004883, -35.3632543, 149.1652465, 0.975086688995, 0.0867942646146, -0.0470697842538, 0.198638141155
2019-04-02 21:52:13.61,133434938, 7.29, -9.24, 30.94, 595.890014648, -35.3632537, 149.1652484, 0.957301676273, 0.082569539547, -0.0605956315994, 0.270340412855
2019-04-02 21:52:13.71,133534898, 5.39, -11.01, 39.75, 595.909973145, -35.3632532, 149.1652503, 0.933509528637, 0.0766580030322, -0.0741915404797, 0.342314302921
2019-04-02 21:52:13.81,133634858, 3.18, -12.35, 48.58, 595.91998291, -35.3632526, 149.1652523, 0.904565453529, 0.0694477036595, -0.0866860151291, 0.411611348391
2019-04-02 21:52:13.91,133734818, 0.87, -13.2, 57.12, 595.940002441, -35.363252, 149.1652543, 0.872011899948, 0.0616383329034, -0.0973080769181, 0.475738584995
2019-04-02 21:52:14.01,133834778, -1.61, -13.58, 65.01, 595.950012207, -35.3632513, 149.1652565, 0.838233411312, 0.0517717413604, -0.10724825412, 0.532148718834
2019-04-02 21:52:14.11,133934738, -4.17, -13.57, 71.6, 595.969970703, -35.3632506, 149.1652588, 0.807355225086, 0.0397610813379, -0.116897121072, 0.577002286911
2019-04-02 21:52:14.21,134034698, -6.32, -13.32, 76.32, 595.979980469, -35.3632497, 149.165261, 0.783699631691, 0.0284949578345, -0.124932944775, 0.60777848959
2019-04-02 21:52:14.31,134134658, -7.68, -13.07, 79.02, 596.0, -35.3632488, 149.1652634, 0.76958245039, 0.0209272615612, -0.129970669746, 0.624830007553
2019-04-02 21:52:14.41,134234618, -8.08, -12.96, 79.87, 596.020019531, -35.3632477, 149.1652658, 0.76507461071, 0.0185616090894, -0.131294101477, 0.630141437054
2019-04-02 21:52:14.51,134334578, -7.61, -13.07, 79.19, 596.030029297, -35.3632465, 149.1652685, 0.768671631813, 0.0215711966157, -0.129640355706, 0.625996828079
2019-04-02 21:52:14.61,134434538, -6.44, -13.43, 77.36, 596.049987793, -35.3632453, 149.165271, 0.77815413475, 0.0294510126114, -0.126059651375, 0.614587426186
2019-04-02 21:52:14.71,134534498, -4.77, -13.99, 74.74, 596.070007324, -35.3632441, 149.1652736, 0.791187763214, 0.0409907028079, -0.121806308627, 0.59791713953
2019-04-02 21:52:14.81,134634458, -2.87, -14.61, 71.67, 596.090026855, -35.3632428, 149.1652762, 0.805723309517, 0.054307974875, -0.11766757071, 0.577940225601
2019-04-02 21:52:14.91,134734418, -0.96, -15.19, 68.47, 596.099975586, -35.3632415, 149.1652791, 0.820043444633, 0.0675084218383, -0.113959163427, 0.556762695312
2019-04-02 21:52:15.01,134835211, 0.76, -15.59, 65.48, 596.119995117, -35.3632401, 149.165282, 0.832844674587, 0.0789100676775, -0.110550649464, 0.536583244801
2019-04-02 21:52:15.11,134935171, 2.07, -15.79, 63.04, 596.140014648, -35.3632388, 149.1652849, 0.842913687229, 0.0871155411005, -0.107702709734, 0.519911110401
2019-04-02 21:52:15.21,135035131, 2.91, -15.84, 61.33, 596.159973145, -35.3632373, 149.165288, 0.849854826927, 0.0919306650758, -0.105645924807, 0.508069396019
2019-04-02 21:52:15.31,135135091, 3.26, -15.82, 60.43, 596.179992676, -35.363236, 149.1652911, 0.853571772575, 0.0936415269971, -0.104671098292, 0.501687645912
2019-04-02 21:52:15.41,135235051, 3.18, -15.81, 60.29, 596.200012207, -35.3632347, 149.1652944, 0.854280054569, 0.0928199440241, -0.10509417206, 0.500544965267
2019-04-02 21:52:15.51,135335011, 2.72, -15.83, 60.78, 596.219970703, -35.3632334, 149.1652977, 0.852442920208, 0.0899926871061, -0.106899552047, 0.503800451756
2019-04-02 21:52:15.61,135434971, 2.0, -15.9, 61.74, 596.239990234, -35.3632319, 149.1653011, 0.84866553545, 0.0858737975359, -0.10987572372, 0.510215461254
2019-04-02 21:52:15.71,135534931, 1.15, -16.01, 62.97, 596.260009766, -35.3632306, 149.1653045, 0.843644797802, 0.0812586247921, -0.113589249551, 0.518418729305
2019-04-02 21:52:15.81,135634891, 0.28, -16.12, 64.29, 596.280029297, -35.3632293, 149.1653081, 0.838138997555, 0.0767493993044, -0.117461644113, 0.527100861073
2019-04-02 21:52:15.91,135734851, -0.47, -16.23, 65.51, 596.299987793, -35.363228, 149.1653117, 0.832850754261, 0.072964578867, -0.120948493481, 0.535170376301
2019-04-02 21:52:16.01,135834811, -1.06, -16.31, 66.52, 596.320007324, -35.3632266, 149.1653153, 0.828383624554, 0.0701514706016, -0.123723492026, 0.541804254055
2019-04-02 21:52:16.11,135934771, -1.43, -16.37, 67.24, 596.340026855, -35.3632251, 149.1653189, 0.82514667511, 0.068521939218, -0.125484108925, 0.546526670456
2019-04-02 21:52:16.21,136034731, -1.59, -16.41, 67.63, 596.359985352, -35.3632237, 149.1653227, 0.82333868742, 0.0680028870702, -0.126213252544, 0.549144148827
2019-04-02 21:52:16.31,136134691, -1.56, -16.42, 67.71, 596.380004883, -35.3632221, 149.1653264, 0.82292753458, 0.0683900564909, -0.12616622448, 0.549722850323
2019-04-02 21:52:16.41,136234651, -1.39, -16.44, 67.52, 596.390014648, -35.3632207, 149.1653303, 0.823712766171, 0.0694907903671, -0.125587791204, 0.548539936543
2019-04-02 21:52:16.51,136334611, -1.1, -16.47, 67.13, 596.409973145, -35.3632191, 149.1653341, 0.82535558939, 0.0712301135063, -0.124659903347, 0.546053409576
2019-04-02 21:52:16.61,136434571, -0.76, -16.53, 66.63, 596.429992676, -35.3632176, 149.165338, 0.82747143507, 0.0734236314893, -0.123806290329, 0.542744934559
2019-04-02 21:52:16.71,136534531, -0.42, -16.6, 66.09, 596.450012207, -35.363216, 149.1653418, 0.829732179642, 0.0757195279002, -0.123054414988, 0.539137005806
2019-04-02 21:52:16.81,136634491, -0.1, -16.67, 65.57, 596.469970703, -35.3632145, 149.1653457, 0.831869363785, 0.0777795314789, -0.122373461723, 0.535694360733
2019-04-02 21:52:16.91,136734451, 0.15, -16.72, 65.14, 596.489990234, -35.3632129, 149.1653498, 0.833670139313, 0.0794132649899, -0.121810339391, 0.532775700092
2019-04-02 21:52:17.01,136834411, 0.33, -16.77, 64.81, 596.510009766, -35.3632112, 149.1653538, 0.834985733032, 0.0805719792843, -0.121582336724, 0.530589103699
2019-04-02 21:52:17.11,136935204, 0.42, -16.81, 64.62, 596.530029297, -35.3632097, 149.165358, 0.835764050484, 0.0812433734536, -0.121659189463, 0.529241919518
2019-04-02 21:52:17.21,137035164, 0.4, -16.84, 64.55, 596.549987793, -35.3632081, 149.165362, 0.836052596569, 0.081206806004, -0.121978633106, 0.52871799469
2019-04-02 21:52:17.31,137135124, 0.31, -16.86, 64.59, 596.570007324, -35.3632064, 149.1653662, 0.835907101631, 0.0806829556823, -0.122499465942, 0.528907775879
2019-04-02 21:52:17.41,137235084, 0.17, -16.89, 64.72, 596.590026855, -35.3632049, 149.1653704, 0.835418462753, 0.0798836275935, -0.12328902632, 0.52961730957
2019-04-02 21:52:17.51,137335044, 0.0, -16.94, 64.89, 596.609985352, -35.3632032, 149.1653746, 0.834694862366, 0.0790297985077, -0.124319389462, 0.530644476414
2019-04-02 21:52:17.61,137435004, -0.16, -16.99, 65.08, 596.630004883, -35.3632015, 149.1653787, 0.833875715733, 0.0782594457269, -0.125336021185, 0.531806051731
2019-04-02 21:52:17.71,137534964, -0.29, -17.04, 65.25, 596.650024414, -35.3632, 149.165383, 0.833080708981, 0.0777321234345, -0.126156404614, 0.532934188843
2019-04-02 21:52:17.81,137634924, -0.38, -17.09, 65.4, 596.66998291, -35.3631983, 149.1653873, 0.832383930683, 0.0775563120842, -0.126862317324, 0.533880114555
2019-04-02 21:52:17.91,137734884, -0.44, -17.15, 65.51, 596.690002441, -35.3631966, 149.1653916, 0.831885933876, 0.0774645134807, -0.127530664206, 0.534510076046
2019-04-02 21:52:18.01,137834844, -0.46, -17.2, 65.56, 596.710021973, -35.363195, 149.1653959, 0.831615686417, 0.0776030793786, -0.127909824252, 0.534819841385
2019-04-02 21:52:18.11,137934804, -0.45, -17.22, 65.55, 596.729980469, -35.3631933, 149.1654002, 0.831594407558, 0.0777922645211, -0.128003850579, 0.534802913666
2019-04-02 21:52:18.21,138034764, -0.4, -17.23, 65.51, 596.75, -35.3631917, 149.1654045, 0.831769406796, 0.0781296938658, -0.127882450819, 0.534510493279
2019-04-02 21:52:18.31,138134724, -0.33, -17.21, 65.43, 596.770019531, -35.3631899, 149.1654089, 0.832112848759, 0.0784552618861, -0.127490729094, 0.534021675587
2019-04-02 21:52:18.41,138234684, -0.26, -17.19, 65.33, 596.799987793, -35.3631881, 149.1654134, 0.832546710968, 0.0787410512567, -0.127108842134, 0.533393979073
2019-04-02 21:52:18.51,138334644, -0.19, -17.21, 65.22, 596.820007324, -35.3631865, 149.1654178, 0.832961022854, 0.0792653188109, -0.126964136958, 0.532703578472
2019-04-02 21:52:18.61,138434604, -0.12, -17.25, 65.12, 596.840026855, -35.3631848, 149.1654222, 0.833342850208, 0.0798213332891, -0.127016037703, 0.532010495663
2019-04-02 21:52:18.71,138534564, -0.07, -17.29, 65.03, 596.859985352, -35.3631831, 149.1654266, 0.83368396759, 0.0802736878395, -0.127087444067, 0.531390607357
2019-04-02 21:52:18.81,138634524, -0.05, -17.33, 64.96, 596.880004883, -35.3631813, 149.1654311, 0.833958089352, 0.0805400535464, -0.127340003848, 0.530859470367
2019-04-02 21:52:18.91,138734484, -0.05, -17.36, 64.91, 596.900024414, -35.3631795, 149.1654356, 0.834160029888, 0.0805938467383, -0.12765404582, 0.530458450317
2019-04-02 21:52:19.01,138834444, -0.06, -17.39, 64.88, 596.91998291, -35.3631777, 149.16544, 0.834272861481, 0.0806593969464, -0.127929270267, 0.53020465374
2019-04-02 21:52:19.11,138935237, -0.06, -17.42, 64.87, 596.940002441, -35.363176, 149.1654446, 0.8343090415, 0.0807238221169, -0.128128170967, 0.530089855194
2019-04-02 21:52:19.21,139035197, -0.06, -17.42, 64.87, 596.960021973, -35.3631743, 149.1654491, 0.834295988083, 0.0807802453637, -0.128124281764, 0.530102789402
2019-04-02 21:52:19.31,139135157, -0.05, -17.42, 64.88, 596.979980469, -35.3631725, 149.1654537, 0.834241569042, 0.0808552652597, -0.128048360348, 0.530195355415
2019-04-02 21:52:19.41,139235117, -0.04, -17.42, 64.89, 597.0, -35.3631708, 149.1654582, 0.834168195724, 0.0809387341142, -0.128044515848, 0.530299007893
2019-04-02 21:52:19.51,139335077, -0.04, -17.43, 64.91, 597.020019531, -35.363169, 149.1654628, 0.834092497826, 0.080990023911, -0.128128677607, 0.530389845371
2019-04-02 21:52:19.61,139435037, -0.05, -17.45, 64.92, 597.039978027, -35.3631672, 149.1654673, 0.834020733833, 0.0810417309403, -0.128257781267, 0.530463576317
2019-04-02 21:52:19.71,139534997, -0.05, -17.47, 64.92, 597.059997559, -35.3631654, 149.165472, 0.83397012949, 0.0811278000474, -0.128438025713, 0.5304864645
2019-04-02 21:52:19.81,139634957, -0.08, -17.5, 64.92, 597.08001709, -35.3631637, 149.1654766, 0.83396089077, 0.0810834243894, -0.128760591149, 0.53042948246
2019-04-02 21:52:19.91,139734917, -0.1, -17.54, 64.91, 597.099975586, -35.3631619, 149.1654811, 0.833976686001, 0.0810937508941, -0.129125192761, 0.530314445496
2019-04-02 21:52:20.01,139834877, -0.11, -17.57, 64.9, 597.119995117, -35.3631601, 149.1654858, 0.834025740623, 0.0811383575201, -0.129426270723, 0.530157029629
2019-04-02 21:52:20.11,139934837, -0.12, -17.59, 64.87, 597.140014648, -35.3631582, 149.1654905, 0.834123849869, 0.0811117962003, -0.129656121135, 0.529950499535
2019-04-02 21:52:20.21,140034797, -0.13, -17.6, 64.84, 597.159973145, -35.3631564, 149.165495, 0.834254443645, 0.0810505971313, -0.129827946424, 0.529712200165
2019-04-02 21:52:20.31,140134757, -0.13, -17.62, 64.81, 597.179992676, -35.3631546, 149.1654998, 0.834373056889, 0.0811503902078, -0.129980072379, 0.529472768307
2019-04-02 21:52:20.41,140234717, -0.13, -17.65, 64.78, 597.200012207, -35.3631528, 149.1655044, 0.834495127201, 0.081213183701, -0.130201518536, 0.52921628952
2019-04-02 21:52:20.51,140334677, -0.13, -17.68, 64.75, 597.219970703, -35.363151, 149.165509, 0.834609866142, 0.0813082903624, -0.130474418402, 0.528953492641
2019-04-02 21:52:20.61,140434637, -0.13, -17.71, 64.72, 597.239990234, -35.3631492, 149.1655137, 0.83472007513, 0.0814383924007, -0.130665138364, 0.528712451458
2019-04-02 21:52:20.71,140534597, -0.11, -17.71, 64.69, 597.260009766, -35.3631473, 149.1655185, 0.834832429886, 0.0815682858229, -0.130631163716, 0.528523385525
2019-04-02 21:52:20.81,140634557, -0.09, -17.72, 64.66, 597.280029297, -35.3631455, 149.1655232, 0.834933578968, 0.0816995874047, -0.130593523383, 0.528352558613
2019-04-02 21:52:20.91,140734517, -0.07, -17.74, 64.64, 597.299987793, -35.3631437, 149.1655279, 0.834993302822, 0.0819507911801, -0.13068754971, 0.528195977211
2019-04-02 21:52:21.01,140834477, -0.03, -17.78, 64.62, 597.320007324, -35.3631419, 149.1655326, 0.835005283356, 0.0823711827397, -0.130814239383, 0.5280803442
2019-04-02 21:52:21.11,140934437, -0.02, -17.82, 64.61, 597.340026855, -35.36314, 149.1655372, 0.835014045238, 0.0826211348176, -0.131098583341, 0.527956902981
2019-04-02 21:52:21.21,141035230, -0.04, -17.85, 64.6, 597.359985352, -35.3631382, 149.165542, 0.835047960281, 0.0826144069433, -0.131364181638, 0.527838289738
2019-04-02 21:52:21.31,141135190, -0.04, -17.84, 64.59, 597.380004883, -35.3631364, 149.1655467, 0.835102319717, 0.0825605913997, -0.131274342537, 0.527782976627
2019-04-02 21:52:21.41,141235150, -0.02, -17.82, 64.58, 597.400024414, -35.3631345, 149.1655515, 0.83514726162, 0.0825949460268, -0.131063297391, 0.52775901556
2019-04-02 21:52:21.51,141335110, -0.01, -17.79, 64.57, 597.41998291, -35.3631327, 149.1655563, 0.835208833218, 0.0825231298804, -0.13086014986, 0.527723193169
2019-04-02 21:52:21.61,141435070, -0.02, -17.78, 64.56, 597.440002441, -35.3631309, 149.1655611, 0.835280478001, 0.0823758244514, -0.130807906389, 0.52764582634
2019-04-02 21:52:21.71,141535030, -0.03, -17.79, 64.55, 597.460021973, -35.3631291, 149.1655658, 0.835335552692, 0.0823327973485, -0.130890831351, 0.527544736862
2019-04-02 21:52:21.81,141634990, -0.01, -17.81, 64.54, 597.479980469, -35.3631272, 149.1655706, 0.835350692272, 0.0825435146689, -0.131011381745, 0.527457892895
2019-04-02 21:52:21.91,141734950, 0.01, -17.84, 64.52, 597.5, -35.3631254, 149.1655754, 0.835355579853, 0.0828534811735, -0.13107869029, 0.527384877205
2019-04-02 21:52:22.01,141834910, 0.04, -17.88, 64.51, 597.520019531, -35.3631235, 149.1655801, 0.835336863995, 0.0832732394338, -0.131234079599, 0.527309715748
2019-04-02 21:52:22.11,141934870, 0.04, -17.91, 64.5, 597.539978027, -35.3631216, 149.1655849, 0.835352122784, 0.0834529176354, -0.131472036242, 0.52719783783
2019-04-02 21:52:22.21,142034830, 0.04, -17.93, 64.49, 597.559997559, -35.3631198, 149.1655897, 0.835405409336, 0.0834712162614, -0.131615743041, 0.527074694633
2019-04-02 21:52:22.31,142134790, 0.02, -17.92, 64.47, 597.58001709, -35.3631179, 149.1655945, 0.835496544838, 0.0832835137844, -0.131653100252, 0.526950597763
2019-04-02 21:52:22.41,142234750, 0.0, -17.91, 64.46, 597.599975586, -35.363116, 149.1655993, 0.835580527782, 0.0831283405423, -0.131703406572, 0.526829302311
2019-04-02 21:52:22.51,142334710, 0.0, -17.91, 64.44, 597.619995117, -35.3631142, 149.1656041, 0.835658073425, 0.0830330401659, -0.131725177169, 0.526715815067
2019-04-02 21:52:22.61,142434670, 0.0, -17.93, 64.43, 597.640014648, -35.3631123, 149.1656089, 0.835711300373, 0.0830335840583, -0.131883561611, 0.526591658592
2019-04-02 21:52:22.71,142534630, -0.01, -17.94, 64.41, 597.659973145, -35.3631103, 149.1656137, 0.835760653019, 0.0830617547035, -0.132029935718, 0.526472210884
2019-04-02 21:52:22.81,142634590, -0.02, -17.94, 64.4, 597.690002441, -35.3631084, 149.1656185, 0.835833251476, 0.0829400420189, -0.132115438581, 0.526354670525
2019-04-02 21:52:22.91,142734550, -0.03, -17.95, 64.39, 597.710021973, -35.3631066, 149.1656233, 0.835900366306, 0.082858979702, -0.132193863392, 0.526241183281
2019-04-02 21:52:23.01,142834510, -0.03, -17.95, 64.37, 597.729980469, -35.3631047, 149.1656281, 0.83596688509, 0.0828340351582, -0.132219225168, 0.526133060455
2019-04-02 21:52:23.11,142934470, -0.02, -17.94, 64.36, 597.75, -35.3631029, 149.165633, 0.836034476757, 0.0828575789928, -0.132091775537, 0.526053965092
2019-04-02 21:52:23.21,143034430, 0.0, -17.92, 64.34, 597.770019531, -35.363101, 149.1656379, 0.836099326611, 0.0829998403788, -0.131822898984, 0.525995910168
2019-04-02 21:52:23.31,143135223, 0.02, -17.89, 64.33, 597.789978027, -35.3630991, 149.1656428, 0.836189687252, 0.0830145701766, -0.1315407902, 0.525920629501
2019-04-02 21:52:23.41,143235183, 0.02, -17.87, 64.31, 597.809997559, -35.3630972, 149.1656476, 0.836296975613, 0.0828776881099, -0.131365612149, 0.525815308094
2019-04-02 21:52:23.51,143335143, 0.02, -17.87, 64.29, 597.83001709, -35.3630954, 149.1656525, 0.83636534214, 0.0828367695212, -0.131426841021, 0.52569770813
2019-04-02 21:52:23.61,143435103, 0.03, -17.9, 64.28, 597.849975586, -35.3630935, 149.1656573, 0.836384177208, 0.0830274447799, -0.131608083844, 0.525592327118
2019-04-02 21:52:23.71,143535063, 0.04, -17.93, 64.27, 597.869995117, -35.3630916, 149.1656621, 0.836395323277, 0.083271600306, -0.13176047802, 0.525497674942
2019-04-02 21:52:23.81,143635023, 0.04, -17.96, 64.26, 597.890014648, -35.3630896, 149.1656671, 0.83642655611, 0.0833524242043, -0.131972104311, 0.52538216114
2019-04-02 21:52:23.91,143734983, 0.03, -17.97, 64.24, 597.909973145, -35.3630877, 149.1656719, 0.836476862431, 0.0833122730255, -0.132108867168, 0.525274038315
2019-04-02 21:52:24.01,143834943, 0.04, -17.97, 64.23, 597.929992676, -35.3630859, 149.1656768, 0.836520850658, 0.0833922103047, -0.132072374225, 0.525200426579
2019-04-02 21:52:24.11,143934903, 0.04, -17.99, 64.22, 597.950012207, -35.363084, 149.1656816, 0.836557149887, 0.0834174975753, -0.132251426578, 0.525093495846
2019-04-02 21:52:24.21,144034863, 0.01, -18.0, 64.21, 597.969970703, -35.3630821, 149.1656865, 0.836617171764, 0.0832589492202, -0.132456257939, 0.524971425533
2019-04-02 21:52:24.31,144134823, -0.01, -17.99, 64.2, 597.989990234, -35.3630802, 149.1656913, 0.836696505547, 0.0830304771662, -0.13255675137, 0.524855792522
2019-04-02 21:52:24.41,144234783, 0.0, -17.99, 64.18, 598.010009766, -35.3630783, 149.1656962, 0.836761116982, 0.083035595715, -0.132508054376, 0.524764299393
2019-04-02 21:52:24.51,144334743, 0.03, -17.99, 64.17, 598.030029297, -35.3630764, 149.1657011, 0.836801767349, 0.0833070799708, -0.132359296083, 0.524693965912
2019-04-02 21:52:24.61,144434703, 0.07, -18.01, 64.15, 598.049987793, -35.3630744, 149.165706, 0.836811602116, 0.0836819782853, -0.13236567378, 0.524617016315
2019-04-02 21:52:24.71,144534663, 0.08, -18.06, 64.14, 598.070007324, -35.3630725, 149.1657109, 0.836811542511, 0.0839960351586, -0.13259601593, 0.524508714676
2019-04-02 21:52:24.81,144634623, 0.09, -18.1, 64.13, 598.090026855, -35.3630707, 149.1657157, 0.836818635464, 0.0842213630676, -0.132925793529, 0.524377763271
2019-04-02 21:52:24.91,144734583, 0.08, -18.14, 64.11, 598.109985352, -35.3630688, 149.1657206, 0.836847126484, 0.0842884704471, -0.133231461048, 0.524243950844
2019-04-02 21:52:25.01,144834543, 0.09, -18.13, 64.1, 598.130004883, -35.3630669, 149.1657254, 0.836910009384, 0.084328122437, -0.13312253356, 0.52416485548
2019-04-02 21:52:25.11,144934503, 0.11, -18.09, 64.08, 598.150024414, -35.363065, 149.1657304, 0.836999595165, 0.0842868834734, -0.132778123021, 0.524115800858
2019-04-02 21:52:25.21,145034463, 0.11, -18.06, 64.07, 598.16998291, -35.3630631, 149.1657353, 0.837097108364, 0.0841151326895, -0.132594272494, 0.524034202099
2019-04-02 21:52:25.31,145134423, 0.09, -18.05, 64.06, 598.190002441, -35.3630612, 149.1657401, 0.837182104588, 0.083926640451, -0.132541134953, 0.523942053318
2019-04-02 21:52:25.41,145235216, 0.08, -18.04, 64.05, 598.210021973, -35.3630592, 149.165745, 0.837242484093, 0.0837953314185, -0.13255611062, 0.523862838745
2019-04-02 21:52:25.51,145335176, 0.07, -18.03, 64.04, 598.229980469, -35.3630573, 149.16575, 0.837290167809, 0.0837039127946, -0.132561966777, 0.523799777031
2019-04-02 21:52:25.61,145435136, 0.07, -18.04, 64.04, 598.25, -35.3630555, 149.1657549, 0.837324559689, 0.0836566761136, -0.132603228092, 0.523741900921
2019-04-02 21:52:25.71,145535096, 0.08, -18.04, 64.03, 598.270019531, -35.3630535, 149.1657598, 0.837346374989, 0.0837763771415, -0.132565543056, 0.523697435856
2019-04-02 21:52:25.81,145635056, 0.12, -18.05, 64.02, 598.289978027, -35.3630516, 149.1657646, 0.837351441383, 0.0840634405613, -0.132445946336, 0.523673593998
2019-04-02 21:52:25.91,145735016, 0.15, -18.05, 64.01, 598.309997559, -35.3630497, 149.1657696, 0.837354779243, 0.0843377783895, -0.132331252098, 0.52365309
2019-04-02 21:52:26.01,145834976, 0.18, -18.06, 64.0, 598.33001709, -35.3630477, 149.1657745, 0.837352275848, 0.0845895633101, -0.13231305778, 0.523621082306
2019-04-02 21:52:26.11,145934936, 0.19, -18.09, 64.0, 598.349975586, -35.3630458, 149.1657794, 0.837347447872, 0.0847675874829, -0.132427245378, 0.523571133614
2019-04-02 21:52:26.21,146034896, 0.19, -18.09, 63.99, 598.369995117, -35.3630439, 149.1657842, 0.837361514568, 0.0847986340523, -0.132483005524, 0.523529529572
2019-04-02 21:52:26.31,146134856, 0.18, -18.1, 63.99, 598.390014648, -35.363042, 149.1657892, 0.837390124798, 0.0847068727016, -0.132557675242, 0.523479759693
2019-04-02 21:52:26.41,146234816, 0.15, -18.1, 63.98, 598.409973145, -35.3630401, 149.1657941, 0.837430596352, 0.0844948217273, -0.132713600993, 0.523409724236
2019-04-02 21:52:26.51,146334776, 0.13, -18.09, 63.98, 598.429992676, -35.3630382, 149.165799, 0.837473750114, 0.0843187347054, -0.132762283087, 0.523356735706
2019-04-02 21:52:26.61,146434736, 0.12, -18.08, 63.97, 598.450012207, -35.3630363, 149.1658039, 0.837522506714, 0.0841796249151, -0.132704585791, 0.523315727711
2019-04-02 21:52:26.71,146534696, 0.13, -18.05, 63.97, 598.469970703, -35.3630343, 149.1658089, 0.83758354187, 0.0840780138969, -0.132455930114, 0.523297429085
2019-04-02 21:52:26.81,146634656, 0.13, -18.04, 63.96, 598.489990234, -35.3630324, 149.1658138, 0.83762806654, 0.0840322077274, -0.132462561131, 0.523231744766
2019-04-02 21:52:26.91,146734616, 0.12, -18.08, 63.95, 598.510009766, -35.3630305, 149.1658187, 0.837643682957, 0.08412155509, -0.132735580206, 0.523123264313
2019-04-02 21:52:27.01,146834576, 0.11, -18.1, 63.93, 598.530029297, -35.3630286, 149.1658235, 0.837684392929, 0.0841365233064, -0.132932767272, 0.523005545139
2019-04-02 21:52:27.11,146934536, 0.11, -18.12, 63.92, 598.549987793, -35.3630267, 149.1658285, 0.837720096111, 0.0842415466905, -0.133075475693, 0.522895097733
2019-04-02 21:52:27.21,147034496, 0.14, -18.13, 63.91, 598.570007324, -35.3630248, 149.1658335, 0.837749481201, 0.0844869539142, -0.133068323135, 0.522810339928
2019-04-02 21:52:27.31,147134456, 0.18, -18.14, 63.89, 598.590026855, -35.3630229, 149.1658383, 0.837777376175, 0.0847604349256, -0.132957026362, 0.522749722004
2019-04-02 21:52:27.41,147234416, 0.21, -18.15, 63.88, 598.609985352, -35.3630208, 149.1658433, 0.837789297104, 0.0850390568376, -0.13295212388, 0.52268654108
2019-04-02 21:52:27.51,147335209, 0.22, -18.16, 63.87, 598.630004883, -35.363019, 149.1658483, 0.837814867496, 0.0851386636496, -0.132983997464, 0.52262121439
2019-04-02 21:52:27.61,147435169, 0.22, -18.16, 63.86, 598.650024414, -35.3630171, 149.1658531, 0.837850213051, 0.0851399004459, -0.132965758443, 0.522569000721
2019-04-02 21:52:27.71,147535129, 0.19, -18.15, 63.86, 598.66998291, -35.3630152, 149.165858, 0.837912619114, 0.0848856344819, -0.132958158851, 0.522512197495
2019-04-02 21:52:27.81,147635089, 0.17, -18.12, 63.85, 598.690002441, -35.3630132, 149.165863, 0.837982475758, 0.0845819339156, -0.132861420512, 0.522474110126
2019-04-02 21:52:27.91,147735049, 0.17, -18.12, 63.85, 598.710021973, -35.3630112, 149.165868, 0.838009655476, 0.0845257639885, -0.132880985737, 0.522434592247
2019-04-02 21:52:28.01,147835009, 0.18, -18.13, 63.84, 598.729980469, -35.3630093, 149.1658728, 0.838005304337, 0.0846898332238, -0.132925361395, 0.522403717041
2019-04-02 21:52:28.11,147934969, 0.2, -18.14, 63.84, 598.75, -35.3630075, 149.1658778, 0.838000535965, 0.0849052146077, -0.132911935449, 0.522379755974
