Start,TimeUS,Roll,Pitch,Yaw,Alt,Lat,Lng,Q1,Q2,Q3,Q4
2019-04-03 18:54:49.00,55016318, 0.0, 0.0, 353.0, 584.090026855, -35.363261, 149.1652299, 0.998134791851, 0.0, 0.0, -0.0610485821962
2019-04-03 18:54:49.09,55116278, 0.0, 0.0, 353.0, 584.090026855, -35.363261, 149.1652299, 0.998134791851, 0.0, 0.0, -0.0610485821962
2019-04-03 18:54:49.19,55216238, 0.0, 0.0, 353.0, 584.090026855, -35.363261, 149.1652299, 0.998134791851, 0.0, 0.0, -0.0610485821962
2019-04-03 18:54:49.29,55316198, 0.0, 0.0, 353.0, 584.090026855, -35.363261, 149.1652299, 0.998134791851, 0.0, 0.0, -0.0610485821962
2019-04-03 18:54:49.39,55416158, 0.0, 0.0, 353.0, 584.090026855, -35.363261, 149.1652299, 0.998134791851, 0.0, 0.0, -0.0610485821962
2019-04-03 18:54:49.49,55516118, 0.0, 0.0, 353.0, 584.090026855, -35.363261, 149.1652299, 0.998134791851, 0.0, 0.0, -0.0610485821962
2019-04-03 18:54:49.59,55616078, 0.0, 0.0, 353.0, 584.090026855, -35.363261, 149.1652299, 0.998134791851, 0.0, 0.0, -0.0610485821962
2019-04-03 18:54:49.69,55716038, 0.0, 0.0, 353.0, 584.090026855, -35.363261, 149.1652299, 0.998134791851, 0.0, 0.0, -0.0610485821962
2019-04-03 18:54:49.79,55815998, 0.0, 0.0, 353.0, 584.090026855, -35.363261, 149.1652299, 0.998134791851, 0.0, 0.0, -0.0610485821962
2019-04-03 18:54:49.89,55915958, 0.0, 0.0, 353.0, 584.090026855, -35.363261, 149.1652299, 0.998134791851, 0.0, 0.0, -0.0610485821962
2019-04-03 18:54:49.99,56015918, 0.0, 0.0, 353.0, 584.090026855, -35.363261, 149.1652299, 0.998134791851, 0.0, 0.0, -0.0610485821962
2019-04-03 18:54:50.09,56115878, 0.0, 0.0, 353.0, 584.090026855, -35.363261, 149.1652299, 0.998134791851, 0.0, 0.0, -0.0610485821962
2019-04-03 18:54:50.19,56215838, 0.0, 0.0, 353.0, 584.090026855, -35.363261, 149.1652299, 0.998134791851, 0.0, 0.0, -0.0610485821962
2019-04-03 18:54:50.29,56315798, 0.0, 0.0, 353.0, 584.090026855, -35.363261, 149.1652299, 0.998134791851, 0.0, 0.0, -0.0610485821962
2019-04-03 18:54:50.39,56415758, 0.0, 0.0, 353.0, 584.090026855, -35.363261, 149.1652299, 0.998134791851, 0.0, 0.0, -0.0610485821962
2019-04-03 18:54:50.49,56515718, 0.0, 0.0, 353.0, 584.090026855, -35.363261, 149.1652299, 0.998134791851, 0.0, 0.0, -0.0610485821962
2019-04-03 18:54:50.59,56615678, 0.0, 0.0, 353.0, 584.090026855, -35.363261, 149.1652299, 0.998134791851, 0.0, 0.0, -0.0610485821962
2019-04-03 18:54:50.70,56716471, 0.0, 0.0, 353.0, 584.090026855, -35.363261, 149.1652299, 0.998134791851, 0.0, 0.0, -0.0610485821962
2019-04-03 18:54:50.80,56816431, 0.0, 0.0, 353.0, 584.090026855, -35.363261, 149.1652299, 0.998134791851, 0.0, 0.0, -0.0610485821962
2019-04-03 18:54:50.90,56916391, 0.0, 0.0, 353.0, 584.090026855, -35.363261, 149.1652299, 0.998134791851, 0.0, 0.0, -0.0610485821962
2019-04-03 18:54:51.00,57016351, 0.0, 0.0, 353.0, 584.090026855, -35.363261, 149.1652299, 0.998134791851, 0.0, 0.0, -0.0610485821962
2019-04-03 18:54:51.09,57116311, 0.0, 0.0, 353.0, 584.090026855, -35.363261, 149.1652299, 0.998134791851, 0.0, 0.0, -0.0610485821962
2019-04-03 18:54:51.19,57216271, 0.0, 0.0, 353.0, 584.090026855, -35.363261, 149.1652299, 0.998134791851, 0.0, 0.0, -0.0610485821962
2019-04-03 18:54:51.29,57316231, 0.0, 0.0, 353.0, 584.090026855, -35.363261, 149.1652299, 0.998134791851, 0.0, 0.0, -0.0610485821962
2019-04-03 18:54:51.39,57416191, 0.0, 0.0, 353.0, 584.090026855, -35.363261, 149.1652299, 0.998134791851, 0.0, 0.0, -0.0610485821962
2019-04-03 18:54:51.49,57516151, 0.0, 0.0, 353.0, 584.090026855, -35.363261, 149.1652299, 0.998134791851, 0.0, 0.0, -0.0610485821962
2019-04-03 18:54:51.59,57616111, 0.0, 0.0, 353.0, 584.090026855, -35.363261, 149.1652299, 0.998134791851, 0.0, 0.0, -0.0610485821962
2019-04-03 18:54:51.69,57716071, 0.0, 0.0, 353.0, 584.090026855, -35.363261, 149.1652299, 0.998134791851, 0.0, 0.0, -0.0610485821962
2019-04-03 18:54:51.79,57816031, 0.0, 0.0, 353.0, 584.090026855, -35.363261, 149.1652299, 0.998134791851, 0.0, 0.0, -0.0610485821962
2019-04-03 18:54:51.89,57915991, 0.0, 0.0, 353.0, 584.090026855, -35.363261, 149.1652299, 0.998134791851, 0.0, 0.0, -0.0610485821962
2019-04-03 18:54:51.99,58015951, 0.0, 0.0, 353.0, 584.090026855, -35.363261, 149.1652299, 0.998134791851, 0.0, 0.0, -0.0610485821962
2019-04-03 18:54:52.09,58115911, 0.0, 0.0, 353.0, 584.090026855, -35.363261, 149.1652299, 0.998134791851, 0.0, 0.0, -0.0610485821962
2019-04-03 18:54:52.19,58215871, 0.0, 0.0, 353.0, 584.090026855, -35.363261, 149.1652299, 0.998134791851, 0.0, 0.0, -0.0610485821962
2019-04-03 18:54:52.29,58315831, 0.0, 0.0, 353.0, 584.090026855, -35.363261, 149.1652299, 0.998134791851, 0.0, 0.0, -0.0610485821962
2019-04-03 18:54:52.39,58415791, 0.0, 0.0, 353.0, 584.090026855, -35.363261, 149.1652299, 0.998134791851, 0.0, 0.0, -0.0610486380756
2019-04-03 18:54:52.49,58515751, 0.0, 0.0, 353.0, 584.090026855, -35.363261, 149.1652299, 0.998134791851, 0.0, 0.0, -0.0610486753285
2019-04-03 18:54:52.59,58615711, 0.0, 0.0, 353.0, 584.090026855, -35.363261, 149.1652299, 0.998134791851, 0.0, 0.0, -0.0610486753285
2019-04-03 18:54:52.69,58715671, 0.0, 0.0, 353.0, 584.090026855, -35.363261, 149.1652299, 0.998134791851, 0.0, 0.0, -0.0610486753285
2019-04-03 18:54:52.80,58816464, 0.0, 0.0, 353.0, 584.090026855, -35.363261, 149.1652299, 0.998134791851, 0.0, 0.0, -0.0610486641526
2019-04-03 18:54:52.90,58916424, 0.0, 0.0, 353.0, 584.090026855, -35.363261, 149.1652299, 0.998134791851, 0.0, 0.0, -0.0610486753285
2019-04-03 18:54:53.00,59016384, 0.0, 0.0, 353.0, 584.090026855, -35.363261, 149.1652299, 0.998134791851, 0.0, 0.0, -0.0610486753285
2019-04-03 18:54:53.10,59116344, 0.0, 0.0, 353.0, 584.090026855, -35.363261, 149.1652299, 0.998134791851, 0.0, 0.0, -0.0610486753285
2019-04-03 18:54:53.19,59216304, 0.0, 0.0, 353.0, 584.099975586, -35.363261, 149.1652299, 0.998134791851, 0.0, 0.0, -0.0610486753285
2019-04-03 18:54:53.29,59316264, 0.0, 0.0, 353.0, 584.099975586, -35.363261, 149.1652299, 0.998134791851, 0.0, 0.0, -0.0610486753285
2019-04-03 18:54:53.39,59416224, 0.0, 0.0, 353.0, 584.109985352, -35.363261, 149.1652299, 0.998134791851, 0.0, 0.0, -0.0610486753285
2019-04-03 18:54:53.49,59516184, 0.0, 0.0, 353.0, 584.130004883, -35.363261, 149.1652299, 0.998134791851, 0.0, 0.0, -0.0610486753285
2019-04-03 18:54:53.59,59616144, 0.0, 0.0, 353.0, 584.159973145, -35.363261, 149.1652299, 0.998134791851, 0.0, 0.0, -0.0610486753285
2019-04-03 18:54:53.69,59716104, 0.0, 0.0, 353.0, 584.190002441, -35.363261, 149.1652299, 0.998134791851, 0.0, 0.0, -0.0610486753285
2019-04-03 18:54:53.79,59816064, -0.01, 0.0, 352.99, 584.239990234, -35.363261, 149.1652299, 0.998134732246, -0.000102418649476, -4.80365779367e-05, -0.0610494837165
2019-04-03 18:54:53.89,59916024, -0.05, -0.04, 352.99, 584.33001709, -35.363261, 149.1652299, 0.998134016991, -0.000485419877805, -0.00033917473047, -0.0610587075353
2019-04-03 18:54:53.99,60015984, -0.1, -0.08, 352.99, 584.460021973, -35.363261, 149.1652299, 0.998132109642, -0.000961445330177, -0.000704520498402, -0.0610812678933
2019-04-03 18:54:54.09,60115944, -0.15, -0.11, 352.99, 584.619995117, -35.363261, 149.1652299, 0.998129665852, -0.00143746752292, -0.000925497850403, -0.0611086934805
2019-04-03 18:54:54.19,60215904, -0.2, -0.1, 352.99, 584.770019531, -35.363261, 149.1652299, 0.998127520084, -0.00180821912363, -0.00084912154125, -0.0611356981099
2019-04-03 18:54:54.29,60315864, -0.22, -0.08, 352.98, 584.929992676, -35.363261, 149.1652299, 0.998125851154, -0.00200271629728, -0.000591457472183, -0.0611596815288
2019-04-03 18:54:54.39,60415824, -0.21, -0.05, 352.98, 585.08001709, -35.363261, 149.1652299, 0.998125076294, -0.00189741502982, -0.000384269253118, -0.0611769780517
2019-04-03 18:54:54.49,60515784, -0.16, -0.03, 352.98, 585.229980469, -35.363261, 149.1652299, 0.998125195503, -0.00149542849977, -0.000243673217483, -0.0611871518195
2019-04-03 18:54:54.59,60615744, -0.11, -0.03, 352.98, 585.400024414, -35.363261, 149.1652299, 0.998125374317, -0.000994893605821, -0.000232575781411, -0.0611940510571
2019-04-03 18:54:54.69,60715704, -0.04, -0.04, 352.98, 585.570007324, -35.363261, 149.1652299, 0.998125612736, -0.000407696497859, -0.000398997974116, -0.0611970834434
2019-04-03 18:54:54.79,60815664, 0.0, -0.06, 352.98, 585.75, -35.363261, 149.1652299, 0.99812567234, -7.03401237843e-05, -0.000561507476959, -0.0611954405904
2019-04-03 18:54:54.90,60916457, 0.0, -0.04, 352.98, 585.929992676, -35.363261, 149.1652299, 0.99812567234, -5.32626290806e-05, -0.000421567441663, -0.0611960291862
2019-04-03 18:54:55.00,61016417, -0.03, -0.02, 352.98, 586.109985352, -35.363261, 149.1652298, 0.998125076294, -0.000279512954876, -0.000187166282558, -0.0612068101764
2019-04-03 18:54:55.10,61116377, -0.03, 0.01, 352.98, 586.299987793, -35.363261, 149.1652298, 0.998124241829, -0.00032849580748, 0.000108755826659, -0.0612198673189
2019-04-03 18:54:55.20,61216337, -0.04, 0.02, 352.97, 586.489990234, -35.363261, 149.1652298, 0.998123884201, -0.000335767137585, 0.000246964511462, -0.0612247660756
2019-04-03 18:54:55.29,61316297, -0.02, 0.02, 352.97, 586.690002441, -35.363261, 149.1652298, 0.998123407364, -0.000182751842658, 0.000208384240977, -0.0612341426313
2019-04-03 18:54:55.39,61416257, 0.0, -0.02, 352.97, 586.890014648, -35.363261, 149.1652298, 0.998122930527, 5.33978891326e-05, -0.000179633396328, -0.0612423457205
2019-04-03 18:54:55.49,61516217, 0.04, -0.05, 352.97, 587.090026855, -35.363261, 149.1652298, 0.998122394085, 0.000322291918565, -0.000472637650091, -0.0612482205033
2019-04-03 18:54:55.59,61616177, 0.06, -0.03, 352.97, 587.289978027, -35.363261, 149.1652298, 0.998122870922, 0.00054240366444, -0.000304024637444, -0.0612401664257
2019-04-03 18:54:55.69,61716137, 0.05, 0.0, 352.97, 587.489990234, -35.363261, 149.1652298, 0.998123645782, 0.00050259049749, -1.91961098608e-05, -0.0612290948629
2019-04-03 18:54:55.79,61816097, 0.02, 0.0, 352.98, 587.700012207, -35.363261, 149.1652298, 0.998124241829, 0.000259449821897, 4.95796157338e-05, -0.0612200945616
2019-04-03 18:54:55.89,61916057, 0.0, 0.0, 352.98, 587.900024414, -35.363261, 149.1652298, 0.998124659061, 3.71091373381e-05, 4.20586111431e-05, -0.0612140670419
2019-04-03 18:54:55.99,62016017, -0.01, 0.0, 352.98, 588.109985352, -35.363261, 149.1652298, 0.998124957085, -0.000139542040415, -1.59709379659e-05, -0.0612100474536
2019-04-03 18:54:56.09,62115977, -0.02, -0.01, 352.98, 588.320007324, -35.3632609, 149.1652298, 0.998125016689, -0.000254742335528, -8.407504356e-05, -0.0612087287009
2019-04-03 18:54:56.19,62215937, -0.02, -0.03, 352.98, 588.539978027, -35.3632609, 149.1652298, 0.998124301434, -0.000223627735977, -0.000263521913439, -0.061219163239
2019-04-03 18:54:56.29,62315897, -0.01, -0.03, 352.97, 588.75, -35.3632609, 149.1652298, 0.998122692108, -0.000167036254425, -0.000320210034261, -0.0612450540066
2019-04-03 18:54:56.39,62415857, -0.01, -0.04, 352.97, 588.960021973, -35.3632609, 149.1652298, 0.998121082783, -0.000109540706035, -0.000357553974027, -0.0612711831927
2019-04-03 18:54:56.49,62515817, 0.0, -0.04, 352.97, 589.179992676, -35.3632609, 149.1652298, 0.998119950294, -3.53715695383e-05, -0.000386342668207, -0.0612903535366
2019-04-03 18:54:56.59,62615777, -0.01, -0.06, 352.97, 589.390014648, -35.3632609, 149.1652297, 0.998118698597, -0.000159710078151, -0.000533628219273, -0.061308350414
2019-04-03 18:54:56.69,62715737, -0.04, -0.08, 352.96, 589.609985352, -35.3632609, 149.1652297, 0.998117446899, -0.000451513100415, -0.000726113503333, -0.0613257177174
2019-04-03 18:54:56.79,62815697, -0.08, -0.11, 352.96, 589.83001709, -35.3632609, 149.1652297, 0.998115837574, -0.000819033302832, -0.000927032378968, -0.0613450147212
2019-04-03 18:54:56.90,62916490, -0.09, -0.12, 352.96, 590.049987793, -35.3632609, 149.1652297, 0.998114049435, -0.000886360416189, -0.00100554688834, -0.0613727718592
2019-04-03 18:54:57.00,63016450, -0.07, -0.1, 352.95, 590.270019531, -35.3632609, 149.1652297, 0.998112678528, -0.000733924680389, -0.00088458659593, -0.0613988414407
2019-04-03 18:54:57.10,63116410, -0.04, -0.05, 352.95, 590.489990234, -35.3632609, 149.1652297, 0.998112201691, -0.000422151613748, -0.000466228055302, -0.0614141002297
2019-04-03 18:54:57.20,63216370, -0.03, -0.03, 352.95, 590.710021973, -35.3632609, 149.1652297, 0.998111248016, -0.000358460616553, -0.000275386672001, -0.0614313222468
2019-04-03 18:54:57.30,63316330, -0.04, -0.01, 352.95, 590.91998291, -35.3632609, 149.1652296, 0.998110234737, -0.000419224408688, -6.41777151031e-05, -0.0614475570619
2019-04-03 18:54:57.39,63416290, -0.05, 0.02, 352.95, 591.130004883, -35.3632608, 149.1652296, 0.998109340668, -0.000464659213321, 0.00022803999309, -0.0614611767232
2019-04-03 18:54:57.49,63516250, -0.06, 0.03, 352.95, 591.33001709, -35.3632608, 149.1652296, 0.998108148575, -0.000554021389689, 0.000369511806639, -0.0614795461297
2019-04-03 18:54:57.59,63616210, -0.06, 0.04, 352.94, 591.510009766, -35.3632608, 149.1652296, 0.998106896877, -0.000533707439899, 0.000389079388697, -0.061500236392
2019-04-03 18:54:57.69,63716170, -0.06, 0.02, 352.94, 591.690002441, -35.3632608, 149.1652296, 0.998105585575, -0.000552142038941, 0.000238630178501, -0.0615210309625
2019-04-03 18:54:57.79,63816130, -0.05, -0.01, 352.94, 591.849975586, -35.3632608, 149.1652296, 0.998104333878, -0.000523032620549, -9.97651659418e-05, -0.061541929841
2019-04-03 18:54:57.89,63916090, 0.06, -0.13, 352.94, 592.0, -35.3632608, 149.1652294, 0.998102605343, 0.000456322013633, -0.00121924676932, -0.061558816582
2019-04-03 18:54:57.99,64016050, 0.38, -0.46, 352.93, 592.140014648, -35.3632608, 149.1652294, 0.998088657856, 0.00309048988856, -0.00427214475349, -0.0615732744336
2019-04-03 18:54:58.09,64116010, 0.91, -1.01, 352.93, 592.270019531, -35.3632607, 149.1652294, 0.998030781746, 0.00741138402373, -0.00936637911946, -0.0615788213909
2019-04-03 18:54:58.19,64215970, 1.6, -1.71, 352.91, 592.380004883, -35.3632607, 149.1652294, 0.997893631458, 0.0130747212097, -0.0157768484205, -0.0615499950945
2019-04-03 18:54:58.29,64315930, 2.4, -2.5, 352.89, 592.479980469, -35.3632605, 149.1652296, 0.997650265694, 0.0195465032011, -0.0231158155948, -0.061462149024
2019-04-03 18:54:58.39,64415890, 3.16, -3.3, 352.87, 592.570007324, -35.3632605, 149.1652296, 0.997319877148, 0.0257672220469, -0.0305099897087, -0.0613052397966
2019-04-03 18:54:58.49,64515850, 3.8, -3.97, 352.85, 592.650024414, -35.3632604, 149.1652297, 0.996981143951, 0.030971005559, -0.036633554846, -0.0610524453223
2019-04-03 18:54:58.59,64615810, 4.28, -4.44, 352.86, 592.719970703, -35.3632602, 149.1652298, 0.996700286865, 0.03487855196, -0.0410460196435, -0.0607229210436
2019-04-03 18:54:58.69,64715770, 4.63, -4.78, 352.87, 592.780029297, -35.3632599, 149.1652299, 0.996486067772, 0.0377300269902, -0.0441513210535, -0.0603538155556
2019-04-03 18:54:58.79,64815730, 4.88, -5.05, 352.89, 592.840026855, -35.3632596, 149.1652303, 0.996314406395, 0.0397825948894, -0.0466545708477, -0.0599866770208
2019-04-03 18:54:58.89,64915690, 5.1, -5.33, 352.9, 592.880004883, -35.3632592, 149.1652306, 0.996142029762, 0.0415398441255, -0.0491788350046, -0.0596405528486
2019-04-03 18:54:59.00,65016483, 5.33, -5.6, 352.92, 592.929992676, -35.3632587, 149.165231, 0.995961487293, 0.0433373786509, -0.0516292899847, -0.0593045130372
2019-04-03 18:54:59.10,65116443, 5.53, -5.82, 352.93, 592.960021973, -35.3632583, 149.1652313, 0.995800793171, 0.045040410012, -0.0535929612815, -0.0589909553528
2019-04-03 18:54:59.20,65216403, 5.71, -5.98, 352.95, 593.0, -35.3632577, 149.1652318, 0.995666801929, 0.0464665144682, -0.0551380440593, -0.0587219297886
2019-04-03 18:54:59.30,65316363, 5.84, -6.11, 352.95, 593.030029297, -35.3632571, 149.1652325, 0.995565056801, 0.0475267469883, -0.0562773421407, -0.058518089354
2019-04-03 18:54:59.40,65416323, 5.91, -6.21, 352.96, 593.059997559, -35.3632564, 149.1652331, 0.995490193367, 0.048117376864, -0.0572099946439, -0.0584039725363
2019-04-03 18:54:59.49,65516283, 5.95, -6.32, 352.95, 593.090026855, -35.3632556, 149.1652337, 0.995423853397, 0.0484104752541, -0.0581397935748, -0.058374542743
2019-04-03 18:54:59.59,65616243, 6.05, -6.43, 352.95, 593.109985352, -35.3632549, 149.1652345, 0.995329618454, 0.0492051877081, -0.0591575577855, -0.0582939721644
2019-04-03 18:54:59.69,65716203, 6.41, -6.43, 353.17, 593.140014648, -35.363254, 149.1652353, 0.995280742645, 0.0524155907333, -0.05928741768, -0.0561593845487
2019-04-03 18:54:59.79,65816163, 7.02, -6.35, 354.26, 593.159973145, -35.3632531, 149.165236, 0.995508551598, 0.0582828000188, -0.0583526566625, -0.0464847050607
2019-04-03 18:54:59.89,65916123, 7.6, -6.48, 356.84, 593.179992676, -35.363252, 149.165237, 0.995929062366, 0.0646279528737, -0.0582052506506, -0.0236782934517
2019-04-03 18:54:59.99,66016083, 7.81, -7.02, 1.08, 593.200012207, -35.3632511, 149.1652379, 0.995718300343, 0.0685910284519, -0.0604582540691, 0.0136069627479
2019-04-03 18:55:00.09,66116043, 7.43, -7.97, 6.81, 593.229980469, -35.36325, 149.165239, 0.993448853493, 0.0687027350068, -0.0654459893703, 0.0636881366372
2019-04-03 18:55:00.19,66216003, 6.37, -9.19, 13.76, 593.25, -35.3632489, 149.1652403, 0.987534403801, 0.0645999759436, -0.0727889835835, 0.123710937798
2019-04-03 18:55:00.29,66315963, 4.6, -10.46, 21.62, 593.270019531, -35.3632477, 149.1652414, 0.976672530174, 0.0563848987222, -0.0820105448365, 0.190278366208
2019-04-03 18:55:00.39,66415923, 1.98, -11.56, 29.83, 593.299987793, -35.3632465, 149.1652427, 0.960789620876, 0.0425776429474, -0.0928745046258, 0.257768720388
2019-04-03 18:55:00.49,66515883, -1.16, -12.21, 37.49, 593.33001709, -35.3632453, 149.1652442, 0.941864967346, 0.0246156547219, -0.104002594948, 0.318540304899
2019-04-03 18:55:00.59,66615843, -4.15, -12.4, 43.74, 593.349975586, -35.363244, 149.1652456, 0.923438072205, 0.00675971945748, -0.113643683493, 0.366471767426
2019-04-03 18:55:00.69,66715803, -6.33, -12.32, 48.04, 593.380004883, -35.3632426, 149.165247, 0.909137129784, -0.0065686693415, -0.120302580297, 0.398690283298
2019-04-03 18:55:00.79,66815763, -7.45, -12.2, 50.3, 593.409973145, -35.363241, 149.1652484, 0.901084244251, -0.0134044373408, -0.123450890183, 0.415484577417
2019-04-03 18:55:00.89,66915723, -7.5, -12.21, 50.77, 593.440002441, -35.3632394, 149.1652499, 0.899371087551, -0.0132956607267, -0.123844631016, 0.419067323208
2019-04-03 18:55:00.99,67015683, -6.71, -12.48, 49.81, 593.469970703, -35.3632376, 149.1652513, 0.902763843536, -0.00712652085349, -0.1229698807, 0.412122666836
2019-04-03 18:55:01.10,67116476, -5.34, -12.99, 47.77, 593.5, -35.3632358, 149.1652527, 0.909600019455, 0.0034413698595, -0.122134819627, 0.397113442421
2019-04-03 18:55:01.20,67216436, -3.67, -13.65, 45.06, 593.530029297, -35.3632337, 149.1652542, 0.918093204498, 0.0161314494908, -0.121963232756, 0.37678861618
2019-04-03 18:55:01.30,67316396, -1.92, -14.33, 41.99, 593.570007324, -35.3632318, 149.1652557, 0.926917910576, 0.0291422232985, -0.122421771288, 0.353534847498
2019-04-03 18:55:01.40,67416356, -0.25, -14.88, 38.9, 593.599975586, -35.3632298, 149.1652572, 0.935060799122, 0.0411002598703, -0.122889347374, 0.329955011606
2019-04-03 18:55:01.49,67516316, 1.19, -15.21, 36.13, 593.640014648, -35.3632276, 149.1652589, 0.941849052906, 0.0508568324149, -0.122669436038, 0.308684617281
2019-04-03 18:55:01.59,67616276, 2.26, -15.33, 33.95, 593.679992676, -35.3632255, 149.1652607, 0.94692838192, 0.0576814934611, -0.121839664876, 0.291812688112
2019-04-03 18:55:01.69,67716236, 2.9, -15.32, 32.5, 593.719970703, -35.3632233, 149.1652624, 0.950203835964, 0.0614131242037, -0.120946489275, 0.280558407307
2019-04-03 18:55:01.79,67816196, 3.09, -15.29, 31.84, 593.760009766, -35.3632209, 149.1652643, 0.951759397984, 0.0622289665043, -0.120548211038, 0.275226682425
2019-04-03 18:55:01.89,67916156, 2.9, -15.28, 31.88, 593.789978027, -35.3632187, 149.1652664, 0.951764881611, 0.0606540329754, -0.120982259512, 0.275368958712
2019-04-03 18:55:01.99,68016116, 2.39, -15.34, 32.49, 593.83001709, -35.3632164, 149.1652685, 0.950461685658, 0.0572543516755, -0.122392848134, 0.279936611652
2019-04-03 18:55:02.09,68116076, 1.69, -15.46, 33.51, 593.869995117, -35.363214, 149.1652705, 0.948146522045, 0.0528086423874, -0.124637320638, 0.287567317486
2019-04-03 18:55:02.19,68216036, 0.88, -15.61, 34.74, 593.909973145, -35.3632117, 149.1652728, 0.945209562778, 0.0478698424995, -0.127318933606, 0.296778082848
2019-04-03 18:55:02.29,68315996, 0.09, -15.73, 35.99, 593.950012207, -35.3632092, 149.1652751, 0.942065179348, 0.0431056544185, -0.129965409636, 0.30620932579
2019-04-03 18:55:02.39,68415956, -0.58, -15.83, 37.13, 593.989990234, -35.3632067, 149.1652772, 0.939114272594, 0.0390946418047, -0.132209688425, 0.314732551575
2019-04-03 18:55:02.49,68515916, -1.08, -15.89, 38.04, 594.030029297, -35.3632042, 149.1652796, 0.936696767807, 0.0362082496285, -0.13380150497, 0.321535885334
2019-04-03 18:55:02.59,68615876, -1.37, -15.93, 38.65, 594.070007324, -35.3632015, 149.165282, 0.935027360916, 0.0346280783415, -0.134726971388, 0.326149314642
2019-04-03 18:55:02.69,68715836, -1.45, -15.96, 38.94, 594.119995117, -35.363199, 149.1652843, 0.934176683426, 0.0344020724297, -0.135099053383, 0.328448921442
2019-04-03 18:55:02.79,68815796, -1.35, -16.0, 38.95, 594.159973145, -35.3631964, 149.1652867, 0.934092462063, 0.0353696681559, -0.135116517544, 0.32857838273
2019-04-03 18:55:02.89,68915756, -1.12, -16.03, 38.71, 594.200012207, -35.3631936, 149.1652891, 0.934655845165, 0.0370947420597, -0.134832426906, 0.326898545027
2019-04-03 18:55:02.99,69015716, -0.82, -16.08, 38.3, 594.239990234, -35.3631909, 149.1652915, 0.935656487942, 0.0391948856413, -0.134531766176, 0.323901116848
2019-04-03 18:55:03.09,69115676, -0.51, -16.13, 37.8, 594.280029297, -35.363188, 149.165294, 0.936901807785, 0.0412892103195, -0.134197875857, 0.320158034563
2019-04-03 18:55:03.20,69216469, -0.21, -16.18, 37.28, 594.320007324, -35.3631853, 149.1652964, 0.938186705112, 0.0432674773037, -0.133983910084, 0.316199272871
2019-04-03 18:55:03.30,69316429, 0.05, -16.23, 36.8, 594.359985352, -35.3631825, 149.165299, 0.939341425896, 0.0450130440295, -0.13380523026, 0.312582343817
2019-04-03 18:55:03.40,69416389, 0.25, -16.29, 36.41, 594.400024414, -35.3631795, 149.1653015, 0.940244555473, 0.0463529229164, -0.133931860328, 0.309602737427
2019-04-03 18:55:03.50,69516349, 0.37, -16.35, 36.14, 594.440002441, -35.3631768, 149.165304, 0.940861165524, 0.0472022816539, -0.134204342961, 0.307475984097
2019-04-03 18:55:03.59,69616309, 0.42, -16.4, 35.99, 594.479980469, -35.3631739, 149.1653067, 0.941178202629, 0.0475412532687, -0.134600788355, 0.306277811527
2019-04-03 18:55:03.69,69716269, 0.4, -16.44, 35.95, 594.520019531, -35.363171, 149.1653093, 0.941221177578, 0.0475125610828, -0.134982898831, 0.305981904268
2019-04-03 18:55:03.79,69816229, 0.34, -16.48, 36.02, 594.559997559, -35.363168, 149.1653119, 0.94103884697, 0.0471263453364, -0.135405957699, 0.306415081024
2019-04-03 18:55:03.89,69916189, 0.23, -16.49, 36.15, 594.599975586, -35.363165, 149.1653145, 0.940707564354, 0.0464344769716, -0.135752528906, 0.307383060455
2019-04-03 18:55:03.99,70016149, 0.09, -16.5, 36.33, 594.640014648, -35.363162, 149.1653173, 0.940287947655, 0.0455222725868, -0.136096552014, 0.308648765087
2019-04-03 18:55:04.09,70116109, -0.04, -16.51, 36.51, 594.690002441, -35.3631591, 149.1653199, 0.939824163914, 0.0446402579546, -0.136520043015, 0.310000240803
2019-04-03 18:55:04.19,70216069, -0.16, -16.53, 36.68, 594.729980469, -35.3631559, 149.1653227, 0.939378559589, 0.0438872650266, -0.136969089508, 0.31125754118
2019-04-03 18:55:04.29,70316029, -0.25, -16.55, 36.82, 594.770019531, -35.3631529, 149.1653255, 0.939012527466, 0.0433518849313, -0.137301951647, 0.312288731337
2019-04-03 18:55:04.39,70415989, -0.31, -16.57, 36.92, 594.809997559, -35.3631498, 149.1653283, 0.938752353191, 0.0430506020784, -0.137586757541, 0.312986522913
2019-04-03 18:55:04.49,70515949, -0.34, -16.6, 36.96, 594.849975586, -35.3631468, 149.1653311, 0.938604295254, 0.0429799407721, -0.137923359871, 0.313291996717
2019-04-03 18:55:04.59,70615909, -0.32, -16.66, 36.96, 594.900024414, -35.3631437, 149.1653337, 0.93855214119, 0.0432319156826, -0.138324856758, 0.313236504793
2019-04-03 18:55:04.69,70715869, -0.27, -16.7, 36.91, 594.940002441, -35.3631406, 149.1653366, 0.938607633114, 0.0437305159867, -0.13855932653, 0.312897264957
2019-04-03 18:55:04.79,70815829, -0.2, -16.74, 36.83, 594.979980469, -35.3631375, 149.1653394, 0.938739478588, 0.0443266704679, -0.138742342591, 0.312336206436
2019-04-03 18:55:04.89,70915789, -0.12, -16.76, 36.74, 595.020019531, -35.3631344, 149.1653423, 0.93894469738, 0.0448971688747, -0.138721138239, 0.311646491289
2019-04-03 18:55:04.99,71015749, -0.08, -16.77, 36.64, 595.059997559, -35.3631312, 149.1653451, 0.939182341099, 0.0451710298657, -0.138724043965, 0.31088873744
2019-04-03 18:55:05.09,71115709, -0.05, -16.78, 36.55, 595.109985352, -35.3631281, 149.165348, 0.939411401749, 0.0452875867486, -0.138761237264, 0.310162246227
2019-04-03 18:55:05.19,71215669, -0.04, -16.79, 36.47, 595.150024414, -35.3631248, 149.1653508, 0.939607799053, 0.0452948100865, -0.138836532831, 0.309531927109
2019-04-03 18:55:05.30,71316462, -0.03, -16.81, 36.41, 595.190002441, -35.3631216, 149.1653537, 0.939739525318, 0.0453839153051, -0.138985589147, 0.309051722288
2019-04-03 18:55:05.40,71416422, -0.02, -16.86, 36.37, 595.229980469, -35.3631184, 149.1653566, 0.939780116081, 0.0455429181457, -0.139381229877, 0.308726459742
2019-04-03 18:55:05.50,71516382, -0.03, -16.92, 36.35, 595.280029297, -35.3631151, 149.1653595, 0.939764559269, 0.0456183180213, -0.139903962612, 0.308526366949
2019-04-03 18:55:05.60,71616342, -0.05, -16.96, 36.35, 595.320007324, -35.363112, 149.1653624, 0.939733207226, 0.0455274246633, -0.140323191881, 0.308444827795
2019-04-03 18:55:05.69,71716302, -0.07, -16.97, 36.35, 595.359985352, -35.3631088, 149.1653653, 0.939712524414, 0.0453990250826, -0.140442058444, 0.308472573757
2019-04-03 18:55:05.79,71816262, -0.08, -16.97, 36.37, 595.400024414, -35.3631054, 149.1653682, 0.939679861069, 0.045362636447, -0.140468344092, 0.308565527201
2019-04-03 18:55:05.89,71916222, -0.09, -16.96, 36.38, 595.450012207, -35.3631022, 149.1653711, 0.939658463001, 0.0453079901636, -0.140382632613, 0.308677613735
2019-04-03 18:55:05.99,72016182, -0.1, -16.93, 36.39, 595.489990234, -35.363099, 149.165374, 0.939660847187, 0.0451462417841, -0.140202268958, 0.308776140213
2019-04-03 18:55:06.09,72116142, -0.1, -16.93, 36.4, 595.530029297, -35.3630956, 149.1653771, 0.939645946026, 0.0451440475881, -0.140138372779, 0.308850824833
2019-04-03 18:55:06.19,72216102, -0.09, -16.94, 36.4, 595.570007324, -35.3630924, 149.16538, 0.939619421959, 0.0452293120325, -0.140244618058, 0.308870643377
2019-04-03 18:55:06.29,72316062, -0.09, -16.99, 36.4, 595.609985352, -35.363089, 149.165383, 0.939569652081, 0.0453983619809, -0.140626952052, 0.308823436499
2019-04-03 18:55:06.39,72416022, -0.08, -17.04, 36.39, 595.659973145, -35.3630858, 149.1653859, 0.939535498619, 0.0456217862666, -0.141009390354, 0.308720111847
2019-04-03 18:55:06.49,72515982, -0.06, -17.08, 36.37, 595.700012207, -35.3630825, 149.1653888, 0.939523458481, 0.0458797104657, -0.141311302781, 0.308580428362
2019-04-03 18:55:06.59,72615942, -0.04, -17.14, 36.35, 595.739990234, -35.3630791, 149.1653919, 0.939506649971, 0.0461445711553, -0.141735628247, 0.308397382498
2019-04-03 18:55:06.69,72715902, -0.03, -17.19, 36.32, 595.780029297, -35.3630758, 149.1653949, 0.939495027065, 0.0463636592031, -0.14215990901, 0.308204680681
2019-04-03 18:55:06.79,72815862, -0.02, -17.21, 36.3, 595.83001709, -35.3630725, 149.1653978, 0.939535260201, 0.0464435406029, -0.142245069146, 0.308030635118
2019-04-03 18:55:06.89,72915822, -0.01, -17.19, 36.28, 595.869995117, -35.3630691, 149.1654008, 0.93960827589, 0.0464454255998, -0.142098769546, 0.307875007391
2019-04-03 18:55:06.99,73015782, 0.0, -17.17, 36.26, 595.909973145, -35.3630658, 149.1654039, 0.939674198627, 0.0464698709548, -0.141941934824, 0.307742536068
2019-04-03 18:55:07.09,73115742, 0.01, -17.18, 36.25, 595.950012207, -35.3630623, 149.1654069, 0.939707875252, 0.046610403806, -0.141907513142, 0.30763438344
2019-04-03 18:55:07.19,73215702, 0.03, -17.21, 36.23, 595.989990234, -35.363059, 149.1654098, 0.939695596695, 0.0468110740185, -0.142134204507, 0.307536661625
2019-04-03 18:55:07.29,73315662, 0.02, -17.24, 36.22, 596.039978027, -35.3630556, 149.165413, 0.939677536488, 0.0468569770455, -0.142438903451, 0.307443767786
2019-04-03 18:55:07.40,73416455, 0.0, -17.26, 36.22, 596.08001709, -35.3630523, 149.165416, 0.939678788185, 0.0467240810394, -0.142672762275, 0.307351887226
2019-04-03 18:55:07.50,73516415, -0.02, -17.27, 36.21, 596.119995117, -35.3630488, 149.165419, 0.939695239067, 0.0465070009232, -0.142829611897, 0.307261496782
2019-04-03 18:55:07.60,73616375, -0.04, -17.26, 36.21, 596.159973145, -35.3630455, 149.1654221, 0.939733028412, 0.0462872385979, -0.142806351185, 0.307189971209
2019-04-03 18:55:07.70,73716335, -0.02, -17.25, 36.2, 596.200012207, -35.3630421, 149.1654251, 0.939767181873, 0.046362567693, -0.142627999187, 0.307156980038
2019-04-03 18:55:07.79,73816295, 0.0, -17.24, 36.19, 596.25, -35.3630387, 149.1654281, 0.939781188965, 0.0465620905161, -0.142537146807, 0.307126045227
2019-04-03 18:55:07.89,73916255, 0.02, -17.27, 36.18, 596.289978027, -35.3630353, 149.1654313, 0.939756155014, 0.0468160770833, -0.142728939652, 0.307075083256
2019-04-03 18:55:07.99,74016215, 0.03, -17.31, 36.18, 596.33001709, -35.3630318, 149.1654342, 0.939716815948, 0.0470600649714, -0.143025770783, 0.307020008564
2019-04-03 18:55:08.09,74116175, 0.04, -17.34, 36.17, 596.369995117, -35.3630284, 149.1654374, 0.939701378345, 0.0471499152482, -0.143244996667, 0.306951195002
2019-04-03 18:55:08.19,74216135, 0.04, -17.36, 36.16, 596.409973145, -35.363025, 149.1654404, 0.939703762531, 0.0471943058074, -0.143386781216, 0.306871026754
2019-04-03 18:55:08.29,74316095, 0.04, -17.38, 36.15, 596.460021973, -35.3630215, 149.1654434, 0.939701557159, 0.0472728721797, -0.143545731902, 0.306791216135
2019-04-03 18:55:08.39,74416055, 0.05, -17.39, 36.14, 596.5, -35.3630181, 149.1654466, 0.939710974693, 0.0473738946021, -0.143598765135, 0.306722044945
2019-04-03 18:55:08.49,74516015, 0.06, -17.4, 36.13, 596.539978027, -35.3630147, 149.1654496, 0.939722537994, 0.0474676080048, -0.143628850579, 0.306658029556
2019-04-03 18:55:08.59,74615975, 0.07, -17.42, 36.12, 596.58001709, -35.3630112, 149.1654527, 0.939709722996, 0.047595333308, -0.143801346421, 0.306596726179
2019-04-03 18:55:08.69,74715935, 0.09, -17.46, 36.12, 596.619995117, -35.3630078, 149.1654558, 0.939665555954, 0.0478206574917, -0.144130930305, 0.306542277336
2019-04-03 18:55:08.79,74815895, 0.08, -17.5, 36.11, 596.66998291, -35.3630044, 149.1654589, 0.939634680748, 0.047913800925, -0.144462391734, 0.306466251612
2019-04-03 18:55:08.89,74915855, 0.06, -17.52, 36.1, 596.710021973, -35.3630008, 149.165462, 0.93964111805, 0.047753430903, -0.144677430391, 0.306370198727
2019-04-03 18:55:08.99,75015815, 0.03, -17.53, 36.09, 596.75, -35.3629975, 149.1654651, 0.939659118652, 0.0475266724825, -0.144851088524, 0.306268125772
2019-04-03 18:55:09.09,75115775, 0.02, -17.52, 36.09, 596.789978027, -35.362994, 149.1654682, 0.939699649811, 0.0473663136363, -0.144824683666, 0.306180983782
2019-04-03 18:55:09.19,75215735, 0.03, -17.53, 36.08, 596.83001709, -35.3629905, 149.1654713, 0.939709544182, 0.0474630706012, -0.144860774279, 0.306118667126
2019-04-03 18:55:09.29,75315695, 0.03, -17.55, 36.07, 596.880004883, -35.3629871, 149.1654744, 0.939710140228, 0.0475671514869, -0.144966423512, 0.306050598621
2019-04-03 18:55:09.40,75416488, 0.05, -17.56, 36.06, 596.91998291, -35.3629836, 149.1654776, 0.939707815647, 0.0477019920945, -0.1450740695, 0.305985629559
2019-04-03 18:55:09.50,75516448, 0.06, -17.56, 36.05, 596.960021973, -35.3629801, 149.1654807, 0.939727067947, 0.0478005446494, -0.14504930377, 0.305923044682
2019-04-03 18:55:09.60,75616408, 0.07, -17.57, 36.04, 597.0, -35.3629765, 149.1654838, 0.939747750759, 0.0478371344507, -0.145061016083, 0.305848121643
2019-04-03 18:55:09.70,75716368, 0.07, -17.57, 36.03, 597.049987793, -35.3629731, 149.1654869, 0.939769744873, 0.0478567183018, -0.145079165697, 0.305768936872
2019-04-03 18:55:09.80,75816328, 0.06, -17.58, 36.02, 597.090026855, -35.3629696, 149.1654901, 0.939785659313, 0.0477829687297, -0.145210906863, 0.305668979883
2019-04-03 18:55:09.89,75916288, 0.03, -17.61, 36.01, 597.130004883, -35.3629661, 149.1654931, 0.939788222313, 0.0476351566613, -0.145493552089, 0.305549621582
2019-04-03 18:55:09.99,76016248, 0.0, -17.62, 36.0, 597.16998291, -35.3629627, 149.1654963, 0.939807474613, 0.0473685003817, -0.145723074675, 0.305422455072
2019-04-03 18:55:10.09,76116208, -0.01, -17.63, 35.99, 597.210021973, -35.3629592, 149.1654994, 0.939825475216, 0.0472816228867, -0.145848557353, 0.305320799351
2019-04-03 18:55:10.19,76216168, -0.02, -17.65, 35.98, 597.260009766, -35.3629557, 149.1655026, 0.939841330051, 0.0472057722509, -0.145974799991, 0.305223286152
2019-04-03 18:55:10.29,76316128, -0.01, -17.66, 35.97, 597.299987793, -35.3629521, 149.1655056, 0.939846038818, 0.0472635813057, -0.146060660481, 0.305158793926
2019-04-03 18:55:10.39,76416088, 0.01, -17.66, 35.97, 597.340026855, -35.3629485, 149.1655089, 0.939845323563, 0.0475400611758, -0.146020948887, 0.305137008429
2019-04-03 18:55:10.49,76516048, 0.04, -17.67, 35.96, 597.380004883, -35.3629451, 149.165512, 0.939850449562, 0.0477591268718, -0.145976826549, 0.305108040571
2019-04-03 18:55:10.59,76616008, 0.04, -17.68, 35.95, 597.429992676, -35.3629416, 149.1655151, 0.939853072166, 0.0478095971048, -0.146075859666, 0.305044651031
2019-04-03 18:55:10.69,76715968, 0.03, -17.68, 35.94, 597.469970703, -35.3629381, 149.1655183, 0.939875304699, 0.0477001555264, -0.146140784025, 0.304962307215
2019-04-03 18:55:10.79,76815928, 0.02, -17.68, 35.94, 597.510009766, -35.3629345, 149.1655214, 0.939899981022, 0.047624912113, -0.146173208952, 0.304882436991
2019-04-03 18:55:10.89,76915888, 0.03, -17.7, 35.93, 597.549987793, -35.3629309, 149.1655246, 0.939892947674, 0.0477344021201, -0.146328568459, 0.304812401533
2019-04-03 18:55:10.99,77015848, 0.06, -17.74, 35.92, 597.590026855, -35.3629275, 149.1655278, 0.939857900143, 0.0480912365019, -0.146516039968, 0.304774463177
2019-04-03 18:55:11.09,77115808, 0.11, -17.74, 35.91, 597.640014648, -35.362924, 149.1655309, 0.939859986305, 0.048468619585, -0.146390095353, 0.304768592119
2019-04-03 18:55:11.19,77215768, 0.14, -17.71, 35.9, 597.679992676, -35.3629204, 149.1655341, 0.939903020859, 0.0486499816179, -0.146076917648, 0.304757386446
2019-04-03 18:55:11.29,77315728, 0.15, -17.68, 35.9, 597.719970703, -35.3629169, 149.1655372, 0.939946055412, 0.0486938804388, -0.145845815539, 0.304728299379
2019-04-03 18:55:11.39,77415688, 0.13, -17.71, 35.89, 597.760009766, -35.3629133, 149.1655404, 0.93994641304, 0.0485200993717, -0.146093532443, 0.304636359215
2019-04-03 18:55:11.50,77516481, 0.09, -17.76, 35.89, 597.799987793, -35.3629098, 149.1655436, 0.93990623951, 0.0483628623188, -0.146615371108, 0.304534435272
2019-04-03 18:55:11.60,77616441, 0.07, -17.8, 35.88, 597.849975586, -35.3629063, 149.1655467, 0.939862310886, 0.0483299642801, -0.147035583854, 0.304472655058
2019-04-03 18:55:11.70,77716401, 0.07, -17.82, 35.88, 597.890014648, -35.3629027, 149.16555, 0.939842641354, 0.04832149297, -0.147234559059, 0.304438471794
2019-04-03 18:55:11.80,77816361, 0.07, -17.81, 35.88, 597.929992676, -35.3628992, 149.165553, 0.939858794212, 0.0483138263226, -0.147139057517, 0.304436057806
2019-04-03 18:55:11.90,77916321, 0.06, -17.78, 35.88, 597.969970703, -35.3628956, 149.1655563, 0.939907968044, 0.0481675378978, -0.146895438433, 0.304425179958
2019-04-03 18:55:11.99,78016281, 0.05, -17.75, 35.87, 598.020019531, -35.362892, 149.1655595, 0.939966261387, 0.0479837097228, -0.146634057164, 0.304400235415
2019-04-03 18:55:12.09,78116241, 0.06, -17.71, 35.87, 598.059997559, -35.3628884, 149.1655626, 0.940020799637, 0.0479230955243, -0.146339073777, 0.304383218288
2019-04-03 18:55:12.19,78216201, 0.07, -17.7, 35.86, 598.099975586, -35.362885, 149.1655659, 0.940045297146, 0.0479633025825, -0.146226212382, 0.304355561733
2019-04-03 18:55:12.29,78316161, 0.06, -17.71, 35.86, 598.140014648, -35.3628814, 149.165569, 0.94004714489, 0.047946896404, -0.146359786391, 0.304288059473
2019-04-03 18:55:12.39,78416121, 0.05, -17.74, 35.85, 598.179992676, -35.3628778, 149.1655721, 0.94003880024, 0.0479307845235, -0.146606847644, 0.304197490215
2019-04-03 18:55:12.49,78516081, 0.04, -17.76, 35.84, 598.229980469, -35.3628743, 149.1655754, 0.940044879913, 0.0478860959411, -0.146764680743, 0.304109692574
2019-04-03 18:55:12.59,78616041, 0.04, -17.75, 35.83, 598.270019531, -35.3628706, 149.1655786, 0.940073251724, 0.047820366919, -0.146757677197, 0.304035693407
2019-04-03 18:55:12.69,78716001, 0.02, -17.74, 35.82, 598.309997559, -35.3628671, 149.1655817, 0.940114140511, 0.0476352646947, -0.146733134985, 0.303950101137
2019-04-03 18:55:12.79,78815961, 0.0, -17.76, 35.82, 598.349975586, -35.3628636, 149.165585, 0.940126359463, 0.0475216172636, -0.14688052237, 0.30385902524
2019-04-03 18:55:12.89,78915921, 0.0, -17.79, 35.81, 598.400024414, -35.36286, 149.1655882, 0.940108776093, 0.0475764535367, -0.147133782506, 0.303782135248
2019-04-03 18:55:12.99,79015881, 0.0, -17.81, 35.8, 598.440002441, -35.3628565, 149.1655913, 0.940099954605, 0.0476506464183, -0.147287398577, 0.30372351408
2019-04-03 18:55:13.09,79115841, 0.02, -17.81, 35.8, 598.479980469, -35.3628529, 149.1655946, 0.940105557442, 0.0477591007948, -0.147298768163, 0.303683638573
2019-04-03 18:55:13.19,79215801, 0.04, -17.82, 35.79, 598.520019531, -35.3628493, 149.1655978, 0.940100669861, 0.0479539223015, -0.147325232625, 0.30365511775
2019-04-03 18:55:13.29,79315761, 0.06, -17.83, 35.78, 598.559997559, -35.3628457, 149.1656008, 0.940098404884, 0.0481629744172, -0.14731746912, 0.303632795811
2019-04-03 18:55:13.39,79415721, 0.08, -17.83, 35.78, 598.609985352, -35.3628421, 149.1656041, 0.940101742744, 0.0483507327735, -0.147278368473, 0.303611516953
2019-04-03 18:55:13.49,79515681, 0.08, -17.82, 35.77, 598.650024414, -35.3628385, 149.1656073, 0.940127313137, 0.0483289994299, -0.147208720446, 0.303569793701
2019-04-03 18:55:13.60,79616474, 0.08, -17.82, 35.77, 598.690002441, -35.3628349, 149.1656105, 0.940146327019, 0.0482711195946, -0.14722122252, 0.303513973951
2019-04-03 18:55:13.70,79716434, 0.08, -17.85, 35.76, 598.729980469, -35.3628314, 149.1656138, 0.940125882626, 0.0483093596995, -0.147459387779, 0.303455561399
2019-04-03 18:55:13.80,79816394, 0.07, -17.86, 35.76, 598.770019531, -35.3628278, 149.165617, 0.940128684044, 0.0482499152422, -0.147556722164, 0.303409010172
2019-04-03 18:55:13.90,79916354, 0.04, -17.86, 35.75, 598.820007324, -35.3628242, 149.1656202, 0.940148949623, 0.0480276308954, -0.147616297007, 0.303352504969
2019-04-03 18:55:13.99,80016314, 0.02, -17.84, 35.75, 598.859985352, -35.3628206, 149.1656233, 0.940178334713, 0.0478431358933, -0.147563502192, 0.303316265345
2019-04-03 18:55:14.09,80116274, 0.03, -17.82, 35.75, 598.900024414, -35.3628171, 149.1656266, 0.940205395222, 0.0478702113032, -0.147388979793, 0.30331286788
2019-04-03 18:55:14.19,80216234, 0.06, -17.81, 35.75, 598.940002441, -35.3628135, 149.1656298, 0.940221965313, 0.0480805598199, -0.147166028619, 0.303336620331
2019-04-03 18:55:14.29,80316194, 0.09, -17.82, 35.74, 598.989990234, -35.3628098, 149.1656329, 0.940206885338, 0.0483218319714, -0.147167205811, 0.303344398737
2019-04-03 18:55:14.39,80416154, 0.08, -17.84, 35.74, 599.030029297, -35.3628062, 149.1656362, 0.940189838409, 0.0483255535364, -0.1473646909, 0.303300797939
2019-04-03 18:55:14.49,80516114, 0.08, -17.87, 35.74, 599.070007324, -35.3628026, 149.1656394, 0.94015455246, 0.0483756139874, -0.14767305553, 0.303252220154
2019-04-03 18:55:14.59,80616074, 0.08, -17.9, 35.73, 599.109985352, -35.362799, 149.1656425, 0.940126955509, 0.0484728366137, -0.147887527943, 0.303217828274
2019-04-03 18:55:14.69,80716034, 0.09, -17.91, 35.73, 599.159973145, -35.3627955, 149.1656458, 0.940124690533, 0.0485465750098, -0.147929683328, 0.303192436695
2019-04-03 18:55:14.79,80815994, 0.1, -17.92, 35.73, 599.200012207, -35.3627919, 149.165649, 0.940117359161, 0.0486743934453, -0.147969767451, 0.303175121546
2019-04-03 18:55:14.89,80915954, 0.11, -17.91, 35.72, 599.239990234, -35.3627883, 149.1656521, 0.940128862858, 0.0487089194357, -0.147921487689, 0.303157448769
2019-04-03 18:55:14.99,81015914, 0.12, -17.88, 35.72, 599.280029297, -35.3627847, 149.1656554, 0.940169453621, 0.0486811026931, -0.147658631206, 0.303164213896
2019-04-03 18:55:15.09,81115874, 0.13, -17.86, 35.72, 599.33001709, -35.3627811, 149.1656587, 0.940198421478, 0.048754401505, -0.147413924336, 0.303181737661
2019-04-03 18:55:15.19,81215834, 0.14, -17.84, 35.72, 599.369995117, -35.3627775, 149.1656619, 0.940227925777, 0.0487588308752, -0.147210985422, 0.303188025951
2019-04-03 18:55:15.29,81315794, 0.14, -17.83, 35.72, 599.409973145, -35.3627739, 149.165665, 0.940236926079, 0.0487113557756, -0.147201344371, 0.303172379732
2019-04-03 18:55:15.39,81415754, 0.15, -17.87, 35.71, 599.450012207, -35.3627703, 149.1656683, 0.9401922822, 0.0489374995232, -0.147411808372, 0.303172081709
2019-04-03 18:55:15.49,81515714, 0.17, -17.91, 35.71, 599.489990234, -35.3627667, 149.1656715, 0.940135002136, 0.0491623468697, -0.147719487548, 0.303163766861
2019-04-03 18:55:15.59,81615674, 0.18, -17.91, 35.71, 599.539978027, -35.362763, 149.1656746, 0.940125584602, 0.0492426343262, -0.147745981812, 0.303166866302
2019-04-03 18:55:15.70,81716467, 0.16, -17.9, 35.71, 599.58001709, -35.3627594, 149.1656779, 0.940155386925, 0.0491017065942, -0.147637948394, 0.303149968386
2019-04-03 18:55:15.80,81816427, 0.15, -17.88, 35.71, 599.619995117, -35.3627557, 149.1656812, 0.940191566944, 0.0488995425403, -0.147536039352, 0.303120225668
2019-04-03 18:55:15.90,81916387, 0.14, -17.87, 35.71, 599.659973145, -35.3627521, 149.1656844, 0.940203547478, 0.0488704964519, -0.147502109408, 0.303104162216
2019-04-03 18:55:16.00,82016347, 0.13, -17.89, 35.71, 599.700012207, -35.3627485, 149.1656877, 0.940197646618, 0.0488046891987, -0.147647708654, 0.303062111139
2019-04-03 18:55:16.09,82116307, 0.12, -17.9, 35.7, 599.75, -35.3627449, 149.1656908, 0.940187811852, 0.0487649329007, -0.147807449102, 0.303021281958
2019-04-03 18:55:16.19,82216267, 0.12, -17.9, 35.7, 599.789978027, -35.3627414, 149.1656941, 0.94020062685, 0.0487356521189, -0.147793248296, 0.302993059158
2019-04-03 18:55:16.29,82316227, 0.14, -17.88, 35.7, 599.83001709, -35.3627378, 149.1656974, 0.940222799778, 0.048835400492, -0.147615507245, 0.302994787693
2019-04-03 18:55:16.39,82416187, 0.16, -17.86, 35.69, 599.869995117, -35.3627342, 149.1657005, 0.940258026123, 0.0489546470344, -0.147318840027, 0.303010582924
2019-04-03 18:55:16.49,82516147, 0.18, -17.84, 35.69, 599.909973145, -35.3627306, 149.1657038, 0.940272510052, 0.0490695759654, -0.147177025676, 0.303016036749
2019-04-03 18:55:16.59,82616107, 0.19, -17.85, 35.69, 599.950012207, -35.362727, 149.165707, 0.94027286768, 0.0491244196892, -0.147183984518, 0.303002744913
2019-04-03 18:55:16.69,82716067, 0.19, -17.85, 35.69, 600.0, -35.3627234, 149.1657103, 0.940270066261, 0.0491343215108, -0.147251009941, 0.302977263927
2019-04-03 18:55:16.79,82816027, 0.17, -17.87, 35.68, 600.039978027, -35.3627198, 149.1657134, 0.940266132355, 0.0490160994232, -0.147414252162, 0.302929162979
2019-04-03 18:55:16.89,82915987, 0.15, -17.87, 35.68, 600.08001709, -35.3627162, 149.1657167, 0.940271437168, 0.0488988645375, -0.147496685386, 0.302891492844
2019-04-03 18:55:16.99,83015947, 0.17, -17.87, 35.68, 600.119995117, -35.3627126, 149.16572, 0.940281033516, 0.0489890538156, -0.147403642535, 0.302892446518
2019-04-03 18:55:17.09,83115907, 0.18, -17.86, 35.68, 600.159973145, -35.3627089, 149.1657232, 0.940284967422, 0.0491332672536, -0.14734300971, 0.302886366844
2019-04-03 18:55:17.19,83215867, 0.18, -17.89, 35.67, 600.210021973, -35.3627053, 149.1657263, 0.940259695053, 0.0491724349558, -0.147592365742, 0.302837073803
2019-04-03 18:55:17.29,83315827, 0.17, -17.92, 35.67, 600.25, -35.3627016, 149.1657296, 0.940239131451, 0.0491268783808, -0.147872671485, 0.302771627903
2019-04-03 18:55:17.39,83415787, 0.17, -17.94, 35.66, 600.289978027, -35.362698, 149.1657329, 0.940232992172, 0.0491712912917, -0.147995695472, 0.302723348141
2019-04-03 18:55:17.49,83515747, 0.19, -17.93, 35.66, 600.33001709, -35.3626944, 149.1657361, 0.940249681473, 0.0493087768555, -0.147890165448, 0.302700608969
2019-04-03 18:55:17.59,83615707, 0.21, -17.91, 35.65, 600.369995117, -35.3626908, 149.1657394, 0.940279006958, 0.0494765415788, -0.147671431303, 0.302689105272
2019-04-03 18:55:17.69,83715667, 0.23, -17.91, 35.64, 600.41998291, -35.3626873, 149.1657425, 0.940296411514, 0.0496125742793, -0.147568359971, 0.302662968636
2019-04-03 18:55:17.80,83816460, 0.23, -17.91, 35.64, 600.460021973, -35.3626837, 149.1657458, 0.940305948257, 0.0495749413967, -0.147634997964, 0.302606999874
2019-04-03 18:55:17.90,83916420, 0.22, -17.91, 35.63, 600.5, -35.36268, 149.1657491, 0.940321207047, 0.0495150759816, -0.147646903992, 0.302563548088
2019-04-03 18:55:18.00,84016380, 0.22, -17.91, 35.63, 600.539978027, -35.3626764, 149.1657522, 0.940339386463, 0.0494696050882, -0.147607073188, 0.302533864975
2019-04-03 18:55:18.10,84116340, 0.21, -17.9, 35.63, 600.58001709, -35.3626728, 149.1657555, 0.940359354019, 0.0493849553168, -0.14756898582, 0.302504301071
2019-04-03 18:55:18.19,84216300, 0.21, -17.9, 35.62, 600.619995117, -35.3626692, 149.1657588, 0.940359532833, 0.049413498491, -0.147596463561, 0.302485615015
2019-04-03 18:55:18.29,84316260, 0.21, -17.92, 35.62, 600.66998291, -35.3626656, 149.165762, 0.940340876579, 0.0494093447924, -0.147772625089, 0.302458405495
2019-04-03 18:55:18.39,84416220, 0.18, -17.94, 35.62, 600.710021973, -35.362662, 149.1657651, 0.940327882767, 0.0492041483521, -0.148028478026, 0.302406907082
2019-04-03 18:55:18.49,84516180, 0.15, -17.94, 35.62, 600.75, -35.3626584, 149.1657684, 0.9403424263, 0.0489719994366, -0.148098602891, 0.302365213633
2019-04-03 18:55:18.59,84616140, 0.14, -17.93, 35.62, 600.789978027, -35.3626548, 149.1657717, 0.940370619297, 0.0488405264914, -0.148020789027, 0.302336841822
2019-04-03 18:55:18.69,84716100, 0.13, -17.91, 35.61, 600.83001709, -35.3626512, 149.165775, 0.940403163433, 0.0487654916942, -0.147906422615, 0.302303701639
2019-04-03 18:55:18.79,84816060, 0.15, -17.9, 35.61, 600.869995117, -35.3626475, 149.1657782, 0.940423250198, 0.0489022731781, -0.147776797414, 0.302282482386
2019-04-03 18:55:18.89,84916020, 0.19, -17.91, 35.6, 600.91998291, -35.3626439, 149.1657813, 0.940427362919, 0.0491874329746, -0.147693634033, 0.30226418376
2019-04-03 18:55:18.99,85015980, 0.23, -17.92, 35.59, 600.960021973, -35.3626402, 149.1657847, 0.940412044525, 0.0495168454945, -0.147738933563, 0.302235692739
2019-04-03 18:55:19.09,85115940, 0.23, -17.94, 35.58, 601.0, -35.3626366, 149.1657879, 0.940402567387, 0.0496399402618, -0.147897034883, 0.302167892456
2019-04-03 18:55:19.19,85215900, 0.22, -17.96, 35.58, 601.039978027, -35.362633, 149.1657911, 0.940412342548, 0.0495231039822, -0.148057699203, 0.302078008652
2019-04-03 18:55:19.29,85315860, 0.18, -17.95, 35.57, 601.08001709, -35.3626295, 149.1657943, 0.940448880196, 0.049186706543, -0.148142457008, 0.301977485418
2019-04-03 18:55:19.39,85415820, 0.15, -17.93, 35.56, 601.130004883, -35.3626259, 149.1657976, 0.940500199795, 0.0489206947386, -0.148041576147, 0.301910370588
2019-04-03 18:55:19.49,85515780, 0.15, -17.91, 35.56, 601.16998291, -35.3626221, 149.1658009, 0.940548837185, 0.0487871617079, -0.147851318121, 0.301873683929
2019-04-03 18:55:19.59,85615740, 0.14, -17.88, 35.56, 601.210021973, -35.3626186, 149.1658041, 0.940598845482, 0.048632837832, -0.14766331017, 0.301834791899
2019-04-03 18:55:19.69,85715700, 0.13, -17.87, 35.55, 601.25, -35.362615, 149.1658074, 0.940623641014, 0.0485890880227, -0.147590488195, 0.3018001616
2019-04-03 18:55:19.79,85815660, 0.14, -17.88, 35.55, 601.289978027, -35.3626114, 149.1658105, 0.940627336502, 0.0486475080252, -0.147613212466, 0.301768153906
2019-04-03 18:55:19.90,85916453, 0.14, -17.92, 35.54, 601.33001709, -35.3626077, 149.1658139, 0.940584361553, 0.0487760044634, -0.1479703933, 0.301706314087
2019-04-03 18:55:20.00,86016413, 0.14, -17.97, 35.53, 601.380004883, -35.3626041, 149.1658171, 0.940536499023, 0.0488547980785, -0.148407161236, 0.301628291607
2019-04-03 18:55:20.10,86116373, 0.13, -17.98, 35.53, 601.41998291, -35.3626005, 149.1658204, 0.940538585186, 0.0487926490605, -0.148527830839, 0.301572561264
2019-04-03 18:55:20.20,86216333, 0.12, -17.97, 35.53, 601.460021973, -35.3625969, 149.1658235, 0.940568029881, 0.0486702360213, -0.148471817374, 0.30152797699
2019-04-03 18:55:20.29,86316293, 0.1, -17.95, 35.52, 601.5, -35.3625933, 149.1658268, 0.94060999155, 0.048492141068, -0.148354977369, 0.301483362913
2019-04-03 18:55:20.39,86416253, 0.08, -17.95, 35.52, 601.539978027, -35.3625897, 149.1658301, 0.94063860178, 0.0482708439231, -0.14835485816, 0.301429539919
2019-04-03 18:55:20.49,86516213, 0.06, -17.94, 35.51, 601.58001709, -35.362586, 149.1658333, 0.940664708614, 0.0481143519282, -0.148338153958, 0.301381379366
2019-04-03 18:55:20.59,86616173, 0.07, -17.93, 35.51, 601.619995117, -35.3625824, 149.1658366, 0.940689504147, 0.0481566302478, -0.148210018873, 0.301360189915
2019-04-03 18:55:20.69,86716133, 0.09, -17.91, 35.5, 601.66998291, -35.3625788, 149.1658397, 0.940709471703, 0.0483102574944, -0.148056611419, 0.301348686218
2019-04-03 18:55:20.79,86816093, 0.13, -17.91, 35.5, 601.710021973, -35.3625751, 149.1658431, 0.940717875957, 0.0485780499876, -0.147917985916, 0.30134755373
2019-04-03 18:55:20.89,86916053, 0.16, -17.91, 35.49, 601.75, -35.3625715, 149.1658463, 0.940719246864, 0.0488457418978, -0.147858023643, 0.301329344511
2019-04-03 18:55:20.99,87016013, 0.2, -17.93, 35.48, 601.789978027, -35.3625679, 149.1658495, 0.940697908401, 0.0491667427123, -0.147969350219, 0.301289141178
2019-04-03 18:55:21.09,87115973, 0.23, -17.95, 35.47, 601.83001709, -35.3625642, 149.1658527, 0.940687000751, 0.0494394637644, -0.148004680872, 0.3012611866
2019-04-03 18:55:21.19,87215933, 0.24, -17.95, 35.47, 601.880004883, -35.3625606, 149.165856, 0.940702140331, 0.0495060496032, -0.147958040237, 0.301226019859
2019-04-03 18:55:21.29,87315893, 0.24, -17.93, 35.46, 601.91998291, -35.3625569, 149.1658592, 0.940731525421, 0.0494636818767, -0.147862046957, 0.301188200712
2019-04-03 18:55:21.39,87415853, 0.22, -17.91, 35.46, 601.960021973, -35.3625533, 149.1658625, 0.940778017044, 0.0492425896227, -0.147727251053, 0.30114543438
2019-04-03 18:55:21.49,87515813, 0.17, -17.89, 35.46, 602.0, -35.3625497, 149.1658656, 0.940822303295, 0.0488215126097, -0.147675782442, 0.301100820303
2019-04-03 18:55:21.59,87615773, 0.14, -17.88, 35.46, 602.039978027, -35.3625462, 149.1658689, 0.940851151943, 0.0485076978803, -0.147650972009, 0.30107370019
2019-04-03 18:55:21.69,87715733, 0.13, -17.88, 35.46, 602.090026855, -35.3625424, 149.1658722, 0.940845549107, 0.0484261363745, -0.147718563676, 0.301070988178
2019-04-03 18:55:21.79,87815693, 0.13, -17.91, 35.47, 602.130004883, -35.3625388, 149.1658754, 0.940803349018, 0.0485533475876, -0.147923842072, 0.301081717014
2019-04-03 18:55:21.90,87916486, 0.13, -17.94, 35.47, 602.16998291, -35.3625351, 149.1658786, 0.940754175186, 0.048660390079, -0.148198246956, 0.301083058119
2019-04-03 18:55:22.00,88016446, 0.13, -17.96, 35.47, 602.210021973, -35.3625315, 149.1658818, 0.9407299757, 0.0486988574266, -0.148340240121, 0.301082581282
2019-04-03 18:55:22.10,88116406, 0.15, -17.97, 35.47, 602.260009766, -35.362528, 149.1658852, 0.940707445145, 0.048866186291, -0.148388624191, 0.301102012396
2019-04-03 18:55:22.20,88216366, 0.17, -17.98, 35.47, 602.299987793, -35.3625244, 149.1658884, 0.940682649612, 0.0490979552269, -0.14842236042, 0.301125109196
2019-04-03 18:55:22.30,88316326, 0.18, -17.99, 35.47, 602.340026855, -35.3625207, 149.1658915, 0.940673172474, 0.0491375923157, -0.148474991322, 0.301122426987
2019-04-03 18:55:22.39,88416286, 0.19, -18.0, 35.47, 602.380004883, -35.3625171, 149.1658948, 0.940657377243, 0.0492323376238, -0.148530080914, 0.301128983498
2019-04-03 18:55:22.49,88516246, 0.19, -18.0, 35.47, 602.429992676, -35.3625135, 149.1658981, 0.940661072731, 0.0492238178849, -0.148511826992, 0.301127970219
2019-04-03 18:55:22.59,88616206, 0.19, -17.98, 35.47, 602.469970703, -35.3625099, 149.1659013, 0.940677702427, 0.0492316186428, -0.148383945227, 0.301137715578
2019-04-03 18:55:22.69,88716166, 0.2, -17.97, 35.47, 602.510009766, -35.3625062, 149.1659044, 0.940692961216, 0.0492995455861, -0.148221641779, 0.301158845425
2019-04-03 18:55:22.79,88816126, 0.21, -17.96, 35.47, 602.549987793, -35.3625026, 149.1659077, 0.940700829029, 0.0493087470531, -0.148152589798, 0.301166713238
2019-04-03 18:55:22.89,88916086, 0.2, -17.94, 35.47, 602.599975586, -35.362499, 149.165911, 0.940732181072, 0.0492056123912, -0.147963687778, 0.301178574562
2019-04-03 18:55:22.99,89016046, 0.17, -17.92, 35.47, 602.640014648, -35.3624953, 149.1659143, 0.940762639046, 0.0489327907562, -0.147899076343, 0.301159620285
2019-04-03 18:55:23.09,89116006, 0.14, -17.92, 35.47, 602.679992676, -35.3624917, 149.1659175, 0.940767586231, 0.0486704222858, -0.148027196527, 0.301123827696
2019-04-03 18:55:23.19,89215966, 0.12, -17.94, 35.47, 602.719970703, -35.3624881, 149.1659206, 0.940754473209, 0.0485328622162, -0.148193642497, 0.301105082035
2019-04-03 18:55:23.29,89315926, 0.15, -17.98, 35.47, 602.770019531, -35.3624845, 149.165924, 0.940685451031, 0.0488961413503, -0.148426964879, 0.301146954298
2019-04-03 18:55:23.39,89415886, 0.64, -17.91, 35.51, 602.809997559, -35.3624809, 149.1659272, 0.940456390381, 0.0527721121907, -0.146569028497, 0.302116662264
2019-04-03 18:55:23.49,89515846, 1.78, -17.71, 35.69, 602.840026855, -35.3624773, 149.1659303, 0.939682424068, 0.0617998726666, -0.141833886504, 0.305058866739
2019-04-03 18:55:23.59,89615806, 3.17, -17.5, 36.1, 602.880004883, -35.3624736, 149.1659336, 0.938038647175, 0.0731427520514, -0.13618375361, 0.310141265392
2019-04-03 18:55:23.69,89715766, 4.36, -17.39, 36.79, 602.909973145, -35.36247, 149.1659369, 0.935476481915, 0.0834475159645, -0.131527498364, 0.317207783461
2019-04-03 18:55:23.79,89815726, 5.1, -17.4, 37.77, 602.940002441, -35.3624666, 149.1659403, 0.932150125504, 0.0905607119203, -0.128790736198, 0.326048851013
2019-04-03 18:55:23.89,89915686, 5.29, -17.48, 39.02, 602.960021973, -35.3624632, 149.1659436, 0.928267478943, 0.0937647968531, -0.127890214324, 0.336410075426
2019-04-03 18:55:24.00,90016479, 5.04, -17.6, 40.5, 602.979980469, -35.3624597, 149.1659472, 0.923895537853, 0.0937520042062, -0.128392875195, 0.348055869341
2019-04-03 18:55:24.10,90116439, 4.54, -17.72, 42.1, 603.0, -35.3624565, 149.1659507, 0.919180393219, 0.0918882340193, -0.129589825869, 0.360375463963
2019-04-03 18:55:24.20,90216399, 3.97, -17.84, 43.76, 603.020019531, -35.3624533, 149.1659542, 0.914162874222, 0.089539937675, -0.131098479033, 0.372963935137
2019-04-03 18:55:24.30,90316359, 3.43, -17.95, 45.4, 603.030029297, -35.36245, 149.165958, 0.909019112587, 0.0875100716949, -0.132425233722, 0.385343790054
2019-04-03 18:55:24.40,90416319, 2.99, -18.03, 46.95, 603.039978027, -35.3624469, 149.1659617, 0.90396040678, 0.0860730111599, -0.133400335908, 0.397053360939
2019-04-03 18:55:24.49,90516279, 2.69, -18.08, 48.36, 603.049987793, -35.3624438, 149.1659654, 0.899153888226, 0.0855275094509, -0.133816316724, 0.407799631357
2019-04-03 18:55:24.59,90616239, 2.51, -18.12, 49.61, 603.059997559, -35.3624408, 149.1659692, 0.894735634327, 0.0857651084661, -0.133823871613, 0.417353183031
2019-04-03 18:55:24.69,90716199, 2.45, -18.14, 50.69, 603.070007324, -35.3624377, 149.1659731, 0.890789449215, 0.0865831598639, -0.133401587605, 0.425677746534
2019-04-03 18:55:24.79,90816159, 2.45, -18.15, 51.61, 603.070007324, -35.3624347, 149.165977, 0.88731610775, 0.0877264216542, -0.132818773389, 0.432820349932
2019-04-03 18:55:24.89,90916119, 2.5, -18.17, 52.39, 603.08001709, -35.3624319, 149.1659809, 0.884274959564, 0.0890619084239, -0.132147669792, 0.438933730125
2019-04-03 18:55:24.99,91016079, 2.56, -18.19, 53.07, 603.08001709, -35.362429, 149.1659848, 0.88158506155, 0.0904169455171, -0.131536915898, 0.444219112396
2019-04-03 18:55:25.09,91116039, 2.61, -18.21, 53.67, 603.090026855, -35.3624261, 149.165989, 0.879161059856, 0.0915652066469, -0.131019532681, 0.448915928602
2019-04-03 18:55:25.19,91215999, 2.65, -18.24, 54.24, 603.090026855, -35.3624234, 149.165993, 0.876865386963, 0.0926184728742, -0.13069075346, 0.453264653683
2019-04-03 18:55:25.29,91315959, 2.68, -18.25, 54.79, 603.090026855, -35.3624206, 149.1659972, 0.874633491039, 0.0935556590557, -0.130168542266, 0.457514822483
2019-04-03 18:55:25.39,91415919, 2.7, -18.24, 55.35, 603.099975586, -35.3624178, 149.1660014, 0.872397184372, 0.0942693501711, -0.129539474845, 0.461796462536
2019-04-03 18:55:25.49,91515879, 2.68, -18.21, 55.92, 603.099975586, -35.3624152, 149.1660057, 0.870117545128, 0.0946482941508, -0.128953903913, 0.466163098812
2019-04-03 18:55:25.59,91615839, 2.63, -18.19, 56.52, 603.099975586, -35.3624127, 149.1660099, 0.867744147778, 0.0948575437069, -0.128520026803, 0.470642924309
2019-04-03 18:55:25.69,91715799, 2.56, -18.17, 57.14, 603.099975586, -35.3624101, 149.1660143, 0.865288197994, 0.0949070900679, -0.128133118153, 0.475237756968
2019-04-03 18:55:25.79,91815759, 2.46, -18.16, 57.77, 603.099975586, -35.3624076, 149.1660187, 0.862772703171, 0.094789467752, -0.12791955471, 0.479869604111
2019-04-03 18:55:25.89,91915719, 2.33, -18.16, 58.4, 603.109985352, -35.3624052, 149.1660231, 0.860232055187, 0.0945222377777, -0.127959981561, 0.484450876713
2019-04-03 18:55:25.99,92015679, 2.16, -18.19, 59.01, 603.109985352, -35.3624026, 149.1660274, 0.857703387737, 0.0941315963864, -0.128400593996, 0.488873660564
2019-04-03 18:55:26.10,92116472, 1.99, -18.25, 59.61, 603.109985352, -35.3624003, 149.166032, 0.85519772768, 0.0938082262874, -0.129086971283, 0.493126213551
2019-04-03 18:55:26.20,92216432, 1.85, -18.31, 60.17, 603.109985352, -35.362398, 149.1660365, 0.852817475796, 0.0935997366905, -0.129682451487, 0.49711561203
2019-04-03 18:55:26.30,92316392, 1.74, -18.34, 60.7, 603.109985352, -35.3623956, 149.1660411, 0.850594699383, 0.0934785827994, -0.129952758551, 0.500862002373
2019-04-03 18:55:26.40,92416352, 1.64, -18.36, 61.18, 603.109985352, -35.3623933, 149.1660456, 0.848543345928, 0.0934122353792, -0.130088984966, 0.504306674004
2019-04-03 18:55:26.49,92516312, 1.58, -18.37, 61.61, 603.109985352, -35.362391, 149.1660503, 0.846651732922, 0.0934616550803, -0.130122154951, 0.507458388805
2019-04-03 18:55:26.59,92616272, 1.53, -18.37, 62.01, 603.109985352, -35.3623889, 149.1660549, 0.844931960106, 0.0935808345675, -0.130038648844, 0.510316193104
2019-04-03 18:55:26.69,92716232, 1.48, -18.34, 62.36, 603.109985352, -35.3623867, 149.1660595, 0.843420803547, 0.093488201499, -0.129768788815, 0.512895107269
2019-04-03 18:55:26.79,92816192, 1.42, -18.29, 62.69, 603.109985352, -35.3623845, 149.1660642, 0.842090368271, 0.0931521877646, -0.129385173321, 0.515233933926
2019-04-03 18:55:26.89,92916152, 1.36, -18.24, 62.98, 603.109985352, -35.3623824, 149.1660689, 0.840871095657, 0.0928460732102, -0.129044950008, 0.517361462116
2019-04-03 18:55:26.99,93016112, 1.31, -18.22, 63.25, 603.109985352, -35.3623803, 149.1660737, 0.839712500572, 0.0927169173956, -0.128892302513, 0.519300699234
2019-04-03 18:55:27.09,93116072, 1.28, -18.23, 63.5, 603.109985352, -35.3623781, 149.1660784, 0.838582456112, 0.0927972197533, -0.128894969821, 0.521108686924
2019-04-03 18:55:27.19,93216032, 1.25, -18.25, 63.74, 603.109985352, -35.3623761, 149.1660832, 0.837480723858, 0.0929740518332, -0.128974810243, 0.522826373577
