Start,TimeUS,Roll,Pitch,Yaw,Alt,Lat,Lng,Q1,Q2,Q3,Q4
2019-04-03 19:19:47.49,48315666, 0.0, 0.0, 353.0, 584.090026855, -35.363261, 149.1652299, 0.998134791851, 0.0, 0.0, -0.0610485821962
2019-04-03 19:19:47.60,48416459, 0.0, 0.0, 353.0, 584.090026855, -35.363261, 149.1652299, 0.998134791851, 0.0, 0.0, -0.0610485821962
2019-04-03 19:19:47.69,48516419, 0.0, 0.0, 353.0, 584.090026855, -35.363261, 149.1652299, 0.998134791851, 0.0, 0.0, -0.0610485821962
2019-04-03 19:19:47.79,48616379, 0.0, 0.0, 353.0, 584.090026855, -35.363261, 149.1652299, 0.998134791851, 0.0, 0.0, -0.0610485821962
2019-04-03 19:19:47.89,48716339, 0.0, 0.0, 353.0, 584.090026855, -35.363261, 149.1652299, 0.998134791851, 0.0, 0.0, -0.0610485821962
2019-04-03 19:19:47.99,48816299, 0.0, 0.0, 353.0, 584.090026855, -35.363261, 149.1652299, 0.998134791851, 0.0, 0.0, -0.0610485821962
2019-04-03 19:19:48.09,48916259, 0.0, 0.0, 353.0, 584.090026855, -35.363261, 149.1652299, 0.998134791851, 0.0, 0.0, -0.0610485821962
2019-04-03 19:19:48.19,49016219, 0.0, 0.0, 353.0, 584.090026855, -35.363261, 149.1652299, 0.998134791851, 0.0, 0.0, -0.0610485821962
2019-04-03 19:19:48.29,49116179, 0.0, 0.0, 353.0, 584.090026855, -35.363261, 149.1652299, 0.998134791851, 0.0, 0.0, -0.0610485821962
2019-04-03 19:19:48.39,49216139, 0.0, 0.0, 353.0, 584.090026855, -35.363261, 149.1652299, 0.998134791851, 0.0, 0.0, -0.0610485821962
2019-04-03 19:19:48.49,49316099, 0.0, 0.0, 353.0, 584.090026855, -35.363261, 149.1652299, 0.998134791851, 0.0, 0.0, -0.0610485821962
2019-04-03 19:19:48.59,49416059, 0.0, 0.0, 353.0, 584.090026855, -35.363261, 149.1652299, 0.998134791851, 0.0, 0.0, -0.0610485821962
2019-04-03 19:19:48.69,49516019, 0.0, 0.0, 353.0, 584.090026855, -35.363261, 149.1652299, 0.998134791851, 0.0, 0.0, -0.0610485821962
2019-04-03 19:19:48.79,49615979, 0.0, 0.0, 353.0, 584.090026855, -35.363261, 149.1652299, 0.998134791851, 0.0, 0.0, -0.0610485821962
2019-04-03 19:19:48.89,49715939, 0.0, 0.0, 353.0, 584.090026855, -35.363261, 149.1652299, 0.998134791851, 0.0, 0.0, -0.0610485821962
2019-04-03 19:19:48.99,49815899, 0.0, 0.0, 353.0, 584.090026855, -35.363261, 149.1652299, 0.998134791851, 0.0, 0.0, -0.0610485821962
2019-04-03 19:19:49.09,49915859, 0.0, 0.0, 353.0, 584.090026855, -35.363261, 149.1652299, 0.998134791851, 0.0, 0.0, -0.0610485821962
2019-04-03 19:19:49.19,50015819, 0.0, 0.0, 353.0, 584.090026855, -35.363261, 149.1652299, 0.998134791851, 0.0, 0.0, -0.0610485821962
2019-04-03 19:19:49.29,50115779, 0.0, 0.0, 353.0, 584.090026855, -35.363261, 149.1652299, 0.998134791851, 0.0, 0.0, -0.0610485821962
2019-04-03 19:19:49.39,50215739, 0.0, 0.0, 353.0, 584.090026855, -35.363261, 149.1652299, 0.998134791851, 0.0, 0.0, -0.0610485821962
2019-04-03 19:19:49.49,50315699, 0.0, 0.0, 353.0, 584.090026855, -35.363261, 149.1652299, 0.998134791851, 0.0, 0.0, -0.0610485821962
2019-04-03 19:19:49.59,50415659, 0.0, 0.0, 353.0, 584.090026855, -35.363261, 149.1652299, 0.998134791851, 0.0, 0.0, -0.0610485821962
2019-04-03 19:19:49.69,50516452, 0.0, 0.0, 353.0, 584.090026855, -35.363261, 149.1652299, 0.998134791851, 0.0, 0.0, -0.0610485821962
2019-04-03 19:19:49.79,50616412, 0.0, 0.0, 353.0, 584.090026855, -35.363261, 149.1652299, 0.998134791851, 0.0, 0.0, -0.0610485821962
2019-04-03 19:19:49.89,50716372, 0.0, 0.0, 353.0, 584.090026855, -35.363261, 149.1652299, 0.998134791851, 0.0, 0.0, -0.0610485821962
2019-04-03 19:19:49.99,50816332, 0.0, 0.0, 353.0, 584.090026855, -35.363261, 149.1652299, 0.998134791851, 0.0, 0.0, -0.0610485821962
2019-04-03 19:19:50.09,50916292, 0.0, 0.0, 353.0, 584.090026855, -35.363261, 149.1652299, 0.998134791851, 0.0, 0.0, -0.0610485821962
2019-04-03 19:19:50.19,51016252, 0.0, 0.0, 353.0, 584.090026855, -35.363261, 149.1652299, 0.998134791851, 0.0, 0.0, -0.0610485821962
2019-04-03 19:19:50.29,51116212, 0.0, 0.0, 353.0, 584.090026855, -35.363261, 149.1652299, 0.998134791851, 0.0, 0.0, -0.0610485821962
2019-04-03 19:19:50.39,51216172, 0.0, 0.0, 353.0, 584.090026855, -35.363261, 149.1652299, 0.998134791851, 0.0, 0.0, -0.0610485821962
2019-04-03 19:19:50.49,51316132, 0.0, 0.0, 353.0, 584.090026855, -35.363261, 149.1652299, 0.998134791851, 0.0, 0.0, -0.0610485821962
2019-04-03 19:19:50.59,51416092, 0.0, 0.0, 353.0, 584.090026855, -35.363261, 149.1652299, 0.998134791851, 0.0, 0.0, -0.0610485821962
2019-04-03 19:19:50.69,51516052, 0.0, 0.0, 353.0, 584.090026855, -35.363261, 149.1652299, 0.998134791851, 0.0, 0.0, -0.0610485821962
2019-04-03 19:19:50.79,51616012, 0.0, 0.0, 353.0, 584.090026855, -35.363261, 149.1652299, 0.998134791851, 0.0, 0.0, -0.0610485821962
2019-04-03 19:19:50.89,51715972, 0.0, 0.0, 353.0, 584.090026855, -35.363261, 149.1652299, 0.998134791851, 0.0, 0.0, -0.0610485821962
2019-04-03 19:19:50.99,51815932, 0.0, 0.0, 353.0, 584.090026855, -35.363261, 149.1652299, 0.998134791851, 0.0, 0.0, -0.0610485821962
2019-04-03 19:19:51.09,51915892, 0.0, 0.0, 353.0, 584.090026855, -35.363261, 149.1652299, 0.998134791851, 0.0, 0.0, -0.0610485821962
2019-04-03 19:19:51.19,52015852, 0.0, 0.0, 353.0, 584.090026855, -35.363261, 149.1652299, 0.998134791851, 0.0, 0.0, -0.0610485821962
2019-04-03 19:19:51.29,52115812, 0.0, 0.0, 353.0, 584.090026855, -35.363261, 149.1652299, 0.998134791851, 0.0, 0.0, -0.0610485821962
2019-04-03 19:19:51.39,52215772, 0.0, 0.0, 353.0, 584.090026855, -35.363261, 149.1652299, 0.998134791851, 0.0, 0.0, -0.0610486157238
2019-04-03 19:19:51.49,52315732, 0.0, 0.0, 353.0, 584.090026855, -35.363261, 149.1652299, 0.998134791851, 0.0, 0.0, -0.0610486753285
2019-04-03 19:19:51.59,52415692, 0.0, 0.0, 353.0, 584.090026855, -35.363261, 149.1652299, 0.998134791851, 0.0, 0.0, -0.0610486641526
2019-04-03 19:19:51.70,52516485, 0.0, 0.0, 353.0, 584.090026855, -35.363261, 149.1652299, 0.998134791851, 0.0, 0.0, -0.0610486604273
2019-04-03 19:19:51.79,52616445, 0.0, 0.0, 353.0, 584.090026855, -35.363261, 149.1652299, 0.998134791851, 0.0, 0.0, -0.0610486753285
2019-04-03 19:19:51.89,52716405, 0.0, 0.0, 353.0, 584.090026855, -35.363261, 149.1652299, 0.998134791851, 0.0, 0.0, -0.0610486753285
2019-04-03 19:19:51.99,52816365, 0.0, 0.0, 353.0, 584.090026855, -35.363261, 149.1652299, 0.998134791851, 0.0, 0.0, -0.0610486753285
2019-04-03 19:19:52.09,52916325, 0.0, 0.0, 353.0, 584.090026855, -35.363261, 149.1652299, 0.998134791851, 0.0, 0.0, -0.0610486753285
2019-04-03 19:19:52.19,53016285, 0.0, 0.0, 353.0, 584.099975586, -35.363261, 149.1652299, 0.998134791851, 0.0, 0.0, -0.0610486753285
2019-04-03 19:19:52.29,53116245, 0.0, 0.0, 353.0, 584.099975586, -35.363261, 149.1652299, 0.998134791851, 0.0, 0.0, -0.0610486753285
2019-04-03 19:19:52.39,53216205, 0.0, 0.0, 353.0, 584.109985352, -35.363261, 149.1652299, 0.998134791851, 0.0, 0.0, -0.0610486529768
2019-04-03 19:19:52.49,53316165, 0.0, 0.0, 353.0, 584.130004883, -35.363261, 149.1652299, 0.998134791851, 0.0, 0.0, -0.0610486753285
2019-04-03 19:19:52.59,53416125, 0.0, 0.0, 353.0, 584.150024414, -35.363261, 149.1652299, 0.998134791851, 0.0, 0.0, -0.0610486641526
2019-04-03 19:19:52.69,53516085, 0.0, 0.0, 353.0, 584.179992676, -35.363261, 149.1652299, 0.998134791851, 0.0, 0.0, -0.0610485859215
2019-04-03 19:19:52.79,53616045, 0.0, 0.0, 352.99, 584.219970703, -35.363261, 149.1652299, 0.998134732246, -2.53354191955e-05, 9.14925840334e-06, -0.0610496141016
2019-04-03 19:19:52.89,53716005, -0.03, 0.0, 352.99, 584.299987793, -35.363261, 149.1652299, 0.998134255409, -0.000270086689852, 5.68110008317e-05, -0.0610566139221
2019-04-03 19:19:52.99,53815965, -0.07, 0.0, 352.99, 584.41998291, -35.363261, 149.1652299, 0.998133182526, -0.000651161419228, 8.69777340995e-06, -0.0610715523362
2019-04-03 19:19:53.09,53915925, -0.11, -0.03, 352.99, 584.58001709, -35.363261, 149.1652299, 0.998131513596, -0.000983929377981, -0.000268922536634, -0.0610942132771
2019-04-03 19:19:53.19,54015885, -0.13, -0.06, 352.99, 584.729980469, -35.363261, 149.1652299, 0.998129665852, -0.00119591434486, -0.000510484795086, -0.0611190535128
2019-04-03 19:19:53.29,54115845, -0.13, -0.09, 352.98, 584.890014648, -35.363261, 149.1652299, 0.998128056526, -0.00125813169871, -0.000732020067517, -0.0611413009465
2019-04-03 19:19:53.39,54215805, -0.11, -0.11, 352.98, 585.039978027, -35.363261, 149.1652299, 0.998127102852, -0.00108816009015, -0.00092010042863, -0.0611574910581
2019-04-03 19:19:53.49,54315765, -0.09, -0.11, 352.98, 585.190002441, -35.363261, 149.1652299, 0.998126745224, -0.000856611295603, -0.00094320246717, -0.0611671730876
2019-04-03 19:19:53.59,54415725, -0.07, -0.11, 352.98, 585.349975586, -35.363261, 149.1652299, 0.998126447201, -0.000711455300916, -0.000999670941383, -0.0611737519503
2019-04-03 19:19:53.69,54515685, 0.05, -0.1, 352.98, 585.5, -35.363261, 149.1652299, 0.998126327991, 0.000462076044641, -0.000988019746728, -0.0611774846911
2019-04-03 19:19:53.80,54616478, 0.47, -0.06, 352.98, 585.640014648, -35.363261, 149.1652298, 0.998118460178, 0.00408895686269, -0.000810596044175, -0.0611736513674
2019-04-03 19:19:53.89,54716438, 1.17, 0.0, 352.98, 585.780029297, -35.363261, 149.1652298, 0.998074948788, 0.0102433236316, -0.000675248622429, -0.0611641779542
2019-04-03 19:19:53.99,54816398, 2.12, 0.05, 352.98, 585.909973145, -35.363261, 149.1652299, 0.997956812382, 0.0185095518827, -0.000636405835394, -0.061149481684
2019-04-03 19:19:54.09,54916358, 3.21, 0.12, 352.99, 586.020019531, -35.363261, 149.1652299, 0.997733712196, 0.0281056240201, -0.000603606749792, -0.0611322298646
2019-04-03 19:19:54.19,55016318, 4.33, 0.21, 352.99, 586.119995117, -35.363261, 149.1652299, 0.99741089344, 0.0378987193108, -0.000428587780334, -0.0611153766513
2019-04-03 19:19:54.29,55116278, 5.33, 0.3, 352.99, 586.210021973, -35.363261, 149.1652302, 0.997040867805, 0.0466289483011, -0.000198105190066, -0.0611171610653
2019-04-03 19:19:54.39,55216238, 6.1, 0.36, 352.99, 586.289978027, -35.363261, 149.1652305, 0.996700406075, 0.0533754453063, -8.6808046035e-05, -0.0611500218511
2019-04-03 19:19:54.49,55316198, 6.68, 0.41, 352.99, 586.369995117, -35.3632609, 149.1652308, 0.996415793896, 0.0584037490189, 6.76836207276e-05, -0.0611932426691
2019-04-03 19:19:54.59,55416158, 7.12, 0.46, 352.99, 586.429992676, -35.3632609, 149.1652312, 0.996177852154, 0.0622780062258, 0.000250357406912, -0.0612460747361
2019-04-03 19:19:54.69,55516118, 7.51, 0.5, 352.98, 586.479980469, -35.3632609, 149.1652317, 0.995954692364, 0.0656886398792, 0.000367459229892, -0.0613122321665
2019-04-03 19:19:54.79,55616078, 7.87, 0.52, 352.98, 586.530029297, -35.3632608, 149.1652325, 0.995739519596, 0.0688071027398, 0.000385493040085, -0.0613864250481
2019-04-03 19:19:54.89,55716038, 8.18, 0.53, 352.97, 586.58001709, -35.3632608, 149.1652332, 0.995543777943, 0.0715233981609, 0.000306818459649, -0.061455950141
2019-04-03 19:19:54.99,55815998, 8.41, 0.54, 352.96, 586.619995117, -35.3632608, 149.1652341, 0.995395720005, 0.0735120922327, 0.000251929741353, -0.0615081340075
2019-04-03 19:19:55.09,55915958, 8.56, 0.55, 352.96, 586.650024414, -35.3632607, 149.165235, 0.995297789574, 0.074801787734, 0.000258347368799, -0.0615388415754
2019-04-03 19:19:55.19,56015918, 8.65, 0.58, 352.96, 586.690002441, -35.3632605, 149.165236, 0.99523550272, 0.0756192430854, 0.00041247101035, -0.0615455657244
2019-04-03 19:19:55.29,56115878, 8.74, 0.59, 352.96, 586.719970703, -35.3632605, 149.1652372, 0.995173335075, 0.076427936554, 0.000473654363304, -0.0615516938269
2019-04-03 19:19:55.39,56215838, 8.9, 0.7, 353.03, 586.75, -35.3632604, 149.1652384, 0.995098352432, 0.0778217017651, 0.00145172770135, -0.060999840498
2019-04-03 19:19:55.49,56315798, 9.13, 1.1, 353.63, 586.770019531, -35.3632604, 149.1652397, 0.995201170444, 0.0800168439746, 0.00513972900808, -0.0560855232179
2019-04-03 19:19:55.59,56415758, 9.48, 1.59, 355.46, 586.799987793, -35.3632604, 149.1652411, 0.995655953884, 0.0831239446998, 0.0105484612286, -0.0406003519893
2019-04-03 19:19:55.69,56515718, 9.95, 1.68, 358.9, 586.83001709, -35.3632604, 149.1652426, 0.996063232422, 0.0868960171938, 0.0137825440615, -0.0108241373673
2019-04-03 19:19:55.79,56615678, 10.45, 1.11, 3.88, 586.849975586, -35.3632603, 149.1652442, 0.995252251625, 0.0907142013311, 0.0127377836034, 0.0328887850046
2019-04-03 19:19:55.90,56716471, 10.82, -0.18, 10.21, 586.880004883, -35.3632604, 149.1652459, 0.991570234299, 0.0940984487534, 0.00683062337339, 0.0888102650642
2019-04-03 19:19:55.99,56816431, 10.9, -2.06, 17.5, 586.909973145, -35.3632604, 149.1652476, 0.983473837376, 0.0965861678123, -0.00324689317495, 0.153100654483
2019-04-03 19:19:56.09,56916391, 10.57, -4.28, 25.51, 586.940002441, -35.3632604, 149.1652495, 0.969721436501, 0.0980653911829, -0.016003428027, 0.22308601439
2019-04-03 19:19:56.19,57016351, 9.79, -6.62, 34.01, 586.969970703, -35.3632604, 149.1652514, 0.949745893478, 0.0983584746718, -0.0300811976194, 0.29564088583
2019-04-03 19:19:56.29,57116311, 8.55, -8.82, 42.75, 587.0, -35.3632605, 149.1652536, 0.923764288425, 0.097229026258, -0.044347666204, 0.367749065161
2019-04-03 19:19:56.39,57216271, 6.9, -10.71, 51.46, 587.030029297, -35.3632605, 149.1652557, 0.892821371555, 0.0944589599967, -0.0578875243664, 0.436573684216
2019-04-03 19:19:56.49,57316231, 5.01, -12.14, 59.87, 587.070007324, -35.3632607, 149.1652581, 0.858550429344, 0.0904622823, -0.06989646703, 0.499822229147
2019-04-03 19:19:56.59,57416191, 3.07, -13.13, 67.75, 587.099975586, -35.3632607, 149.1652604, 0.822765111923, 0.0858313664794, -0.0800552666187, 0.556131064892
2019-04-03 19:19:56.69,57516151, 1.26, -13.72, 74.96, 587.140014648, -35.3632605, 149.1652629, 0.787012994289, 0.0813687294722, -0.0881621390581, 0.605158746243
2019-04-03 19:19:56.79,57616111, -0.3, -14.02, 81.45, 587.179992676, -35.3632605, 149.1652656, 0.75233912468, 0.0776475220919, -0.0942859426141, 0.647353768349
2019-04-03 19:19:56.89,57716071, -1.84, -14.14, 87.22, 587.219970703, -35.3632604, 149.1652682, 0.719789981842, 0.0733540356159, -0.100122898817, 0.683005869389
2019-04-03 19:19:56.99,57816031, -3.45, -14.09, 91.95, 587.260009766, -35.3632603, 149.165271, 0.692036509514, 0.0674073174596, -0.106712706387, 0.71074193716
2019-04-03 19:19:57.09,57915991, -4.86, -13.95, 95.29, 587.299987793, -35.3632601, 149.1652739, 0.671938836575, 0.0613016933203, -0.11293426156, 0.729373812675
2019-04-03 19:19:57.19,58015951, -5.78, -13.82, 97.11, 587.349975586, -35.3632598, 149.165277, 0.660784900188, 0.0569517314434, -0.117093600333, 0.739194750786
2019-04-03 19:19:57.29,58115911, -6.02, -13.79, 97.53, 587.390014648, -35.3632596, 149.1652801, 0.658195197582, 0.0558505691588, -0.118273280561, 0.741398155689
2019-04-03 19:19:57.39,58215871, -5.56, -13.9, 96.78, 587.429992676, -35.3632592, 149.1652833, 0.66275292635, 0.0583936087787, -0.116299770772, 0.737443685532
2019-04-03 19:19:57.49,58315831, -4.5, -14.13, 95.16, 587.479980469, -35.363259, 149.1652866, 0.672485232353, 0.0644672811031, -0.111738353968, 0.728781282902
2019-04-03 19:19:57.59,58415791, -3.07, -14.47, 92.95, 587.530029297, -35.3632586, 149.1652899, 0.685353934765, 0.0729858502746, -0.106000252068, 0.716747581959
2019-04-03 19:19:57.69,58515751, -1.48, -14.84, 90.47, 587.58001709, -35.3632582, 149.1652933, 0.699417889118, 0.0826691240072, -0.100085042417, 0.702825248241
2019-04-03 19:19:57.79,58615711, 0.05, -15.15, 88.01, 587.619995117, -35.3632578, 149.1652968, 0.712928175926, 0.0919539928436, -0.0944916978478, 0.688730180264
2019-04-03 19:19:57.89,58715671, 1.34, -15.34, 85.86, 587.66998291, -35.3632574, 149.1653002, 0.724491000175, 0.099463544786, -0.0898378118873, 0.676127970219
2019-04-03 19:19:58.00,58816464, 2.23, -15.45, 84.21, 587.719970703, -35.363257, 149.165304, 0.73326832056, 0.104497805238, -0.0867458060384, 0.666237950325
2019-04-03 19:19:58.09,58916424, 2.69, -15.49, 83.19, 587.770019531, -35.3632567, 149.1653077, 0.738692462444, 0.106891453266, -0.0853676944971, 0.66001522541
2019-04-03 19:19:58.19,59016384, 2.73, -15.53, 82.8, 587.820007324, -35.3632564, 149.1653115, 0.740833103657, 0.107115626335, -0.0856992825866, 0.657531917095
2019-04-03 19:19:58.29,59116344, 2.44, -15.57, 82.98, 587.869995117, -35.3632561, 149.1653153, 0.740024864674, 0.105620540679, -0.0874875038862, 0.658447802067
2019-04-03 19:19:58.39,59216304, 1.92, -15.64, 83.61, 587.91998291, -35.363256, 149.1653192, 0.736822664738, 0.103114321828, -0.0903427228332, 0.662040770054
2019-04-03 19:19:58.49,59316264, 1.28, -15.73, 84.54, 587.969970703, -35.3632556, 149.1653232, 0.731943547726, 0.100253358483, -0.0938233882189, 0.667386770248
2019-04-03 19:19:58.59,59416224, 0.61, -15.82, 85.6, 588.020019531, -35.3632555, 149.1653272, 0.726197659969, 0.0974395275116, -0.0974203571677, 0.673536777496
2019-04-03 19:19:58.69,59516184, 0.0, -15.91, 86.66, 588.070007324, -35.3632553, 149.1653313, 0.720363974571, 0.0950391814113, -0.100686393678, 0.679636359215
2019-04-03 19:19:58.79,59616144, -0.49, -15.99, 87.6, 588.119995117, -35.363255, 149.1653354, 0.71512401104, 0.0932202860713, -0.103393249214, 0.684994518757
2019-04-03 19:19:58.89,59716104, -0.86, -16.05, 88.33, 588.16998291, -35.3632549, 149.1653394, 0.7110029459, 0.0919437259436, -0.105324588716, 0.689150154591
2019-04-03 19:19:58.99,59816064, -1.06, -16.08, 88.8, 588.219970703, -35.3632547, 149.1653437, 0.708268046379, 0.0913316607475, -0.106422625482, 0.691873669624
2019-04-03 19:19:59.09,59916024, -1.12, -16.12, 89.02, 588.270019531, -35.3632544, 149.165348, 0.706968903542, 0.0914244502783, -0.106834724545, 0.693125426769
2019-04-03 19:19:59.19,60015984, -1.05, -16.17, 89.0, 588.320007324, -35.3632543, 149.1653523, 0.706997931004, 0.0920927152038, -0.106729522347, 0.693023562431
2019-04-03 19:19:59.29,60115944, -0.9, -16.22, 88.79, 588.369995117, -35.363254, 149.1653566, 0.708122014999, 0.0931070372462, -0.106284745038, 0.691807687283
2019-04-03 19:19:59.39,60215904, -0.7, -16.25, 88.44, 588.41998291, -35.3632537, 149.165361, 0.710016787052, 0.0942742675543, -0.105560511351, 0.689815580845
2019-04-03 19:19:59.49,60315864, -0.47, -16.29, 88.02, 588.469970703, -35.3632536, 149.1653653, 0.712313055992, 0.0955028608441, -0.10475359112, 0.687398016453
2019-04-03 19:19:59.59,60415824, -0.23, -16.33, 87.59, 588.520019531, -35.3632532, 149.1653699, 0.7146448493, 0.096893556416, -0.103968203068, 0.684897840023
2019-04-03 19:19:59.69,60515784, 0.0, -16.38, 87.2, 588.570007324, -35.3632531, 149.1653744, 0.716735541821, 0.0983003526926, -0.103181101382, 0.682627975941
2019-04-03 19:19:59.79,60615744, 0.19, -16.43, 86.89, 588.619995117, -35.3632528, 149.1653789, 0.718410730362, 0.0994894206524, -0.102597907186, 0.680780172348
2019-04-03 19:19:59.89,60715704, 0.33, -16.48, 86.67, 588.679992676, -35.3632525, 149.1653835, 0.719547152519, 0.100500553846, -0.102242551744, 0.679483652115
2019-04-03 19:19:59.99,60815664, 0.4, -16.52, 86.55, 588.729980469, -35.3632524, 149.165388, 0.720142126083, 0.101057521999, -0.102252207696, 0.678768932819
2019-04-03 19:20:00.09,60916457, 0.37, -16.54, 86.53, 588.780029297, -35.3632522, 149.1653926, 0.720261991024, 0.100995182991, -0.102540381253, 0.678607523441
2019-04-03 19:20:00.19,61016417, 0.28, -16.55, 86.59, 588.83001709, -35.3632519, 149.1653973, 0.719978451729, 0.100512042642, -0.103122912347, 0.678891777992
2019-04-03 19:20:00.29,61116377, 0.16, -16.56, 86.71, 588.880004883, -35.3632517, 149.165402, 0.719365000725, 0.0999709963799, -0.103741310537, 0.679527521133
2019-04-03 19:20:00.39,61216337, 0.05, -16.58, 86.86, 588.929992676, -35.3632514, 149.1654067, 0.718549966812, 0.0995085090399, -0.104405768216, 0.680355429649
2019-04-03 19:20:00.49,61316297, -0.03, -16.61, 87.02, 588.979980469, -35.3632513, 149.1654113, 0.71766358614, 0.0992570593953, -0.105053298175, 0.681227445602
2019-04-03 19:20:00.59,61416257, -0.11, -16.68, 87.16, 589.030029297, -35.3632511, 149.1654161, 0.716808021069, 0.0993366241455, -0.105780690908, 0.682003676891
2019-04-03 19:20:00.69,61516217, -0.16, -16.74, 87.27, 589.08001709, -35.3632509, 149.1654208, 0.716128706932, 0.0994125306606, -0.106364555657, 0.682615101337
2019-04-03 19:20:00.79,61616177, -0.2, -16.75, 87.35, 589.130004883, -35.3632506, 149.1654256, 0.715700507164, 0.0993378087878, -0.106626778841, 0.68303412199
2019-04-03 19:20:00.89,61716137, -0.22, -16.77, 87.38, 589.179992676, -35.3632504, 149.1654304, 0.715505182743, 0.0993422418833, -0.106770783663, 0.683215498924
2019-04-03 19:20:00.99,61816097, -0.23, -16.79, 87.38, 589.229980469, -35.3632501, 149.1654354, 0.715526878834, 0.0994225889444, -0.106965735555, 0.683150708675
2019-04-03 19:20:01.09,61916057, -0.21, -16.81, 87.34, 589.280029297, -35.36325, 149.1654402, 0.715731561184, 0.0996305122972, -0.107056841254, 0.682891607285
2019-04-03 19:20:01.19,62016017, -0.18, -16.83, 87.27, 589.33001709, -35.3632497, 149.1654451, 0.716076254845, 0.0998847037554, -0.107074335217, 0.682490229607
2019-04-03 19:20:01.29,62115977, -0.15, -16.85, 87.19, 589.380004883, -35.3632494, 149.16545, 0.716505050659, 0.100124388933, -0.107051029801, 0.682008564472
2019-04-03 19:20:01.39,62215937, -0.1, -16.88, 87.11, 589.429992676, -35.3632493, 149.1654548, 0.716943562031, 0.100481189787, -0.107013121247, 0.681501090527
2019-04-03 19:20:01.49,62315897, -0.05, -16.89, 87.03, 589.479980469, -35.3632489, 149.1654597, 0.717358469963, 0.100793041289, -0.106894552708, 0.681036829948
2019-04-03 19:20:01.59,62415857, -0.01, -16.91, 86.96, 589.530029297, -35.3632488, 149.1654648, 0.717699348927, 0.101136364043, -0.106833539903, 0.680636286736
2019-04-03 19:20:01.69,62515817, 0.01, -16.94, 86.91, 589.590026855, -35.3632486, 149.1654697, 0.717950284481, 0.101471468806, -0.10685698688, 0.680317938328
2019-04-03 19:20:01.79,62615777, 0.02, -16.97, 86.87, 589.640014648, -35.3632482, 149.1654747, 0.7181250453, 0.101658925414, -0.107059635222, 0.680073678493
2019-04-03 19:20:01.89,62715737, 0.0, -17.02, 86.85, 589.690002441, -35.3632481, 149.1654797, 0.718216300011, 0.101817250252, -0.107439994812, 0.679893553257
2019-04-03 19:20:01.99,62815697, -0.01, -17.07, 86.85, 589.739990234, -35.3632479, 149.1654846, 0.718233764172, 0.101948320866, -0.107909820974, 0.679781079292
2019-04-03 19:20:02.10,62916490, -0.02, -17.1, 86.85, 589.789978027, -35.3632476, 149.1654897, 0.718193352222, 0.102106772363, -0.108135432005, 0.679764151573
2019-04-03 19:20:02.19,63016450, -0.01, -17.11, 86.86, 589.840026855, -35.3632474, 149.1654946, 0.71812492609, 0.102199524641, -0.108203656971, 0.67981159687
2019-04-03 19:20:02.29,63116410, -0.02, -17.09, 86.87, 589.890014648, -35.3632471, 149.1654998, 0.718078613281, 0.102049432695, -0.108030296862, 0.67991065979
2019-04-03 19:20:02.39,63216370, -0.04, -17.06, 86.88, 589.940002441, -35.3632469, 149.1655049, 0.718057215214, 0.101740092039, -0.10799305886, 0.679985523224
2019-04-03 19:20:02.49,63316330, -0.07, -17.05, 86.89, 589.989990234, -35.3632467, 149.1655099, 0.71803611517, 0.101538345218, -0.108082830906, 0.680023729801
2019-04-03 19:20:02.59,63416290, -0.08, -17.05, 86.89, 590.039978027, -35.3632464, 149.165515, 0.718037903309, 0.101436011493, -0.108129069209, 0.68002974987
2019-04-03 19:20:02.69,63516250, -0.09, -17.07, 86.89, 590.090026855, -35.3632462, 149.16552, 0.718059062958, 0.1014669016, -0.108316771686, 0.679972887039
2019-04-03 19:20:02.79,63616210, -0.09, -17.11, 86.88, 590.140014648, -35.3632459, 149.1655252, 0.718089163303, 0.101677246392, -0.108589820564, 0.67986613512
2019-04-03 19:20:02.89,63716170, -0.1, -17.16, 86.86, 590.190002441, -35.3632458, 149.1655303, 0.718127965927, 0.101959139109, -0.108975276351, 0.679721236229
2019-04-03 19:20:02.99,63816130, -0.1, -17.23, 86.84, 590.239990234, -35.3632455, 149.1655355, 0.718179404736, 0.102316759527, -0.109409704804, 0.679543375969
2019-04-03 19:20:03.09,63916090, -0.09, -17.26, 86.82, 590.289978027, -35.3632452, 149.1655405, 0.718261122704, 0.102601118386, -0.109597191215, 0.679383933544
2019-04-03 19:20:03.19,64016050, -0.08, -17.28, 86.8, 590.349975586, -35.363245, 149.1655457, 0.718376755714, 0.102743275464, -0.109647162259, 0.679232060909
2019-04-03 19:20:03.29,64116010, -0.06, -17.29, 86.77, 590.400024414, -35.3632447, 149.1655509, 0.718494474888, 0.102879375219, -0.109687298536, 0.679080486298
2019-04-03 19:20:03.39,64215970, -0.04, -17.29, 86.75, 590.450012207, -35.3632445, 149.1655561, 0.718616366386, 0.102932721376, -0.109540633857, 0.678967058659
2019-04-03 19:20:03.49,64315930, -0.02, -17.29, 86.73, 590.5, -35.3632443, 149.1655611, 0.718703627586, 0.103113740683, -0.109424434602, 0.678865969181
2019-04-03 19:20:03.59,64415890, -0.01, -17.32, 86.72, 590.549987793, -35.363244, 149.1655664, 0.718758881092, 0.103328637779, -0.10954900831, 0.678754687309
2019-04-03 19:20:03.69,64515850, 0.0, -17.34, 86.71, 590.599975586, -35.3632438, 149.1655716, 0.718807160854, 0.103437043726, -0.109662480652, 0.678668677807
2019-04-03 19:20:03.79,64615810, 0.0, -17.34, 86.7, 590.650024414, -35.3632435, 149.1655768, 0.718860805035, 0.103464618325, -0.10967220366, 0.678606152534
2019-04-03 19:20:03.89,64715770, 0.0, -17.34, 86.69, 590.700012207, -35.3632433, 149.165582, 0.718913316727, 0.103440977633, -0.10968349874, 0.678552269936
2019-04-03 19:20:03.99,64815730, -0.02, -17.35, 86.68, 590.75, -35.3632431, 149.1655872, 0.718957841396, 0.103391341865, -0.10988805443, 0.678479552269
2019-04-03 19:20:04.09,64915690, -0.05, -17.38, 86.67, 590.799987793, -35.3632428, 149.1655925, 0.718994021416, 0.103356361389, -0.110271863639, 0.678384244442
2019-04-03 19:20:04.20,65016483, -0.08, -17.4, 86.67, 590.849975586, -35.3632426, 149.1655977, 0.719041287899, 0.103279158473, -0.110523112118, 0.678305029869
2019-04-03 19:20:04.29,65116443, -0.07, -17.38, 86.66, 590.900024414, -35.3632422, 149.165603, 0.719095289707, 0.103222362697, -0.110353246331, 0.678284108639
2019-04-03 19:20:04.39,65216403, -0.04, -17.37, 86.65, 590.950012207, -35.363242, 149.1656081, 0.719124257565, 0.103376284242, -0.110112570226, 0.678269088268
2019-04-03 19:20:04.49,65316363, -0.01, -17.37, 86.64, 591.0, -35.3632418, 149.1656135, 0.719156563282, 0.103537850082, -0.110001534224, 0.678228199482
2019-04-03 19:20:04.59,65416323, -0.02, -17.39, 86.63, 591.059997559, -35.3632415, 149.1656186, 0.719199597836, 0.103598259389, -0.110124789178, 0.678153276443
2019-04-03 19:20:04.69,65516283, -0.06, -17.42, 86.62, 591.109985352, -35.3632413, 149.1656239, 0.719262301922, 0.103513382375, -0.11057626456, 0.67802631855
2019-04-03 19:20:04.79,65616243, -0.09, -17.45, 86.61, 591.159973145, -35.3632409, 149.1656293, 0.71932464838, 0.103440284729, -0.110964208841, 0.677907943726
2019-04-03 19:20:04.89,65716203, -0.09, -17.47, 86.61, 591.210021973, -35.3632408, 149.1656344, 0.719356954098, 0.103554345667, -0.111120179296, 0.677830696106
2019-04-03 19:20:04.99,65816163, -0.07, -17.48, 86.59, 591.260009766, -35.3632404, 149.1656397, 0.719386935234, 0.10377369076, -0.111114151776, 0.677766263485
2019-04-03 19:20:05.09,65916123, -0.05, -17.49, 86.58, 591.309997559, -35.3632403, 149.1656451, 0.7194185853, 0.103986933827, -0.11101283133, 0.677716612816
2019-04-03 19:20:05.19,66016083, -0.02, -17.51, 86.57, 591.359985352, -35.36324, 149.1656504, 0.719446897507, 0.10420358181, -0.1109662503, 0.677660942078
2019-04-03 19:20:05.29,66116043, -0.01, -17.53, 86.56, 591.409973145, -35.3632397, 149.1656557, 0.719473659992, 0.104422099888, -0.111055232584, 0.677584290504
2019-04-03 19:20:05.39,66216003, 0.0, -17.55, 86.55, 591.460021973, -35.3632395, 149.165661, 0.719505667686, 0.104585297406, -0.111125841737, 0.677513480186
2019-04-03 19:20:05.49,66315963, 0.01, -17.56, 86.54, 591.510009766, -35.3632391, 149.1656663, 0.719535410404, 0.104769363999, -0.111044608057, 0.677466869354
2019-04-03 19:20:05.59,66415923, 0.05, -17.56, 86.53, 591.559997559, -35.363239, 149.1656716, 0.719552695751, 0.105024777353, -0.110858529806, 0.677439391613
2019-04-03 19:20:05.69,66515883, 0.07, -17.56, 86.52, 591.619995117, -35.3632386, 149.1656769, 0.719594717026, 0.105069756508, -0.110747359693, 0.677405953407
2019-04-03 19:20:05.79,66615843, 0.04, -17.56, 86.52, 591.66998291, -35.3632384, 149.1656822, 0.719649553299, 0.104944013059, -0.110945671797, 0.677334785461
2019-04-03 19:20:05.89,66715803, 0.01, -17.58, 86.51, 591.719970703, -35.3632382, 149.1656875, 0.719680845737, 0.104878246784, -0.111212365329, 0.67726790905
2019-04-03 19:20:05.99,66815763, -0.01, -17.58, 86.51, 591.770019531, -35.3632379, 149.1656928, 0.719728767872, 0.104663811624, -0.111450597644, 0.677211046219
2019-04-03 19:20:06.09,66915723, -0.04, -17.58, 86.51, 591.820007324, -35.3632377, 149.1656983, 0.719772279263, 0.10443777591, -0.111613065004, 0.677172958851
2019-04-03 19:20:06.19,67015683, -0.05, -17.58, 86.51, 591.869995117, -35.3632373, 149.1657036, 0.719788193703, 0.104405269027, -0.111606582999, 0.677162110806
2019-04-03 19:20:06.30,67116476, -0.03, -17.57, 86.5, 591.91998291, -35.3632371, 149.165709, 0.719800651073, 0.104459486902, -0.111511841416, 0.677156031132
2019-04-03 19:20:06.39,67216436, -0.03, -17.58, 86.5, 591.969970703, -35.3632368, 149.1657143, 0.719823598862, 0.104502215981, -0.111495904624, 0.677127718925
2019-04-03 19:20:06.49,67316396, -0.04, -17.6, 86.49, 592.020019531, -35.3632366, 149.1657196, 0.719847857952, 0.10457791388, -0.111714743078, 0.677054226398
2019-04-03 19:20:06.59,67416356, -0.04, -17.64, 86.48, 592.070007324, -35.3632364, 149.1657249, 0.719856798649, 0.104775756598, -0.111975356936, 0.676971018314
2019-04-03 19:20:06.69,67516316, -0.03, -17.65, 86.48, 592.119995117, -35.3632361, 149.1657304, 0.719876945019, 0.104932934046, -0.112010620534, 0.676919460297
2019-04-03 19:20:06.79,67616276, -0.01, -17.65, 86.47, 592.16998291, -35.3632358, 149.1657358, 0.719907343388, 0.105047270656, -0.111901983619, 0.676887333393
2019-04-03 19:20:06.89,67716236, 0.01, -17.65, 86.46, 592.229980469, -35.3632355, 149.1657411, 0.71993547678, 0.105175718665, -0.111730143428, 0.676865875721
2019-04-03 19:20:06.99,67816196, 0.03, -17.66, 86.45, 592.280029297, -35.3632353, 149.1657464, 0.719954788685, 0.105375595391, -0.111673906446, 0.676823496819
2019-04-03 19:20:07.09,67916156, 0.05, -17.68, 86.44, 592.33001709, -35.3632349, 149.1657519, 0.719963848591, 0.105591610074, -0.111655928195, 0.676783144474
2019-04-03 19:20:07.19,68016116, 0.06, -17.69, 86.44, 592.380004883, -35.3632348, 149.1657572, 0.719965517521, 0.105764381588, -0.111676432192, 0.67675101757
2019-04-03 19:20:07.29,68116076, 0.07, -17.7, 86.44, 592.429992676, -35.3632345, 149.1657626, 0.719972133636, 0.105874702334, -0.111733064055, 0.676717460155
2019-04-03 19:20:07.39,68216036, 0.06, -17.72, 86.43, 592.479980469, -35.3632342, 149.1657679, 0.719999432564, 0.105873070657, -0.111907146871, 0.676659882069
2019-04-03 19:20:07.49,68315996, 0.03, -17.73, 86.43, 592.530029297, -35.363234, 149.1657734, 0.720038771629, 0.105764441192, -0.112137846649, 0.676596820354
2019-04-03 19:20:07.59,68415956, 0.0, -17.72, 86.42, 592.58001709, -35.3632336, 149.1657788, 0.720099329948, 0.10553047806, -0.112253569067, 0.67654967308
2019-04-03 19:20:07.69,68515916, -0.01, -17.71, 86.42, 592.630004883, -35.3632335, 149.1657841, 0.7201603055, 0.105293773115, -0.112309150398, 0.676512420177
2019-04-03 19:20:07.79,68615876, -0.01, -17.7, 86.41, 592.679992676, -35.3632331, 149.1657895, 0.720200419426, 0.105252116919, -0.112218365073, 0.676491320133
2019-04-03 19:20:07.89,68715836, 0.01, -17.7, 86.41, 592.729980469, -35.3632329, 149.1657948, 0.720212757587, 0.105433531106, -0.112089268863, 0.676471292973
2019-04-03 19:20:07.99,68815796, 0.05, -17.71, 86.4, 592.780029297, -35.3632327, 149.1658003, 0.720203816891, 0.105770923197, -0.111935481429, 0.676453590393
2019-04-03 19:20:08.09,68915756, 0.09, -17.73, 86.39, 592.840026855, -35.3632324, 149.1658057, 0.720192790031, 0.10610230267, -0.111786901951, 0.676437973976
2019-04-03 19:20:08.19,69015716, 0.11, -17.74, 86.39, 592.890014648, -35.3632321, 149.165811, 0.720197021961, 0.106291286647, -0.111795313656, 0.676402449608
2019-04-03 19:20:08.29,69115676, 0.1, -17.73, 86.38, 592.940002441, -35.3632318, 149.1658165, 0.720238685608, 0.106186315417, -0.111805610359, 0.676372826099
2019-04-03 19:20:08.40,69216469, 0.08, -17.74, 86.38, 592.989990234, -35.3632316, 149.165822, 0.720264852047, 0.10610691458, -0.111918404698, 0.676338851452
2019-04-03 19:20:08.49,69316429, 0.07, -17.74, 86.38, 593.039978027, -35.3632312, 149.1658273, 0.72028362751, 0.10604505986, -0.112018339336, 0.676311969757
2019-04-03 19:20:08.59,69416389, 0.05, -17.77, 86.37, 593.090026855, -35.363231, 149.1658328, 0.720286369324, 0.106096372008, -0.112292177975, 0.676255583763
2019-04-03 19:20:08.69,69516349, 0.05, -17.79, 86.37, 593.140014648, -35.3632307, 149.1658382, 0.720287322998, 0.106191985309, -0.112499818206, 0.676205039024
2019-04-03 19:20:08.79,69616309, 0.03, -17.82, 86.37, 593.190002441, -35.3632305, 149.1658436, 0.720293819904, 0.106266587973, -0.112718209624, 0.676150023937
2019-04-03 19:20:08.89,69716269, 0.04, -17.83, 86.36, 593.239990234, -35.3632301, 149.1658491, 0.720299720764, 0.106382705271, -0.112736947834, 0.676122426987
2019-04-03 19:20:08.99,69816229, 0.06, -17.83, 86.36, 593.289978027, -35.36323, 149.1658545, 0.720313489437, 0.10649625212, -0.112609513104, 0.6761110425
2019-04-03 19:20:09.09,69916189, 0.08, -17.8, 86.35, 593.340026855, -35.3632297, 149.1658598, 0.720354199409, 0.106444440782, -0.112378709018, 0.67611426115
2019-04-03 19:20:09.19,70016149, 0.07, -17.77, 86.35, 593.390014648, -35.3632294, 149.1658653, 0.72042042017, 0.106228582561, -0.112231634557, 0.676102042198
2019-04-03 19:20:09.29,70116109, 0.06, -17.75, 86.34, 593.440002441, -35.3632292, 149.1658708, 0.720486342907, 0.106043957174, -0.112168803811, 0.676071226597
2019-04-03 19:20:09.39,70216069, 0.06, -17.75, 86.33, 593.489990234, -35.3632288, 149.1658761, 0.720541238785, 0.105945579708, -0.11216686666, 0.676028430462
2019-04-03 19:20:09.49,70316029, 0.06, -17.74, 86.33, 593.539978027, -35.3632286, 149.1658817, 0.720594704151, 0.105867438018, -0.11211270839, 0.675992667675
2019-04-03 19:20:09.59,70415989, 0.05, -17.73, 86.32, 593.599975586, -35.3632283, 149.1658871, 0.720652580261, 0.105778872967, -0.112112425268, 0.675944924355
2019-04-03 19:20:09.69,70515949, 0.04, -17.74, 86.31, 593.650024414, -35.3632281, 149.1658924, 0.720697641373, 0.105743139982, -0.11223077774, 0.675882816315
2019-04-03 19:20:09.79,70615909, 0.04, -17.76, 86.31, 593.700012207, -35.3632278, 149.165898, 0.72070980072, 0.105906017125, -0.112411782146, 0.675814270973
2019-04-03 19:20:09.89,70715869, 0.06, -17.79, 86.3, 593.75, -35.3632276, 149.1659034, 0.720699906349, 0.10619084537, -0.112397454679, 0.675782501698
2019-04-03 19:20:09.99,70815829, 0.1, -17.81, 86.29, 593.799987793, -35.3632273, 149.1659089, 0.720677256584, 0.106561355293, -0.112341925502, 0.675757527351
2019-04-03 19:20:10.09,70915789, 0.13, -17.82, 86.29, 593.849975586, -35.3632269, 149.1659143, 0.720679938793, 0.106799215078, -0.112219206989, 0.675737559795
2019-04-03 19:20:10.19,71015749, 0.13, -17.8, 86.28, 593.900024414, -35.3632268, 149.1659197, 0.720733821392, 0.106676630676, -0.112111918628, 0.675717234612
2019-04-03 19:20:10.29,71115709, 0.1, -17.77, 86.28, 593.950012207, -35.3632264, 149.1659252, 0.720806896687, 0.106351092458, -0.112107783556, 0.675691246986
2019-04-03 19:20:10.39,71215669, 0.07, -17.75, 86.27, 594.0, -35.3632262, 149.1659307, 0.720879077911, 0.106004692614, -0.112132824957, 0.675664544106
2019-04-03 19:20:10.50,71316462, 0.06, -17.74, 86.27, 594.059997559, -35.363226, 149.1659362, 0.720912516117, 0.105878025293, -0.11216108501, 0.675644099712
2019-04-03 19:20:10.59,71416422, 0.05, -17.77, 86.27, 594.109985352, -35.3632257, 149.1659416, 0.720913648605, 0.105969302356, -0.112379096448, 0.675592362881
2019-04-03 19:20:10.69,71516382, 0.04, -17.81, 86.27, 594.159973145, -35.3632254, 149.165947, 0.72090613842, 0.106116093695, -0.112718038261, 0.675520837307
2019-04-03 19:20:10.79,71616342, 0.02, -17.83, 86.26, 594.210021973, -35.3632251, 149.1659526, 0.720916211605, 0.106145165861, -0.112984247506, 0.675461053848
2019-04-03 19:20:10.89,71716302, 0.02, -17.83, 86.26, 594.260009766, -35.3632249, 149.165958, 0.720943927765, 0.106104694307, -0.112963944674, 0.675441205502
2019-04-03 19:20:10.99,71816262, 0.04, -17.82, 86.25, 594.309997559, -35.3632245, 149.1659635, 0.720965743065, 0.106160223484, -0.112786829472, 0.675438821316
2019-04-03 19:20:11.09,71916222, 0.05, -17.79, 86.25, 594.359985352, -35.3632244, 149.1659689, 0.721011400223, 0.106102719903, -0.112552367151, 0.675438225269
2019-04-03 19:20:11.19,72016182, 0.06, -17.74, 86.24, 594.409973145, -35.363224, 149.1659743, 0.721093475819, 0.105868667364, -0.112223476171, 0.675442039967
2019-04-03 19:20:11.29,72116142, 0.08, -17.71, 86.23, 594.460021973, -35.3632238, 149.1659799, 0.721156954765, 0.105767861009, -0.111885361373, 0.675446152687
2019-04-03 19:20:11.39,72216102, 0.09, -17.71, 86.22, 594.510009766, -35.3632234, 149.1659853, 0.721186518669, 0.10586565733, -0.111820317805, 0.675410032272
2019-04-03 19:20:11.49,72316062, 0.11, -17.73, 86.22, 594.570007324, -35.3632233, 149.1659908, 0.721199512482, 0.10604351759, -0.111857265234, 0.675362169743
2019-04-03 19:20:11.59,72416022, 0.13, -17.75, 86.21, 594.619995117, -35.363223, 149.1659963, 0.721195936203, 0.106289565563, -0.111872345209, 0.675324738026
2019-04-03 19:20:11.69,72515982, 0.14, -17.76, 86.21, 594.66998291, -35.3632227, 149.1660016, 0.721193313599, 0.106458067894, -0.111858375371, 0.675303399563
2019-04-03 19:20:11.79,72615942, 0.15, -17.8, 86.2, 594.719970703, -35.3632225, 149.1660072, 0.721164643764, 0.106724582613, -0.112050436437, 0.675260066986
2019-04-03 19:20:11.89,72715902, 0.15, -17.84, 86.2, 594.770019531, -35.3632221, 149.1660126, 0.721129477024, 0.106923811138, -0.112321168184, 0.675221085548
2019-04-03 19:20:11.99,72815862, 0.14, -17.84, 86.21, 594.820007324, -35.3632219, 149.1660181, 0.72112685442, 0.106885626912, -0.112385138869, 0.675219297409
2019-04-03 19:20:12.09,72915822, 0.13, -17.82, 86.21, 594.869995117, -35.3632216, 149.1660236, 0.721144080162, 0.106724113226, -0.112273044884, 0.67524510622
2019-04-03 19:20:12.19,73015782, 0.14, -17.79, 86.21, 594.91998291, -35.3632214, 149.1660291, 0.721161663532, 0.106583595276, -0.112099580467, 0.675277352333
2019-04-03 19:20:12.29,73115742, 0.15, -17.78, 86.21, 594.969970703, -35.363221, 149.1660345, 0.721160471439, 0.106617353857, -0.111896373332, 0.675306975842
2019-04-03 19:20:12.39,73215702, 0.17, -17.79, 86.21, 595.020019531, -35.3632208, 149.1660399, 0.721146762371, 0.106798373163, -0.111903473735, 0.675291895866
2019-04-03 19:20:12.49,73315662, 0.16, -17.8, 86.2, 595.070007324, -35.3632206, 149.1660455, 0.721175611019, 0.106773354113, -0.112031057477, 0.675243854523
2019-04-03 19:20:12.59,73416455, 0.13, -17.8, 86.2, 595.119995117, -35.3632203, 149.1660509, 0.721230149269, 0.106603957713, -0.112194143236, 0.675185263157
2019-04-03 19:20:12.69,73516415, 0.1, -17.79, 86.19, 595.16998291, -35.36322, 149.1660564, 0.721300423145, 0.106348827481, -0.112301543355, 0.675132572651
2019-04-03 19:20:12.79,73616375, 0.08, -17.77, 86.19, 595.219970703, -35.3632197, 149.1660619, 0.721369385719, 0.106126278639, -0.112311176956, 0.675092339516
2019-04-03 19:20:12.89,73716335, 0.1, -17.75, 86.18, 595.280029297, -35.3632195, 149.1660674, 0.721414506435, 0.106116741896, -0.112102597952, 0.675080299377
2019-04-03 19:20:12.99,73816295, 0.13, -17.75, 86.17, 595.33001709, -35.3632191, 149.1660729, 0.721443533897, 0.106248296797, -0.111910581589, 0.675060391426
2019-04-03 19:20:13.09,73916255, 0.15, -17.76, 86.16, 595.380004883, -35.363219, 149.1660782, 0.721458733082, 0.106466539204, -0.111852549016, 0.675019443035
2019-04-03 19:20:13.19,74016215, 0.17, -17.78, 86.15, 595.429992676, -35.3632187, 149.1660838, 0.721471428871, 0.106678165495, -0.111848004162, 0.674973189831
2019-04-03 19:20:13.29,74116175, 0.18, -17.78, 86.15, 595.479980469, -35.3632184, 149.1660892, 0.721494376659, 0.106759026647, -0.111820526421, 0.674940407276
2019-04-03 19:20:13.39,74216135, 0.19, -17.78, 86.14, 595.530029297, -35.3632182, 149.1660948, 0.721519112587, 0.106798447669, -0.111815869808, 0.674908518791
2019-04-03 19:20:13.49,74316095, 0.19, -17.79, 86.14, 595.58001709, -35.3632178, 149.1661002, 0.721534669399, 0.106870360672, -0.111864976585, 0.674872338772
2019-04-03 19:20:13.59,74416055, 0.2, -17.79, 86.13, 595.630004883, -35.3632176, 149.1661057, 0.721555709839, 0.106891416013, -0.11182205379, 0.674853622913
2019-04-03 19:20:13.69,74516015, 0.2, -17.79, 86.13, 595.679992676, -35.3632173, 149.1661112, 0.721577167511, 0.106903605163, -0.111754119396, 0.674840033054
2019-04-03 19:20:13.79,74615975, 0.21, -17.81, 86.13, 595.729980469, -35.3632171, 149.1661165, 0.721568822861, 0.107048206031, -0.111831612885, 0.674813210964
2019-04-03 19:20:13.89,74715935, 0.22, -17.84, 86.12, 595.780029297, -35.3632167, 149.1661221, 0.721532225609, 0.107360757887, -0.112009882927, 0.674773097038
2019-04-03 19:20:13.99,74815895, 0.22, -17.88, 86.12, 595.83001709, -35.3632166, 149.1661275, 0.721513807774, 0.10753967613, -0.112236745656, 0.674726605415
2019-04-03 19:20:14.09,74915855, 0.2, -17.88, 86.12, 595.880004883, -35.3632163, 149.166133, 0.721539974213, 0.107439100742, -0.112401083112, 0.67468726635
2019-04-03 19:20:14.19,75015815, 0.15, -17.88, 86.12, 595.929992676, -35.363216, 149.1661385, 0.721610665321, 0.10710580647, -0.11263795197, 0.67462515831
2019-04-03 19:20:14.29,75115775, 0.12, -17.87, 86.11, 595.979980469, -35.3632158, 149.166144, 0.721676409245, 0.106824316084, -0.112772338092, 0.674577057362
2019-04-03 19:20:14.39,75215735, 0.12, -17.86, 86.11, 596.039978027, -35.3632154, 149.1661495, 0.72170573473, 0.106802344322, -0.11272136867, 0.674557626247
2019-04-03 19:20:14.49,75315695, 0.14, -17.86, 86.1, 596.090026855, -35.3632152, 149.1661548, 0.721724390984, 0.106902711093, -0.112613476813, 0.674539804459
2019-04-03 19:20:14.60,75416488, 0.16, -17.86, 86.09, 596.140014648, -35.3632149, 149.1661604, 0.72174423933, 0.107040733099, -0.112473405898, 0.674520015717
2019-04-03 19:20:14.69,75516448, 0.19, -17.84, 86.09, 596.190002441, -35.3632147, 149.1661658, 0.721780121326, 0.107074283063, -0.112199813128, 0.674521863461
2019-04-03 19:20:14.79,75616408, 0.2, -17.82, 86.08, 596.239990234, -35.3632143, 149.1661714, 0.721822977066, 0.107068553567, -0.112023003399, 0.674506306648
2019-04-03 19:20:14.89,75716368, 0.21, -17.82, 86.07, 596.289978027, -35.3632142, 149.1661768, 0.721853673458, 0.107112720609, -0.111965604126, 0.674475967884
2019-04-03 19:20:14.99,75816328, 0.2, -17.83, 86.07, 596.340026855, -35.3632139, 149.1661824, 0.721887648106, 0.107107691467, -0.112129814923, 0.674413144588
2019-04-03 19:20:15.09,75916288, 0.18, -17.86, 86.06, 596.390014648, -35.3632136, 149.1661878, 0.721916794777, 0.107114106417, -0.112451516092, 0.674327373505
2019-04-03 19:20:15.19,76016248, 0.13, -17.88, 86.06, 596.440002441, -35.3632134, 149.1661933, 0.721974790096, 0.106906354427, -0.11279797554, 0.674240410328
2019-04-03 19:20:15.29,76116208, 0.11, -17.88, 86.05, 596.489990234, -35.363213, 149.1661988, 0.722016274929, 0.106800764799, -0.112979866564, 0.674182236195
2019-04-03 19:20:15.39,76216168, 0.1, -17.9, 86.05, 596.539978027, -35.3632129, 149.1662043, 0.722049713135, 0.106835797429, -0.1130938977, 0.67412173748
2019-04-03 19:20:15.49,76316128, 0.12, -17.89, 86.04, 596.599975586, -35.3632126, 149.1662097, 0.722086250782, 0.106893241405, -0.112989187241, 0.674091041088
2019-04-03 19:20:15.59,76416088, 0.14, -17.88, 86.03, 596.650024414, -35.3632123, 149.1662151, 0.722121953964, 0.106983587146, -0.112806364894, 0.674069106579
2019-04-03 19:20:15.69,76516048, 0.15, -17.88, 86.02, 596.700012207, -35.363212, 149.1662207, 0.722160518169, 0.107013128698, -0.11270904541, 0.674039363861
2019-04-03 19:20:15.79,76616008, 0.15, -17.88, 86.02, 596.75, -35.3632117, 149.1662261, 0.722197532654, 0.107033863664, -0.11276165396, 0.673987627029
2019-04-03 19:20:15.89,76715968, 0.14, -17.88, 86.01, 596.799987793, -35.3632115, 149.1662317, 0.722253441811, 0.10692384094, -0.112832739949, 0.673933267593
2019-04-03 19:20:15.99,76815928, 0.13, -17.87, 86.0, 596.849975586, -35.3632111, 149.1662371, 0.722308456898, 0.106805004179, -0.112863309681, 0.673888087273
2019-04-03 19:20:16.09,76915888, 0.14, -17.89, 86.0, 596.900024414, -35.363211, 149.1662427, 0.722318172455, 0.106947027147, -0.112898901105, 0.67384916544
2019-04-03 19:20:16.19,77015848, 0.17, -17.9, 85.99, 596.950012207, -35.3632106, 149.1662481, 0.722301721573, 0.107272274792, -0.112777210772, 0.673835456371
2019-04-03 19:20:16.29,77115808, 0.22, -17.89, 85.98, 597.0, -35.3632104, 149.1662536, 0.722305417061, 0.107470966876, -0.112408109009, 0.673861503601
2019-04-03 19:20:16.39,77215768, 0.25, -17.86, 85.98, 597.049987793, -35.36321, 149.1662591, 0.722335338593, 0.107458554208, -0.112043306231, 0.673892140388
2019-04-03 19:20:16.49,77315728, 0.26, -17.83, 85.98, 597.099975586, -35.3632099, 149.1662646, 0.722370028496, 0.107365310192, -0.111817620695, 0.673907339573
2019-04-03 19:20:16.59,77415688, 0.23, -17.85, 85.98, 597.150024414, -35.3632096, 149.1662701, 0.722382724285, 0.107325971127, -0.112127646804, 0.673848509789
2019-04-03 19:20:16.70,77516481, 0.2, -17.91, 85.98, 597.200012207, -35.3632093, 149.1662756, 0.722343564034, 0.107496790588, -0.112694181502, 0.673768699169
2019-04-03 19:20:16.79,77616441, 0.18, -17.96, 85.98, 597.260009766, -35.3632091, 149.1662811, 0.722307860851, 0.107618317008, -0.113084927201, 0.673722147942
2019-04-03 19:20:16.89,77716401, 0.18, -17.97, 85.98, 597.309997559, -35.3632087, 149.1662866, 0.722288310528, 0.107681468129, -0.113206222653, 0.673712611198
2019-04-03 19:20:16.99,77816361, 0.17, -17.95, 85.98, 597.359985352, -35.3632085, 149.1662921, 0.722296118736, 0.107564337552, -0.113115407526, 0.673738181591
2019-04-03 19:20:17.09,77916321, 0.17, -17.91, 85.98, 597.409973145, -35.3632082, 149.1662976, 0.722351670265, 0.10722438246, -0.112855687737, 0.673776388168
2019-04-03 19:20:17.19,78016281, 0.16, -17.85, 85.98, 597.460021973, -35.363208, 149.1663031, 0.722417593002, 0.106859244406, -0.112588681281, 0.673808336258
2019-04-03 19:20:17.29,78116241, 0.15, -17.81, 85.98, 597.510009766, -35.3632076, 149.1663085, 0.72247838974, 0.106563791633, -0.112301260233, 0.673838019371
2019-04-03 19:20:17.39,78216201, 0.16, -17.79, 85.98, 597.559997559, -35.3632075, 149.1663141, 0.722514390945, 0.106512911618, -0.112128168344, 0.673836231232
2019-04-03 19:20:17.49,78316161, 0.16, -17.8, 85.97, 597.609985352, -35.3632072, 149.1663195, 0.722550272942, 0.10654964298, -0.112225480378, 0.673775732517
2019-04-03 19:20:17.59,78416121, 0.15, -17.82, 85.96, 597.659973145, -35.3632069, 149.1663251, 0.722594320774, 0.106613241136, -0.112444609404, 0.673681855202
2019-04-03 19:20:17.69,78516081, 0.14, -17.84, 85.95, 597.710021973, -35.3632067, 149.1663305, 0.722645223141, 0.106657668948, -0.11262384057, 0.673590302467
2019-04-03 19:20:17.79,78616041, 0.14, -17.84, 85.94, 597.770019531, -35.3632063, 149.1663361, 0.722706973553, 0.10663190484, -0.112676292658, 0.67351937294
2019-04-03 19:20:17.89,78716001, 0.12, -17.84, 85.93, 597.820007324, -35.3632061, 149.1663415, 0.722785592079, 0.10646931082, -0.112734273076, 0.673451066017
2019-04-03 19:20:17.99,78815961, 0.1, -17.84, 85.92, 597.869995117, -35.3632058, 149.1663471, 0.722846567631, 0.106379523873, -0.11288227886, 0.673374950886
2019-04-03 19:20:18.09,78915921, 0.1, -17.86, 85.91, 597.91998291, -35.3632056, 149.1663525, 0.722877621651, 0.106445491314, -0.113034874201, 0.673305630684
2019-04-03 19:20:18.19,79015881, 0.1, -17.87, 85.91, 597.969970703, -35.3632053, 149.166358, 0.722900748253, 0.106513187289, -0.113098755479, 0.67325937748
2019-04-03 19:20:18.29,79115841, 0.11, -17.87, 85.9, 598.020019531, -35.363205, 149.1663635, 0.722910761833, 0.106575593352, -0.113001033664, 0.673255085945
2019-04-03 19:20:18.39,79215801, 0.14, -17.87, 85.9, 598.070007324, -35.3632048, 149.166369, 0.722892284393, 0.106769412756, -0.112856075168, 0.673268616199
2019-04-03 19:20:18.49,79315761, 0.17, -17.87, 85.9, 598.119995117, -35.3632045, 149.1663745, 0.722872972488, 0.10697234422, -0.112676285207, 0.673287212849
2019-04-03 19:20:18.59,79415721, 0.19, -17.87, 85.9, 598.16998291, -35.3632042, 149.16638, 0.722864627838, 0.10708668828, -0.112536236644, 0.673301398754
2019-04-03 19:20:18.69,79515681, 0.19, -17.85, 85.9, 598.219970703, -35.3632038, 149.1663855, 0.722891032696, 0.1069778651, -0.112455449998, 0.673303842545
2019-04-03 19:20:18.80,79616474, 0.18, -17.84, 85.89, 598.270019531, -35.3632037, 149.1663911, 0.722916781902, 0.106872290373, -0.112457901239, 0.673292577267
2019-04-03 19:20:18.89,79716434, 0.18, -17.87, 85.89, 598.320007324, -35.3632033, 149.1663965, 0.722906827927, 0.10699300468, -0.112613528967, 0.673258066177
2019-04-03 19:20:18.99,79816394, 0.17, -17.88, 85.89, 598.369995117, -35.3632031, 149.166402, 0.722919046879, 0.106984488666, -0.112739183009, 0.673225283623
2019-04-03 19:20:19.09,79916354, 0.14, -17.87, 85.89, 598.429992676, -35.3632027, 149.1664075, 0.722955286503, 0.106805339456, -0.112884536386, 0.673190414906
2019-04-03 19:20:19.19,80016314, 0.12, -17.86, 85.89, 598.479980469, -35.3632026, 149.166413, 0.723001360893, 0.106570102274, -0.11290460825, 0.673174917698
2019-04-03 19:20:19.29,80116274, 0.12, -17.84, 85.89, 598.530029297, -35.3632023, 149.1664185, 0.723027586937, 0.106481909752, -0.112765170634, 0.673184096813
2019-04-03 19:20:19.39,80216234, 0.15, -17.82, 85.88, 598.58001709, -35.363202, 149.166424, 0.723041772842, 0.106515899301, -0.112504683435, 0.673207044601
2019-04-03 19:20:19.49,80316194, 0.17, -17.82, 85.88, 598.630004883, -35.3632018, 149.1664295, 0.72304135561, 0.106656640768, -0.112386547029, 0.673204958439
2019-04-03 19:20:19.59,80416154, 0.16, -17.84, 85.88, 598.679992676, -35.3632014, 149.166435, 0.723050415516, 0.106710344553, -0.112556874752, 0.673158228397
2019-04-03 19:20:19.69,80516114, 0.16, -17.88, 85.87, 598.729980469, -35.3632012, 149.1664405, 0.723031520844, 0.106910951436, -0.112789608538, 0.673107743263
2019-04-03 19:20:19.79,80616074, 0.17, -17.9, 85.87, 598.780029297, -35.3632008, 149.1664459, 0.723007261753, 0.107142999768, -0.112914249301, 0.673075973988
2019-04-03 19:20:19.89,80716034, 0.19, -17.92, 85.87, 598.840026855, -35.3632007, 149.1664515, 0.722993254662, 0.107324674726, -0.112876094878, 0.673068523407
2019-04-03 19:20:19.99,80815994, 0.21, -17.92, 85.87, 598.890014648, -35.3632003, 149.1664569, 0.72297680378, 0.107487000525, -0.112792782485, 0.673074305058
2019-04-03 19:20:20.09,80915954, 0.22, -17.91, 85.87, 598.940002441, -35.3632001, 149.1664625, 0.722978770733, 0.107505783439, -0.112671464682, 0.673089444637
2019-04-03 19:20:20.19,81015914, 0.23, -17.87, 85.87, 598.989990234, -35.3631997, 149.1664679, 0.723002851009, 0.1073487252, -0.112379878759, 0.673137366772
2019-04-03 19:20:20.29,81115874, 0.24, -17.84, 85.87, 599.039978027, -35.3631996, 149.1664735, 0.723005890846, 0.10722810775, -0.112118043005, 0.673196971416
2019-04-03 19:20:20.39,81215834, 0.24, -17.82, 85.87, 599.090026855, -35.3631993, 149.1664789, 0.723013043404, 0.107081286609, -0.111969307065, 0.673237383366
2019-04-03 19:20:20.49,81315794, 0.22, -17.81, 85.88, 599.140014648, -35.363199, 149.1664845, 0.723020911217, 0.106950715184, -0.1120204404, 0.673241257668
2019-04-03 19:20:20.59,81415754, 0.23, -17.84, 85.88, 599.190002441, -35.3631987, 149.1664899, 0.722974300385, 0.107154391706, -0.112125575542, 0.673241436481
2019-04-03 19:20:20.69,81515714, 0.24, -17.87, 85.88, 599.239990234, -35.3631984, 149.1664955, 0.722927451134, 0.107378713787, -0.112314015627, 0.673224508762
2019-04-03 19:20:20.79,81615674, 0.25, -17.87, 85.88, 599.299987793, -35.3631982, 149.1665009, 0.722916185856, 0.107453919947, -0.112271256745, 0.673231780529
2019-04-03 19:20:20.90,81716467, 0.25, -17.86, 85.88, 599.349975586, -35.3631978, 149.1665066, 0.722931027412, 0.107375636697, -0.112167544663, 0.673245608807
2019-04-03 19:20:20.99,81816427, 0.24, -17.84, 85.88, 599.400024414, -35.3631976, 149.1665121, 0.722956418991, 0.107235014439, -0.112078741193, 0.673255562782
2019-04-03 19:20:21.09,81916387, 0.24, -17.83, 85.88, 599.450012207, -35.3631974, 149.1665176, 0.722977995872, 0.107122421265, -0.112004205585, 0.67326271534
2019-04-03 19:20:21.19,82016347, 0.23, -17.83, 85.88, 599.5, -35.3631971, 149.1665229, 0.722993254662, 0.107098042965, -0.112122885883, 0.673230409622
2019-04-03 19:20:21.29,82116307, 0.21, -17.85, 85.87, 599.549987793, -35.3631968, 149.1665285, 0.723008394241, 0.107105396688, -0.112335279584, 0.673177659512
2019-04-03 19:20:21.39,82216267, 0.21, -17.85, 85.87, 599.599975586, -35.3631965, 149.1665339, 0.723030686378, 0.107059441507, -0.112399406731, 0.67315030098
2019-04-03 19:20:21.49,82316227, 0.21, -17.85, 85.87, 599.650024414, -35.3631963, 149.1665395, 0.723041415215, 0.107081882656, -0.112329863012, 0.673146784306
2019-04-03 19:20:21.59,82416187, 0.23, -17.84, 85.87, 599.700012207, -35.3631959, 149.1665449, 0.723052561283, 0.107091911137, -0.112162426114, 0.673161149025
2019-04-03 19:20:21.69,82516147, 0.25, -17.83, 85.86, 599.75, -35.3631958, 149.1665505, 0.723052859306, 0.107158109546, -0.112003013492, 0.673176825047
2019-04-03 19:20:21.79,82616107, 0.26, -17.83, 85.86, 599.799987793, -35.3631954, 149.1665559, 0.7230489254, 0.107240147889, -0.111930444837, 0.673180103302
2019-04-03 19:20:21.89,82716067, 0.26, -17.84, 85.86, 599.849975586, -35.3631952, 149.1665615, 0.723047316074, 0.107292294502, -0.111972026527, 0.673166573048
2019-04-03 19:20:21.99,82816027, 0.25, -17.84, 85.86, 599.900024414, -35.363195, 149.1665669, 0.723060369492, 0.107253670692, -0.112068325281, 0.67314273119
2019-04-03 19:20:22.09,82915987, 0.24, -17.84, 85.86, 599.960021973, -35.3631947, 149.1665725, 0.723080337048, 0.107168823481, -0.112099900842, 0.673129498959
2019-04-03 19:20:22.19,83015947, 0.25, -17.82, 85.86, 600.010009766, -35.3631944, 149.1665779, 0.723090112209, 0.107135042548, -0.111957840621, 0.673148036003
2019-04-03 19:20:22.29,83115907, 0.27, -17.81, 85.86, 600.059997559, -35.3631941, 149.1665835, 0.723085403442, 0.1071966663, -0.111770011485, 0.673174500465
2019-04-03 19:20:22.39,83215867, 0.27, -17.83, 85.86, 600.109985352, -35.3631939, 149.1665889, 0.723077058792, 0.107308268547, -0.111877456307, 0.673147797585
2019-04-03 19:20:22.49,83315827, 0.25, -17.85, 85.85, 600.159973145, -35.3631935, 149.1665945, 0.723089993, 0.107320137322, -0.112155415118, 0.673085749149
2019-04-03 19:20:22.59,83415787, 0.25, -17.87, 85.85, 600.210021973, -35.3631934, 149.1666, 0.723088502884, 0.107409566641, -0.112287595868, 0.673051059246
2019-04-03 19:20:22.69,83515747, 0.26, -17.88, 85.85, 600.260009766, -35.363193, 149.1666055, 0.723085284233, 0.107531644404, -0.112244307995, 0.673042237759
2019-04-03 19:20:22.79,83615707, 0.28, -17.87, 85.84, 600.309997559, -35.3631928, 149.166611, 0.723090231419, 0.107609279454, -0.112075872719, 0.673052608967
2019-04-03 19:20:22.89,83715667, 0.3, -17.87, 85.84, 600.359985352, -35.3631924, 149.1666165, 0.723092794418, 0.107714250684, -0.111959569156, 0.673052430153
2019-04-03 19:20:23.00,83816460, 0.3, -17.87, 85.84, 600.409973145, -35.3631923, 149.166622, 0.723112881184, 0.107716269791, -0.112027913332, 0.673019111156
2019-04-03 19:20:23.09,83916420, 0.29, -17.87, 85.83, 600.460021973, -35.363192, 149.1666275, 0.723141670227, 0.107683502138, -0.112028300762, 0.67299336195
2019-04-03 19:20:23.19,84016380, 0.29, -17.86, 85.83, 600.510009766, -35.3631917, 149.166633, 0.723172545433, 0.107625126839, -0.111997410655, 0.672974705696
2019-04-03 19:20:23.29,84116340, 0.28, -17.85, 85.83, 600.559997559, -35.3631915, 149.1666385, 0.72320997715, 0.107503272593, -0.111985377967, 0.672955989838
2019-04-03 19:20:23.39,84216300, 0.28, -17.86, 85.82, 600.609985352, -35.3631911, 149.166644, 0.723224699497, 0.107515007257, -0.112046524882, 0.672928035259
2019-04-03 19:20:23.49,84316260, 0.26, -17.88, 85.82, 600.66998291, -35.3631909, 149.1666495, 0.723239660263, 0.107526287436, -0.112276464701, 0.672871828079
2019-04-03 19:20:23.59,84416220, 0.23, -17.9, 85.82, 600.719970703, -35.3631906, 149.166655, 0.723267555237, 0.107444897294, -0.112613610923, 0.672798514366
2019-04-03 19:20:23.69,84516180, 0.2, -17.9, 85.81, 600.770019531, -35.3631904, 149.1666605, 0.723315119743, 0.10726377368, -0.112792246044, 0.672746360302
2019-04-03 19:20:23.79,84616140, 0.19, -17.88, 85.81, 600.820007324, -35.3631901, 149.166666, 0.72336858511, 0.10708771646, -0.112715370953, 0.672729849815
2019-04-03 19:20:23.89,84716100, 0.2, -17.86, 85.81, 600.869995117, -35.3631899, 149.1666715, 0.723408579826, 0.106992743909, -0.112570017576, 0.672726213932
2019-04-03 19:20:23.99,84816060, 0.23, -17.84, 85.8, 600.91998291, -35.3631896, 149.166677, 0.723423838615, 0.107085809112, -0.112268082798, 0.672745466232
2019-04-03 19:20:24.09,84916020, 0.27, -17.84, 85.8, 600.969970703, -35.3631893, 149.1666825, 0.723413288593, 0.107328690588, -0.111979357898, 0.672766268253
2019-04-03 19:20:24.19,85015980, 0.31, -17.86, 85.79, 601.020019531, -35.3631891, 149.166688, 0.723374128342, 0.10767878592, -0.111873738468, 0.672770023346
2019-04-03 19:20:24.29,85115940, 0.31, -17.89, 85.79, 601.070007324, -35.3631887, 149.1666934, 0.723349511623, 0.10786280036, -0.112030997872, 0.67274081707
2019-04-03 19:20:24.39,85215900, 0.3, -17.9, 85.79, 601.119995117, -35.3631885, 149.166699, 0.723348677158, 0.107860378921, -0.112241342664, 0.672706961632
2019-04-03 19:20:24.49,85315860, 0.26, -17.9, 85.79, 601.16998291, -35.3631883, 149.1667044, 0.723390042782, 0.107585608959, -0.112436249852, 0.672673940659
2019-04-03 19:20:24.59,85415820, 0.23, -17.87, 85.79, 601.219970703, -35.363188, 149.16671, 0.723447680473, 0.107212908566, -0.112431049347, 0.672672331333
2019-04-03 19:20:24.69,85515780, 0.22, -17.84, 85.79, 601.270019531, -35.3631877, 149.1667154, 0.723492503166, 0.106964029372, -0.112311936915, 0.67268371582
2019-04-03 19:20:24.79,85615740, 0.2, -17.82, 85.79, 601.320007324, -35.3631874, 149.166721, 0.723537743092, 0.10673366487, -0.11226528883, 0.672679424286
2019-04-03 19:20:24.89,85715700, 0.19, -17.81, 85.79, 601.369995117, -35.3631872, 149.1667264, 0.723574876785, 0.106610409915, -0.112318605185, 0.672650098801
2019-04-03 19:20:24.99,85815660, 0.19, -17.82, 85.78, 601.41998291, -35.3631868, 149.166732, 0.723593771458, 0.106655791402, -0.11235524714, 0.672616541386
2019-04-03 19:20:25.09,85916453, 0.19, -17.85, 85.78, 601.479980469, -35.3631867, 149.1667376, 0.72357904911, 0.106909394264, -0.112555541098, 0.672558546066
2019-04-03 19:20:25.19,86016413, 0.19, -17.91, 85.77, 601.530029297, -35.3631863, 149.1667431, 0.723559617996, 0.107192002237, -0.112882554531, 0.672479629517
2019-04-03 19:20:25.29,86116373, 0.19, -17.92, 85.77, 601.58001709, -35.3631861, 149.1667486, 0.723594844341, 0.10721924901, -0.112975567579, 0.672421813011
2019-04-03 19:20:25.39,86216333, 0.19, -17.9, 85.76, 601.630004883, -35.3631859, 149.1667541, 0.723649382591, 0.107116803527, -0.112887606025, 0.672394216061
2019-04-03 19:20:25.49,86316293, 0.18, -17.88, 85.75, 601.679992676, -35.3631856, 149.1667596, 0.72371083498, 0.106936424971, -0.112816162407, 0.672368764877
2019-04-03 19:20:25.59,86416253, 0.15, -17.87, 85.75, 601.729980469, -35.3631853, 149.1667651, 0.72377204895, 0.106704495847, -0.112935058773, 0.672319769859
2019-04-03 19:20:25.69,86516213, 0.14, -17.87, 85.75, 601.780029297, -35.363185, 149.1667706, 0.723812103271, 0.10658441484, -0.11302088201, 0.672281324863
2019-04-03 19:20:25.79,86616173, 0.15, -17.86, 85.74, 601.83001709, -35.3631848, 149.1667761, 0.723830401897, 0.106585025787, -0.11289267987, 0.672282993793
2019-04-03 19:20:25.89,86716133, 0.18, -17.85, 85.74, 601.880004883, -35.3631844, 149.1667816, 0.723823904991, 0.106720887125, -0.112648047507, 0.67230951786
2019-04-03 19:20:25.99,86816093, 0.22, -17.84, 85.74, 601.929992676, -35.3631843, 149.1667871, 0.723802089691, 0.106914833188, -0.1123662889, 0.672349333763
