Start,TimeUS,Roll,Pitch,Yaw,Alt,Lat,Lng,Q1,Q2,Q3,Q4
2019-04-03 20:24:27.60,47216106, 0.0, 0.0, 353.0, 584.090026855, -35.363261, 149.1652299, 0.998134791851, 0.0, 0.0, -0.0610485821962
2019-04-03 20:24:27.71,47335225, 0.0, 0.0, 353.0, 584.090026855, -35.363261, 149.1652299, 0.998134791851, 0.0, 0.0, -0.0610485821962
2019-04-03 20:24:27.81,47435185, 0.0, 0.0, 353.0, 584.090026855, -35.363261, 149.1652299, 0.998134791851, 0.0, 0.0, -0.0610485821962
2019-04-03 20:24:27.91,47535145, 0.0, 0.0, 353.0, 584.090026855, -35.363261, 149.1652299, 0.998134791851, 0.0, 0.0, -0.0610485821962
2019-04-03 20:24:28.01,47635105, 0.0, 0.0, 353.0, 584.090026855, -35.363261, 149.1652299, 0.998134791851, 0.0, 0.0, -0.0610485821962
2019-04-03 20:24:28.11,47735065, 0.0, 0.0, 353.0, 584.090026855, -35.363261, 149.1652299, 0.998134791851, 0.0, 0.0, -0.0610485821962
2019-04-03 20:24:28.21,47835025, 0.0, 0.0, 353.0, 584.090026855, -35.363261, 149.1652299, 0.998134791851, 0.0, 0.0, -0.0610485821962
2019-04-03 20:24:28.31,47934985, 0.0, 0.0, 353.0, 584.090026855, -35.363261, 149.1652299, 0.998134791851, 0.0, 0.0, -0.0610485821962
2019-04-03 20:24:28.41,48034945, 0.0, 0.0, 353.0, 584.090026855, -35.363261, 149.1652299, 0.998134791851, 0.0, 0.0, -0.0610485821962
2019-04-03 20:24:28.51,48134905, 0.0, 0.0, 353.0, 584.090026855, -35.363261, 149.1652299, 0.998134791851, 0.0, 0.0, -0.0610485821962
2019-04-03 20:24:28.61,48234865, 0.0, 0.0, 353.0, 584.090026855, -35.363261, 149.1652299, 0.998134791851, 0.0, 0.0, -0.0610485821962
2019-04-03 20:24:28.71,48334825, 0.0, 0.0, 353.0, 584.090026855, -35.363261, 149.1652299, 0.998134791851, 0.0, 0.0, -0.0610485821962
2019-04-03 20:24:28.81,48434785, 0.0, 0.0, 353.0, 584.090026855, -35.363261, 149.1652299, 0.998134791851, 0.0, 0.0, -0.0610485821962
2019-04-03 20:24:28.91,48534745, 0.0, 0.0, 353.0, 584.090026855, -35.363261, 149.1652299, 0.998134791851, 0.0, 0.0, -0.0610485821962
2019-04-03 20:24:29.01,48634705, 0.0, 0.0, 353.0, 584.090026855, -35.363261, 149.1652299, 0.998134791851, 0.0, 0.0, -0.0610485821962
2019-04-03 20:24:29.11,48734665, 0.0, 0.0, 353.0, 584.090026855, -35.363261, 149.1652299, 0.998134791851, 0.0, 0.0, -0.0610485821962
2019-04-03 20:24:29.21,48834625, 0.0, 0.0, 353.0, 584.090026855, -35.363261, 149.1652299, 0.998134791851, 0.0, 0.0, -0.0610485821962
2019-04-03 20:24:29.31,48934585, 0.0, 0.0, 353.0, 584.090026855, -35.363261, 149.1652299, 0.998134791851, 0.0, 0.0, -0.0610485821962
2019-04-03 20:24:29.41,49034545, 0.0, 0.0, 353.0, 584.090026855, -35.363261, 149.1652299, 0.998134791851, 0.0, 0.0, -0.0610485821962
2019-04-03 20:24:29.51,49134505, 0.0, 0.0, 353.0, 584.090026855, -35.363261, 149.1652299, 0.998134791851, 0.0, 0.0, -0.0610485821962
2019-04-03 20:24:29.61,49234465, 0.0, 0.0, 353.0, 584.090026855, -35.363261, 149.1652299, 0.998134791851, 0.0, 0.0, -0.0610485821962
2019-04-03 20:24:29.71,49335258, 0.0, 0.0, 353.0, 584.090026855, -35.363261, 149.1652299, 0.998134791851, 0.0, 0.0, -0.0610485821962
2019-04-03 20:24:29.81,49435218, 0.0, 0.0, 353.0, 584.090026855, -35.363261, 149.1652299, 0.998134791851, 0.0, 0.0, -0.0610485821962
2019-04-03 20:24:29.91,49535178, 0.0, 0.0, 353.0, 584.090026855, -35.363261, 149.1652299, 0.998134791851, 0.0, 0.0, -0.0610485821962
2019-04-03 20:24:30.01,49635138, 0.0, 0.0, 353.0, 584.090026855, -35.363261, 149.1652299, 0.998134791851, 0.0, 0.0, -0.0610485821962
2019-04-03 20:24:30.11,49735098, 0.0, 0.0, 353.0, 584.090026855, -35.363261, 149.1652299, 0.998134791851, 0.0, 0.0, -0.0610485821962
2019-04-03 20:24:30.21,49835058, 0.0, 0.0, 353.0, 584.090026855, -35.363261, 149.1652299, 0.998134791851, 0.0, 0.0, -0.0610485821962
2019-04-03 20:24:30.31,49935018, 0.0, 0.0, 353.0, 584.090026855, -35.363261, 149.1652299, 0.998134791851, 0.0, 0.0, -0.0610485821962
2019-04-03 20:24:30.41,50034978, 0.0, 0.0, 353.0, 584.090026855, -35.363261, 149.1652299, 0.998134791851, 0.0, 0.0, -0.0610485821962
2019-04-03 20:24:30.51,50134938, 0.0, 0.0, 353.0, 584.090026855, -35.363261, 149.1652299, 0.998134791851, 0.0, 0.0, -0.0610485821962
2019-04-03 20:24:30.61,50234898, 0.0, 0.0, 353.0, 584.090026855, -35.363261, 149.1652299, 0.998134791851, 0.0, 0.0, -0.0610485821962
2019-04-03 20:24:30.71,50334858, 0.0, 0.0, 353.0, 584.090026855, -35.363261, 149.1652299, 0.998134791851, 0.0, 0.0, -0.0610485821962
2019-04-03 20:24:30.81,50434818, 0.0, 0.0, 353.0, 584.090026855, -35.363261, 149.1652299, 0.998134791851, 0.0, 0.0, -0.0610485821962
2019-04-03 20:24:30.91,50534778, 0.0, 0.0, 353.0, 584.090026855, -35.363261, 149.1652299, 0.998134791851, 0.0, 0.0, -0.0610485821962
2019-04-03 20:24:31.01,50634738, 0.0, 0.0, 353.0, 584.090026855, -35.363261, 149.1652299, 0.998134791851, 0.0, 0.0, -0.0610485821962
2019-04-03 20:24:31.11,50734698, 0.0, 0.0, 353.0, 584.090026855, -35.363261, 149.1652299, 0.998134791851, 0.0, 0.0, -0.0610485821962
2019-04-03 20:24:31.21,50834658, 0.0, 0.0, 353.0, 584.090026855, -35.363261, 149.1652299, 0.998134791851, 0.0, 0.0, -0.0610485821962
2019-04-03 20:24:31.31,50934618, 0.0, 0.0, 353.0, 584.090026855, -35.363261, 149.1652299, 0.998134791851, 0.0, 0.0, -0.0610485821962
2019-04-03 20:24:31.41,51034578, 0.0, 0.0, 353.0, 584.090026855, -35.363261, 149.1652299, 0.998134791851, 0.0, 0.0, -0.0610485821962
2019-04-03 20:24:31.51,51134538, 0.0, 0.0, 353.0, 584.090026855, -35.363261, 149.1652299, 0.998134791851, 0.0, 0.0, -0.0610485821962
2019-04-03 20:24:31.61,51234498, 0.0, 0.0, 353.0, 584.090026855, -35.363261, 149.1652299, 0.998134791851, 0.0, 0.0, -0.0610485821962
2019-04-03 20:24:31.71,51334458, 0.0, 0.0, 353.0, 584.090026855, -35.363261, 149.1652299, 0.998134791851, 0.0, 0.0, -0.0610485821962
2019-04-03 20:24:31.81,51435251, 0.0, 0.0, 353.0, 584.090026855, -35.363261, 149.1652299, 0.998134791851, 0.0, 0.0, -0.0610485821962
2019-04-03 20:24:31.91,51535211, 0.0, 0.0, 353.0, 584.090026855, -35.363261, 149.1652299, 0.998134791851, 0.0, 0.0, -0.0610485821962
2019-04-03 20:24:32.01,51635171, 0.0, 0.0, 353.0, 584.090026855, -35.363261, 149.1652299, 0.998134791851, 0.0, 0.0, -0.0610485821962
2019-04-03 20:24:32.11,51735131, 0.0, 0.0, 353.0, 584.090026855, -35.363261, 149.1652299, 0.998134791851, 0.0, 0.0, -0.0610485821962
2019-04-03 20:24:32.21,51835091, 0.0, 0.0, 353.0, 584.090026855, -35.363261, 149.1652299, 0.998134791851, 0.0, 0.0, -0.0610485821962
2019-04-03 20:24:32.31,51935051, 0.0, 0.0, 353.0, 584.090026855, -35.363261, 149.1652299, 0.998134791851, 0.0, 0.0, -0.0610485821962
2019-04-03 20:24:32.41,52035011, 0.0, 0.0, 353.0, 584.090026855, -35.363261, 149.1652299, 0.998134791851, 0.0, 0.0, -0.0610485821962
2019-04-03 20:24:32.51,52134971, 0.0, 0.0, 353.0, 584.090026855, -35.363261, 149.1652299, 0.998134791851, 0.0, 0.0, -0.0610485821962
2019-04-03 20:24:32.61,52234931, 0.0, 0.0, 353.0, 584.090026855, -35.363261, 149.1652299, 0.998134791851, 0.0, 0.0, -0.0610485821962
2019-04-03 20:24:32.71,52334891, 0.0, 0.0, 353.0, 584.090026855, -35.363261, 149.1652299, 0.998134791851, 0.0, 0.0, -0.0610485821962
2019-04-03 20:24:32.81,52434851, 0.0, 0.0, 353.0, 584.090026855, -35.363261, 149.1652299, 0.998134791851, 0.0, 0.0, -0.0610485821962
2019-04-03 20:24:32.91,52534811, 0.0, 0.0, 353.0, 584.090026855, -35.363261, 149.1652299, 0.998134791851, 0.0, 0.0, -0.0610485821962
2019-04-03 20:24:33.01,52634771, 0.0, 0.0, 353.0, 584.090026855, -35.363261, 149.1652299, 0.998134791851, 0.0, 0.0, -0.0610485821962
2019-04-03 20:24:33.11,52734731, 0.0, 0.0, 353.0, 584.090026855, -35.363261, 149.1652299, 0.998134791851, 0.0, 0.0, -0.0610485821962
2019-04-03 20:24:33.21,52834691, 0.0, 0.0, 353.0, 584.090026855, -35.363261, 149.1652299, 0.998134791851, 0.0, 0.0, -0.0610485821962
2019-04-03 20:24:33.31,52934651, 0.0, 0.0, 353.0, 584.090026855, -35.363261, 149.1652299, 0.998134791851, 0.0, 0.0, -0.0610485821962
2019-04-03 20:24:33.41,53034611, 0.0, 0.0, 353.0, 584.090026855, -35.363261, 149.1652299, 0.998134791851, 0.0, 0.0, -0.0610485821962
2019-04-03 20:24:33.51,53134571, 0.0, 0.0, 353.0, 584.090026855, -35.363261, 149.1652299, 0.998134791851, 0.0, 0.0, -0.0610485821962
2019-04-03 20:24:33.61,53234531, 0.0, 0.0, 353.0, 584.090026855, -35.363261, 149.1652299, 0.998134791851, 0.0, 0.0, -0.0610485821962
2019-04-03 20:24:33.71,53334491, 0.0, 0.0, 353.0, 584.090026855, -35.363261, 149.1652299, 0.998134791851, 0.0, 0.0, -0.0610485821962
2019-04-03 20:24:33.81,53434451, 0.0, 0.0, 353.0, 584.090026855, -35.363261, 149.1652299, 0.998134791851, 0.0, 0.0, -0.0610485821962
2019-04-03 20:24:33.91,53535244, 0.0, 0.0, 353.0, 584.090026855, -35.363261, 149.1652299, 0.998134791851, 0.0, 0.0, -0.0610485821962
2019-04-03 20:24:34.01,53635204, 0.0, 0.0, 353.0, 584.090026855, -35.363261, 149.1652299, 0.998134791851, 0.0, 0.0, -0.0610485821962
2019-04-03 20:24:34.11,53735164, 0.0, 0.0, 353.0, 584.090026855, -35.363261, 149.1652299, 0.998134791851, 0.0, 0.0, -0.0610485821962
2019-04-03 20:24:34.21,53835124, 0.0, 0.0, 353.0, 584.090026855, -35.363261, 149.1652299, 0.998134791851, 0.0, 0.0, -0.0610485821962
2019-04-03 20:24:34.31,53935084, 0.0, 0.0, 353.0, 584.090026855, -35.363261, 149.1652299, 0.998134791851, 0.0, 0.0, -0.0610485821962
2019-04-03 20:24:34.41,54035044, 0.0, 0.0, 353.0, 584.090026855, -35.363261, 149.1652299, 0.998134791851, 0.0, 0.0, -0.0610485821962
2019-04-03 20:24:34.51,54135004, 0.0, 0.0, 353.0, 584.090026855, -35.363261, 149.1652299, 0.998134791851, 0.0, 0.0, -0.0610485821962
2019-04-03 20:24:34.61,54234964, 0.0, 0.0, 353.0, 584.090026855, -35.363261, 149.1652299, 0.998134791851, 0.0, 0.0, -0.0610485821962
2019-04-03 20:24:34.71,54334924, 0.0, 0.0, 353.0, 584.090026855, -35.363261, 149.1652299, 0.998134791851, 0.0, 0.0, -0.0610485821962
2019-04-03 20:24:34.81,54434884, 0.0, 0.0, 353.0, 584.090026855, -35.363261, 149.1652299, 0.998134791851, 0.0, 0.0, -0.0610485821962
2019-04-03 20:24:34.91,54534844, 0.0, 0.0, 353.0, 584.090026855, -35.363261, 149.1652299, 0.998134791851, 0.0, 0.0, -0.0610485821962
2019-04-03 20:24:35.01,54634804, 0.0, 0.0, 353.0, 584.090026855, -35.363261, 149.1652299, 0.998134791851, 0.0, 0.0, -0.0610485821962
2019-04-03 20:24:35.11,54734764, 0.0, 0.0, 353.0, 584.090026855, -35.363261, 149.1652299, 0.998134791851, 0.0, 0.0, -0.0610485821962
2019-04-03 20:24:35.21,54834724, 0.0, 0.0, 353.0, 584.090026855, -35.363261, 149.1652299, 0.998134791851, 0.0, 0.0, -0.0610485821962
2019-04-03 20:24:35.31,54934684, 0.0, 0.0, 353.0, 584.090026855, -35.363261, 149.1652299, 0.998134791851, 0.0, 0.0, -0.0610485821962
2019-04-03 20:24:35.41,55034644, 0.0, 0.0, 353.0, 584.090026855, -35.363261, 149.1652299, 0.998134791851, 0.0, 0.0, -0.0610485821962
2019-04-03 20:24:35.51,55134604, 0.0, 0.0, 353.0, 584.090026855, -35.363261, 149.1652299, 0.998134791851, 0.0, 0.0, -0.0610485821962
2019-04-03 20:24:35.61,55234564, 0.0, 0.0, 353.0, 584.090026855, -35.363261, 149.1652299, 0.998134791851, 0.0, 0.0, -0.0610485821962
2019-04-03 20:24:35.71,55334524, 0.0, 0.0, 353.0, 584.090026855, -35.363261, 149.1652299, 0.998134791851, 0.0, 0.0, -0.0610485821962
2019-04-03 20:24:35.81,55434484, 0.0, 0.0, 353.0, 584.090026855, -35.363261, 149.1652299, 0.998134791851, 0.0, 0.0, -0.0610485821962
2019-04-03 20:24:35.91,55534444, 0.0, 0.0, 353.0, 584.090026855, -35.363261, 149.1652299, 0.998134791851, 0.0, 0.0, -0.0610485821962
2019-04-03 20:24:36.01,55635237, 0.0, 0.0, 353.0, 584.090026855, -35.363261, 149.1652299, 0.998134791851, 0.0, 0.0, -0.0610485821962
2019-04-03 20:24:36.11,55735197, 0.0, 0.0, 353.0, 584.090026855, -35.363261, 149.1652299, 0.998134791851, 0.0, 0.0, -0.0610485821962
2019-04-03 20:24:36.21,55835157, 0.0, 0.0, 353.0, 584.090026855, -35.363261, 149.1652299, 0.998134791851, 0.0, 0.0, -0.0610485821962
2019-04-03 20:24:36.31,55935117, 0.0, 0.0, 353.0, 584.090026855, -35.363261, 149.1652299, 0.998134791851, 0.0, 0.0, -0.0610485821962
2019-04-03 20:24:36.41,56035077, 0.0, 0.0, 353.0, 584.090026855, -35.363261, 149.1652299, 0.998134791851, 0.0, 0.0, -0.0610485821962
2019-04-03 20:24:36.51,56135037, 0.0, 0.0, 353.0, 584.090026855, -35.363261, 149.1652299, 0.998134791851, 0.0, 0.0, -0.0610485821962
2019-04-03 20:24:36.61,56234997, 0.0, 0.0, 353.0, 584.090026855, -35.363261, 149.1652299, 0.998134791851, 0.0, 0.0, -0.0610485821962
2019-04-03 20:24:36.71,56334957, 0.0, 0.0, 353.0, 584.090026855, -35.363261, 149.1652299, 0.998134791851, 0.0, 0.0, -0.0610485821962
2019-04-03 20:24:36.81,56434917, 0.0, 0.0, 353.0, 584.090026855, -35.363261, 149.1652299, 0.998134791851, 0.0, 0.0, -0.0610485821962
2019-04-03 20:24:36.91,56534877, 0.0, 0.0, 353.0, 584.090026855, -35.363261, 149.1652299, 0.998134791851, 0.0, 0.0, -0.0610485821962
2019-04-03 20:24:37.01,56634837, 0.0, 0.0, 353.0, 584.090026855, -35.363261, 149.1652299, 0.998134791851, 0.0, 0.0, -0.0610485821962
2019-04-03 20:24:37.11,56734797, 0.0, 0.0, 353.0, 584.090026855, -35.363261, 149.1652299, 0.998134791851, 0.0, 0.0, -0.0610485821962
2019-04-03 20:24:37.21,56834757, 0.0, 0.0, 353.0, 584.090026855, -35.363261, 149.1652299, 0.998134791851, 0.0, 0.0, -0.0610485821962
2019-04-03 20:24:37.31,56934717, 0.0, 0.0, 353.0, 584.090026855, -35.363261, 149.1652299, 0.998134791851, 0.0, 0.0, -0.0610485821962
2019-04-03 20:24:37.41,57034677, 0.0, 0.0, 353.0, 584.090026855, -35.363261, 149.1652299, 0.998134791851, 0.0, 0.0, -0.0610485821962
2019-04-03 20:24:42.11,61734463, 0.0, 0.0, 353.0, 584.090026855, -35.363261, 149.1652299, 0.998134791851, 0.0, 0.0, -0.0610485821962
2019-04-03 20:24:42.21,61835256, 0.0, 0.0, 353.0, 584.090026855, -35.363261, 149.1652299, 0.998134791851, 0.0, 0.0, -0.0610485821962
2019-04-03 20:24:42.31,61935216, 0.0, 0.0, 353.0, 584.090026855, -35.363261, 149.1652299, 0.998134791851, 0.0, 0.0, -0.0610485821962
2019-04-03 20:24:42.41,62035176, 0.0, 0.0, 353.0, 584.090026855, -35.363261, 149.1652299, 0.998134791851, 0.0, 0.0, -0.0610485821962
2019-04-03 20:24:42.51,62135136, 0.0, 0.0, 353.0, 584.090026855, -35.363261, 149.1652299, 0.998134791851, 0.0, 0.0, -0.0610485821962
2019-04-03 20:24:42.61,62235096, 0.0, 0.0, 353.0, 584.090026855, -35.363261, 149.1652299, 0.998134791851, 0.0, 0.0, -0.0610485821962
2019-04-03 20:24:42.71,62335056, 0.0, 0.0, 353.0, 584.090026855, -35.363261, 149.1652299, 0.998134791851, 0.0, 0.0, -0.0610485821962
2019-04-03 20:24:42.81,62435016, 0.0, 0.0, 353.0, 584.090026855, -35.363261, 149.1652299, 0.998134791851, 0.0, 0.0, -0.0610485821962
2019-04-03 20:24:42.91,62534976, 0.0, 0.0, 353.0, 584.090026855, -35.363261, 149.1652299, 0.998134791851, 0.0, 0.0, -0.0610485821962
2019-04-03 20:24:43.01,62634936, 0.0, 0.0, 353.0, 584.090026855, -35.363261, 149.1652299, 0.998134791851, 0.0, 0.0, -0.0610485821962
2019-04-03 20:24:43.11,62734896, 0.0, 0.0, 353.0, 584.090026855, -35.363261, 149.1652299, 0.998134791851, 0.0, 0.0, -0.0610485821962
2019-04-03 20:24:43.21,62834856, 0.0, 0.0, 353.0, 584.090026855, -35.363261, 149.1652299, 0.998134791851, 0.0, 0.0, -0.0610485821962
2019-04-03 20:24:43.31,62934816, 0.0, 0.0, 353.0, 584.090026855, -35.363261, 149.1652299, 0.998134791851, 0.0, 0.0, -0.0610485821962
2019-04-03 20:24:43.41,63034776, 0.0, 0.0, 353.0, 584.090026855, -35.363261, 149.1652299, 0.998134791851, 0.0, 0.0, -0.0610485821962
2019-04-03 20:24:43.51,63134736, 0.0, 0.0, 353.0, 584.090026855, -35.363261, 149.1652299, 0.998134791851, 0.0, 0.0, -0.0610485821962
2019-04-03 20:24:43.61,63234696, 0.0, 0.0, 353.0, 584.090026855, -35.363261, 149.1652299, 0.998134791851, 0.0, 0.0, -0.0610485821962
2019-04-03 20:24:43.71,63334656, 0.0, 0.0, 353.0, 584.090026855, -35.363261, 149.1652299, 0.998134791851, 0.0, 0.0, -0.0610485821962
2019-04-03 20:24:43.81,63434616, 0.0, 0.0, 353.0, 584.090026855, -35.363261, 149.1652299, 0.998134791851, 0.0, 0.0, -0.0610485821962
2019-04-03 20:24:43.91,63534576, 0.0, 0.0, 353.0, 584.090026855, -35.363261, 149.1652299, 0.998134791851, 0.0, 0.0, -0.0610485821962
2019-04-03 20:24:44.01,63634536, 0.0, 0.0, 353.0, 584.090026855, -35.363261, 149.1652299, 0.998134791851, 0.0, 0.0, -0.0610485821962
2019-04-03 20:24:44.11,63734496, 0.0, 0.0, 353.0, 584.090026855, -35.363261, 149.1652299, 0.998134791851, 0.0, 0.0, -0.0610485821962
2019-04-03 20:24:44.21,63834456, 0.0, 0.0, 353.0, 584.090026855, -35.363261, 149.1652299, 0.998134791851, 0.0, 0.0, -0.0610485821962
2019-04-03 20:24:44.31,63935249, 0.0, 0.0, 353.0, 584.090026855, -35.363261, 149.1652299, 0.998134791851, 0.0, 0.0, -0.0610485821962
2019-04-03 20:24:44.41,64035209, 0.0, 0.0, 353.0, 584.090026855, -35.363261, 149.1652299, 0.998134791851, 0.0, 0.0, -0.0610485821962
2019-04-03 20:24:44.51,64135169, 0.0, 0.0, 353.0, 584.090026855, -35.363261, 149.1652299, 0.998134791851, 0.0, 0.0, -0.0610485821962
2019-04-03 20:24:44.61,64235129, 0.0, 0.0, 353.0, 584.090026855, -35.363261, 149.1652299, 0.998134791851, 0.0, 0.0, -0.0610485821962
2019-04-03 20:24:44.71,64335089, 0.0, 0.0, 353.0, 584.090026855, -35.363261, 149.1652299, 0.998134791851, 0.0, 0.0, -0.0610485821962
2019-04-03 20:24:44.81,64435049, 0.0, 0.0, 353.0, 584.090026855, -35.363261, 149.1652299, 0.998134791851, 0.0, 0.0, -0.0610485821962
2019-04-03 20:24:44.91,64535009, 0.0, 0.0, 353.0, 584.090026855, -35.363261, 149.1652299, 0.998134791851, 0.0, 0.0, -0.0610485821962
2019-04-03 20:24:45.01,64634969, 0.0, 0.0, 353.0, 584.090026855, -35.363261, 149.1652299, 0.998134791851, 0.0, 0.0, -0.0610485821962
2019-04-03 20:24:45.11,64734929, 0.0, 0.0, 353.0, 584.090026855, -35.363261, 149.1652299, 0.998134791851, 0.0, 0.0, -0.0610485821962
2019-04-03 20:24:45.21,64834889, 0.0, 0.0, 353.0, 584.090026855, -35.363261, 149.1652299, 0.998134791851, 0.0, 0.0, -0.0610485821962
2019-04-03 20:24:45.31,64934849, 0.0, 0.0, 353.0, 584.090026855, -35.363261, 149.1652299, 0.998134791851, 0.0, 0.0, -0.0610485821962
2019-04-03 20:24:45.41,65034809, 0.0, 0.0, 353.0, 584.090026855, -35.363261, 149.1652299, 0.998134791851, 0.0, 0.0, -0.0610485821962
2019-04-03 20:24:45.51,65134769, 0.0, 0.0, 353.0, 584.090026855, -35.363261, 149.1652299, 0.998134791851, 0.0, 0.0, -0.0610485821962
2019-04-03 20:24:45.61,65234729, 0.0, 0.0, 353.0, 584.090026855, -35.363261, 149.1652299, 0.998134791851, 0.0, 0.0, -0.0610485821962
2019-04-03 20:24:45.71,65334689, 0.0, 0.0, 353.0, 584.090026855, -35.363261, 149.1652299, 0.998134791851, 0.0, 0.0, -0.0610485821962
2019-04-03 20:24:45.81,65434649, 0.0, 0.0, 353.0, 584.090026855, -35.363261, 149.1652299, 0.998134791851, 0.0, 0.0, -0.0610485821962
2019-04-03 20:24:45.91,65534609, 0.0, 0.0, 353.0, 584.090026855, -35.363261, 149.1652299, 0.998134791851, 0.0, 0.0, -0.0610485821962
2019-04-03 20:24:46.01,65634569, 0.0, 0.0, 353.0, 584.090026855, -35.363261, 149.1652299, 0.998134791851, 0.0, 0.0, -0.0610485821962
2019-04-03 20:24:46.11,65734529, 0.0, 0.0, 353.0, 584.090026855, -35.363261, 149.1652299, 0.998134791851, 0.0, 0.0, -0.0610485821962
2019-04-03 20:24:46.21,65834489, 0.0, 0.0, 353.0, 584.090026855, -35.363261, 149.1652299, 0.998134791851, 0.0, 0.0, -0.0610485821962
2019-04-03 20:24:46.31,65934449, 0.0, 0.0, 353.0, 584.090026855, -35.363261, 149.1652299, 0.998134791851, 0.0, 0.0, -0.0610485821962
2019-04-03 20:24:46.41,66035242, 0.0, 0.0, 353.0, 584.090026855, -35.363261, 149.1652299, 0.998134791851, 0.0, 0.0, -0.0610485821962
2019-04-03 20:24:46.51,66135202, 0.0, 0.0, 353.0, 584.090026855, -35.363261, 149.1652299, 0.998134791851, 0.0, 0.0, -0.0610485821962
2019-04-03 20:24:46.61,66235162, 0.0, 0.0, 353.0, 584.090026855, -35.363261, 149.1652299, 0.998134791851, 0.0, 0.0, -0.0610485821962
2019-04-03 20:24:46.71,66335122, 0.0, 0.0, 353.0, 584.090026855, -35.363261, 149.1652299, 0.998134791851, 0.0, 0.0, -0.0610485821962
2019-04-03 20:24:46.81,66435082, 0.0, 0.0, 353.0, 584.090026855, -35.363261, 149.1652299, 0.998134791851, 0.0, 0.0, -0.0610485821962
2019-04-03 20:24:46.91,66535042, 0.0, 0.0, 353.0, 584.090026855, -35.363261, 149.1652299, 0.998134791851, 0.0, 0.0, -0.0610485821962
2019-04-03 20:24:47.01,66635002, 0.0, 0.0, 353.0, 584.090026855, -35.363261, 149.1652299, 0.998134791851, 0.0, 0.0, -0.0610485821962
2019-04-03 20:24:47.11,66734962, 0.0, 0.0, 353.0, 584.090026855, -35.363261, 149.1652299, 0.998134791851, 0.0, 0.0, -0.0610485821962
2019-04-03 20:24:47.21,66834922, 0.0, 0.0, 353.0, 584.090026855, -35.363261, 149.1652299, 0.998134791851, 0.0, 0.0, -0.0610485821962
2019-04-03 20:24:47.31,66934882, 0.0, 0.0, 353.0, 584.090026855, -35.363261, 149.1652299, 0.998134791851, 0.0, 0.0, -0.0610485821962
2019-04-03 20:24:47.41,67034842, 0.0, 0.0, 353.0, 584.090026855, -35.363261, 149.1652299, 0.998134791851, 0.0, 0.0, -0.0610485821962
2019-04-03 20:24:47.51,67134802, 0.0, 0.0, 353.0, 584.090026855, -35.363261, 149.1652299, 0.998134791851, 0.0, 0.0, -0.0610485821962
2019-04-03 20:24:47.61,67234762, 0.0, 0.0, 353.0, 584.090026855, -35.363261, 149.1652299, 0.998134791851, 0.0, 0.0, -0.0610485821962
2019-04-03 20:24:47.71,67334722, 0.0, 0.0, 353.0, 584.090026855, -35.363261, 149.1652299, 0.998134791851, 0.0, 0.0, -0.061048604548
2019-04-03 20:24:47.81,67434682, 0.0, 0.0, 353.0, 584.090026855, -35.363261, 149.1652299, 0.998134791851, 0.0, 0.0, -0.0610486716032
2019-04-03 20:24:47.91,67534642, 0.0, 0.0, 353.0, 584.090026855, -35.363261, 149.1652299, 0.998134791851, 0.0, 0.0, -0.0610486753285
2019-04-03 20:24:48.01,67634602, 0.0, 0.0, 353.0, 584.090026855, -35.363261, 149.1652299, 0.998134791851, 0.0, 0.0, -0.0610486753285
2019-04-03 20:24:48.11,67734562, 0.0, 0.0, 353.0, 584.090026855, -35.363261, 149.1652299, 0.998134791851, 0.0, 0.0, -0.0610486753285
2019-04-03 20:24:48.21,67834522, 0.0, 0.0, 353.0, 584.090026855, -35.363261, 149.1652299, 0.998134791851, 0.0, 0.0, -0.0610486753285
2019-04-03 20:24:48.31,67934482, 0.0, 0.0, 353.0, 584.090026855, -35.363261, 149.1652299, 0.998134791851, 0.0, 0.0, -0.0610486641526
2019-04-03 20:24:48.41,68034442, 0.0, 0.0, 353.0, 584.090026855, -35.363261, 149.1652299, 0.998134791851, 0.0, 0.0, -0.0610486753285
2019-04-03 20:24:48.51,68135235, 0.0, 0.0, 353.0, 584.099975586, -35.363261, 149.1652299, 0.998134791851, 0.0, 0.0, -0.0610486753285
2019-04-03 20:24:48.61,68235195, 0.0, 0.0, 353.0, 584.099975586, -35.363261, 149.1652299, 0.998134791851, 0.0, 0.0, -0.0610486753285
2019-04-03 20:24:48.71,68335155, 0.0, 0.0, 353.0, 584.109985352, -35.363261, 149.1652299, 0.998134791851, 0.0, 0.0, -0.0610486753285
2019-04-03 20:24:48.81,68435115, 0.0, 0.0, 353.0, 584.119995117, -35.363261, 149.1652299, 0.998134791851, 0.0, 0.0, -0.0610486753285
2019-04-03 20:24:48.91,68535075, 0.0, 0.0, 353.0, 584.150024414, -35.363261, 149.1652299, 0.998134791851, 0.0, 0.0, -0.0610486753285
2019-04-03 20:24:49.01,68635035, 0.0, 0.0, 353.0, 584.179992676, -35.363261, 149.1652299, 0.998134791851, 0.0, 0.0, -0.0610486529768
2019-04-03 20:24:49.11,68734995, 0.0, 0.0, 352.99, 584.219970703, -35.363261, 149.1652299, 0.998134791851, -2.63301972154e-05, -2.4132674298e-05, -0.0610488578677
2019-04-03 20:24:49.21,68834955, -0.05, -0.04, 352.99, 584.289978027, -35.363261, 149.1652299, 0.998134255409, -0.000467171979835, -0.000341302948073, -0.0610551387072
2019-04-03 20:24:49.31,68934915, -0.13, -0.1, 352.99, 584.409973145, -35.363261, 149.1652299, 0.998132348061, -0.00123834155966, -0.000801734160632, -0.0610711500049
2019-04-03 20:24:49.41,69034875, -0.2, -0.16, 352.99, 584.570007324, -35.363261, 149.1652299, 0.998129308224, -0.0018876157701, -0.00129112659488, -0.0610957816243
2019-04-03 20:24:49.51,69134835, -0.23, -0.18, 352.99, 584.719970703, -35.363261, 149.1652299, 0.998127043247, -0.00213444558904, -0.00147340004332, -0.0611203461885
2019-04-03 20:24:49.61,69234795, -0.21, -0.17, 352.98, 584.880004883, -35.363261, 149.1652299, 0.998126149178, -0.00196344405413, -0.00143192301039, -0.061142038554
2019-04-03 20:24:49.71,69334755, -0.15, -0.14, 352.98, 585.030029297, -35.363261, 149.1652299, 0.998126089573, -0.00147180876229, -0.00120510149281, -0.0611619986594
2019-04-03 20:24:49.81,69434715, -0.1, -0.13, 352.98, 585.179992676, -35.363261, 149.1652299, 0.99812567234, -0.000948821252678, -0.00115616433322, -0.0611802116036
2019-04-03 20:24:49.91,69534675, -0.05, -0.12, 352.98, 585.340026855, -35.363261, 149.1652299, 0.998125255108, -0.000541040673852, -0.0010995316552, -0.0611923895776
2019-04-03 20:24:50.01,69634635, -0.02, -0.12, 352.98, 585.510009766, -35.363261, 149.1652299, 0.998125076294, -0.00031324516749, -0.00106275617145, -0.0611979179084
2019-04-03 20:24:50.11,69734595, 0.0, -0.1, 352.98, 585.679992676, -35.363261, 149.1652298, 0.998125314713, -3.0438091926e-05, -0.000932671769988, -0.0611962601542
2019-04-03 20:24:50.21,69834555, 0.02, -0.08, 352.98, 585.859985352, -35.363261, 149.1652298, 0.998125612736, 0.000178640621016, -0.000753111147787, -0.0611945316195
2019-04-03 20:24:50.31,69934515, 0.03, -0.05, 352.98, 586.039978027, -35.363261, 149.1652298, 0.998125553131, 0.000271908356808, -0.000457429065136, -0.0611979775131
2019-04-03 20:24:50.41,70034475, 0.02, -0.02, 352.98, 586.229980469, -35.363261, 149.1652298, 0.998125076294, 0.000184553486179, -0.000214767293073, -0.0612073503435
2019-04-03 20:24:50.51,70134435, 0.0, 0.0, 352.98, 586.41998291, -35.363261, 149.1652298, 0.998124420643, 2.8968515835e-06, -7.47204394429e-05, -0.0612175278366
2019-04-03 20:24:50.61,70235228, -0.02, 0.0, 352.97, 586.619995117, -35.3632609, 149.1652298, 0.998123586178, -0.000175513763679, 7.65163895267e-06, -0.0612313114107
2019-04-03 20:24:50.71,70335188, -0.02, 0.01, 352.97, 586.809997559, -35.3632609, 149.1652298, 0.998122692108, -0.000213100545807, 0.00013715615205, -0.0612455457449
2019-04-03 20:24:50.81,70435148, -0.02, 0.03, 352.97, 587.010009766, -35.3632609, 149.1652298, 0.998122394085, -0.000217711101868, 0.00031916575972, -0.0612496174872
2019-04-03 20:24:50.91,70535108, -0.02, 0.02, 352.97, 587.210021973, -35.3632609, 149.1652298, 0.998121619225, -0.000220775109483, 0.000270427524811, -0.0612622275949
2019-04-03 20:24:51.01,70635068, -0.01, 0.01, 352.97, 587.41998291, -35.3632609, 149.1652298, 0.998121082783, -0.000159616218298, 0.000133204492158, -0.0612724684179
2019-04-03 20:24:51.11,70735028, 0.01, 0.0, 352.97, 587.619995117, -35.3632609, 149.1652298, 0.998121023178, 0.000101859790448, -3.73316652258e-07, -0.061273008585
2019-04-03 20:24:51.21,70834988, 0.04, -0.01, 352.97, 587.83001709, -35.3632609, 149.1652298, 0.998121321201, 0.000425398699008, -0.000122800265672, -0.0612670145929
2019-04-03 20:24:51.31,70934948, 0.07, 0.0, 352.97, 588.039978027, -35.3632609, 149.1652298, 0.998122096062, 0.000624592357781, -9.56135772867e-05, -0.0612527765334
2019-04-03 20:24:51.41,71034908, 0.04, 0.0, 352.97, 588.25, -35.3632609, 149.1652298, 0.998122930527, 0.000397219962906, 6.08818118053e-06, -0.0612412542105
2019-04-03 20:24:51.51,71134868, -0.01, 0.0, 352.97, 588.460021973, -35.3632608, 149.1652298, 0.998122751713, -0.000104679776996, 8.89021684998e-05, -0.0612449645996
2019-04-03 20:24:51.61,71234828, -0.05, 0.01, 352.97, 588.679992676, -35.3632608, 149.1652297, 0.998122036457, -0.000496557506267, 0.000197286062757, -0.0612541399896
2019-04-03 20:24:51.71,71334788, -0.08, 0.01, 352.97, 588.890014648, -35.3632608, 149.1652297, 0.998121142387, -0.000705660670064, 0.000151065338287, -0.0612674504519
2019-04-03 20:24:51.81,71434748, -0.09, -0.03, 352.97, 589.109985352, -35.3632608, 149.1652297, 0.998119473457, -0.000845871050842, -0.000283868750557, -0.0612918324769
2019-04-03 20:24:51.91,71534708, -0.11, -0.09, 352.96, 589.320007324, -35.3632608, 149.1652297, 0.998117268085, -0.00103240378667, -0.000766718119849, -0.061320707202
2019-04-03 20:24:52.01,71634668, -0.13, -0.11, 352.96, 589.539978027, -35.3632608, 149.1652297, 0.998115420341, -0.00120527530089, -0.000956295873038, -0.0613449290395
2019-04-03 20:24:52.11,71734628, -0.13, -0.09, 352.96, 589.760009766, -35.3632608, 149.1652297, 0.998113751411, -0.00121342099737, -0.000726322410628, -0.0613754168153
2019-04-03 20:24:52.21,71834588, -0.12, -0.04, 352.95, 589.979980469, -35.3632608, 149.1652297, 0.998111784458, -0.00107977702282, -0.000329114554916, -0.0614137463272
2019-04-03 20:24:52.31,71934548, -0.11, 0.0, 352.95, 590.200012207, -35.3632608, 149.1652297, 0.9981097579, -0.00100298121106, 0.000109790627903, -0.0614487528801
2019-04-03 20:24:52.41,72034508, -0.11, 0.05, 352.94, 590.41998291, -35.3632608, 149.1652297, 0.99810731411, -0.00100024999119, 0.000517399166711, -0.0614859163761
2019-04-03 20:24:52.51,72134468, -0.1, 0.06, 352.94, 590.640014648, -35.3632608, 149.1652296, 0.998105406761, -0.000872905831784, 0.000640592013951, -0.0615180693567
2019-04-03 20:24:52.61,72235261, -0.09, 0.04, 352.94, 590.859985352, -35.3632608, 149.1652296, 0.998104631901, -0.000786933000199, 0.000443013064796, -0.0615332946181
2019-04-03 20:24:52.71,72335221, -0.07, 0.0, 352.94, 591.090026855, -35.3632608, 149.1652296, 0.99810397625, -0.000643015431706, 0.000124668003991, -0.0615469701588
2019-04-03 20:24:52.81,72435181, -0.05, -0.01, 352.94, 591.309997559, -35.3632607, 149.1652296, 0.998103439808, -0.000497137545608, -0.000123165271361, -0.0615574158728
2019-04-03 20:24:52.91,72535141, -0.04, -0.04, 352.94, 591.530029297, -35.3632607, 149.1652296, 0.998102664948, -0.000439889088739, -0.000363953498891, -0.061569634825
2019-04-03 20:24:53.01,72635101, -0.04, -0.08, 352.93, 591.760009766, -35.3632607, 149.1652294, 0.998101353645, -0.000407580722822, -0.000731684500352, -0.0615876726806
2019-04-03 20:24:53.11,72735061, -0.03, -0.1, 352.93, 591.979980469, -35.3632607, 149.1652294, 0.998100280762, -0.000387738255085, -0.000928443740122, -0.0616024285555
2019-04-03 20:24:53.21,72835021, -0.03, -0.07, 352.93, 592.210021973, -35.3632607, 149.1652294, 0.998099088669, -0.000368179666111, -0.000673921080306, -0.0616254583001
2019-04-03 20:24:53.31,72934981, -0.03, -0.02, 352.93, 592.440002441, -35.3632607, 149.1652294, 0.998098015785, -0.000323689659126, -0.000232500504353, -0.0616464316845
2019-04-03 20:24:53.41,73034941, -0.01, 0.01, 352.92, 592.659973145, -35.3632607, 149.1652293, 0.998096466064, -0.000156995956786, 0.000122092489619, -0.0616728775203
2019-04-03 20:24:53.51,73134901, 0.01, 0.03, 352.92, 592.890014648, -35.3632607, 149.1652293, 0.99809473753, 0.000154283246957, 0.00025847737561, -0.0616998001933
2019-04-03 20:24:53.61,73234861, 0.04, 0.02, 352.92, 593.119995117, -35.3632607, 149.1652293, 0.998093545437, 0.0004434910079, 0.000187862387975, -0.0617182217538
2019-04-03 20:24:53.71,73334821, 0.05, 0.02, 352.92, 593.349975586, -35.3632607, 149.1652293, 0.998092353344, 0.000484780146508, 0.000150564359501, -0.061736125499
2019-04-03 20:24:53.81,73434781, 0.03, 0.01, 352.91, 593.570007324, -35.3632607, 149.1652293, 0.998091518879, 0.000277827348327, 0.000133296925924, -0.0617516227067
2019-04-03 20:24:53.91,73534741, 0.0, 0.02, 352.91, 593.799987793, -35.3632605, 149.1652293, 0.998090744019, 4.02381192544e-05, 0.000198799942154, -0.0617642812431
2019-04-03 20:24:54.01,73634701, 0.0, 0.04, 352.91, 594.030029297, -35.3632605, 149.1652293, 0.998089671135, 3.80727942684e-06, 0.000366686872439, -0.0617814064026
2019-04-03 20:24:54.11,73734661, 0.03, 0.06, 352.91, 594.260009766, -35.3632605, 149.1652293, 0.998088717461, 0.0002963252482, 0.000509338628035, -0.0617948025465
2019-04-03 20:24:54.21,73834621, 0.06, 0.05, 352.91, 594.489990234, -35.3632605, 149.1652293, 0.998087882996, 0.00060073658824, 0.000479890702991, -0.0618064515293
2019-04-03 20:24:54.31,73934581, 0.08, 0.03, 352.91, 594.719970703, -35.3632605, 149.1652293, 0.998086571693, 0.000791477621533, 0.000264734175289, -0.0618265047669
2019-04-03 20:24:54.41,74034541, 0.09, 0.01, 352.9, 594.950012207, -35.3632605, 149.1652293, 0.99808460474, 0.000861341075506, 8.556334069e-05, -0.0618580467999
2019-04-03 20:24:54.51,74134501, 0.1, 0.02, 352.9, 595.179992676, -35.3632605, 149.1652293, 0.998082101345, 0.000913085706998, 0.000152225868078, -0.0618975386024
2019-04-03 20:24:54.61,74234461, 0.09, 0.04, 352.89, 595.41998291, -35.3632605, 149.1652293, 0.998079776764, 0.000884608773049, 0.00035532048787, -0.0619347430766
2019-04-03 20:24:54.71,74335254, 0.09, 0.07, 352.89, 595.650024414, -35.3632605, 149.1652293, 0.998077213764, 0.000882135878783, 0.000599981402047, -0.0619742199779
2019-04-03 20:24:54.81,74435214, 0.09, 0.1, 352.88, 595.880004883, -35.3632605, 149.1652293, 0.998074650764, 0.000922137638554, 0.000871566357091, -0.0620107799768
2019-04-03 20:24:54.91,74535174, 0.09, 0.12, 352.88, 596.109985352, -35.3632605, 149.1652293, 0.998072683811, 0.000869528681505, 0.00102232943755, -0.0620409734547
2019-04-03 20:24:55.01,74635134, 0.09, 0.1, 352.88, 596.340026855, -35.3632605, 149.1652292, 0.99807113409, 0.000877293699887, 0.000865875335876, -0.0620685741305
2019-04-03 20:24:55.11,74735094, 0.1, 0.05, 352.87, 596.58001709, -35.3632605, 149.1652292, 0.998069345951, 0.000982568017207, 0.000450701510999, -0.0620998069644
2019-04-03 20:24:55.21,74835054, 0.11, 0.01, 352.87, 596.809997559, -35.3632605, 149.1652292, 0.998067855835, 0.000975077447947, 0.000104993749119, -0.0621265210211
2019-04-03 20:24:55.31,74935014, 0.09, 0.0, 352.87, 597.039978027, -35.3632605, 149.1652293, 0.9980661273, 0.000849433767144, -8.00123161753e-05, -0.0621561594307
2019-04-03 20:24:55.41,75034974, 0.05, -0.03, 352.87, 597.270019531, -35.3632605, 149.1652293, 0.998064756393, 0.000477893016068, -0.000325505388901, -0.0621808469296
2019-04-03 20:24:55.51,75134934, -0.04, -0.11, 352.86, 597.489990234, -35.3632607, 149.1652293, 0.998063087463, -0.000463797099655, -0.00101134937722, -0.0621999427676
2019-04-03 20:24:55.61,75234894, -0.12, -0.2, 352.86, 597.700012207, -35.3632607, 149.1652293, 0.998060524464, -0.00121547072195, -0.00168934965041, -0.0622163414955
2019-04-03 20:24:55.71,75334854, -0.15, -0.23, 352.86, 597.909973145, -35.3632607, 149.1652293, 0.998058736324, -0.00150460342411, -0.00194006331731, -0.0622311383486
2019-04-03 20:24:55.81,75434814, -0.13, -0.21, 352.86, 598.099975586, -35.3632607, 149.1652293, 0.998058497906, -0.00132882944308, -0.00175888696685, -0.0622443854809
2019-04-03 20:24:55.91,75534774, -0.09, -0.15, 352.86, 598.280029297, -35.3632607, 149.1652293, 0.998058617115, -0.000914891948923, -0.00128441792913, -0.0622621588409
2019-04-03 20:24:56.01,75634734, -0.06, -0.11, 352.85, 598.450012207, -35.3632605, 149.1652293, 0.998057723045, -0.000587439513765, -0.00099061022047, -0.0622856542468
2019-04-03 20:24:56.11,75734694, -0.05, -0.11, 352.85, 598.599975586, -35.3632605, 149.1652293, 0.998056173325, -0.000570600910578, -0.00100543745793, -0.0623105354607
2019-04-03 20:24:56.21,75834654, -0.23, -0.3, 352.85, 598.75, -35.3632605, 149.1652293, 0.998049616814, -0.00222355313599, -0.00255327811465, -0.0623340420425
2019-04-03 20:24:56.31,75934614, -0.68, -0.77, 352.85, 598.880004883, -35.3632605, 149.1652292, 0.998012661934, -0.00640285015106, -0.0064068143256, -0.0623591803014
2019-04-03 20:24:56.41,76034574, -1.34, -1.45, 352.86, 599.0, -35.3632605, 149.1652292, 0.997901141644, -0.0125454925001, -0.0119683258235, -0.0623914003372
2019-04-03 20:24:56.51,76134534, -2.1, -2.26, 352.87, 599.099975586, -35.3632605, 149.1652292, 0.997683286667, -0.0195885635912, -0.018556991592, -0.0624498277903
2019-04-03 20:24:56.61,76234494, -2.82, -3.03, 352.89, 599.200012207, -35.3632604, 149.1652291, 0.997383892536, -0.0262763537467, -0.0249294564128, -0.0625575780869
2019-04-03 20:24:56.71,76334454, -3.4, -3.65, 352.9, 599.280029297, -35.3632604, 149.1652289, 0.997078895569, -0.0315915048122, -0.0300033707172, -0.0627328976989
2019-04-03 20:24:56.81,76435247, -3.81, -4.1, 352.9, 599.349975586, -35.3632603, 149.1652287, 0.996819496155, -0.0353739373386, -0.0336620695889, -0.0629797056317
2019-04-03 20:24:56.91,76535207, -4.1, -4.41, 352.89, 599.409973145, -35.3632601, 149.1652284, 0.996609926224, -0.0380962640047, -0.0362437292933, -0.0632751360536
2019-04-03 20:24:57.01,76635167, -4.35, -4.67, 352.87, 599.469970703, -35.3632598, 149.1652281, 0.996420383453, -0.0404002442956, -0.0383519865572, -0.0635877922177
2019-04-03 20:24:57.11,76735127, -4.6, -4.92, 352.85, 599.510009766, -35.3632596, 149.1652278, 0.996224701405, -0.0427204221487, -0.0403372012079, -0.0639077499509
2019-04-03 20:24:57.21,76835087, -4.85, -5.19, 352.84, 599.549987793, -35.3632592, 149.1652273, 0.996007800102, -0.0450969710946, -0.0425818823278, -0.0641992688179
2019-04-03 20:24:57.31,76935047, -5.11, -5.52, 352.84, 599.58001709, -35.3632589, 149.1652268, 0.995758116245, -0.0475343875587, -0.0452984347939, -0.0644546300173
2019-04-03 20:24:57.41,77035007, -5.34, -5.84, 352.83, 599.609985352, -35.3632585, 149.1652262, 0.99551731348, -0.0496376007795, -0.0479261018336, -0.0646876618266
2019-04-03 20:24:57.51,77134967, -5.51, -6.07, 352.82, 599.640014648, -35.363258, 149.1652255, 0.995326220989, -0.0512445643544, -0.0498395822942, -0.0649291723967
2019-04-03 20:24:57.61,77234927, -5.64, -6.2, 352.81, 599.659973145, -35.3632576, 149.1652248, 0.995193719864, -0.0524421930313, -0.0509123243392, -0.0651709884405
2019-04-03 20:24:57.71,77334887, -5.73, -6.29, 352.79, 599.679992676, -35.363257, 149.165224, 0.995100259781, -0.0532984808087, -0.0515985041857, -0.0653634443879
2019-04-03 20:24:57.81,77434847, -5.83, -6.39, 352.79, 599.690002441, -35.3632564, 149.1652231, 0.995000839233, -0.054199308157, -0.0523995235562, -0.0654982179403
2019-04-03 20:24:57.91,77534807, -5.93, -6.52, 352.79, 599.710021973, -35.3632558, 149.1652222, 0.994887411594, -0.0551301054657, -0.0534784421325, -0.0655730813742
2019-04-03 20:24:58.01,77634767, -6.08, -6.64, 352.79, 599.719970703, -35.363255, 149.1652212, 0.994745850563, -0.0565070584416, -0.0544685535133, -0.0657325685024
2019-04-03 20:24:58.11,77734727, -6.47, -6.66, 352.53, 599.729980469, -35.3632543, 149.1652201, 0.994390368462, -0.0600174665451, -0.0542279109359, -0.0681545883417
2019-04-03 20:24:58.21,77834687, -7.12, -6.6, 351.37, 599.739990234, -35.3632536, 149.1652189, 0.993323862553, -0.0661438852549, -0.0526649989188, -0.0784802958369
2019-04-03 20:24:58.31,77934647, -7.69, -6.73, 348.68, 599.75, -35.3632528, 149.1652178, 0.990778803825, -0.0724528059363, -0.0517560206354, -0.102124229074
2019-04-03 20:24:58.41,78034607, -7.83, -7.26, 344.32, 599.75, -35.3632519, 149.1652164, 0.985760211945, -0.0761826559901, -0.0533409267664, -0.140099406242
2019-04-03 20:24:58.51,78134567, -7.34, -8.18, 338.47, 599.760009766, -35.3632511, 149.165215, 0.977033376694, -0.0760642886162, -0.0580134913325, -0.190405905247
2019-04-03 20:24:58.61,78234527, -6.17, -9.36, 331.41, 599.760009766, -35.3632503, 149.1652135, 0.963328957558, -0.0721834376454, -0.0657757222652, -0.249920740724
2019-04-03 20:24:58.71,78334487, -4.23, -10.64, 323.52, 599.770019531, -35.3632494, 149.165212, 0.943947911263, -0.0639711916447, -0.0765330046415, -0.314662843943
2019-04-03 20:24:58.81,78434447, -1.49, -11.74, 315.47, 599.780029297, -35.3632485, 149.1652104, 0.920016944408, -0.0507478006184, -0.0897856354713, -0.378063619137
2019-04-03 20:24:58.91,78535240, 1.59, -12.42, 308.13, 599.780029297, -35.3632475, 149.1652086, 0.894584715366, -0.0348921716213, -0.103323034942, -0.433387875557
2019-04-03 20:24:59.01,78635200, 4.32, -12.62, 302.4, 599.789978027, -35.3632464, 149.1652068, 0.87240332365, -0.0200326442719, -0.114388011396, -0.474790990353
2019-04-03 20:24:59.11,78735160, 6.22, -12.57, 298.67, 599.789978027, -35.3632452, 149.165205, 0.856780707836, -0.00935171358287, -0.121611915529, -0.501048803329
2019-04-03 20:24:59.21,78835120, 7.08, -12.54, 296.91, 599.799987793, -35.363244, 149.1652031, 0.849071800709, -0.00470315618441, -0.125107556581, -0.51322811842
2019-04-03 20:24:59.31,78935080, 6.95, -12.7, 296.84, 599.799987793, -35.3632427, 149.1652013, 0.848665356636, -0.00650379620492, -0.125683873892, -0.513739705086
2019-04-03 20:24:59.41,79035040, 6.02, -13.1, 298.08, 599.809997559, -35.3632412, 149.1651994, 0.853874206543, -0.0138532938436, -0.124561436474, -0.50516474247
2019-04-03 20:24:59.51,79135000, 4.55, -13.68, 300.26, 599.809997559, -35.3632397, 149.1651975, 0.862700819969, -0.0250857640058, -0.122852139175, -0.489923864603
2019-04-03 20:24:59.61,79234960, 2.81, -14.34, 303.03, 599.820007324, -35.363238, 149.1651954, 0.873290002346, -0.0381285846233, -0.121298238635, -0.470316410065
2019-04-03 20:24:59.71,79334920, 1.03, -14.93, 306.05, 599.820007324, -35.3632364, 149.1651934, 0.884147942066, -0.0509856343269, -0.119829967618, -0.448691099882
2019-04-03 20:24:59.81,79434880, -0.59, -15.34, 308.96, 599.83001709, -35.3632347, 149.1651911, 0.894050478935, -0.062200397253, -0.118250750005, -0.427576392889
2019-04-03 20:24:59.91,79534840, -1.92, -15.55, 311.44, 599.840026855, -35.363233, 149.165189, 0.902126789093, -0.0708011314273, -0.116502709687, -0.409367352724
2019-04-03 20:25:00.01,79634800, -2.82, -15.63, 313.28, 599.840026855, -35.3632312, 149.1651866, 0.907906353474, -0.0762915685773, -0.115130037069, -0.395766079426
2019-04-03 20:25:00.11,79734760, -3.25, -15.64, 314.35, 599.849975586, -35.3632294, 149.1651841, 0.911275923252, -0.0787401124835, -0.114504300058, -0.387640327215
2019-04-03 20:25:00.21,79834720, -3.27, -15.63, 314.69, 599.849975586, -35.3632276, 149.1651815, 0.912395656109, -0.078504472971, -0.114570468664, -0.385025769472
2019-04-03 20:25:00.31,79934680, -2.94, -15.64, 314.37, 599.859985352, -35.3632258, 149.1651789, 0.911533355713, -0.0762588083744, -0.115552946925, -0.387219756842
2019-04-03 20:25:00.41,80034640, -2.35, -15.69, 313.56, 599.859985352, -35.3632239, 149.1651762, 0.909095466137, -0.0725576728582, -0.117438927293, -0.393050819635
2019-04-03 20:25:00.51,80134600, -1.59, -15.78, 312.44, 599.869995117, -35.3632221, 149.1651733, 0.905573904514, -0.0679760873318, -0.120115198195, -0.401107877493
2019-04-03 20:25:00.61,80234560, -0.77, -15.89, 311.19, 599.880004883, -35.3632203, 149.1651705, 0.901505172253, -0.063256546855, -0.123168855906, -0.410020083189
2019-04-03 20:25:00.71,80334520, -0.02, -16.02, 309.99, 599.880004883, -35.3632183, 149.1651676, 0.897414207458, -0.0591294839978, -0.126229003072, -0.418590158224
2019-04-03 20:25:00.81,80434480, 0.56, -16.14, 308.96, 599.890014648, -35.3632164, 149.1651647, 0.893785715103, -0.0560710802674, -0.128864049911, -0.42590752244
2019-04-03 20:25:00.91,80534440, 0.99, -16.26, 308.19, 599.890014648, -35.3632143, 149.1651617, 0.890998542309, -0.0540690682828, -0.130963981152, -0.43133109808
2019-04-03 20:25:01.01,80635233, 1.22, -16.32, 307.72, 599.900024414, -35.3632123, 149.1651585, 0.889279007912, -0.0530667193234, -0.132086008787, -0.434649437666
2019-04-03 20:25:01.11,80735193, 1.26, -16.34, 307.57, 599.909973145, -35.3632102, 149.1651555, 0.888670921326, -0.053017321974, -0.132353931665, -0.435816019773
2019-04-03 20:25:01.21,80835153, 1.14, -16.36, 307.67, 599.909973145, -35.3632081, 149.1651523, 0.889001846313, -0.0538719631732, -0.132093295455, -0.435114741325
2019-04-03 20:25:01.31,80935113, 0.89, -16.36, 307.98, 599.91998291, -35.363206, 149.1651493, 0.890054225922, -0.0554433688521, -0.131351947784, -0.432985216379
2019-04-03 20:25:01.41,81035073, 0.58, -16.37, 308.42, 599.91998291, -35.3632038, 149.165146, 0.89154946804, -0.0573790818453, -0.130478858948, -0.42990988493
2019-04-03 20:25:01.51,81135033, 0.27, -16.4, 308.92, 599.929992676, -35.3632015, 149.1651429, 0.8932030797, -0.059391733259, -0.129789099097, -0.426398485899
2019-04-03 20:25:01.61,81234993, -0.02, -16.44, 309.4, 599.929992676, -35.3631994, 149.1651396, 0.894785821438, -0.0613438300788, -0.129237011075, -0.422957599163
2019-04-03 20:25:01.71,81334953, -0.26, -16.5, 309.81, 599.940002441, -35.3631971, 149.1651363, 0.896118879318, -0.0629478394985, -0.128991603851, -0.419963896275
2019-04-03 20:25:01.81,81434913, -0.41, -16.57, 310.13, 599.950012207, -35.3631948, 149.165133, 0.897087693214, -0.0640257969499, -0.129228025675, -0.417653560638
2019-04-03 20:25:01.91,81534873, -0.5, -16.63, 310.32, 599.950012207, -35.3631926, 149.1651296, 0.897665798664, -0.0647088214755, -0.129486694932, -0.41622364521
2019-04-03 20:25:02.01,81634833, -0.5, -16.66, 310.39, 599.960021973, -35.3631903, 149.1651263, 0.897891044617, -0.0647354573011, -0.129694223404, -0.415668576956
2019-04-03 20:25:02.11,81734793, -0.44, -16.67, 310.35, 599.960021973, -35.363188, 149.1651228, 0.897774338722, -0.0643935203552, -0.129993736744, -0.415880233049
2019-04-03 20:25:02.21,81834753, -0.35, -16.69, 310.23, 599.969970703, -35.3631856, 149.1651193, 0.897374868393, -0.0638423860073, -0.130453422666, -0.416682600975
2019-04-03 20:25:02.31,81934713, -0.22, -16.72, 310.06, 599.979980469, -35.3631832, 149.1651159, 0.896785855293, -0.0631277635694, -0.131052792072, -0.41786980629
2019-04-03 20:25:02.41,82034673, -0.09, -16.77, 309.86, 599.979980469, -35.363181, 149.1651124, 0.896083712578, -0.0625301599503, -0.131765410304, -0.419239699841
2019-04-03 20:25:02.51,82134633, 0.01, -16.82, 309.67, 599.989990234, -35.3631786, 149.1651089, 0.895377278328, -0.0620459653437, -0.13244715333, -0.420603781939
2019-04-03 20:25:02.61,82234593, 0.11, -16.84, 309.5, 600.0, -35.3631762, 149.1651053, 0.894781112671, -0.0615685768425, -0.132926240563, -0.421789973974
2019-04-03 20:25:02.71,82334553, 0.2, -16.86, 309.37, 600.0, -35.3631738, 149.1651018, 0.894342243671, -0.0610855147243, -0.133330091834, -0.422662466764
2019-04-03 20:25:02.81,82434513, 0.26, -16.87, 309.3, 600.010009766, -35.3631714, 149.1650982, 0.894081413746, -0.0607049874961, -0.133579492569, -0.423190116882
2019-04-03 20:25:02.91,82534473, 0.3, -16.88, 309.27, 600.010009766, -35.363169, 149.1650946, 0.893970608711, -0.0605558678508, -0.1338018924, -0.423375219107
2019-04-03 20:25:03.01,82634433, 0.29, -16.92, 309.28, 600.020019531, -35.3631665, 149.165091, 0.893981695175, -0.0607302002609, -0.134032800794, -0.423253834248
2019-04-03 20:25:03.11,82735226, 0.25, -16.95, 309.33, 600.030029297, -35.363164, 149.1650872, 0.894109606743, -0.0610803440213, -0.134163022041, -0.42289185524
2019-04-03 20:25:03.21,82835186, 0.17, -16.97, 309.4, 600.030029297, -35.3631616, 149.1650837, 0.894300162792, -0.0617016777396, -0.13410332799, -0.42241743207
2019-04-03 20:25:03.31,82935146, 0.1, -16.98, 309.48, 600.039978027, -35.3631591, 149.16508, 0.894539535046, -0.0622256472707, -0.133941993117, -0.421884566545
2019-04-03 20:25:03.41,83035106, 0.05, -16.99, 309.56, 600.049987793, -35.3631565, 149.1650762, 0.894786000252, -0.0625267326832, -0.133854910731, -0.421344608068
2019-04-03 20:25:03.51,83135066, 0.02, -17.01, 309.62, 600.049987793, -35.363154, 149.1650726, 0.894979178905, -0.0627722591162, -0.133978828788, -0.420858174562
2019-04-03 20:25:03.61,83235026, 0.0, -17.07, 309.67, 600.059997559, -35.3631516, 149.1650689, 0.895076870918, -0.0631090179086, -0.134369909763, -0.420475184917
2019-04-03 20:25:03.71,83334986, -0.02, -17.12, 309.7, 600.070007324, -35.363149, 149.1650651, 0.895111203194, -0.0634577125311, -0.13470415771, -0.420242547989
2019-04-03 20:25:03.81,83434946, -0.01, -17.17, 309.71, 600.08001709, -35.3631465, 149.1650615, 0.895105063915, -0.0635218843818, -0.135109826922, -0.420115798712
2019-04-03 20:25:03.91,83534906, 0.02, -17.2, 309.7, 600.08001709, -35.363144, 149.1650577, 0.895059764385, -0.0633929520845, -0.135509446263, -0.420103043318
2019-04-03 20:25:04.01,83634866, 0.06, -17.22, 309.69, 600.090026855, -35.3631413, 149.165054, 0.894995689392, -0.063151948154, -0.135825499892, -0.420173823833
2019-04-03 20:25:04.11,83734826, 0.09, -17.24, 309.66, 600.099975586, -35.3631388, 149.1650502, 0.894896149635, -0.0629914104939, -0.136078342795, -0.420328050852
2019-04-03 20:25:04.21,83834786, 0.11, -17.27, 309.63, 600.099975586, -35.3631363, 149.1650464, 0.894767940044, -0.0629932805896, -0.136295244098, -0.420530378819
2019-04-03 20:25:04.31,83934746, 0.12, -17.28, 309.6, 600.109985352, -35.3631337, 149.1650426, 0.894647598267, -0.0629796758294, -0.136447936296, -0.420738905668
2019-04-03 20:25:04.41,84034706, 0.13, -17.28, 309.57, 600.119995117, -35.3631312, 149.1650388, 0.894547998905, -0.0629808455706, -0.136477917433, -0.4209407866
2019-04-03 20:25:04.51,84134666, 0.13, -17.29, 309.55, 600.119995117, -35.3631285, 149.165035, 0.894464075565, -0.0630241110921, -0.136518761516, -0.421099305153
2019-04-03 20:25:04.61,84234626, 0.14, -17.32, 309.54, 600.130004883, -35.363126, 149.1650311, 0.894381582737, -0.0630761831999, -0.136748060584, -0.421192318201
2019-04-03 20:25:04.71,84334586, 0.13, -17.36, 309.53, 600.140014648, -35.3631234, 149.1650273, 0.894295454025, -0.0633244886994, -0.137020453811, -0.421249419451
2019-04-03 20:25:04.81,84434546, 0.09, -17.4, 309.53, 600.140014648, -35.3631208, 149.1650235, 0.894213616848, -0.063745521009, -0.137268453836, -0.421278893948
2019-04-03 20:25:04.91,84534506, 0.06, -17.43, 309.53, 600.150024414, -35.3631181, 149.1650196, 0.894179046154, -0.064075447619, -0.137320280075, -0.421285331249
2019-04-03 20:25:05.01,84634466, 0.04, -17.44, 309.54, 600.159973145, -35.3631155, 149.1650157, 0.894173026085, -0.0642857328057, -0.137304320931, -0.421271294355
2019-04-03 20:25:05.11,84735259, 0.03, -17.44, 309.54, 600.159973145, -35.3631129, 149.1650118, 0.8941796422, -0.0643882602453, -0.137317687273, -0.421237111092
2019-04-03 20:25:05.21,84835219, 0.05, -17.44, 309.55, 600.16998291, -35.3631102, 149.165008, 0.894214093685, -0.0641722455621, -0.137427687645, -0.421161174774
2019-04-03 20:25:05.31,84935179, 0.09, -17.45, 309.55, 600.179992676, -35.3631076, 149.1650041, 0.894239604473, -0.0639209896326, -0.137655884027, -0.421070665121
2019-04-03 20:25:05.41,85035139, 0.12, -17.48, 309.56, 600.179992676, -35.363105, 149.1650001, 0.894237875938, -0.0637619122863, -0.138008132577, -0.420983165503
2019-04-03 20:25:05.51,85135099, 0.13, -17.52, 309.56, 600.190002441, -35.3631023, 149.1649962, 0.894199669361, -0.0638879537582, -0.138308852911, -0.420946449041
2019-04-03 20:25:05.61,85235059, 0.09, -17.55, 309.56, 600.200012207, -35.3630997, 149.1649923, 0.89413690567, -0.0642737224698, -0.13841624558, -0.420985728502
2019-04-03 20:25:05.71,85335019, 0.04, -17.57, 309.55, 600.200012207, -35.3630969, 149.1649884, 0.894069910049, -0.0647179111838, -0.138376578689, -0.421073079109
2019-04-03 20:25:05.81,85434979, 0.03, -17.57, 309.54, 600.210021973, -35.3630943, 149.1649845, 0.894034087658, -0.0648502111435, -0.138295561075, -0.421155393124
2019-04-03 20:25:05.91,85534939, 0.04, -17.57, 309.53, 600.219970703, -35.3630917, 149.1649804, 0.894000053406, -0.0647939667106, -0.138323739171, -0.421227067709
2019-04-03 20:25:06.01,85634899, 0.04, -17.57, 309.52, 600.219970703, -35.3630889, 149.1649766, 0.893954515457, -0.0647906810045, -0.138355746865, -0.421313643456
2019-04-03 20:25:06.11,85734859, 0.04, -17.59, 309.51, 600.229980469, -35.3630863, 149.1649727, 0.893888354301, -0.0648838430643, -0.138472855091, -0.421401202679
2019-04-03 20:25:06.21,85834819, 0.04, -17.61, 309.5, 600.239990234, -35.3630835, 149.1649687, 0.893813967705, -0.0649611130357, -0.138696238399, -0.421473652124
2019-04-03 20:25:06.31,85934779, 0.04, -17.67, 309.48, 600.239990234, -35.3630809, 149.1649646, 0.893699288368, -0.0652052089572, -0.139135181904, -0.42153441906
2019-04-03 20:25:06.41,86034739, 0.03, -17.72, 309.48, 600.25, -35.3630781, 149.1649608, 0.893606364727, -0.0654564201832, -0.139461278915, -0.42158472538
2019-04-03 20:25:06.51,86134699, 0.02, -17.73, 309.47, 600.260009766, -35.3630755, 149.1649568, 0.893561601639, -0.0655952692032, -0.139534279704, -0.421633809805
2019-04-03 20:25:06.61,86234659, 0.02, -17.73, 309.47, 600.260009766, -35.3630728, 149.1649527, 0.893546164036, -0.0656366795301, -0.139482840896, -0.421677142382
2019-04-03 20:25:06.71,86334619, 0.01, -17.72, 309.46, 600.270019531, -35.3630701, 149.1649488, 0.893536090851, -0.0656913518906, -0.139401227236, -0.421716958284
2019-04-03 20:25:06.81,86434579, 0.0, -17.73, 309.46, 600.280029297, -35.3630674, 149.1649448, 0.893511772156, -0.0658350735903, -0.139372572303, -0.421755552292
2019-04-03 20:25:06.91,86534539, -0.01, -17.74, 309.46, 600.280029297, -35.3630646, 149.1649407, 0.893484532833, -0.0659361258149, -0.139404147863, -0.421787083149
2019-04-03 20:25:07.01,86634499, 0.0, -17.74, 309.45, 600.289978027, -35.363062, 149.1649368, 0.893466234207, -0.0658941045403, -0.139492273331, -0.421803236008
2019-04-03 20:25:07.11,86734459, 0.01, -17.75, 309.45, 600.299987793, -35.3630591, 149.1649328, 0.893452167511, -0.0657749697566, -0.139623567462, -0.421808183193
2019-04-03 20:25:07.21,86835252, 0.05, -17.76, 309.44, 600.299987793, -35.3630565, 149.1649287, 0.893445193768, -0.0655291229486, -0.139820933342, -0.421795815229
2019-04-03 20:25:07.31,86935212, 0.08, -17.78, 309.44, 600.309997559, -35.3630537, 149.1649247, 0.893415570259, -0.0653778538108, -0.140101566911, -0.421788990498
2019-04-03 20:25:07.41,87035172, 0.11, -17.82, 309.43, 600.320007324, -35.363051, 149.1649206, 0.893370449543, -0.0652840062976, -0.140496313572, -0.421767771244
2019-04-03 20:25:07.51,87135132, 0.13, -17.83, 309.43, 600.33001709, -35.3630482, 149.1649167, 0.893359541893, -0.0651332810521, -0.140662238002, -0.421758890152
2019-04-03 20:25:07.61,87235092, 0.14, -17.82, 309.43, 600.33001709, -35.3630456, 149.1649125, 0.893369495869, -0.0650611743331, -0.140576228499, -0.421777576208
2019-04-03 20:25:07.71,87335052, 0.13, -17.8, 309.43, 600.340026855, -35.3630427, 149.1649086, 0.893371105194, -0.065094858408, -0.140446439385, -0.421812236309
2019-04-03 20:25:07.81,87435012, 0.1, -17.8, 309.42, 600.349975586, -35.3630401, 149.1649045, 0.893353402615, -0.0652613639832, -0.140343829989, -0.421858102083
2019-04-03 20:25:07.91,87534972, 0.07, -17.81, 309.42, 600.349975586, -35.3630373, 149.1649004, 0.893307924271, -0.0655688419938, -0.140304267406, -0.4219199121
2019-04-03 20:25:08.01,87634932, 0.06, -17.84, 309.42, 600.359985352, -35.3630346, 149.1648964, 0.893251597881, -0.0657589063048, -0.1405018121, -0.421943843365
2019-04-03 20:25:08.11,87734892, 0.06, -17.87, 309.41, 600.369995117, -35.3630318, 149.1648923, 0.893210113049, -0.0658508464694, -0.140715524554, -0.421946167946
2019-04-03 20:25:08.21,87834852, 0.06, -17.9, 309.41, 600.380004883, -35.3630291, 149.1648883, 0.893171489239, -0.065953463316, -0.14090564847, -0.421948432922
2019-04-03 20:25:08.31,87934812, 0.05, -17.93, 309.41, 600.380004883, -35.3630263, 149.1648842, 0.893122732639, -0.0661365836859, -0.141109287739, -0.421954900026
2019-04-03 20:25:08.41,88034772, 0.04, -17.95, 309.41, 600.390014648, -35.3630236, 149.1648801, 0.893081068993, -0.0663005560637, -0.141259968281, -0.421966910362
2019-04-03 20:25:08.51,88134732, 0.07, -17.98, 309.4, 600.400024414, -35.3630208, 149.164876, 0.893048048019, -0.0662235692143, -0.141563564539, -0.421947151423
2019-04-03 20:25:08.61,88234692, 0.09, -18.0, 309.4, 600.409973145, -35.3630181, 149.164872, 0.893021702766, -0.0661358907819, -0.141818583012, -0.421931058168
2019-04-03 20:25:08.71,88334652, 0.09, -18.02, 309.4, 600.409973145, -35.3630153, 149.1648679, 0.892989814281, -0.0661873817444, -0.141977533698, -0.421936988831
2019-04-03 20:25:08.81,88434612, 0.1, -18.04, 309.4, 600.41998291, -35.3630126, 149.1648638, 0.892961263657, -0.0662074163556, -0.142162442207, -0.421932011843
2019-04-03 20:25:08.91,88534572, 0.1, -18.05, 309.4, 600.429992676, -35.3630098, 149.1648597, 0.892950713634, -0.0662226676941, -0.142217874527, -0.42193326354
2019-04-03 20:25:09.01,88634532, 0.11, -18.04, 309.4, 600.429992676, -35.3630069, 149.1648555, 0.892970442772, -0.0660827383399, -0.142184406519, -0.421924740076
2019-04-03 20:25:09.11,88734492, 0.12, -18.03, 309.39, 600.440002441, -35.3630043, 149.1648515, 0.892978906631, -0.0659873560071, -0.142204657197, -0.421914935112
2019-04-03 20:25:09.21,88834452, 0.13, -18.04, 309.39, 600.450012207, -35.3630014, 149.1648473, 0.892973124981, -0.0659776255488, -0.142239034176, -0.421917080879
2019-04-03 20:25:09.31,88935245, 0.12, -18.03, 309.39, 600.460021973, -35.3629987, 149.1648433, 0.892979800701, -0.0659738481045, -0.142131760716, -0.421939820051
2019-04-03 20:25:09.41,89035205, 0.1, -18.01, 309.39, 600.460021973, -35.3629959, 149.1648392, 0.892979443073, -0.0661138221622, -0.141939967871, -0.421983152628
2019-04-03 20:25:09.51,89135165, 0.08, -18.02, 309.39, 600.469970703, -35.3629931, 149.1648351, 0.892960429192, -0.0662935823202, -0.141900420189, -0.422008424997
2019-04-03 20:25:09.61,89235125, 0.07, -18.04, 309.39, 600.479980469, -35.3629903, 149.164831, 0.892933487892, -0.0664284676313, -0.142015501857, -0.422005414963
2019-04-03 20:25:09.71,89335085, 0.08, -18.08, 309.39, 600.489990234, -35.3629874, 149.1648267, 0.892882287502, -0.0665103644133, -0.142403289676, -0.421970337629
2019-04-03 20:25:09.81,89435045, 0.1, -18.11, 309.39, 600.489990234, -35.3629847, 149.1648227, 0.892847239971, -0.0664849504828, -0.142717465758, -0.421942383051
2019-04-03 20:25:09.91,89535005, 0.12, -18.12, 309.39, 600.5, -35.3629819, 149.1648186, 0.892837762833, -0.0663764551282, -0.142888203263, -0.421921610832
2019-04-03 20:25:10.01,89634965, 0.15, -18.13, 309.39, 600.510009766, -35.3629792, 149.1648145, 0.892846047878, -0.0661494359374, -0.143042355776, -0.421887457371
2019-04-03 20:25:10.11,89734925, 0.18, -18.13, 309.39, 600.520019531, -35.3629764, 149.1648104, 0.892860710621, -0.0659198313951, -0.143160521984, -0.421852350235
2019-04-03 20:25:10.21,89834885, 0.19, -18.12, 309.39, 600.520019531, -35.3629735, 149.1648061, 0.892880320549, -0.0658051818609, -0.143122851849, -0.42184150219
2019-04-03 20:25:10.31,89934845, 0.17, -18.09, 309.39, 600.530029297, -35.3629708, 149.1648021, 0.892907559872, -0.0658325850964, -0.142847940326, -0.421872794628
2019-04-03 20:25:10.41,90034805, 0.16, -18.06, 309.39, 600.539978027, -35.3629679, 149.164798, 0.892939865589, -0.0658438578248, -0.142533391714, -0.421909064054
2019-04-03 20:25:10.51,90134765, 0.15, -18.04, 309.39, 600.539978027, -35.3629652, 149.1647937, 0.892960309982, -0.0658558011055, -0.142332836986, -0.421931654215
2019-04-03 20:25:10.61,90234725, 0.15, -18.05, 309.39, 600.549987793, -35.3629623, 149.1647897, 0.892948031425, -0.0658459961414, -0.142444372177, -0.421921521425
2019-04-03 20:25:10.71,90334685, 0.16, -18.07, 309.39, 600.559997559, -35.3629594, 149.1647855, 0.892921447754, -0.0658738166094, -0.142631173134, -0.421910256147
2019-04-03 20:25:10.81,90434645, 0.15, -18.09, 309.39, 600.559997559, -35.3629567, 149.1647813, 0.892892301083, -0.0660112649202, -0.142702937126, -0.421926140785
2019-04-03 20:25:10.91,90534605, 0.14, -18.1, 309.38, 600.570007324, -35.3629539, 149.1647773, 0.892866551876, -0.0661209151149, -0.142751708627, -0.42194712162
2019-04-03 20:25:11.01,90634565, 0.13, -18.11, 309.38, 600.58001709, -35.362951, 149.1647731, 0.892837226391, -0.066233754158, -0.142824113369, -0.421966940165
2019-04-03 20:25:11.11,90734525, 0.13, -18.11, 309.38, 600.590026855, -35.3629483, 149.164769, 0.892824113369, -0.0662788897753, -0.142825558782, -0.421987146139
2019-04-03 20:25:11.21,90834485, 0.12, -18.12, 309.38, 600.590026855, -35.3629454, 149.1647648, 0.89280718565, -0.0663420632482, -0.142828434706, -0.422011911869
2019-04-03 20:25:11.31,90934445, 0.12, -18.14, 309.37, 600.599975586, -35.3629425, 149.1647606, 0.892771244049, -0.0663888826966, -0.142995089293, -0.422024279833
2019-04-03 20:25:11.41,91035238, 0.13, -18.16, 309.37, 600.609985352, -35.3629398, 149.1647564, 0.892728626728, -0.0664127767086, -0.143191412091, -0.422044038773
2019-04-03 20:25:11.51,91135198, 0.12, -18.18, 309.36, 600.619995117, -35.3629369, 149.1647523, 0.892671525478, -0.0665881410241, -0.143360570073, -0.422079712152
2019-04-03 20:25:11.61,91235158, 0.11, -18.22, 309.36, 600.619995117, -35.3629342, 149.1647482, 0.892597436905, -0.0668322816491, -0.143611341715, -0.422112613916
2019-04-03 20:25:11.71,91335118, 0.12, -18.23, 309.35, 600.630004883, -35.3629313, 149.1647439, 0.892566502094, -0.0668393746018, -0.143716320395, -0.422141194344
2019-04-03 20:25:11.81,91435078, 0.13, -18.23, 309.35, 600.640014648, -35.3629284, 149.1647399, 0.892560243607, -0.0667306557298, -0.143718987703, -0.42217066884
2019-04-03 20:25:11.91,91535038, 0.14, -18.21, 309.34, 600.640014648, -35.3629257, 149.1647357, 0.89257723093, -0.06658244133, -0.143576934934, -0.422206521034
